[{"id": 430951, "name": "iProvense ya Kayanza", "country": "BI", "coord": {"lon": 29.66667, "lat": -3.06667}}, {"id": 432455, "name": "iProvense ya Kirundo", "country": "BI", "coord": {"lon": 30.16667, "lat": -2.58333}}, {"id": 422233, "name": "iProvense ya Makamba", "country": "BI", "coord": {"lon": 29.752781, "lat": -4.16667}}, {"id": 425550, "name": "iProvense ya Muramvya", "country": "BI", "coord": {"lon": 29.66667, "lat": -3.25}}, {"id": 431747, "name": "iProvense ya Muyinga", "country": "BI", "coord": {"lon": 30.33333, "lat": -2.83333}}, {"id": 430567, "name": "iProvense ya Ngozi", "country": "BI", "coord": {"lon": 29.924999, "lat": -2.875}}, {"id": 434147, "name": "iProvense ya Rutana", "country": "BI", "coord": {"lon": 30.1, "lat": -3.86667}}, {"id": 426699, "name": "iProvense ya Ruyigi", "country": "BI", "coord": {"lon": 30.316669, "lat": -3.45}}, {"id": 250303, "name": "isf\u012br al Ma\u1e29a\u1e6d\u1e6dah", "country": "JO", "coord": {"lon": 35.762859, "lat": 30.179291}}, {"id": 1846114, "name": "jin-angun", "country": "KR", "coord": {"lon": 127.425278, "lat": 35.791672}}, {"id": 7303136, "name": "kagoshima", "country": "JP", "coord": {"lon": 130.556717, "lat": 31.595791}}, {"id": 8199102, "name": "kankrabari Dovan", "country": "NP", "coord": {"lon": 85.459343, "lat": 27.628811}}, {"id": 1267887, "name": "karaikal", "country": "IN", "coord": {"lon": 79.833328, "lat": 10.91667}}, {"id": 3129609, "name": "l' Argentera", "country": "ES", "coord": {"lon": 0.91667, "lat": 41.133331}}, {"id": 6355387, "name": "l'Alf\u00e0s del Pi", "country": "ES", "coord": {"lon": -0.10265, "lat": 38.579708}}, {"id": 6361256, "name": "l'Ametlla de Mar", "country": "ES", "coord": {"lon": 0.79242, "lat": 40.896278}}, {"id": 6356043, "name": "l'Ametlla del Vall\u00e8s", "country": "ES", "coord": {"lon": 2.25072, "lat": 41.678631}}, {"id": 6361426, "name": "l'Ampolla", "country": "ES", "coord": {"lon": 0.69306, "lat": 40.8302}}, {"id": 6361260, "name": "l'Argentera", "country": "ES", "coord": {"lon": 0.90497, "lat": 41.134579}}, {"id": 6534053, "name": "l'Escala", "country": "ES", "coord": {"lon": 3.13179, "lat": 42.122478}}, {"id": 6356131, "name": "l'Hospitalet de Llobregat", "country": "ES", "coord": {"lon": 2.11172, "lat": 41.36578}}, {"id": 3130567, "name": "lAlcora", "country": "ES", "coord": {"lon": -0.2, "lat": 40.066669}}, {"id": 6559503, "name": "lAlfas del Pi", "country": "ES", "coord": {"lon": -0.10321, "lat": 38.580551}}, {"id": 3120004, "name": "lAmetlla de Mar", "country": "ES", "coord": {"lon": 0.8, "lat": 40.900002}}, {"id": 3119779, "name": "lEscala", "country": "ES", "coord": {"lon": 3.13261, "lat": 42.125622}}, {"id": 6358799, "name": "la Baronia de Rialb", "country": "ES", "coord": {"lon": 1.18712, "lat": 41.934399}}, {"id": 6534020, "name": "la Bisbal d'Empord\u00e0", "country": "ES", "coord": {"lon": 3.04209, "lat": 41.95126}}, {"id": 3119952, "name": "la Bisbal dEmporda", "country": "ES", "coord": {"lon": 3.05, "lat": 41.950001}}, {"id": 3128005, "name": "la Bisbal del Penedes", "country": "ES", "coord": {"lon": 1.48333, "lat": 41.283329}}, {"id": 6361271, "name": "la Bisbal del Pened\u00e8s", "country": "ES", "coord": {"lon": 1.4793, "lat": 41.279598}}, {"id": 6534042, "name": "la Cellera de Ter", "country": "ES", "coord": {"lon": 2.60241, "lat": 41.968769}}, {"id": 3118954, "name": "la Cellera de Ter", "country": "ES", "coord": {"lon": 2.62402, "lat": 41.969189}}, {"id": 6361299, "name": "la Fatarella", "country": "ES", "coord": {"lon": 0.48756, "lat": 41.159679}}, {"id": 3122600, "name": "la Fatarella", "country": "ES", "coord": {"lon": 0.48333, "lat": 41.166672}}, {"id": 6358844, "name": "la Fuliola", "country": "ES", "coord": {"lon": 0.99821, "lat": 41.720451}}, {"id": 6361306, "name": "la Galera", "country": "ES", "coord": {"lon": 0.44895, "lat": 40.696629}}, {"id": 3119694, "name": "la Garriga", "country": "ES", "coord": {"lon": 2.28333, "lat": 41.683331}}, {"id": 6358849, "name": "la Granadella", "country": "ES", "coord": {"lon": 0.66146, "lat": 41.349289}}, {"id": 3121216, "name": "la Granadella", "country": "ES", "coord": {"lon": 0.66667, "lat": 41.349998}}, {"id": 6358850, "name": "la Granja d'Escarp", "country": "ES", "coord": {"lon": 0.38404, "lat": 41.40934}}, {"id": 3121150, "name": "la Granja dEscarp", "country": "ES", "coord": {"lon": 0.36667, "lat": 41.416672}}, {"id": 3030983, "name": "la Guingueta dIx", "country": "FR", "coord": {"lon": 1.94391, "lat": 42.434158}}, {"id": 6534071, "name": "la Jonquera", "country": "ES", "coord": {"lon": 2.87464, "lat": 42.416359}}, {"id": 3119559, "name": "la Jonquera", "country": "ES", "coord": {"lon": 2.87363, "lat": 42.417278}}, {"id": 3040132, "name": "la Massana", "country": "AD", "coord": {"lon": 1.51483, "lat": 42.544991}}, {"id": 6361338, "name": "la Morera de Montsant", "country": "ES", "coord": {"lon": 0.83942, "lat": 41.264}}, {"id": 3119397, "name": "la Morera de Montsant", "country": "ES", "coord": {"lon": 0.84157, "lat": 41.265289}}, {"id": 3119319, "name": "la Nou de Bergued\u00e0", "country": "ES", "coord": {"lon": 1.88333, "lat": 42.166672}}, {"id": 2515701, "name": "la Nucia", "country": "ES", "coord": {"lon": -0.1269, "lat": 38.61372}}, {"id": 6534101, "name": "la Pera", "country": "ES", "coord": {"lon": 2.97422, "lat": 42.018921}}, {"id": 6356191, "name": "la Pobla de Claramunt", "country": "ES", "coord": {"lon": 1.67778, "lat": 41.55901}}, {"id": 2512265, "name": "la Pobla de Farnals", "country": "ES", "coord": {"lon": -0.32672, "lat": 39.57782}}, {"id": 6356192, "name": "la Pobla de Lillet", "country": "ES", "coord": {"lon": 1.98289, "lat": 42.231651}}, {"id": 3119214, "name": "la Pobla de Mafumet", "country": "ES", "coord": {"lon": 1.21667, "lat": 41.183331}}, {"id": 6361352, "name": "la Pobla de Massaluca", "country": "ES", "coord": {"lon": 0.36024, "lat": 41.194481}}, {"id": 3113300, "name": "la Pobla de Massaluca", "country": "ES", "coord": {"lon": 0.35, "lat": 41.183331}}, {"id": 3113298, "name": "la Pobla de Segur", "country": "ES", "coord": {"lon": 0.96667, "lat": 42.25}}, {"id": 3119120, "name": "la Riera de Gai\u00e0", "country": "ES", "coord": {"lon": 1.36667, "lat": 41.166672}}, {"id": 3006701, "name": "la Roca dAlbera", "country": "FR", "coord": {"lon": 2.93374, "lat": 42.521301}}, {"id": 6356206, "name": "la Roca del Vall\u00e8s", "country": "ES", "coord": {"lon": 2.32741, "lat": 41.601181}}, {"id": 6361386, "name": "la Secuita", "country": "ES", "coord": {"lon": 1.28413, "lat": 41.21526}}, {"id": 6361387, "name": "la Selva del Camp", "country": "ES", "coord": {"lon": 1.12996, "lat": 41.21143}}, {"id": 3109143, "name": "la Seu dUrgell", "country": "ES", "coord": {"lon": 1.46144, "lat": 42.358768}}, {"id": 6534150, "name": "la Tallada d'Empord\u00e0", "country": "ES", "coord": {"lon": 3.06563, "lat": 42.079781}}, {"id": 3118799, "name": "la Tallada dEmporda", "country": "ES", "coord": {"lon": 3.05583, "lat": 42.0802}}, {"id": 6356304, "name": "la Torre de Claramunt", "country": "ES", "coord": {"lon": 1.66117, "lat": 41.530441}}, {"id": 6357076, "name": "la Vall d'Uix\u00f3", "country": "ES", "coord": {"lon": -0.24727, "lat": 39.82357}}, {"id": 6357634, "name": "la Vall d'en Bas", "country": "ES", "coord": {"lon": 2.44105, "lat": 42.138859}}, {"id": 6357635, "name": "la Vall de Bianya", "country": "ES", "coord": {"lon": 2.45674, "lat": 42.22348}}, {"id": 6358800, "name": "la Vall de Bo\u00ed", "country": "ES", "coord": {"lon": 0.80415, "lat": 42.503681}}, {"id": 3129151, "name": "les Avellanes", "country": "ES", "coord": {"lon": 0.76667, "lat": 41.900002}}, {"id": 3127798, "name": "les Borges Blanques", "country": "ES", "coord": {"lon": 0.86667, "lat": 41.51667}}, {"id": 3127797, "name": "les Borges del Camp", "country": "ES", "coord": {"lon": 1.01667, "lat": 41.166672}}, {"id": 3040051, "name": "les Escaldes", "country": "AD", "coord": {"lon": 1.53414, "lat": 42.50729}}, {"id": 3118929, "name": "les Franqueses del Vall\u00e8s", "country": "ES", "coord": {"lon": 2.29305, "lat": 41.622631}}, {"id": 6357611, "name": "les Llosses", "country": "ES", "coord": {"lon": 2.07639, "lat": 42.161839}}, {"id": 3118906, "name": "les Llosses", "country": "ES", "coord": {"lon": 2.11667, "lat": 42.150002}}, {"id": 3118866, "name": "les Planes dHostoles", "country": "ES", "coord": {"lon": 2.54093, "lat": 42.05669}}, {"id": 6358963, "name": "les Valls de Valira", "country": "ES", "coord": {"lon": 1.46254, "lat": 42.445229}}, {"id": 293420, "name": "maalot Tarshiha", "country": "IL", "coord": {"lon": 35.26667, "lat": 33.01667}}, {"id": 6354984, "name": "merter keresteciler", "country": "TR", "coord": {"lon": 28.885929, "lat": 41.012951}}, {"id": 1839873, "name": "ogcheongun", "country": "KR", "coord": {"lon": 127.568001, "lat": 36.301201}}, {"id": 6698269, "name": "owariasahi", "country": "JP", "coord": {"lon": 137.029999, "lat": 35.208}}, {"id": 134905, "name": "pamas", "country": "IR", "coord": {"lon": 48.462002, "lat": 34.037922}}, {"id": 1276955, "name": "patamda", "country": "IN", "coord": {"lon": 85.416672, "lat": 24.299999}}, {"id": 7303915, "name": "pedda nakkalapalem", "country": "IN", "coord": {"lon": 80.162018, "lat": 15.8668}}, {"id": 6941021, "name": "powiat \u0141owicki", "country": "PL", "coord": {"lon": 19.94606, "lat": 52.10627}}, {"id": 2747371, "name": "s Gravenmoer", "country": "NL", "coord": {"lon": 4.94076, "lat": 51.655941}}, {"id": 2511020, "name": "s'Arrac\u00f3", "country": "ES", "coord": {"lon": 2.39266, "lat": 39.578171}}, {"id": 2747364, "name": "s-Gravenzande", "country": "NL", "coord": {"lon": 4.16528, "lat": 52.001671}}, {"id": 2747357, "name": "s-Heerenberg", "country": "NL", "coord": {"lon": 6.25877, "lat": 51.876701}}, {"id": 2747351, "name": "s-Hertogenbosch", "country": "NL", "coord": {"lon": 5.30417, "lat": 51.699169}}, {"id": 2518723, "name": "sArenal", "country": "ES", "coord": {"lon": 2.75, "lat": 39.5}}, {"id": 2516149, "name": "sa Cabaneta", "country": "ES", "coord": {"lon": 2.74577, "lat": 39.621658}}, {"id": 2515624, "name": "sa Pobla", "country": "ES", "coord": {"lon": 3.02394, "lat": 39.769199}}, {"id": 3107512, "name": "ses Truqueries", "country": "ES", "coord": {"lon": 3.83333, "lat": 40.01667}}, {"id": 7533595, "name": "shimochi", "country": "JP", "coord": {"lon": 125.149467, "lat": 24.827169}}, {"id": 6692745, "name": "shokhaib", "country": "SA", "coord": {"lon": 46.268711, "lat": 24.490231}}, {"id": 2746354, "name": "t Hofke", "country": "NL", "coord": {"lon": 5.51926, "lat": 51.449429}}, {"id": 7522531, "name": "testing", "country": "EG", "coord": {"lon": 31.40551, "lat": 30.12191}}, {"id": 7303469, "name": "tsuruhashi", "country": "JP", "coord": {"lon": 135.53009, "lat": 34.665051}}, {"id": 7180617, "name": "vadlamuru", "country": "IN", "coord": {"lon": 82.165649, "lat": 17.095449}}, {"id": 1832697, "name": "yeoncheongun", "country": "KR", "coord": {"lon": 127.075768, "lat": 38.09404}}, {"id": 1910588, "name": "zhengzhou", "country": "CN", "coord": {"lon": 113.532501, "lat": 34.683609}}, {"id": 6358762, "name": "\u00c0ger", "country": "ES", "coord": {"lon": 0.76296, "lat": 42.011688}}, {"id": 6358991, "name": "\u00c1balos", "country": "ES", "coord": {"lon": -2.70349, "lat": 42.566349}}, {"id": 263897, "name": "\u00c1gios Io\u00e1nnis", "country": "GR", "coord": {"lon": 20.80722, "lat": 39.701389}}, {"id": 2463759, "name": "\u00c1gios R\u00f3kkos", "country": "GR", "coord": {"lon": 19.91861, "lat": 39.62167}}, {"id": 3061268, "name": "\u00c1gota Majer", "country": "SK", "coord": {"lon": 18.75976, "lat": 48.073601}}, {"id": 6361063, "name": "\u00c1greda", "country": "ES", "coord": {"lon": -1.89357, "lat": 41.86137}}, {"id": 3473008, "name": "\u00c1gua Doce", "country": "BR", "coord": {"lon": -51.55611, "lat": -26.99778}}, {"id": 8012877, "name": "\u00c1gua Longa", "country": "PT", "coord": {"lon": -8.49796, "lat": 41.265442}}, {"id": 2743315, "name": "\u00c1gua Longa", "country": "PT", "coord": {"lon": -8.49285, "lat": 41.249722}}, {"id": 2272341, "name": "\u00c1gua de Pena", "country": "PT", "coord": {"lon": -16.76667, "lat": 32.700001}}, {"id": 8013919, "name": "\u00c1guas Boas", "country": "PT", "coord": {"lon": -7.63104, "lat": 40.854671}}, {"id": 2743308, "name": "\u00c1guas Boas", "country": "PT", "coord": {"lon": -7.62576, "lat": 40.85725}}, {"id": 8012741, "name": "\u00c1guas Santas", "country": "PT", "coord": {"lon": -8.57874, "lat": 41.216999}}, {"id": 3472873, "name": "\u00c1guas da Prata", "country": "BR", "coord": {"lon": -46.716671, "lat": -21.93667}}, {"id": 3472871, "name": "\u00c1guas de Chapec\u00f3", "country": "BR", "coord": {"lon": -52.986671, "lat": -27.07028}}, {"id": 3472868, "name": "\u00c1guas de S\u00e3o Pedro", "country": "BR", "coord": {"lon": -47.87611, "lat": -22.59944}}, {"id": 8010413, "name": "\u00c1gueda", "country": "PT", "coord": {"lon": -8.42542, "lat": 40.580521}}, {"id": 8010705, "name": "\u00c1gueda", "country": "PT", "coord": {"lon": -8.41919, "lat": 40.583241}}, {"id": 3665430, "name": "\u00c1guia", "country": "BR", "coord": {"lon": -69.433327, "lat": -6.5}}, {"id": 6359508, "name": "\u00c1guilas", "country": "ES", "coord": {"lon": -1.55921, "lat": 37.447029}}, {"id": 6359230, "name": "\u00c1lamo (El)", "country": "ES", "coord": {"lon": -3.9873, "lat": 40.232841}}, {"id": 3455994, "name": "\u00c1leo", "country": "BR", "coord": {"lon": -49.341942, "lat": -22.941389}}, {"id": 6359417, "name": "\u00c1lora", "country": "ES", "coord": {"lon": -4.70378, "lat": 36.836681}}, {"id": 3472419, "name": "\u00c1lvares Florence", "country": "BR", "coord": {"lon": -49.910561, "lat": -20.320829}}, {"id": 3865991, "name": "\u00c1lvarez", "country": "AR", "coord": {"lon": -60.803928, "lat": -33.130322}}, {"id": 3472414, "name": "\u00c1lvaro de Carvalho", "country": "BR", "coord": {"lon": -49.718891, "lat": -22.08917}}, {"id": 3436369, "name": "\u00c1lzaga", "country": "AR", "coord": {"lon": -59.969978, "lat": -37.859692}}, {"id": 2521715, "name": "\u00c1nsola", "country": "ES", "coord": {"lon": -3.78144, "lat": 37.250488}}, {"id": 264694, "name": "\u00c1raxos", "country": "GR", "coord": {"lon": 21.41667, "lat": 38.166672}}, {"id": 6359421, "name": "\u00c1rchez", "country": "ES", "coord": {"lon": -3.99515, "lat": 36.827011}}, {"id": 8012904, "name": "\u00c1rvore", "country": "PT", "coord": {"lon": -8.71569, "lat": 41.336369}}, {"id": 6355632, "name": "\u00c1vila", "country": "ES", "coord": {"lon": -4.66064, "lat": 40.66864}}, {"id": 263997, "name": "\u00c1yios Athan\u00e1sios", "country": "GR", "coord": {"lon": 22.76667, "lat": 39.23333}}, {"id": 263854, "name": "\u00c1yios Konstand\u00ednos", "country": "GR", "coord": {"lon": 21.4, "lat": 38.633331}}, {"id": 8013169, "name": "\u00c1zere", "country": "PT", "coord": {"lon": -8.39704, "lat": 41.861198}}, {"id": 3472172, "name": "\u00c2ngulo", "country": "BR", "coord": {"lon": -51.915279, "lat": -23.194719}}, {"id": 661897, "name": "\u00c4ht\u00e4ri", "country": "FI", "coord": {"lon": 24.25, "lat": 62.583328}}, {"id": 2726568, "name": "\u00c4lmhults Kommun", "country": "SE", "coord": {"lon": 14.11667, "lat": 56.549999}}, {"id": 2726330, "name": "\u00c4lvdalens Kommun", "country": "SE", "coord": {"lon": 13.75, "lat": 61.333328}}, {"id": 606833, "name": "\u00c4lvsbyns Kommun", "country": "SE", "coord": {"lon": 21, "lat": 65.699997}}, {"id": 661242, "name": "\u00c4mm\u00e4l\u00e4", "country": "FI", "coord": {"lon": 25.700001, "lat": 60.933331}}, {"id": 2725898, "name": "\u00c4ngelholms Kommun", "country": "SE", "coord": {"lon": 12.88333, "lat": 56.23333}}, {"id": 662096, "name": "\u00c4\u00e4nekoski", "country": "FI", "coord": {"lon": 25.716669, "lat": 62.583328}}, {"id": 2625068, "name": "\u00c5benr\u00e5 Kommune", "country": "DK", "coord": {"lon": 9.41667, "lat": 55.033329}}, {"id": 633680, "name": "\u00c5bo", "country": "FI", "coord": {"lon": 22.283331, "lat": 60.433331}}, {"id": 6543934, "name": "\u00c5lborg Kommune", "country": "DK", "coord": {"lon": 9.95, "lat": 57}}, {"id": 6453341, "name": "\u00c5lesund", "country": "NO", "coord": {"lon": 6.15424, "lat": 62.471241}}, {"id": 2725422, "name": "\u00c5re Kommun", "country": "SE", "coord": {"lon": 13.08333, "lat": 63.416672}}, {"id": 2624647, "name": "\u00c5rhus Kommune", "country": "DK", "coord": {"lon": 10.16897, "lat": 56.16317}}, {"id": 2725378, "name": "\u00c5rj\u00e4ngs Kommun", "country": "SE", "coord": {"lon": 12.16667, "lat": 59.416672}}, {"id": 2624596, "name": "\u00c5rslev", "country": "DK", "coord": {"lon": 9.3485, "lat": 55.026772}}, {"id": 2725194, "name": "\u00c5rstaskog", "country": "SE", "coord": {"lon": 18.043329, "lat": 59.30262}}, {"id": 3162880, "name": "\u00c5r\u00f8y", "country": "NO", "coord": {"lon": 7.26667, "lat": 62.75}}, {"id": 3162771, "name": "\u00c5sberg", "country": "NO", "coord": {"lon": 8.43333, "lat": 60.416672}}, {"id": 2724956, "name": "\u00c5sele Kommun", "country": "SE", "coord": {"lon": 17.33333, "lat": 64.166672}}, {"id": 2724413, "name": "\u00c5sumtorp", "country": "SE", "coord": {"lon": 14.15, "lat": 56}}, {"id": 2724410, "name": "\u00c5sundatorp", "country": "SE", "coord": {"lon": 13.21667, "lat": 59.299999}}, {"id": 2724320, "name": "\u00c5tvidabergs Kommun", "country": "SE", "coord": {"lon": 16, "lat": 58.166672}}, {"id": 2724227, "name": "\u00c5vik", "country": "SE", "coord": {"lon": 17.1, "lat": 61.73333}}, {"id": 6543935, "name": "\u00c6r\u00f8 Kommune", "country": "DK", "coord": {"lon": 10.43333, "lat": 54.85833}}, {"id": 749778, "name": "\u00c7anakkale", "country": "TR", "coord": {"lon": 26.83333, "lat": 40.083328}}, {"id": 749747, "name": "\u00c7ank\u0131r\u0131", "country": "TR", "coord": {"lon": 33.416672, "lat": 40.666672}}, {"id": 319041, "name": "\u00c7ay\u0131r\u00f6z\u00fc", "country": "TR", "coord": {"lon": 35.2906, "lat": 38.422359}}, {"id": 7624782, "name": "\u00c7evrik", "country": "TR", "coord": {"lon": 35.92205, "lat": 36.122211}}, {"id": 748877, "name": "\u00c7orum", "country": "TR", "coord": {"lon": 34.75, "lat": 40.5}}, {"id": 748822, "name": "\u00c7ukur\u00e7engel", "country": "TR", "coord": {"lon": 27.9, "lat": 41.166672}}, {"id": 318487, "name": "\u00c7\u0131kr\u0131kc\u0131", "country": "TR", "coord": {"lon": 26.98778, "lat": 39.556671}}, {"id": 3824132, "name": "\u00c9bano", "country": "MX", "coord": {"lon": -98.383331, "lat": 22.216669}}, {"id": 6425349, "name": "\u00c9breuil", "country": "FR", "coord": {"lon": 3.08333, "lat": 46.116669}}, {"id": 3020563, "name": "\u00c9cajeul", "country": "FR", "coord": {"lon": -0.03605, "lat": 49.070789}}, {"id": 2791740, "name": "\u00c9caussinnes", "country": "BE", "coord": {"lon": 4.16667, "lat": 50.549999}}, {"id": 3020550, "name": "\u00c9chabrac", "country": "FR", "coord": {"lon": 4.09315, "lat": 45.130981}}, {"id": 6439084, "name": "\u00c9chalou", "country": "FR", "coord": {"lon": -0.5, "lat": 48.73333}}, {"id": 3020544, "name": "\u00c9chalou", "country": "FR", "coord": {"lon": -0.49245, "lat": 48.727261}}, {"id": 6425350, "name": "\u00c9chassi\u00e8res", "country": "FR", "coord": {"lon": 2.93333, "lat": 46.183331}}, {"id": 3020533, "name": "\u00c9chassi\u00e8res", "country": "FR", "coord": {"lon": 2.93465, "lat": 46.184368}}, {"id": 6424521, "name": "\u00c9chenevex", "country": "FR", "coord": {"lon": 6.03333, "lat": 46.316669}}, {"id": 6433192, "name": "\u00c9chirolles", "country": "FR", "coord": {"lon": 5.71667, "lat": 45.133331}}, {"id": 6429368, "name": "\u00c9chourgnac", "country": "FR", "coord": {"lon": 0.23333, "lat": 45.116669}}, {"id": 3020492, "name": "\u00c9chourgnac", "country": "FR", "coord": {"lon": 0.23333, "lat": 45.116669}}, {"id": 6360994, "name": "\u00c9cija", "country": "ES", "coord": {"lon": -5.0979, "lat": 37.566971}}, {"id": 6439086, "name": "\u00c9corcei", "country": "FR", "coord": {"lon": 0.58333, "lat": 48.716671}}, {"id": 3020460, "name": "\u00c9corcei", "country": "FR", "coord": {"lon": 0.57938, "lat": 48.720409}}, {"id": 6439087, "name": "\u00c9corches", "country": "FR", "coord": {"lon": 0.1, "lat": 48.866669}}, {"id": 3020459, "name": "\u00c9corches", "country": "FR", "coord": {"lon": 0.09249, "lat": 48.867119}}, {"id": 3020444, "name": "\u00c9cots", "country": "FR", "coord": {"lon": 0.02832, "lat": 48.988499}}, {"id": 6439088, "name": "\u00c9couch\u00e9", "country": "FR", "coord": {"lon": -0.13333, "lat": 48.716671}}, {"id": 6427196, "name": "\u00c9crammeville", "country": "FR", "coord": {"lon": -0.95, "lat": 49.316669}}, {"id": 3020424, "name": "\u00c9crammeville", "country": "FR", "coord": {"lon": -0.94488, "lat": 49.323448}}, {"id": 6450758, "name": "\u00c9cully", "country": "FR", "coord": {"lon": 4.76667, "lat": 45.76667}}, {"id": 2798950, "name": "\u00c9ghez\u00e9e", "country": "BE", "coord": {"lon": 4.90282, "lat": 50.585091}}, {"id": 6447532, "name": "\u00c9gletons", "country": "FR", "coord": {"lon": 2.05, "lat": 45.400002}}, {"id": 6429369, "name": "\u00c9glise-Neuve-de-Vergt", "country": "FR", "coord": {"lon": 0.75, "lat": 45.083328}}, {"id": 3020350, "name": "\u00c9glise-Neuve-de-Vergt", "country": "FR", "coord": {"lon": 0.73159, "lat": 45.083061}}, {"id": 6440025, "name": "\u00c9gliseneuve-d'Entraigues", "country": "FR", "coord": {"lon": 2.83333, "lat": 45.416672}}, {"id": 3020352, "name": "\u00c9gliseneuve-d'Entraigues", "country": "FR", "coord": {"lon": 2.82568, "lat": 45.407742}}, {"id": 6440028, "name": "\u00c9glisolles", "country": "FR", "coord": {"lon": 3.88333, "lat": 45.450001}}, {"id": 3020347, "name": "\u00c9glisolles", "country": "FR", "coord": {"lon": 3.8863, "lat": 45.455799}}, {"id": 6443956, "name": "\u00c9lancourt", "country": "FR", "coord": {"lon": 1.95, "lat": 48.783329}}, {"id": 6427198, "name": "\u00c9mi\u00e9ville", "country": "FR", "coord": {"lon": -0.21667, "lat": 49.150002}}, {"id": 3020239, "name": "\u00c9mi\u00e9ville", "country": "FR", "coord": {"lon": -0.22257, "lat": 49.158459}}, {"id": 6430361, "name": "\u00c9paignes", "country": "FR", "coord": {"lon": 0.44031, "lat": 49.27956}}, {"id": 6427201, "name": "\u00c9paney", "country": "FR", "coord": {"lon": -0.16667, "lat": 48.950001}}, {"id": 3020091, "name": "\u00c9paney", "country": "FR", "coord": {"lon": -0.16872, "lat": 48.948029}}, {"id": 6435803, "name": "\u00c9pernay", "country": "FR", "coord": {"lon": 3.95, "lat": 49.049999}}, {"id": 6362791, "name": "\u00c9pila", "country": "ES", "coord": {"lon": -1.33241, "lat": 41.591}}, {"id": 6445533, "name": "\u00c9pinal", "country": "FR", "coord": {"lon": 6.45, "lat": 48.183331}}, {"id": 6427202, "name": "\u00c9pinay-sur-Odon", "country": "FR", "coord": {"lon": -0.61667, "lat": 49.083328}}, {"id": 3020022, "name": "\u00c9pinay-sur-Odon", "country": "FR", "coord": {"lon": -0.62071, "lat": 49.076431}}, {"id": 6451992, "name": "\u00c9pinay-sur-Seine", "country": "FR", "coord": {"lon": 2.31667, "lat": 48.950001}}, {"id": 6430364, "name": "\u00c9preville-en-Lieuvin", "country": "FR", "coord": {"lon": 0.53333, "lat": 49.200001}}, {"id": 3019972, "name": "\u00c9preville-en-Lieuvin", "country": "FR", "coord": {"lon": 0.53675, "lat": 49.201672}}, {"id": 6427203, "name": "\u00c9pron", "country": "FR", "coord": {"lon": -0.36667, "lat": 49.216671}}, {"id": 6430362, "name": "\u00c9p\u00e9gard", "country": "FR", "coord": {"lon": 0.88333, "lat": 49.183331}}, {"id": 3020078, "name": "\u00c9p\u00e9gard", "country": "FR", "coord": {"lon": 0.8791, "lat": 49.181358}}, {"id": 6427204, "name": "\u00c9quemauville", "country": "FR", "coord": {"lon": 0.2, "lat": 49.400002}}, {"id": 6435399, "name": "\u00c9quilly", "country": "FR", "coord": {"lon": -1.38333, "lat": 48.833328}}, {"id": 3019956, "name": "\u00c9quilly", "country": "FR", "coord": {"lon": -1.39475, "lat": 48.838089}}, {"id": 6612921, "name": "\u00c9ragny", "country": "FR", "coord": {"lon": 2.1, "lat": 49.01667}}, {"id": 3053228, "name": "\u00c9rd-Parkv\u00e1ros", "country": "HU", "coord": {"lon": 18.90391, "lat": 47.410431}}, {"id": 2798699, "name": "\u00c9rez\u00e9e", "country": "BE", "coord": {"lon": 5.55, "lat": 50.299999}}, {"id": 6430081, "name": "\u00c9r\u00f4me", "country": "FR", "coord": {"lon": 4.81667, "lat": 45.116669}}, {"id": 3019885, "name": "\u00c9r\u00f4me", "country": "FR", "coord": {"lon": 4.81854, "lat": 45.121529}}, {"id": 2798594, "name": "\u00c9talle", "country": "BE", "coord": {"lon": 5.61667, "lat": 49.666672}}, {"id": 6446136, "name": "\u00c9tampes", "country": "FR", "coord": {"lon": 2.15, "lat": 48.433331}}, {"id": 6439513, "name": "\u00c9taples", "country": "FR", "coord": {"lon": 1.65, "lat": 50.51667}}, {"id": 6432218, "name": "\u00c9tauliers", "country": "FR", "coord": {"lon": -0.56667, "lat": 45.216671}}, {"id": 6455181, "name": "\u00c9tel", "country": "FR", "coord": {"lon": -3.2, "lat": 47.650002}}, {"id": 6435401, "name": "\u00c9tienville", "country": "FR", "coord": {"lon": -1.41667, "lat": 49.383331}}, {"id": 3019410, "name": "\u00c9tienville", "country": "FR", "coord": {"lon": -1.42783, "lat": 49.385288}}, {"id": 6425354, "name": "\u00c9troussat", "country": "FR", "coord": {"lon": 3.21667, "lat": 46.216671}}, {"id": 3019342, "name": "\u00c9troussat", "country": "FR", "coord": {"lon": 3.22022, "lat": 46.219501}}, {"id": 6454877, "name": "\u00c9tr\u00e9chy", "country": "FR", "coord": {"lon": 2.2, "lat": 48.5}}, {"id": 6613366, "name": "\u00c9tr\u00e9ham", "country": "FR", "coord": {"lon": -0.8, "lat": 49.316669}}, {"id": 3019370, "name": "\u00c9tr\u00e9ham", "country": "FR", "coord": {"lon": -0.8, "lat": 49.316669}}, {"id": 3122720, "name": "\u00c9tura", "country": "ES", "coord": {"lon": -2.49132, "lat": 42.891312}}, {"id": 6442572, "name": "\u00c9vaill\u00e9", "country": "FR", "coord": {"lon": 0.63333, "lat": 47.900002}}, {"id": 3019304, "name": "\u00c9vaill\u00e9", "country": "FR", "coord": {"lon": 0.63126, "lat": 47.899929}}, {"id": 2798565, "name": "\u00c9vegn\u00e9e-Tign\u00e9e", "country": "BE", "coord": {"lon": 5.70783, "lat": 50.646469}}, {"id": 6617939, "name": "\u00c9vette-Salbert", "country": "FR", "coord": {"lon": 6.7985, "lat": 47.674801}}, {"id": 8010502, "name": "\u00c9vora", "country": "PT", "coord": {"lon": -7.8946, "lat": 38.566502}}, {"id": 8011926, "name": "\u00c9vora Monte (Santa Maria)", "country": "PT", "coord": {"lon": -7.71699, "lat": 38.741581}}, {"id": 6453890, "name": "\u00c9vreux", "country": "FR", "coord": {"lon": 1.15223, "lat": 49.024311}}, {"id": 6454878, "name": "\u00c9vry", "country": "FR", "coord": {"lon": 2.45, "lat": 48.633331}}, {"id": 3120474, "name": "\u00cdbero", "country": "ES", "coord": {"lon": -1.77506, "lat": 42.802879}}, {"id": 8010422, "name": "\u00cdlhavo", "country": "PT", "coord": {"lon": -8.72, "lat": 40.611698}}, {"id": 8010801, "name": "\u00cdlhavo (S\u00e3o Salvador)", "country": "PT", "coord": {"lon": -8.67622, "lat": 40.596722}}, {"id": 6362202, "name": "\u00cdscar", "country": "ES", "coord": {"lon": -4.52458, "lat": 41.34343}}, {"id": 921882, "name": "\u00cele Autonome de Grande Comore", "country": "KM", "coord": {"lon": 43.333328, "lat": -11.58333}}, {"id": 3202220, "name": "\u00d0akovo", "country": "HR", "coord": {"lon": 18.410561, "lat": 45.308331}}, {"id": 3200961, "name": "\u00d0ur\u0111evac", "country": "HR", "coord": {"lon": 17.069719, "lat": 46.041111}}, {"id": 3843037, "name": "\u00d1irihuau", "country": "AR", "coord": {"lon": -71.150002, "lat": -41.116669}}, {"id": 3878431, "name": "\u00d1u\u00f1oa", "country": "CL", "coord": {"lon": -70.599998, "lat": -33.466671}}, {"id": 6356172, "name": "\u00d2dena", "country": "ES", "coord": {"lon": 1.63284, "lat": 41.61784}}, {"id": 6356181, "name": "\u00d2rrius", "country": "ES", "coord": {"lon": 2.34958, "lat": 41.553928}}, {"id": 8010552, "name": "\u00d3bidos", "country": "PT", "coord": {"lon": -9.17603, "lat": 39.35854}}, {"id": 8014305, "name": "\u00d3is do Bairro", "country": "PT", "coord": {"lon": -8.48371, "lat": 40.428669}}, {"id": 2737086, "name": "\u00d3is do Bairro", "country": "PT", "coord": {"lon": -8.48372, "lat": 40.432079}}, {"id": 3414079, "name": "\u00d3lafsv\u00edk", "country": "IS", "coord": {"lon": -23.714239, "lat": 64.894524}}, {"id": 6361174, "name": "\u00d3lvega", "country": "ES", "coord": {"lon": -1.97983, "lat": 41.791481}}, {"id": 6357755, "name": "\u00d3rgiva", "country": "ES", "coord": {"lon": -3.38416, "lat": 36.866428}}, {"id": 716686, "name": "\u00d3sz\u0151l\u0151skert", "country": "HU", "coord": {"lon": 21.933331, "lat": 47.866669}}, {"id": 3393544, "name": "\u00d4lho do Sert\u00e3o", "country": "BR", "coord": {"lon": -36.75, "lat": -9.83333}}, {"id": 3455976, "name": "\u00d4lho d\u2019\u00c1gua", "country": "BR", "coord": {"lon": -48.599998, "lat": -16.033331}}, {"id": 3393680, "name": "\u00d4lho d\u2019\u00c1gua", "country": "BR", "coord": {"lon": -44.650002, "lat": -4.56667}}, {"id": 3393595, "name": "\u00d4lho d\u2019\u00c1gua de Igreja", "country": "BR", "coord": {"lon": -38.933331, "lat": -7.28333}}, {"id": 7873502, "name": "\u00d6blarn", "country": "AT", "coord": {"lon": 14.02492, "lat": 47.42738}}, {"id": 2857654, "name": "\u00d6chlitz", "country": "DE", "coord": {"lon": 11.76667, "lat": 51.333328}}, {"id": 2858178, "name": "\u00d6d", "country": "DE", "coord": {"lon": 12.45, "lat": 48.049999}}, {"id": 2858146, "name": "\u00d6denahlen", "country": "DE", "coord": {"lon": 9.63333, "lat": 48.116669}}, {"id": 2858108, "name": "\u00d6denstockach", "country": "DE", "coord": {"lon": 11.69606, "lat": 48.08485}}, {"id": 2858100, "name": "\u00d6denwaldstetten", "country": "DE", "coord": {"lon": 9.37254, "lat": 48.348461}}, {"id": 2858074, "name": "\u00d6dernhardt", "country": "DE", "coord": {"lon": 9.46571, "lat": 48.853859}}, {"id": 2858017, "name": "\u00d6dinghausen", "country": "DE", "coord": {"lon": 7.55, "lat": 50.900002}}, {"id": 2858007, "name": "\u00d6dm\u00fchl", "country": "DE", "coord": {"lon": 12.75, "lat": 47.76667}}, {"id": 2857763, "name": "\u00d6fingen", "country": "DE", "coord": {"lon": 8.63663, "lat": 47.990879}}, {"id": 2857725, "name": "\u00d6hde", "country": "DE", "coord": {"lon": 7.23333, "lat": 51.26667}}, {"id": 6555867, "name": "\u00d6hningen", "country": "DE", "coord": {"lon": 8.9, "lat": 47.666698}}, {"id": 2857576, "name": "\u00d6hrenfeld", "country": "DE", "coord": {"lon": 10.71667, "lat": 51.849998}}, {"id": 643991, "name": "\u00d6ja", "country": "FI", "coord": {"lon": 22.91667, "lat": 63.833328}}, {"id": 2857529, "name": "\u00d6jendorf", "country": "DE", "coord": {"lon": 10.13333, "lat": 53.549999}}, {"id": 2857476, "name": "\u00d6lbronn", "country": "DE", "coord": {"lon": 8.75, "lat": 48.98333}}, {"id": 6555715, "name": "\u00d6lbronn-D\u00fcrrn", "country": "DE", "coord": {"lon": 8.75, "lat": 48.966702}}, {"id": 2857478, "name": "\u00d6lb\u00f6m", "country": "DE", "coord": {"lon": 10.51667, "lat": 54.316669}}, {"id": 2769487, "name": "\u00d6lkam", "country": "AT", "coord": {"lon": 14.3593, "lat": 48.225021}}, {"id": 6555986, "name": "\u00d6llingen", "country": "DE", "coord": {"lon": 10.14729, "lat": 48.52877}}, {"id": 6553432, "name": "\u00d6lsen", "country": "DE", "coord": {"lon": 7.6, "lat": 50.733299}}, {"id": 2029669, "name": "\u00d6mn\u00f6gov\u012d Aymag", "country": "MN", "coord": {"lon": 104, "lat": 43}}, {"id": 603897, "name": "\u00d6n", "country": "SE", "coord": {"lon": 20.2866, "lat": 63.80788}}, {"id": 6555987, "name": "\u00d6pfingen", "country": "DE", "coord": {"lon": 9.80315, "lat": 48.286388}}, {"id": 2686656, "name": "\u00d6rebro Kommun", "country": "SE", "coord": {"lon": 15.41667, "lat": 59.26667}}, {"id": 2686655, "name": "\u00d6rebro L\u00e4n", "country": "SE", "coord": {"lon": 15, "lat": 59.5}}, {"id": 3047005, "name": "\u00d6reghegy", "country": "HU", "coord": {"lon": 18.133329, "lat": 47.116669}}, {"id": 3206589, "name": "\u00d6rken", "country": "DE", "coord": {"lon": 8.55, "lat": 52.083328}}, {"id": 2857899, "name": "\u00d6rlsdorf", "country": "DE", "coord": {"lon": 11.16966, "lat": 50.298}}, {"id": 2686466, "name": "\u00d6rnsk\u00f6ldsviks Kommun", "country": "SE", "coord": {"lon": 18.716669, "lat": 63.283329}}, {"id": 2856935, "name": "\u00d6schelbronn", "country": "DE", "coord": {"lon": 8.81667, "lat": 48.900002}}, {"id": 2856912, "name": "\u00d6sede", "country": "DE", "coord": {"lon": 8.06667, "lat": 52.216671}}, {"id": 2686087, "name": "\u00d6stanbo", "country": "SE", "coord": {"lon": 17.133329, "lat": 61.26667}}, {"id": 830676, "name": "\u00d6sterbotten", "country": "FI", "coord": {"lon": 22, "lat": 63}}, {"id": 2685915, "name": "\u00d6sterby", "country": "SE", "coord": {"lon": 18.799999, "lat": 57.716671}}, {"id": 840758, "name": "\u00d6sterby", "country": "FI", "coord": {"lon": 24.43528, "lat": 60.177219}}, {"id": 2685867, "name": "\u00d6sterg\u00f6tlands L\u00e4n", "country": "SE", "coord": {"lon": 15.75, "lat": 58.416672}}, {"id": 2685747, "name": "\u00d6stersunds Kommun", "country": "SE", "coord": {"lon": 14.91667, "lat": 63.25}}, {"id": 2685981, "name": "\u00d6ster\u00e5kers Kommun", "country": "SE", "coord": {"lon": 18.299789, "lat": 59.483452}}, {"id": 2685177, "name": "\u00d6stra Vi", "country": "SE", "coord": {"lon": 18.316669, "lat": 57.633331}}, {"id": 2856210, "name": "\u00d6strich", "country": "DE", "coord": {"lon": 6.31667, "lat": 51.083328}}, {"id": 6555633, "name": "\u00d6tigheim", "country": "DE", "coord": {"lon": 8.23333, "lat": 48.883301}}, {"id": 2856161, "name": "\u00d6tinghausen", "country": "DE", "coord": {"lon": 8.61667, "lat": 52.150002}}, {"id": 6555709, "name": "\u00d6tisheim", "country": "DE", "coord": {"lon": 8.8, "lat": 48.966702}}, {"id": 2856158, "name": "\u00d6tjendorf", "country": "DE", "coord": {"lon": 10.33333, "lat": 53.683331}}, {"id": 6554167, "name": "\u00d6tzingen", "country": "DE", "coord": {"lon": 7.83333, "lat": 50.5}}, {"id": 2029546, "name": "\u00d6v\u00f6rhangay Aymag", "country": "MN", "coord": {"lon": 102.5, "lat": 46}}, {"id": 2855812, "name": "\u00d6xing", "country": "DE", "coord": {"lon": 11.96667, "lat": 48.049999}}, {"id": 2615754, "name": "\u00d8lby Lyng", "country": "DK", "coord": {"lon": 12.18416, "lat": 55.49015}}, {"id": 3143410, "name": "\u00d8rland", "country": "NO", "coord": {"lon": 9.66633, "lat": 63.685741}}, {"id": 3143333, "name": "\u00d8rsta", "country": "NO", "coord": {"lon": 6.13084, "lat": 62.199371}}, {"id": 2615589, "name": "\u00d8sterby", "country": "DK", "coord": {"lon": 10.13967, "lat": 56.083038}}, {"id": 2615590, "name": "\u00d8sterby", "country": "DK", "coord": {"lon": 8.34587, "lat": 55.98381}}, {"id": 3143188, "name": "\u00d8stfold fylke", "country": "NO", "coord": {"lon": 11.5, "lat": 59.333328}}, {"id": 3142849, "name": "\u00d8yer", "country": "NO", "coord": {"lon": 10.41297, "lat": 61.26495}}, {"id": 6358538, "name": "\u00dabeda", "country": "ES", "coord": {"lon": -3.36868, "lat": 38.013569}}, {"id": 3063652, "name": "\u00dajezd nad Lesy", "country": "CZ", "coord": {"lon": 14.6595, "lat": 50.076481}}, {"id": 3043542, "name": "\u00dajhegy", "country": "HU", "coord": {"lon": 17.283331, "lat": 46.98333}}, {"id": 714419, "name": "\u00dajszeged", "country": "HU", "coord": {"lon": 20.16571, "lat": 46.24754}}, {"id": 714397, "name": "\u00dajtanya", "country": "HU", "coord": {"lon": 22, "lat": 47.966671}}, {"id": 714367, "name": "\u00dajtelep", "country": "HU", "coord": {"lon": 21.383329, "lat": 48.01667}}, {"id": 3043417, "name": "\u00dajtelep", "country": "HU", "coord": {"lon": 17.08333, "lat": 46.950001}}, {"id": 3339577, "name": "\u00dasteck\u00fd kraj", "country": "CZ", "coord": {"lon": 13.83333, "lat": 50.5}}, {"id": 3043306, "name": "\u00dasztat\u00f3major", "country": "HU", "coord": {"lon": 17.25, "lat": 46.76667}}, {"id": 2820622, "name": "\u00dcbach-Palenberg", "country": "DE", "coord": {"lon": 6.08333, "lat": 50.933331}}, {"id": 7873416, "name": "\u00dcbelbach", "country": "AT", "coord": {"lon": 15.16588, "lat": 47.23571}}, {"id": 6554510, "name": "\u00dcbereisenbach", "country": "DE", "coord": {"lon": 6.15, "lat": 50}}, {"id": 6547527, "name": "\u00dcberherrn", "country": "DE", "coord": {"lon": 6.7088, "lat": 49.254398}}, {"id": 2820582, "name": "\u00dcberh\u00f6fe", "country": "DE", "coord": {"lon": 7.16667, "lat": 50.916672}}, {"id": 7873751, "name": "\u00dcbersaxen", "country": "AT", "coord": {"lon": 9.69016, "lat": 47.251751}}, {"id": 7872324, "name": "\u00dcbersbach", "country": "AT", "coord": {"lon": 16.053341, "lat": 47.02013}}, {"id": 2820565, "name": "\u00dcberscheid", "country": "DE", "coord": {"lon": 6.71667, "lat": 50.049999}}, {"id": 6556418, "name": "\u00dcbersee", "country": "DE", "coord": {"lon": 12.4832, "lat": 47.8176}}, {"id": 6557072, "name": "\u00dcchtelhausen", "country": "DE", "coord": {"lon": 10.2667, "lat": 50.083302}}, {"id": 2820522, "name": "\u00dcckeritz", "country": "DE", "coord": {"lon": 13.18497, "lat": 53.922539}}, {"id": 6548325, "name": "\u00dcckeritz", "country": "DE", "coord": {"lon": 14.05, "lat": 54.016701}}, {"id": 2820517, "name": "\u00dcckesdorf", "country": "DE", "coord": {"lon": 7.08333, "lat": 50.700001}}, {"id": 2820507, "name": "\u00dcdemerfeld", "country": "DE", "coord": {"lon": 6.3, "lat": 51.666672}}, {"id": 6554671, "name": "\u00dcdersdorf", "country": "DE", "coord": {"lon": 6.8, "lat": 50.150002}}, {"id": 2820489, "name": "\u00dcdingen", "country": "DE", "coord": {"lon": 6.48333, "lat": 50.73333}}, {"id": 6555923, "name": "\u00dchlingen-Birkendorf", "country": "DE", "coord": {"lon": 8.31667, "lat": 47.716702}}, {"id": 7522400, "name": "\u00dclenurme vald", "country": "EE", "coord": {"lon": 26.68075, "lat": 58.315201}}, {"id": 2820261, "name": "\u00dcllnitz", "country": "DE", "coord": {"lon": 11.66667, "lat": 51.883331}}, {"id": 2820239, "name": "\u00dclpenich", "country": "DE", "coord": {"lon": 6.7, "lat": 50.683331}}, {"id": 7602403, "name": "\u00dclsby", "country": "DE", "coord": {"lon": 9.6, "lat": 54.633331}}, {"id": 2820168, "name": "\u00dcmmingen", "country": "DE", "coord": {"lon": 7.3, "lat": 51.466671}}, {"id": 6554378, "name": "\u00dcrzig", "country": "DE", "coord": {"lon": 7, "lat": 49.983299}}, {"id": 2818114, "name": "\u00dcschersdorf", "country": "DE", "coord": {"lon": 10.61667, "lat": 50.150002}}, {"id": 1517836, "name": "\u00dcsharal", "country": "KZ", "coord": {"lon": 80.939438, "lat": 46.16972}}, {"id": 738329, "name": "\u00dcsk\u00fcdar", "country": "TR", "coord": {"lon": 29.023689, "lat": 41.022518}}, {"id": 2818085, "name": "\u00dcssinghausen", "country": "DE", "coord": {"lon": 9.8, "lat": 51.683331}}, {"id": 6554672, "name": "\u00dcxheim", "country": "DE", "coord": {"lon": 6.75, "lat": 50.349998}}, {"id": 3471312, "name": "\u00e1urea", "country": "BR", "coord": {"lon": -52.049438, "lat": -27.69722}}, {"id": 144795, "name": "\u0100byek", "country": "IR", "coord": {"lon": 50.531021, "lat": 36.039928}}, {"id": 344982, "name": "\u0100d\u012bs", "country": "ET", "coord": {"lon": 38.76667, "lat": 8.95}}, {"id": 444178, "name": "\u0100d\u012bs \u0100beba \u0100stedader", "country": "ET", "coord": {"lon": 38.75, "lat": 9}}, {"id": 444179, "name": "\u0100far Kilil", "country": "ET", "coord": {"lon": 41.5, "lat": 12}}, {"id": 1279262, "name": "\u0100gra", "country": "IN", "coord": {"lon": 77.966667, "lat": 27.08333}}, {"id": 1457199, "name": "\u0100kh\u016bndz\u0101dah Kh\u0113l", "country": "AF", "coord": {"lon": 68.584442, "lat": 34.352501}}, {"id": 444180, "name": "\u0100mara Kilil", "country": "ET", "coord": {"lon": 38.5, "lat": 11.5}}, {"id": 1278809, "name": "\u0100mer", "country": "IN", "coord": {"lon": 75.866669, "lat": 26.983334}}, {"id": 1148535, "name": "\u0100q Kowtal", "country": "AF", "coord": {"lon": 64.460831, "lat": 35.542782}}, {"id": 14177, "name": "\u0100qd\u016bz", "country": "IR", "coord": {"lon": 44.26556, "lat": 39.197498}}, {"id": 1184330, "name": "\u0100rya", "country": "PK", "coord": {"lon": 73.066673, "lat": 33.599998}}, {"id": 1473427, "name": "\u0100sm\u0101n B\u0101n\u1e0fah", "country": "AF", "coord": {"lon": 70.091843, "lat": 34.162819}}, {"id": 343143, "name": "\u0100war\u0113", "country": "ET", "coord": {"lon": 44.15667, "lat": 8.25611}}, {"id": 6711051, "name": "\u0100z\u0304ar Bon\u0101b", "country": "IR", "coord": {"lon": 46.123699, "lat": 37.372002}}, {"id": 3202932, "name": "\u010cabar", "country": "HR", "coord": {"lon": 14.64083, "lat": 45.595829}}, {"id": 3078251, "name": "\u010cakovice", "country": "CZ", "coord": {"lon": 14.52393, "lat": 50.151279}}, {"id": 3078064, "name": "\u010cern\u010dice", "country": "CZ", "coord": {"lon": 13.91642, "lat": 50.56176}}, {"id": 3077996, "name": "\u010certousy", "country": "CZ", "coord": {"lon": 14.63333, "lat": 50.116669}}, {"id": 3077960, "name": "\u010cerven\u00fd Hr\u00e1dek", "country": "CZ", "coord": {"lon": 14.4481, "lat": 49.659801}}, {"id": 3077909, "name": "\u010cesk\u00e9 K\u0159i\u017e\u00e1nky", "country": "CZ", "coord": {"lon": 16.062519, "lat": 49.68956}}, {"id": 791949, "name": "\u010cesta", "country": "RS", "coord": {"lon": 21.653891, "lat": 43.430561}}, {"id": 3077872, "name": "\u010cestlice", "country": "CZ", "coord": {"lon": 14.58361, "lat": 50.00251}}, {"id": 3077385, "name": "\u010cisovice", "country": "CZ", "coord": {"lon": 14.31478, "lat": 49.86338}}, {"id": 3202328, "name": "\u010crnu\u010de", "country": "SI", "coord": {"lon": 14.53333, "lat": 46.099998}}, {"id": 3077331, "name": "\u010cty\u0159i Dvory", "country": "CZ", "coord": {"lon": 14.45269, "lat": 48.982738}}, {"id": 3202308, "name": "\u010cu\u010derski Vidovec", "country": "HR", "coord": {"lon": 16.03722, "lat": 45.902222}}, {"id": 3077309, "name": "\u010e\u00e1blice", "country": "CZ", "coord": {"lon": 14.48565, "lat": 50.145611}}, {"id": 460001, "name": "\u0112rg\u013ci", "country": "LV", "coord": {"lon": 25.636681, "lat": 56.897518}}, {"id": 2563015, "name": "\u0126al-Bajjada", "country": "MT", "coord": {"lon": 14.39583, "lat": 35.878059}}, {"id": 1181407, "name": "\u012asa Goth", "country": "PK", "coord": {"lon": 62.126945, "lat": 25.288334}}, {"id": 311616, "name": "\u0130kisaray", "country": "TR", "coord": {"lon": 29.48333, "lat": 38.683331}}, {"id": 311319, "name": "\u0130ncirlik", "country": "TR", "coord": {"lon": 35.4361, "lat": 36.989719}}, {"id": 745042, "name": "\u0130stanbul", "country": "TR", "coord": {"lon": 28.983311, "lat": 41.03508}}, {"id": 311044, "name": "\u0130zmir", "country": "TR", "coord": {"lon": 27.092291, "lat": 38.462189}}, {"id": 311728, "name": "\u0130\u00e7el", "country": "TR", "coord": {"lon": 34.650879, "lat": 36.862041}}, {"id": 458774, "name": "\u0136ivita", "country": "LV", "coord": {"lon": 21.183331, "lat": 56.549999}}, {"id": 457742, "name": "\u013burbava", "country": "LV", "coord": {"lon": 27.66486, "lat": 56.781792}}, {"id": 3093925, "name": "\u0141any Wielkie", "country": "PL", "coord": {"lon": 18.543119, "lat": 50.2836}}, {"id": 766790, "name": "\u0141apiguz", "country": "PL", "coord": {"lon": 22.356779, "lat": 51.924782}}, {"id": 7532777, "name": "\u0141apsze Ni\u017cne", "country": "PL", "coord": {"lon": 20.24205, "lat": 49.398911}}, {"id": 7533050, "name": "\u0141apy", "country": "PL", "coord": {"lon": 22.8771, "lat": 52.993698}}, {"id": 766774, "name": "\u0141apy Zi\u0119ciuki", "country": "PL", "coord": {"lon": 22.86302, "lat": 52.985561}}, {"id": 7533524, "name": "\u0141ask", "country": "PL", "coord": {"lon": 19.158199, "lat": 51.601799}}, {"id": 3093826, "name": "\u0141asztownia", "country": "PL", "coord": {"lon": 14.56667, "lat": 53.416672}}, {"id": 3093816, "name": "\u0141awica", "country": "PL", "coord": {"lon": 16.81251, "lat": 52.406151}}, {"id": 7532479, "name": "\u0141aziska", "country": "PL", "coord": {"lon": 21.855801, "lat": 51.152401}}, {"id": 7532266, "name": "\u0141aziska G\u00f3rne", "country": "PL", "coord": {"lon": 18.8528, "lat": 50.143398}}, {"id": 7533249, "name": "\u0141azy", "country": "PL", "coord": {"lon": 19.392, "lat": 50.425201}}, {"id": 7531339, "name": "\u0141a\u0144cut", "country": "PL", "coord": {"lon": 22.224569, "lat": 50.069698}}, {"id": 3093802, "name": "\u0141a\u017cany", "country": "PL", "coord": {"lon": 16.492201, "lat": 50.957451}}, {"id": 7532912, "name": "\u0141eba", "country": "PL", "coord": {"lon": 17.557871, "lat": 54.761879}}, {"id": 7533328, "name": "\u0141obez", "country": "PL", "coord": {"lon": 15.6133, "lat": 53.635899}}, {"id": 766057, "name": "\u0141oje", "country": "PL", "coord": {"lon": 22.5618, "lat": 54.28046}}, {"id": 7533497, "name": "\u0141omianki", "country": "PL", "coord": {"lon": 20.8939, "lat": 52.333199}}, {"id": 766041, "name": "\u0141omianki Dolne", "country": "PL", "coord": {"lon": 20.90514, "lat": 52.35408}}, {"id": 7530773, "name": "\u0141om\u017ca", "country": "PL", "coord": {"lon": 22.05888, "lat": 53.182671}}, {"id": 7531442, "name": "\u0141om\u017ca", "country": "PL", "coord": {"lon": 22.05888, "lat": 53.182671}}, {"id": 766023, "name": "\u0141om\u017cyca", "country": "PL", "coord": {"lon": 22.03982, "lat": 53.17382}}, {"id": 7533149, "name": "\u0141osice", "country": "PL", "coord": {"lon": 22.719801, "lat": 52.1959}}, {"id": 7532595, "name": "\u0141ubniany", "country": "PL", "coord": {"lon": 18.0193, "lat": 50.783901}}, {"id": 7531627, "name": "\u0141ubowo", "country": "PL", "coord": {"lon": 17.426821, "lat": 52.502602}}, {"id": 7532097, "name": "\u0141uk\u00f3w", "country": "PL", "coord": {"lon": 22.3855, "lat": 51.925201}}, {"id": 7532661, "name": "\u0141u\u017cna", "country": "PL", "coord": {"lon": 21.060699, "lat": 49.697201}}, {"id": 3092630, "name": "\u0141ysica", "country": "PL", "coord": {"lon": 19.450001, "lat": 54.383331}}, {"id": 766869, "name": "\u0141\u0105czki Jagiello\u0144skie", "country": "PL", "coord": {"lon": 21.6919, "lat": 49.788471}}, {"id": 7533052, "name": "\u0141\u0119czna", "country": "PL", "coord": {"lon": 22.885099, "lat": 51.302502}}, {"id": 7532231, "name": "\u0141\u0119czyca", "country": "PL", "coord": {"lon": 19.198999, "lat": 52.054298}}, {"id": 3093725, "name": "\u0141\u0119czyca", "country": "PL", "coord": {"lon": 16.87517, "lat": 52.307949}}, {"id": 3093646, "name": "\u0141\u0119knice", "country": "PL", "coord": {"lon": 19.21406, "lat": 50.346008}}, {"id": 1854255, "name": "\u014c-kubo", "country": "JP", "coord": {"lon": 135.350006, "lat": 34.400002}}, {"id": 2111543, "name": "\u014cdaira", "country": "JP", "coord": {"lon": 140.283325, "lat": 37.849998}}, {"id": 1854762, "name": "\u014cdaka", "country": "JP", "coord": {"lon": 136.933334, "lat": 35.066669}}, {"id": 1854742, "name": "\u014cdera", "country": "JP", "coord": {"lon": 139.983337, "lat": 37.549999}}, {"id": 1854712, "name": "\u014cfunakoshi", "country": "JP", "coord": {"lon": 129.354721, "lat": 34.273331}}, {"id": 1854642, "name": "\u014cgimachiya", "country": "JP", "coord": {"lon": 139.399994, "lat": 35.833328}}, {"id": 1854588, "name": "\u014chama", "country": "JP", "coord": {"lon": 124.19706, "lat": 24.344481}}, {"id": 2111488, "name": "\u014chasama", "country": "JP", "coord": {"lon": 141.283325, "lat": 39.466671}}, {"id": 2111471, "name": "\u014cishida", "country": "JP", "coord": {"lon": 140.371384, "lat": 38.586941}}, {"id": 1854484, "name": "\u014cita-ken", "country": "JP", "coord": {"lon": 131.433533, "lat": 33.19899}}, {"id": 1854461, "name": "\u014cji", "country": "JP", "coord": {"lon": 135.616669, "lat": 34.98333}}, {"id": 2128690, "name": "\u014cmagari", "country": "JP", "coord": {"lon": 141.473892, "lat": 42.968891}}, {"id": 1854128, "name": "\u014cmiya", "country": "JP", "coord": {"lon": 138.616669, "lat": 35.216671}}, {"id": 1853904, "name": "\u014csaka-fu", "country": "JP", "coord": {"lon": 135.519684, "lat": 34.68631}}, {"id": 2111302, "name": "\u014ctsuki", "country": "JP", "coord": {"lon": 140.316666, "lat": 37.383331}}, {"id": 3046922, "name": "\u0150riszentp\u00e9ter", "country": "HU", "coord": {"lon": 16.42944, "lat": 46.840832}}, {"id": 6615087, "name": "\u0152ting", "country": "FR", "coord": {"lon": 6.91667, "lat": 49.166672}}, {"id": 3066849, "name": "\u0158itka", "country": "CZ", "coord": {"lon": 14.29923, "lat": 49.894508}}, {"id": 3086212, "name": "\u015aciegny", "country": "PL", "coord": {"lon": 15.77878, "lat": 50.788738}}, {"id": 7533214, "name": "\u015acinawa", "country": "PL", "coord": {"lon": 16.4251, "lat": 51.410099}}, {"id": 7533378, "name": "\u015arem", "country": "PL", "coord": {"lon": 17.0187, "lat": 52.0867}}, {"id": 7533339, "name": "\u015aroda Wielkopolska", "country": "PL", "coord": {"lon": 17.2803, "lat": 52.2299}}, {"id": 3085041, "name": "\u015ar\u00f3dmie\u015bcie", "country": "PL", "coord": {"lon": 19.939581, "lat": 50.061779}}, {"id": 7532248, "name": "\u015awidnica", "country": "PL", "coord": {"lon": 16.4925, "lat": 50.840599}}, {"id": 7531487, "name": "\u015awidnik", "country": "PL", "coord": {"lon": 22.68494, "lat": 51.216709}}, {"id": 757690, "name": "\u015awidnik Ma\u0142y", "country": "PL", "coord": {"lon": 22.6805, "lat": 51.256008}}, {"id": 7531696, "name": "\u015awidwin", "country": "PL", "coord": {"lon": 15.7973, "lat": 53.7742}}, {"id": 7531967, "name": "\u015awiebodzice", "country": "PL", "coord": {"lon": 16.338499, "lat": 50.872501}}, {"id": 7533428, "name": "\u015awiebodzin", "country": "PL", "coord": {"lon": 15.5311, "lat": 52.244202}}, {"id": 7533276, "name": "\u015awiecie", "country": "PL", "coord": {"lon": 18.418699, "lat": 53.403099}}, {"id": 7531973, "name": "\u015awierad\u00f3w-Zdr\u00f3j", "country": "PL", "coord": {"lon": 15.3231, "lat": 50.916901}}, {"id": 7531935, "name": "\u015awierklaniec", "country": "PL", "coord": {"lon": 18.936569, "lat": 50.442261}}, {"id": 7532592, "name": "\u015awierklany", "country": "PL", "coord": {"lon": 18.58046, "lat": 50.02026}}, {"id": 3083956, "name": "\u015awinobr\u00f3d", "country": "PL", "coord": {"lon": 17.059879, "lat": 50.84996}}, {"id": 7530749, "name": "\u015awinouj\u015bcie", "country": "PL", "coord": {"lon": 14.31313, "lat": 53.850201}}, {"id": 7532101, "name": "\u015awinouj\u015bcie", "country": "PL", "coord": {"lon": 14.3131, "lat": 53.850201}}, {"id": 7533033, "name": "\u015awi\u0105tniki G\u00f3rne", "country": "PL", "coord": {"lon": 19.954599, "lat": 49.932301}}, {"id": 7532438, "name": "\u015awi\u0119toch\u0142owice", "country": "PL", "coord": {"lon": 18.9102, "lat": 50.297901}}, {"id": 7530992, "name": "\u015awi\u0119toch\u0142owice", "country": "PL", "coord": {"lon": 18.910219, "lat": 50.297958}}, {"id": 298332, "name": "\u015eanl\u0131urfa", "country": "TR", "coord": {"lon": 38.781738, "lat": 37.21283}}, {"id": 739887, "name": "\u015eehremini", "country": "TR", "coord": {"lon": 28.931549, "lat": 41.015202}}, {"id": 739812, "name": "\u015eenlikk\u00f6y", "country": "TR", "coord": {"lon": 28.79817, "lat": 40.976849}}, {"id": 617426, "name": "\u015eerpeni", "country": "MD", "coord": {"lon": 29.34972, "lat": 47.020828}}, {"id": 101752, "name": "\u015eumaymah", "country": "SA", "coord": {"lon": 39.157711, "lat": 21.249649}}, {"id": 409419, "name": "\u015eu\u015fa \u015e\u0259h\u0259ri", "country": "AZ", "coord": {"lon": 46.75, "lat": 39.75}}, {"id": 443189, "name": "\u015e\u0131rnak", "country": "TR", "coord": {"lon": 42.5, "lat": 37.5}}, {"id": 113832, "name": "\u015e\u016bf\u012b\u0101b\u0101d", "country": "IR", "coord": {"lon": 53.320202, "lat": 35.457298}}, {"id": 828303, "name": "\u015e\u0259ki \u015e\u0259h\u0259ri", "country": "AZ", "coord": {"lon": 47.166672, "lat": 41.183331}}, {"id": 595043, "name": "\u0160akiai", "country": "LT", "coord": {"lon": 23.049999, "lat": 54.950001}}, {"id": 786100, "name": "\u0160apine", "country": "RS", "coord": {"lon": 21.363331, "lat": 44.572498}}, {"id": 864481, "name": "\u0160iauli\u0173 Apskritis", "country": "LT", "coord": {"lon": 23.33333, "lat": 56}}, {"id": 3337525, "name": "\u0160ibensko-Kninska \u017dupanija", "country": "HR", "coord": {"lon": 15.91667, "lat": 43.833328}}, {"id": 3319247, "name": "\u0160inovik", "country": "RS", "coord": {"lon": 19.72167, "lat": 43.74556}}, {"id": 3065138, "name": "\u0160t\u00edpa", "country": "CZ", "coord": {"lon": 17.73126, "lat": 49.26923}}, {"id": 785305, "name": "\u0160umarak", "country": "RS", "coord": {"lon": 21.139999, "lat": 44.821388}}, {"id": 3064681, "name": "\u0160umbark", "country": "CZ", "coord": {"lon": 18.404619, "lat": 49.79565}}, {"id": 618267, "name": "\u0162arigrad", "country": "MD", "coord": {"lon": 27.75083, "lat": 48.04472}}, {"id": 617206, "name": "\u0162aul", "country": "MD", "coord": {"lon": 27.672779, "lat": 48.215832}}, {"id": 665197, "name": "\u0162iba", "country": "RO", "coord": {"lon": 25.799999, "lat": 46.349998}}, {"id": 617202, "name": "\u0162ipordei", "country": "MD", "coord": {"lon": 28.61417, "lat": 47.93528}}, {"id": 9874, "name": "\u0162\u0101lesh Ma\u1e29alleh", "country": "IR", "coord": {"lon": 50.679192, "lat": 36.894329}}, {"id": 454726, "name": "\u016adri\u0146i", "country": "LV", "coord": {"lon": 25.678141, "lat": 57.616589}}, {"id": 1121941, "name": "\u016ar\u0101yin-e \u2018Uly\u0101", "country": "AF", "coord": {"lon": 62.182041, "lat": 33.24662}}, {"id": 7532682, "name": "\u017baga\u0144", "country": "PL", "coord": {"lon": 15.3156, "lat": 51.614899}}, {"id": 7532206, "name": "\u017bary", "country": "PL", "coord": {"lon": 15.1455, "lat": 51.6245}}, {"id": 7533405, "name": "\u017bar\u00f3w", "country": "PL", "coord": {"lon": 16.4932, "lat": 50.942799}}, {"id": 753392, "name": "\u017belech\u00f3w", "country": "PL", "coord": {"lon": 20.72777, "lat": 52.01532}}, {"id": 7533226, "name": "\u017bnin", "country": "PL", "coord": {"lon": 17.73, "lat": 52.844601}}, {"id": 7532344, "name": "\u017bory", "country": "PL", "coord": {"lon": 18.689199, "lat": 50.038898}}, {"id": 7530953, "name": "\u017bory", "country": "PL", "coord": {"lon": 18.6884, "lat": 50.03896}}, {"id": 7532743, "name": "\u017byrard\u00f3w", "country": "PL", "coord": {"lon": 20.4405, "lat": 52.0555}}, {"id": 7532176, "name": "\u017byrzyn", "country": "PL", "coord": {"lon": 22.070101, "lat": 51.5089}}, {"id": 7532895, "name": "\u017bywiec", "country": "PL", "coord": {"lon": 19.2097, "lat": 49.706299}}, {"id": 3080105, "name": "\u017b\u0142obizna", "country": "PL", "coord": {"lon": 17.45813, "lat": 50.842701}}, {"id": 3186994, "name": "\u017dabnica", "country": "SI", "coord": {"lon": 14.33306, "lat": 46.198608}}, {"id": 3061864, "name": "\u017dantov", "country": "CZ", "coord": {"lon": 15.04312, "lat": 50.485649}}, {"id": 3186764, "name": "\u017darkovac", "country": "RS", "coord": {"lon": 19.934719, "lat": 45.003609}}, {"id": 3061603, "name": "\u017delechovice nad D\u0159evnic\u00ed", "country": "CZ", "coord": {"lon": 17.74477, "lat": 49.217361}}, {"id": 3216562, "name": "\u017digoni", "country": "SI", "coord": {"lon": 13.66778, "lat": 45.879719}}, {"id": 3056506, "name": "\u017dilinsk\u00fd Kraj", "country": "SK", "coord": {"lon": 19.16667, "lat": 49.166672}}, {"id": 3061412, "name": "\u017di\u017ekov", "country": "CZ", "coord": {"lon": 14.45, "lat": 50.083328}}, {"id": 3061711, "name": "\u017d\u010f\u00e1r", "country": "CZ", "coord": {"lon": 15.95693, "lat": 50.433041}}, {"id": 819411, "name": "\u0410\u043a\u0441\u0438\u043d\u044c\u0438\u043d\u043e", "country": "RU", "coord": {"lon": 37.049999, "lat": 55.73}}, {"id": 6956552, "name": "\u0410\u0441\u0435\u043d\u043e\u0432\u0430 \u043c\u0430\u0445\u0430\u043b\u0430", "country": "BG", "coord": {"lon": 25.649929, "lat": 43.08643}}, {"id": 817459, "name": "\u0410\u0441\u0442\u0430\u0444\u044c\u0435\u0432\u043e", "country": "RU", "coord": {"lon": 37.970001, "lat": 55.099998}}, {"id": 816758, "name": "\u0411\u0435\u0440\u0435\u0437\u0435\u043d\u043a\u0438", "country": "RU", "coord": {"lon": 37.220001, "lat": 55.07}}, {"id": 71296900, "name": "\u0413\u043e\u043b\u0443\u0431\u0438\u043d\u043a\u0430", "country": "UA", "coord": {"lon": 33.92, "lat": 44.59}}, {"id": 817521, "name": "\u041a\u0443\u0437\u044c\u043c\u0438\u043d\u0441\u043a\u043e\u0435", "country": "RU", "coord": {"lon": 37.879723, "lat": 55.25111}}, {"id": 787827, "name": "\u041c\u0440\u0430\u043b\u0438\u043d\u043e", "country": "MK", "coord": {"lon": 21.60194, "lat": 41.95694}}, {"id": 2015953, "name": "\u0421\u0443\u0445\u0430\u044f \u041f\u0435\u0440\u0432\u0430\u044f", "country": "RU", "coord": {"lon": 109.800003, "lat": 53.73333}}, {"id": 820073, "name": "\u0424\u0435\u0434\u043e\u0440\u043e\u0432\u043a\u0430", "country": "RU", "coord": {"lon": 37.236111, "lat": 55.900276}}, {"id": 106297, "name": "\u1e28afar al B\u0101\u0163in", "country": "SA", "coord": {"lon": 45.970772, "lat": 28.432791}}, {"id": 75334, "name": "\u1e28ajjah", "country": "YE", "coord": {"lon": 43.6063, "lat": 15.63287}}, {"id": 106261, "name": "\u1e28ajlah", "country": "SA", "coord": {"lon": 42.633331, "lat": 18.25}}, {"id": 170031, "name": "\u1e28alk\u016b", "country": "SY", "coord": {"lon": 41.216671, "lat": 37.033329}}, {"id": 288131, "name": "\u1e28al\u016bf", "country": "OM", "coord": {"lon": 53.96524, "lat": 17.354679}}, {"id": 1438738, "name": "\u1e28am\u0101mak", "country": "AF", "coord": {"lon": 61.87384, "lat": 31.705509}}, {"id": 6780871, "name": "\u1e28asan Y\u016bsuf", "country": "IQ", "coord": {"lon": 44.273621, "lat": 32.479019}}, {"id": 7052836, "name": "\u1e28asan\u0101b\u0101d", "country": "IR", "coord": {"lon": 61.054298, "lat": 36.546501}}, {"id": 285629, "name": "\u1e28awall\u012b", "country": "KW", "coord": {"lon": 48.02861, "lat": 29.332781}}, {"id": 6772182, "name": "\u1e28aw\u012bl\u012byah", "country": "IQ", "coord": {"lon": 47.02256, "lat": 31.49262}}, {"id": 6776436, "name": "\u1e28aydar\u012byah", "country": "IQ", "coord": {"lon": 45.277351, "lat": 31.30686}}, {"id": 6780885, "name": "\u1e28ayy al Jan\u0101\u2019in", "country": "IQ", "coord": {"lon": 44.429401, "lat": 32.475891}}, {"id": 7637147, "name": "\u1e28ayy al \u1e28am\u012bd\u012byah", "country": "SY", "coord": {"lon": 36.717419, "lat": 34.73325}}, {"id": 435797, "name": "\u1e28ayy al \u2018Adl", "country": "IQ", "coord": {"lon": 43.300541, "lat": 33.418869}}, {"id": 7472737, "name": "\u1e28ayy as Sal\u0101m", "country": "YE", "coord": {"lon": 49.130562, "lat": 14.53314}}, {"id": 6871849, "name": "\u1e28ayy ash Sh\u012bsh\u012bn", "country": "IQ", "coord": {"lon": 43.687931, "lat": 34.593109}}, {"id": 6860697, "name": "\u1e28ayy a\u0163 \u0162ayar\u0101n", "country": "IQ", "coord": {"lon": 43.143951, "lat": 36.32299}}, {"id": 1139976, "name": "\u1e28a\u012brat\u0101n", "country": "AF", "coord": {"lon": 67.424103, "lat": 37.221401}}, {"id": 833, "name": "\u1e28e\u015f\u0101r-e Sef\u012bd", "country": "IR", "coord": {"lon": 47.159401, "lat": 34.330502}}, {"id": 2216746, "name": "\u1e28ij\u0101rah", "country": "LY", "coord": {"lon": 14.45642, "lat": 27.023001}}, {"id": 290240, "name": "\u1e28illat \u2018Abd a\u015f \u015e\u0101li\u1e29", "country": "BH", "coord": {"lon": 50.51667, "lat": 26.22139}}, {"id": 403403, "name": "\u1e28isy\u0101n as Saw\u0101b", "country": "SY", "coord": {"lon": 40.25988, "lat": 34.164299}}, {"id": 1466891, "name": "\u1e28ow\u1e95 K\u00ealay", "country": "AF", "coord": {"lon": 65.553902, "lat": 31.41453}}, {"id": 123256, "name": "\u1e28ow\u1e95-e Sorkh", "country": "IR", "coord": {"lon": 59.136929, "lat": 35.195129}}, {"id": 169492, "name": "\u1e28umaym\u012bm", "country": "SY", "coord": {"lon": 35.940449, "lat": 35.401791}}, {"id": 96215, "name": "\u1e28\u0101jj Sall\u016bm", "country": "IQ", "coord": {"lon": 44.349171, "lat": 33.455349}}, {"id": 7475283, "name": "\u1e28\u0101rat al Bust\u0101n", "country": "YE", "coord": {"lon": 42.951511, "lat": 14.79922}}, {"id": 1594018, "name": "\u1ea4p Ba", "country": "VN", "coord": {"lon": 108.212502, "lat": 16.04056}}, {"id": 1591793, "name": "\u1ea4p V\u1ea1n T\u1ef1 T\u00e2y", "country": "VN", "coord": {"lon": 109.099998, "lat": 12.15}}, {"id": 69349, "name": "\u2018Abb\u0101s\u0101b\u0101d-e Q\u016bsheh", "country": "IR", "coord": {"lon": 59.216671, "lat": 32.866669}}, {"id": 6806015, "name": "\u2018Abd Sha\u1e29\u1e29\u0101dh M\u016bs\u00e1", "country": "IQ", "coord": {"lon": 44.219349, "lat": 33.574348}}, {"id": 295740, "name": "\u2018Afula", "country": "IL", "coord": {"lon": 35.291672, "lat": 32.611111}}, {"id": 6835394, "name": "\u2018Alw\u0101n Mu\u1e29ammad", "country": "IQ", "coord": {"lon": 45.00959, "lat": 33.999084}}, {"id": 1148914, "name": "\u2018Al\u012b Mu\u1e29ammad Kh\u0113l", "country": "AF", "coord": {"lon": 69.418037, "lat": 33.518311}}, {"id": 99308, "name": "\u2018Al\u012b al A\u1e29mad", "country": "IQ", "coord": {"lon": 44.049999, "lat": 33.066666}}, {"id": 96269, "name": "\u2018Arab \u1e28asan as Suhayl", "country": "IQ", "coord": {"lon": 44.15752, "lat": 33.32304}}, {"id": 388692, "name": "\u2018Ashub", "country": "OM", "coord": {"lon": 56.231392, "lat": 26.1675}}, {"id": 8073072, "name": "\u2018Ayn S\u0101rah", "country": "PS", "coord": {"lon": 35.09882, "lat": 31.536489}}, {"id": 6759153, "name": "\u2018Ayn al Arnab", "country": "IQ", "coord": {"lon": 42.462509, "lat": 33.605831}}, {"id": 295582, "name": "\u2018Azriqam", "country": "IL", "coord": {"lon": 34.700001, "lat": 31.75}}, {"id": 378020, "name": "\u2018Az\u0101zah", "country": "SD", "coord": {"lon": 35.299999, "lat": 14.13333}}, {"id": 295189, "name": "\u2018En Netafim", "country": "IL", "coord": {"lon": 34.882801, "lat": 29.584299}}, {"id": 295179, "name": "\u2018En Zetim", "country": "IL", "coord": {"lon": 35.48513, "lat": 32.994781}}, {"id": 357542, "name": "\u2018Ezbet el-Auq\u00e2t", "country": "EG", "coord": {"lon": 31.30526, "lat": 29.865339}}, {"id": 357678, "name": "\u2018Izbat Ab\u016b \u2018A\u0163wah", "country": "EG", "coord": {"lon": 32.260559, "lat": 30.5644}}, {"id": 415505, "name": "\u2018Izbat N\u0101d\u012b a\u015f \u015eayd", "country": "EG", "coord": {"lon": 29.936859, "lat": 31.17889}}, {"id": 414338, "name": "\u2018Uqrat \u015eaf\u1e29ah", "country": "EG", "coord": {"lon": 33.87167, "lat": 28.664721}}, {"id": 285375, "name": "\u2018Ushaysh al Jahr\u0101\u2019", "country": "KW", "coord": {"lon": 47.663891, "lat": 29.31583}}, {"id": 391749, "name": "\u2018U\u015fayfir\u0101t", "country": "SA", "coord": {"lon": 49.432049, "lat": 26.10927}}, {"id": 290624, "name": "\u2018\u016ad al Bay\u1e11\u0101\u2019", "country": "AE", "coord": {"lon": 55.45533, "lat": 25.016251}}, {"id": 2508044, "name": "\u2019A\u00efn Khalfoun", "country": "DZ", "coord": {"lon": 5.33836, "lat": 36.176102}}, {"id": 2508186, "name": "\u2019A\u00efn el Be\u00efda", "country": "DZ", "coord": {"lon": 5.39954, "lat": 31.9377}}, {"id": 7302982, "name": "\u5fa1\u5f71", "country": "JP", "coord": {"lon": 135.252426, "lat": 34.724258}}, {"id": 7303001, "name": "\u677e\u5c71\u5e02", "country": "JP", "coord": {"lon": 132.756729, "lat": 33.83905}}, {"id": 7302983, "name": "\u82a6\u5c4b", "country": "JP", "coord": {"lon": 135.30719, "lat": 34.733921}}, {"id": 6802827, "name": "\uad34\ub0b4", "country": "KR", "coord": {"lon": 127.320099, "lat": 37.507198}}]