[{"id": 7927370, "name": "Kolej", "country": "TR", "coord": {"lon": 32.863369, "lat": 39.923882}}, {"id": 322165, "name": "Balikesir", "country": "TR", "coord": {"lon": 27.88611, "lat": 39.64917}}, {"id": 2172929, "name": "Buxton", "country": "AU", "coord": {"lon": 145.716675, "lat": -37.416672}}, {"id": 254695, "name": "Nom\u00f3s Prev\u00e9zis", "country": "GR", "coord": {"lon": 20.66667, "lat": 39.166672}}, {"id": 7869868, "name": "ChangQiao", "country": "CN", "coord": {"lon": 116.380188, "lat": 39.929871}}, {"id": 2078732, "name": "Two Rocks", "country": "AU", "coord": {"lon": 115.58889, "lat": -31.55056}}, {"id": 4503289, "name": "North Beach Haven", "country": "US", "coord": {"lon": -74.231529, "lat": 39.57317}}, {"id": 5697515, "name": "Merklin Trailer Court", "country": "US", "coord": {"lon": -101.53183, "lat": 40.051941}}, {"id": 6540757, "name": "Cavallino", "country": "IT", "coord": {"lon": 18.20042, "lat": 40.312531}}, {"id": 6541862, "name": "Nuoro", "country": "IT", "coord": {"lon": 9.32973, "lat": 40.32106}}, {"id": 4828388, "name": "Narita", "country": "US", "coord": {"lon": -89.218979, "lat": 39.983101}}, {"id": 6539377, "name": "Terralba", "country": "IT", "coord": {"lon": 8.63773, "lat": 39.717442}}, {"id": 6359239, "name": "Aranjuez", "country": "ES", "coord": {"lon": -3.65907, "lat": 40.020199}}, {"id": 4910663, "name": "Savoy", "country": "US", "coord": {"lon": -88.251717, "lat": 40.054749}}, {"id": 6541744, "name": "Bernalda", "country": "IT", "coord": {"lon": 16.69199, "lat": 40.412819}}, {"id": 5577516, "name": "Granby", "country": "US", "coord": {"lon": -105.939461, "lat": 40.086102}}, {"id": 5561455, "name": "Clam Beach", "country": "US", "coord": {"lon": -124.112007, "lat": 40.994572}}, {"id": 5426615, "name": "Joes", "country": "US", "coord": {"lon": -102.678818, "lat": 39.65638}}, {"id": 6542117, "name": "Salerno", "country": "IT", "coord": {"lon": 14.80374, "lat": 40.663212}}, {"id": 6357980, "name": "Pareja", "country": "ES", "coord": {"lon": -2.65927, "lat": 40.57457}}, {"id": 3124408, "name": "Coslada", "country": "ES", "coord": {"lon": -3.56129, "lat": 40.423779}}, {"id": 750598, "name": "Bilecik", "country": "TR", "coord": {"lon": 29.979321, "lat": 40.141918}}, {"id": 743952, "name": "Kars", "country": "TR", "coord": {"lon": 43.094952, "lat": 40.60199}}, {"id": 3172188, "name": "Provincia di Novara", "country": "IT", "coord": {"lon": 8.57781, "lat": 45.585331}}, {"id": 5705621, "name": "Lee", "country": "US", "coord": {"lon": -115.607559, "lat": 40.56826}}, {"id": 6361603, "name": "Rubielos de Mora", "country": "ES", "coord": {"lon": -0.67023, "lat": 40.18272}}, {"id": 3108126, "name": "Teruel", "country": "ES", "coord": {"lon": -1.10646, "lat": 40.3456}}, {"id": 6138813, "name": "Saint-Narcisse", "country": "CA", "coord": {"lon": -72.470512, "lat": 46.56395}}, {"id": 5937615, "name": "Delta", "country": "CA", "coord": {"lon": -122.906799, "lat": 49.14399}}, {"id": 5154665, "name": "Flat Rock", "country": "US", "coord": {"lon": -82.860191, "lat": 41.235889}}, {"id": 6542327, "name": "San Nicola la Strada", "country": "IT", "coord": {"lon": 14.33133, "lat": 41.051811}}, {"id": 6538780, "name": "Fontanarosa", "country": "IT", "coord": {"lon": 15.02054, "lat": 41.01812}}, {"id": 5095231, "name": "Apshawa", "country": "US", "coord": {"lon": -74.36293, "lat": 41.017601}}, {"id": 259973, "name": "Chios", "country": "GR", "coord": {"lon": 26.13583, "lat": 38.367779}}, {"id": 3165828, "name": "Tempio Pausania", "country": "IT", "coord": {"lon": 9.10352, "lat": 40.897369}}, {"id": 4868205, "name": "Mount Pleasant", "country": "US", "coord": {"lon": -91.557938, "lat": 40.963638}}, {"id": 5784610, "name": "Reese", "country": "US", "coord": {"lon": -112.152443, "lat": 41.250221}}, {"id": 740264, "name": "Samsun", "country": "TR", "coord": {"lon": 36.330002, "lat": 41.286671}}, {"id": 1484838, "name": "Toshkent Viloyati", "country": "UZ", "coord": {"lon": 69.666672, "lat": 41}}, {"id": 743882, "name": "Kastamonu", "country": "TR", "coord": {"lon": 33.77528, "lat": 41.378052}}, {"id": 6361281, "name": "Cambrils", "country": "ES", "coord": {"lon": 1.04832, "lat": 41.07613}}, {"id": 6360625, "name": "Fasnia", "country": "ES", "coord": {"lon": -16.44211, "lat": 28.231911}}, {"id": 6356211, "name": "Sabadell", "country": "ES", "coord": {"lon": 2.10137, "lat": 41.548779}}, {"id": 3119224, "name": "La Plana Rodona", "country": "ES", "coord": {"lon": 1.70501, "lat": 41.318699}}, {"id": 5215178, "name": "Tanglewood", "country": "US", "coord": {"lon": -75.170448, "lat": 41.415089}}, {"id": 6362437, "name": "Loiu", "country": "ES", "coord": {"lon": -2.91271, "lat": 43.310539}}, {"id": 5837377, "name": "Salt Wells", "country": "US", "coord": {"lon": -108.985947, "lat": 41.65469}}, {"id": 5555513, "name": "West Laramie", "country": "US", "coord": {"lon": -105.620552, "lat": 41.308868}}, {"id": 6542115, "name": "Latina", "country": "IT", "coord": {"lon": 12.89729, "lat": 41.464409}}, {"id": 3170196, "name": "Pontinia", "country": "IT", "coord": {"lon": 13.0441, "lat": 41.410912}}, {"id": 6545108, "name": "Las Tres Torres", "country": "ES", "coord": {"lon": 2.12931, "lat": 41.399891}}, {"id": 6362983, "name": "Zaragoza", "country": "ES", "coord": {"lon": -0.88303, "lat": 41.648289}}, {"id": 4850657, "name": "Cedar", "country": "US", "coord": {"lon": -92.525742, "lat": 41.212231}}, {"id": 6541467, "name": "Cosenza", "country": "IT", "coord": {"lon": 16.250191, "lat": 39.30999}}, {"id": 4905006, "name": "Ottawa", "country": "US", "coord": {"lon": -88.842583, "lat": 41.345589}}, {"id": 5159178, "name": "Jerrys First Addition", "country": "US", "coord": {"lon": -84.574669, "lat": 41.498661}}, {"id": 5839391, "name": "Speer", "country": "US", "coord": {"lon": -104.895523, "lat": 41.054428}}, {"id": 6361976, "name": "Chiva", "country": "ES", "coord": {"lon": -0.73423, "lat": 39.483608}}, {"id": 7874189, "name": "L\u00e9rida", "country": "ES", "coord": {"lon": 0.62556, "lat": 41.613892}}, {"id": 6355513, "name": "Villena", "country": "ES", "coord": {"lon": -0.94476, "lat": 38.641911}}, {"id": 3106528, "name": "Vallfogona de Balaguer", "country": "ES", "coord": {"lon": 0.81385, "lat": 41.75211}}, {"id": 3115233, "name": "Oimbra", "country": "ES", "coord": {"lon": -7.47216, "lat": 41.88554}}, {"id": 6534051, "name": "Cru\u00eflles, Monells i Sant Sadurn\u00ed de l'Heura", "country": "ES", "coord": {"lon": 2.98874, "lat": 41.932259}}, {"id": 6144618, "name": "Seymour Arm", "country": "CA", "coord": {"lon": -118.952377, "lat": 51.233139}}, {"id": 2513562, "name": "Moratalla", "country": "ES", "coord": {"lon": -1.89183, "lat": 38.189281}}, {"id": 2821425, "name": "Trebnitz", "country": "DE", "coord": {"lon": 14.21667, "lat": 52.533329}}, {"id": 7260729, "name": "Crescent City North", "country": "US", "coord": {"lon": -124.216988, "lat": 41.766022}}, {"id": 7647864, "name": "Greinveien", "country": "NO", "coord": {"lon": 10.47466, "lat": 59.290829}}, {"id": 3181628, "name": "Bracciano", "country": "IT", "coord": {"lon": 12.17543, "lat": 42.103062}}, {"id": 6358377, "name": "Nueno", "country": "ES", "coord": {"lon": -0.31703, "lat": 42.294239}}, {"id": 3120514, "name": "Huesca", "country": "ES", "coord": {"lon": -0.4087, "lat": 42.13615}}, {"id": 5007331, "name": "Rives Junction", "country": "US", "coord": {"lon": -84.461632, "lat": 42.385872}}, {"id": 1529077, "name": "Xahbulak", "country": "CN", "coord": {"lon": 83.25, "lat": 42.200001}}, {"id": 6539329, "name": "Porcia", "country": "IT", "coord": {"lon": 12.61352, "lat": 45.965511}}, {"id": 3110574, "name": "Sant Jaume de Llierca", "country": "ES", "coord": {"lon": 2.61667, "lat": 42.216671}}, {"id": 3105976, "name": "Vigo", "country": "ES", "coord": {"lon": -8.72264, "lat": 42.232819}}, {"id": 6538649, "name": "Cittaducale", "country": "IT", "coord": {"lon": 12.95698, "lat": 42.387131}}, {"id": 4863737, "name": "Konigsmark", "country": "US", "coord": {"lon": -91.692398, "lat": 41.889999}}, {"id": 6541691, "name": "Avezzano", "country": "IT", "coord": {"lon": 13.4388, "lat": 42.04023}}, {"id": 3116653, "name": "Moana", "country": "ES", "coord": {"lon": -8.75, "lat": 42.283329}}, {"id": 3114965, "name": "Ourense", "country": "ES", "coord": {"lon": -7.85, "lat": 42.333328}}, {"id": 4893590, "name": "Genet", "country": "US", "coord": {"lon": -89.075661, "lat": 42.342522}}, {"id": 8085328, "name": "Level Acres Mobile Home Park", "country": "US", "coord": {"lon": -77.925407, "lat": 42.092098}}, {"id": 4884026, "name": "Bancroft Corners", "country": "US", "coord": {"lon": -87.862022, "lat": 42.421131}}, {"id": 4931520, "name": "Brookside", "country": "US", "coord": {"lon": -73.357338, "lat": 42.16898}}, {"id": 3119172, "name": "Laracha", "country": "ES", "coord": {"lon": -8.58535, "lat": 43.25375}}, {"id": 5107543, "name": "Austerlitz", "country": "US", "coord": {"lon": -73.473167, "lat": 42.311749}}, {"id": 7225262, "name": "Valley View Mobile Home Park", "country": "US", "coord": {"lon": -75.531937, "lat": 42.558609}}, {"id": 6538609, "name": "Massa Marittima", "country": "IT", "coord": {"lon": 10.89283, "lat": 43.04903}}, {"id": 3174112, "name": "Manciano", "country": "IT", "coord": {"lon": 11.51625, "lat": 42.587921}}, {"id": 3121832, "name": "Fuentesnuevas", "country": "ES", "coord": {"lon": -6.64039, "lat": 42.574459}}, {"id": 6540722, "name": "Tortoreto", "country": "IT", "coord": {"lon": 13.9116, "lat": 42.809052}}, {"id": 6359515, "name": "Beniel", "country": "ES", "coord": {"lon": -0.99502, "lat": 38.03257}}, {"id": 3110880, "name": "San Andres del Rabanedo", "country": "ES", "coord": {"lon": -5.61671, "lat": 42.61174}}, {"id": 6356747, "name": "Casar de Palomero", "country": "ES", "coord": {"lon": -6.26223, "lat": 40.290081}}, {"id": 3111130, "name": "Sahechores", "country": "ES", "coord": {"lon": -5.2055, "lat": 42.62849}}, {"id": 3111273, "name": "Rub\u00edn", "country": "ES", "coord": {"lon": -8.4, "lat": 42.700001}}, {"id": 3107539, "name": "Tred\u00f3s", "country": "ES", "coord": {"lon": 0.91459, "lat": 42.70187}}, {"id": 7295037, "name": "Clevedon", "country": "GB", "coord": {"lon": -2.85311, "lat": 51.434219}}, {"id": 5359604, "name": "Inyo County", "country": "US", "coord": {"lon": -117.417572, "lat": 36.583271}}, {"id": 4670756, "name": "Anderson County", "country": "US", "coord": {"lon": -95.666901, "lat": 31.816839}}, {"id": 6544475, "name": "Pianetto", "country": "IT", "coord": {"lon": 11.07396, "lat": 42.745628}}, {"id": 1854083, "name": "Omuta", "country": "JP", "coord": {"lon": 130.449997, "lat": 33.033329}}, {"id": 6360995, "name": "Espartinas", "country": "ES", "coord": {"lon": -6.1269, "lat": 37.386452}}, {"id": 6536873, "name": "Gualdo Tadino", "country": "IT", "coord": {"lon": 12.78096, "lat": 43.231651}}, {"id": 3176854, "name": "Foligno", "country": "IT", "coord": {"lon": 12.70107, "lat": 42.944038}}, {"id": 2944541, "name": "Breitenstein", "country": "DE", "coord": {"lon": 9.04797, "lat": 48.631691}}, {"id": 5819347, "name": "Boulder", "country": "US", "coord": {"lon": -109.717651, "lat": 42.74828}}, {"id": 5241643, "name": "Stratton", "country": "US", "coord": {"lon": -72.910927, "lat": 43.042858}}, {"id": 5816882, "name": "Air Base Acres", "country": "US", "coord": {"lon": -106.441139, "lat": 42.882191}}, {"id": 3181697, "name": "Bosco", "country": "IT", "coord": {"lon": 12.46667, "lat": 43.133331}}, {"id": 6358157, "name": "Donostia-San Sebasti\u00e1n", "country": "ES", "coord": {"lon": -1.98851, "lat": 43.291809}}, {"id": 3107358, "name": "Ubera", "country": "ES", "coord": {"lon": -2.46045, "lat": 43.134441}}, {"id": 6359680, "name": "Izagaondoa", "country": "ES", "coord": {"lon": -1.43147, "lat": 42.742668}}, {"id": 3124002, "name": "Curtis", "country": "ES", "coord": {"lon": -8.06667, "lat": 43.083328}}, {"id": 3129944, "name": "Anuncibay", "country": "ES", "coord": {"lon": -2.93333, "lat": 43.133331}}, {"id": 5000873, "name": "Marine City", "country": "US", "coord": {"lon": -82.492126, "lat": 42.719479}}, {"id": 6541466, "name": "Siena", "country": "IT", "coord": {"lon": 11.33283, "lat": 43.320042}}, {"id": 3036264, "name": "D\u00e9partement de l'Aude", "country": "FR", "coord": {"lon": 2.5, "lat": 43.083328}}, {"id": 6614944, "name": "Ferrals-les-Corbi\u00e8res", "country": "FR", "coord": {"lon": 2.73333, "lat": 43.150002}}, {"id": 6358094, "name": "Aduna", "country": "ES", "coord": {"lon": -2.05475, "lat": 43.214809}}, {"id": 7247544, "name": "Sugartree Mobile Home Park", "country": "US", "coord": {"lon": -83.37944, "lat": 43.503609}}, {"id": 4470398, "name": "Haywood County", "country": "US", "coord": {"lon": -82.96653, "lat": 35.550098}}, {"id": 6540106, "name": "Macerata", "country": "IT", "coord": {"lon": 13.44108, "lat": 43.298161}}, {"id": 5281189, "name": "Air City", "country": "US", "coord": {"lon": -75.422401, "lat": 43.22007}}, {"id": 5828759, "name": "Jeffrey City", "country": "US", "coord": {"lon": -107.827301, "lat": 42.494678}}, {"id": 3111934, "name": "Erretuerto", "country": "ES", "coord": {"lon": -2.98333, "lat": 43.283329}}, {"id": 6360720, "name": "Santander", "country": "ES", "coord": {"lon": -3.81994, "lat": 43.472252}}, {"id": 3126180, "name": "Carrejo", "country": "ES", "coord": {"lon": -4.23754, "lat": 43.294159}}, {"id": 3167684, "name": "Santa Cristina", "country": "IT", "coord": {"lon": 12.53333, "lat": 43.316669}}, {"id": 5267785, "name": "Portage", "country": "US", "coord": {"lon": -89.462624, "lat": 43.53915}}, {"id": 6533980, "name": "Valldemossa", "country": "ES", "coord": {"lon": 2.62037, "lat": 39.71003}}, {"id": 7284885, "name": "Marseille 04", "country": "FR", "coord": {"lon": 5.40141, "lat": 43.302132}}, {"id": 6359929, "name": "Gij\u00f3n", "country": "ES", "coord": {"lon": -5.67732, "lat": 43.529308}}, {"id": 3114711, "name": "Oviedo", "country": "ES", "coord": {"lon": -5.84476, "lat": 43.360291}}, {"id": 3129329, "name": "Arteixo", "country": "ES", "coord": {"lon": -8.50749, "lat": 43.304821}}, {"id": 7249863, "name": "Winter's Motor Court", "country": "US", "coord": {"lon": -83.790283, "lat": 43.277222}}, {"id": 6440286, "name": "Bayonne", "country": "FR", "coord": {"lon": -1.48333, "lat": 43.48333}}, {"id": 6431998, "name": "Masseube", "country": "FR", "coord": {"lon": 0.58333, "lat": 43.433331}}, {"id": 3112550, "name": "Quintana", "country": "ES", "coord": {"lon": -4.84723, "lat": 43.423561}}, {"id": 6362805, "name": "Fuentes de Ebro", "country": "ES", "coord": {"lon": -0.62886, "lat": 41.492512}}, {"id": 5089451, "name": "Meredith Center", "country": "US", "coord": {"lon": -71.529243, "lat": 43.614239}}, {"id": 3129460, "name": "Arnuero", "country": "ES", "coord": {"lon": -3.56959, "lat": 43.477558}}, {"id": 5596475, "name": "Idaho Falls", "country": "US", "coord": {"lon": -112.034142, "lat": 43.466579}}, {"id": 6612453, "name": "Saint-Gilles", "country": "FR", "coord": {"lon": 4.43333, "lat": 43.683331}}, {"id": 5092947, "name": "South Tamworth", "country": "US", "coord": {"lon": -71.303131, "lat": 43.824799}}, {"id": 2636381, "name": "Swingfield", "country": "GB", "coord": {"lon": 1.18944, "lat": 51.146511}}, {"id": 3108606, "name": "Soto del Barco", "country": "ES", "coord": {"lon": -6.06984, "lat": 43.532879}}, {"id": 5036062, "name": "Luverne", "country": "US", "coord": {"lon": -96.212807, "lat": 43.65414}}, {"id": 4956755, "name": "Androscoggin County", "country": "US", "coord": {"lon": -70.166161, "lat": 44.16674}}, {"id": 4979261, "name": "South Sanford", "country": "US", "coord": {"lon": -70.742561, "lat": 43.41119}}, {"id": 5049229, "name": "Sungold Heights Mobile Home Park", "country": "US", "coord": {"lon": -95.57473, "lat": 43.63385}}, {"id": 5026119, "name": "Fairmont Estates", "country": "US", "coord": {"lon": -94.443298, "lat": 43.668011}}, {"id": 6538507, "name": "Camerano", "country": "IT", "coord": {"lon": 13.55158, "lat": 43.531261}}, {"id": 3176718, "name": "Fornacette", "country": "IT", "coord": {"lon": 10.56667, "lat": 43.666672}}, {"id": 6444965, "name": "Soual", "country": "FR", "coord": {"lon": 2.11667, "lat": 43.549999}}, {"id": 6538450, "name": "Carpi", "country": "IT", "coord": {"lon": 10.8777, "lat": 44.782372}}, {"id": 2037470, "name": "Erlong", "country": "CN", "coord": {"lon": 123.033333, "lat": 45.366669}}, {"id": 6542121, "name": "Lucca", "country": "IT", "coord": {"lon": 10.50705, "lat": 43.848228}}, {"id": 6432126, "name": "Sarrant", "country": "FR", "coord": {"lon": 0.91667, "lat": 43.76667}}, {"id": 6435671, "name": "Surtainville", "country": "FR", "coord": {"lon": -1.8091, "lat": 49.455002}}, {"id": 6539891, "name": "Carmignano", "country": "IT", "coord": {"lon": 11.01552, "lat": 43.811352}}, {"id": 5085900, "name": "Enfield", "country": "US", "coord": {"lon": -72.143982, "lat": 43.640629}}, {"id": 5032145, "name": "Judge", "country": "US", "coord": {"lon": -92.476013, "lat": 43.899132}}, {"id": 3038223, "name": "Arrondissement d'Al\u00e8s", "country": "FR", "coord": {"lon": 4.08333, "lat": 44.166672}}, {"id": 6433166, "name": "Cholonge", "country": "FR", "coord": {"lon": 5.8, "lat": 45}}, {"id": 5762320, "name": "Ajax", "country": "US", "coord": {"lon": -103.181847, "lat": 43.897491}}, {"id": 5021610, "name": "Clinton Falls", "country": "US", "coord": {"lon": -93.24688, "lat": 44.138851}}, {"id": 5236027, "name": "Fairlee", "country": "US", "coord": {"lon": -72.143417, "lat": 43.90757}}, {"id": 6618043, "name": "Digne-les-Bains", "country": "FR", "coord": {"lon": 6.236, "lat": 44.0928}}, {"id": 6536080, "name": "Cairo Montenotte", "country": "IT", "coord": {"lon": 8.27455, "lat": 44.403141}}, {"id": 6541982, "name": "Riccione", "country": "IT", "coord": {"lon": 12.64465, "lat": 44.00507}}, {"id": 2831194, "name": "Sonnenberg", "country": "DE", "coord": {"lon": 8.26667, "lat": 50.099998}}, {"id": 6451407, "name": "Castelsagrat", "country": "FR", "coord": {"lon": 0.95, "lat": 44.183331}}, {"id": 4956915, "name": "Ash Point", "country": "US", "coord": {"lon": -69.086708, "lat": 44.055641}}, {"id": 3038260, "name": "Arrondissement d'Albi", "country": "FR", "coord": {"lon": 2, "lat": 43.916672}}, {"id": 6536754, "name": "Bertinoro", "country": "IT", "coord": {"lon": 12.13424, "lat": 44.148659}}, {"id": 3178957, "name": "Cesena", "country": "IT", "coord": {"lon": 12.24315, "lat": 44.139099}}, {"id": 6538153, "name": "Gorzegno", "country": "IT", "coord": {"lon": 8.13514, "lat": 44.51284}}, {"id": 5826603, "name": "Greybull", "country": "US", "coord": {"lon": -108.056213, "lat": 44.48912}}, {"id": 5246505, "name": "Borth", "country": "US", "coord": {"lon": -88.89595, "lat": 44.091091}}, {"id": 4859624, "name": "Hamilton County", "country": "US", "coord": {"lon": -93.716881, "lat": 42.383308}}, {"id": 3035679, "name": "Arrondissement d'Avignon", "country": "FR", "coord": {"lon": 4.83333, "lat": 44.083328}}, {"id": 6454124, "name": "Morcenx", "country": "FR", "coord": {"lon": -0.91667, "lat": 44.033329}}, {"id": 6427683, "name": "Yolet", "country": "FR", "coord": {"lon": 2.53333, "lat": 44.933331}}, {"id": 6540156, "name": "La Spezia", "country": "IT", "coord": {"lon": 9.84339, "lat": 44.110538}}, {"id": 3180465, "name": "Ca Rossa", "country": "IT", "coord": {"lon": 12.2, "lat": 44.48333}}, {"id": 6542282, "name": "Genoa", "country": "IT", "coord": {"lon": 8.95729, "lat": 44.412861}}, {"id": 5828620, "name": "Jack Pine", "country": "US", "coord": {"lon": -110.434067, "lat": 43.32605}}, {"id": 3035691, "name": "D\u00e9partement de l'Aveyron", "country": "FR", "coord": {"lon": 2.5, "lat": 44.25}}, {"id": 3037147, "name": "D\u00e9partement de l'Ard\u00e8che", "country": "FR", "coord": {"lon": 4.33333, "lat": 44.666672}}, {"id": 6454928, "name": "Aubenas", "country": "FR", "coord": {"lon": 4.38333, "lat": 44.616669}}, {"id": 5026291, "name": "Faribault", "country": "US", "coord": {"lon": -93.268829, "lat": 44.29496}}, {"id": 5226534, "name": "Brookings", "country": "US", "coord": {"lon": -96.798393, "lat": 44.311359}}, {"id": 7259253, "name": "Ellsworth Air Force Base", "country": "US", "coord": {"lon": -103.075073, "lat": 44.143951}}, {"id": 5255099, "name": "Greenville", "country": "US", "coord": {"lon": -88.536499, "lat": 44.300259}}, {"id": 6538439, "name": "Castellarano", "country": "IT", "coord": {"lon": 10.7329, "lat": 44.513062}}, {"id": 3181928, "name": "Bologna", "country": "IT", "coord": {"lon": 11.33875, "lat": 44.493809}}, {"id": 6539772, "name": "Stazzano", "country": "IT", "coord": {"lon": 8.86995, "lat": 44.727348}}, {"id": 3169001, "name": "Roncocesi", "country": "IT", "coord": {"lon": 10.6, "lat": 44.73333}}, {"id": 5723995, "name": "Dry Creek", "country": "US", "coord": {"lon": -123.27565, "lat": 44.505119}}, {"id": 6541040, "name": "Vigarano Mainarda", "country": "IT", "coord": {"lon": 11.49471, "lat": 44.84008}}, {"id": 6541958, "name": "Alcamo", "country": "IT", "coord": {"lon": 12.95654, "lat": 37.998348}}, {"id": 3163957, "name": "Voltri", "country": "IT", "coord": {"lon": 8.74855, "lat": 44.429729}}, {"id": 3012715, "name": "D\u00e9partement de l'Is\u00e8re", "country": "FR", "coord": {"lon": 5.83333, "lat": 45.166672}}, {"id": 5264475, "name": "New Richmond", "country": "US", "coord": {"lon": -92.536591, "lat": 45.12302}}, {"id": 6540588, "name": "Nerviano", "country": "IT", "coord": {"lon": 8.97774, "lat": 45.556671}}, {"id": 3174702, "name": "Lingotto", "country": "IT", "coord": {"lon": 7.65, "lat": 45.033329}}, {"id": 5612492, "name": "Williams Lake Resort", "country": "US", "coord": {"lon": -113.965897, "lat": 45.011871}}, {"id": 6537196, "name": "Menconico", "country": "IT", "coord": {"lon": 9.27946, "lat": 44.796558}}, {"id": 5118380, "name": "Genesee County", "country": "US", "coord": {"lon": -78.183067, "lat": 43.000622}}, {"id": 5038018, "name": "Montevideo", "country": "US", "coord": {"lon": -95.72364, "lat": 44.942459}}, {"id": 3166018, "name": "Susa", "country": "IT", "coord": {"lon": 7.05461, "lat": 45.137539}}, {"id": 5722090, "name": "Damascus Heights", "country": "US", "coord": {"lon": -122.449257, "lat": 45.420681}}, {"id": 5637141, "name": "Amsterdam", "country": "US", "coord": {"lon": -111.319962, "lat": 45.75798}}, {"id": 6429478, "name": "P\u00e9rigueux", "country": "FR", "coord": {"lon": 0.71667, "lat": 45.183331}}, {"id": 4986628, "name": "Bonner Landing", "country": "US", "coord": {"lon": -85.579529, "lat": 45.70417}}, {"id": 6538559, "name": "Figline Valdarno", "country": "IT", "coord": {"lon": 11.46933, "lat": 43.619549}}, {"id": 5043556, "name": "Rockford", "country": "US", "coord": {"lon": -93.734413, "lat": 45.088299}}, {"id": 6542113, "name": "Brescia", "country": "IT", "coord": {"lon": 10.22727, "lat": 45.52478}}, {"id": 3169756, "name": "Punta Gorzone", "country": "IT", "coord": {"lon": 12.25, "lat": 45.183331}}, {"id": 6613821, "name": "Fongrave", "country": "FR", "coord": {"lon": 0.5345, "lat": 44.396099}}, {"id": 5733154, "name": "Island City", "country": "US", "coord": {"lon": -118.044662, "lat": 45.340969}}, {"id": 3164565, "name": "Vercelli", "country": "IT", "coord": {"lon": 8.41533, "lat": 45.323059}}, {"id": 5042561, "name": "Ramsey", "country": "US", "coord": {"lon": -93.449997, "lat": 45.261101}}, {"id": 3178792, "name": "Chievo", "country": "IT", "coord": {"lon": 10.93333, "lat": 45.450001}}, {"id": 3173369, "name": "Mirano", "country": "IT", "coord": {"lon": 12.10472, "lat": 45.494438}}, {"id": 3175627, "name": "Jesolo", "country": "IT", "coord": {"lon": 12.64475, "lat": 45.533112}}, {"id": 5766453, "name": "Lemmon", "country": "US", "coord": {"lon": -102.159317, "lat": 45.94083}}, {"id": 6536460, "name": "Gressan", "country": "IT", "coord": {"lon": 7.2869, "lat": 45.720661}}, {"id": 5000625, "name": "Manistique", "country": "US", "coord": {"lon": -86.246246, "lat": 45.957748}}, {"id": 6448711, "name": "Apprieu", "country": "FR", "coord": {"lon": 5.5, "lat": 45.400002}}, {"id": 5038252, "name": "Morris", "country": "US", "coord": {"lon": -95.91394, "lat": 45.586071}}, {"id": 3179228, "name": "Cedas", "country": "IT", "coord": {"lon": 13.73785, "lat": 45.694279}}, {"id": 3165185, "name": "Trieste", "country": "IT", "coord": {"lon": 13.78, "lat": 45.648609}}, {"id": 3168429, "name": "San Dona di Piave", "country": "IT", "coord": {"lon": 12.56944, "lat": 45.631672}}, {"id": 3165255, "name": "Tre Madonne", "country": "IT", "coord": {"lon": 11.28333, "lat": 44.5}}, {"id": 6537122, "name": "Monza", "country": "IT", "coord": {"lon": 9.27485, "lat": 45.582481}}, {"id": 6542116, "name": "Bergamo", "country": "IT", "coord": {"lon": 9.66895, "lat": 45.697979}}, {"id": 667267, "name": "Jude\u0163ul Sibiu", "country": "RO", "coord": {"lon": 24.143829, "lat": 45.784279}}, {"id": 665091, "name": "Jude\u0163ul Timi\u015f", "country": "RO", "coord": {"lon": 21.5, "lat": 45.666672}}, {"id": 6537150, "name": "Cologno al Serio", "country": "IT", "coord": {"lon": 9.70876, "lat": 45.582081}}, {"id": 6541866, "name": "Gorizia", "country": "IT", "coord": {"lon": 13.61834, "lat": 45.934319}}, {"id": 2758461, "name": "Gemeente Boxmeer", "country": "NL", "coord": {"lon": 5.95, "lat": 51.633331}}, {"id": 6537935, "name": "Roveredo in Piano", "country": "IT", "coord": {"lon": 12.62232, "lat": 46.008919}}, {"id": 6542022, "name": "Farra d'Alpago", "country": "IT", "coord": {"lon": 12.35151, "lat": 46.12542}}, {"id": 3219546, "name": "Glamosa", "country": "IT", "coord": {"lon": 12.17417, "lat": 46.125561}}, {"id": 5680485, "name": "Stevensville", "country": "US", "coord": {"lon": -114.093163, "lat": 46.509918}}, {"id": 6450752, "name": "Denic\u00e9", "country": "FR", "coord": {"lon": 4.65, "lat": 46}}, {"id": 686253, "name": "Jude\u0163ul Arad", "country": "RO", "coord": {"lon": 21.75, "lat": 46.333328}}, {"id": 665873, "name": "Subcetate", "country": "RO", "coord": {"lon": 21.316669, "lat": 46.183331}}, {"id": 6538362, "name": "Campoformido", "country": "IT", "coord": {"lon": 13.16243, "lat": 46.019321}}, {"id": 5034222, "name": "Lastrup", "country": "US", "coord": {"lon": -94.063316, "lat": 46.03941}}, {"id": 3051774, "name": "Hangy\u00e1sm\u00e1l", "country": "HU", "coord": {"lon": 17.799999, "lat": 46.366669}}, {"id": 3038422, "name": "D\u00e9partement de l'Ain", "country": "FR", "coord": {"lon": 5.33333, "lat": 46.166672}}, {"id": 6424664, "name": "Saint-Genis-Pouilly", "country": "FR", "coord": {"lon": 6.01667, "lat": 46.25}}, {"id": 5005136, "name": "Payment", "country": "US", "coord": {"lon": -84.140297, "lat": 46.5303}}, {"id": 6443062, "name": "Thonon-les-Bains", "country": "FR", "coord": {"lon": 6.48333, "lat": 46.366669}}, {"id": 2655241, "name": "Bolsover District", "country": "GB", "coord": {"lon": -1.27237, "lat": 53.196941}}, {"id": 6458896, "name": "District d'Aigle", "country": "CH", "coord": {"lon": 7.02974, "lat": 46.305771}}, {"id": 722437, "name": "Bekescsaba", "country": "HU", "coord": {"lon": 21.1, "lat": 46.683331}}, {"id": 5246099, "name": "Black River", "country": "US", "coord": {"lon": -92.147423, "lat": 46.56216}}, {"id": 6543120, "name": "Montagna in Valtellina", "country": "IT", "coord": {"lon": 9.90295, "lat": 46.178501}}, {"id": 7285007, "name": "District de l'Ouest lausannois", "country": "CH", "coord": {"lon": 6.56995, "lat": 46.545891}}, {"id": 6536018, "name": "Tirolo - Tirol", "country": "IT", "coord": {"lon": 11.15427, "lat": 46.691021}}, {"id": 3176594, "name": "Frangarto", "country": "IT", "coord": {"lon": 11.3, "lat": 46.48333}}, {"id": 3263542, "name": "Ri\u0111u\u0161i\u0107a Han", "country": "BA", "coord": {"lon": 17.84833, "lat": 43.28833}}, {"id": 6433484, "name": "Ch\u00e2teau-des-Pr\u00e9s", "country": "FR", "coord": {"lon": 5.9, "lat": 46.5}}, {"id": 5018910, "name": "Boise De Sioux Mobile Estates", "country": "US", "coord": {"lon": -96.589439, "lat": 46.25444}}, {"id": 721592, "name": "Csongrad", "country": "HU", "coord": {"lon": 20.14242, "lat": 46.713322}}, {"id": 6442263, "name": "Frontenaud", "country": "FR", "coord": {"lon": 5.3, "lat": 46.549999}}, {"id": 2767470, "name": "Politischer Bezirk Ried im Innkreis", "country": "AT", "coord": {"lon": 13.46667, "lat": 48.23333}}, {"id": 672460, "name": "Jude\u0163ul Neam\u0163", "country": "RO", "coord": {"lon": 26.5, "lat": 47}}, {"id": 673150, "name": "Calarasi", "country": "RO", "coord": {"lon": 27.299999, "lat": 44.216671}}, {"id": 5017596, "name": "Beaver Crossing", "country": "US", "coord": {"lon": -91.524887, "lat": 47.242149}}, {"id": 6453745, "name": "Sancerre", "country": "FR", "coord": {"lon": 2.83333, "lat": 47.333328}}, {"id": 6429944, "name": "Pontarlier", "country": "FR", "coord": {"lon": 6.35544, "lat": 46.903488}}, {"id": 6433573, "name": "Gevry", "country": "FR", "coord": {"lon": 5.45, "lat": 47.033329}}, {"id": 5808140, "name": "Regal", "country": "US", "coord": {"lon": -120.46701, "lat": 46.990131}}, {"id": 3012805, "name": "D\u00e9partement de l'Indre", "country": "FR", "coord": {"lon": 1.66667, "lat": 46.833328}}, {"id": 2769976, "name": "Oberlangkampfen", "country": "AT", "coord": {"lon": 12.08333, "lat": 47.51667}}, {"id": 2776589, "name": "Heiligen Gestade", "country": "AT", "coord": {"lon": 13.95, "lat": 46.650002}}, {"id": 2772396, "name": "Politischer Bezirk Linz Land", "country": "AT", "coord": {"lon": 14.3, "lat": 48.166672}}, {"id": 3046039, "name": "Rabkert\u00e9szet", "country": "HU", "coord": {"lon": 17.91667, "lat": 47.099998}}, {"id": 2659895, "name": "Liebistorf", "country": "CH", "coord": {"lon": 7.19636, "lat": 46.90881}}, {"id": 6435253, "name": "Mouliherne", "country": "FR", "coord": {"lon": 0.01667, "lat": 47.466671}}, {"id": 6332701, "name": "Pine Mountain Trailer Court", "country": "US", "coord": {"lon": -90.36306, "lat": 47.826389}}, {"id": 3012804, "name": "D\u00e9partement d'Indre-et-Loire", "country": "FR", "coord": {"lon": 0.75, "lat": 47.25}}, {"id": 6429774, "name": "Exincourt", "country": "FR", "coord": {"lon": 6.83333, "lat": 47.5}}, {"id": 6454607, "name": "Vesoul", "country": "FR", "coord": {"lon": 6.1559, "lat": 47.622601}}, {"id": 3053281, "name": "Erd", "country": "HU", "coord": {"lon": 18.913601, "lat": 47.39489}}, {"id": 7129116, "name": "Bel Air Mobile Manor", "country": "US", "coord": {"lon": -92.216667, "lat": 46.832779}}, {"id": 8133697, "name": "Dimos Naxos and Lesser Cyclades", "country": "GR", "coord": {"lon": 25.50046, "lat": 37.04314}}, {"id": 3023423, "name": "D\u00e9partement de la C\u00f4te-d'Or", "country": "FR", "coord": {"lon": 4.83333, "lat": 47.5}}, {"id": 6428895, "name": "Sincey-l\u00e8s-Rouvray", "country": "FR", "coord": {"lon": 4.13333, "lat": 47.433331}}, {"id": 5051601, "name": "Wabasha County", "country": "US", "coord": {"lon": -92.216843, "lat": 44.283298}}, {"id": 3038011, "name": "Arrondissement d'Altkirch", "country": "FR", "coord": {"lon": 7.16667, "lat": 47.583328}}, {"id": 5796977, "name": "Hazard", "country": "US", "coord": {"lon": -117.518837, "lat": 47.87767}}, {"id": 3214108, "name": "Landkreis L\u00f6rrach", "country": "DE", "coord": {"lon": 7.76556, "lat": 47.70583}}, {"id": 7285770, "name": "Eschlikon", "country": "CH", "coord": {"lon": 8.96284, "lat": 47.458279}}, {"id": 6454342, "name": "Quiberon", "country": "FR", "coord": {"lon": -3.11667, "lat": 47.48333}}, {"id": 2842688, "name": "Saalfeld", "country": "DE", "coord": {"lon": 11.36667, "lat": 50.650002}}, {"id": 2766154, "name": "Politischer Bezirk Sch\u00e4rding", "country": "AT", "coord": {"lon": 13.6, "lat": 48.433331}}, {"id": 7872833, "name": "Alland", "country": "AT", "coord": {"lon": 16.080851, "lat": 48.039532}}, {"id": 2807212, "name": "Wittorf", "country": "DE", "coord": {"lon": 9.96667, "lat": 54.049999}}, {"id": 5058868, "name": "Devils Lake", "country": "US", "coord": {"lon": -98.86512, "lat": 48.112782}}, {"id": 5799801, "name": "King Hill", "country": "US", "coord": {"lon": -123.274902, "lat": 48.038151}}, {"id": 5814838, "name": "Wagner", "country": "US", "coord": {"lon": -121.936508, "lat": 47.87899}}, {"id": 2601052, "name": "Kordonsiedlung", "country": "AT", "coord": {"lon": 16.256121, "lat": 48.217522}}, {"id": 6430987, "name": "Plomodiern", "country": "FR", "coord": {"lon": -4.23333, "lat": 48.183331}}, {"id": 3056485, "name": "Zliechov", "country": "SK", "coord": {"lon": 18.43475, "lat": 48.952431}}, {"id": 5606743, "name": "Selle", "country": "US", "coord": {"lon": -116.489639, "lat": 48.356869}}, {"id": 3036420, "name": "D\u00e9partement de l'Aube", "country": "FR", "coord": {"lon": 4.08333, "lat": 48.25}}, {"id": 6453634, "name": "Troyes", "country": "FR", "coord": {"lon": 4.08333, "lat": 48.299999}}, {"id": 2868502, "name": "M\u00fchld\u00f6rfl", "country": "DE", "coord": {"lon": 11.11795, "lat": 47.529369}}, {"id": 6556218, "name": "Eichenau", "country": "DE", "coord": {"lon": 11.3212, "lat": 48.1721}}, {"id": 2869120, "name": "Mosbach", "country": "DE", "coord": {"lon": 9.14278, "lat": 49.353889}}, {"id": 3019316, "name": "D\u00e9partement d'Eure-et-Loir", "country": "FR", "coord": {"lon": 1.5, "lat": 48.5}}, {"id": 2877550, "name": "Lindau", "country": "DE", "coord": {"lon": 9.68333, "lat": 47.549999}}, {"id": 2831948, "name": "Sindelfingen", "country": "DE", "coord": {"lon": 9.01667, "lat": 48.700001}}, {"id": 3061186, "name": "Banska Bystrica", "country": "SK", "coord": {"lon": 19.15349, "lat": 48.73946}}, {"id": 6555798, "name": "Rust", "country": "DE", "coord": {"lon": 7.73333, "lat": 48.266701}}, {"id": 6436331, "name": "Saint-Dizier", "country": "FR", "coord": {"lon": 4.95, "lat": 48.633331}}, {"id": 5647366, "name": "Culbertson", "country": "US", "coord": {"lon": -104.516899, "lat": 48.144459}}, {"id": 6457365, "name": "Arrondissement d'\u00c9tampes", "country": "FR", "coord": {"lon": 2.165, "lat": 48.436699}}, {"id": 6553664, "name": "Bremm", "country": "DE", "coord": {"lon": 7.11667, "lat": 50.099998}}, {"id": 7121930, "name": "Skyline Mobile Park", "country": "US", "coord": {"lon": -94.89167, "lat": 47.496941}}, {"id": 2908399, "name": "Heddesdorf", "country": "DE", "coord": {"lon": 7.46667, "lat": 50.433331}}, {"id": 6437464, "name": "Dabo", "country": "FR", "coord": {"lon": 7.23333, "lat": 48.650002}}, {"id": 6614423, "name": "Montmurat", "country": "FR", "coord": {"lon": 2.2, "lat": 44.633331}}, {"id": 3220722, "name": "Stadtkreis Mannheim", "country": "DE", "coord": {"lon": 8.5, "lat": 49.496391}}, {"id": 6555623, "name": "Bietigheim", "country": "DE", "coord": {"lon": 8.25, "lat": 48.916698}}, {"id": 2863609, "name": "Niederberg", "country": "DE", "coord": {"lon": 6.76667, "lat": 50.73333}}, {"id": 2856827, "name": "Ostalbkreis", "country": "DE", "coord": {"lon": 10.0975, "lat": 48.874439}}, {"id": 6555501, "name": "Leutenbach", "country": "DE", "coord": {"lon": 9.39252, "lat": 48.887901}}, {"id": 2949323, "name": "Bichl", "country": "DE", "coord": {"lon": 11.95, "lat": 47.716671}}, {"id": 6618626, "name": "Paris 20", "country": "FR", "coord": {"lon": 2.3984, "lat": 48.864601}}, {"id": 723846, "name": "Poprad", "country": "SK", "coord": {"lon": 20.297979, "lat": 49.06144}}, {"id": 3065138, "name": "\u0160t\u00edpa", "country": "CZ", "coord": {"lon": 17.73126, "lat": 49.26923}}, {"id": 3019317, "name": "D\u00e9partement de l'Eure", "country": "FR", "coord": {"lon": 1, "lat": 49.166672}}, {"id": 6430629, "name": "Saint-Pierre-du-Bosgu\u00e9rard", "country": "FR", "coord": {"lon": 0.9, "lat": 49.26667}}, {"id": 6443967, "name": "Fontenay-Mauvoisin", "country": "FR", "coord": {"lon": 1.65, "lat": 48.966671}}, {"id": 3220813, "name": "Landkreis Passau", "country": "DE", "coord": {"lon": 13.29389, "lat": 48.599442}}, {"id": 6556546, "name": "Gotteszell", "country": "DE", "coord": {"lon": 12.9667, "lat": 48.966702}}, {"id": 3068293, "name": "Pisek", "country": "CZ", "coord": {"lon": 14.1475, "lat": 49.3088}}, {"id": 3068830, "name": "Oslavany", "country": "CZ", "coord": {"lon": 16.336531, "lat": 49.123348}}, {"id": 3064911, "name": "St\u0159\u00edte\u017e", "country": "CZ", "coord": {"lon": 15.89325, "lat": 49.191319}}, {"id": 2972110, "name": "Tracros", "country": "FR", "coord": {"lon": 2.75139, "lat": 45.78088}}, {"id": 6437249, "name": "Verdun", "country": "FR", "coord": {"lon": 5.38333, "lat": 49.166672}}, {"id": 2810125, "name": "Westheim", "country": "DE", "coord": {"lon": 8.32444, "lat": 49.249168}}, {"id": 3059080, "name": "Likavka", "country": "SK", "coord": {"lon": 19.311621, "lat": 49.09256}}, {"id": 2921667, "name": "Geislautern", "country": "DE", "coord": {"lon": 6.83333, "lat": 49.23333}}, {"id": 6555325, "name": "Heltersberg", "country": "DE", "coord": {"lon": 7.71667, "lat": 49.3167}}, {"id": 6555315, "name": "Busenberg", "country": "DE", "coord": {"lon": 7.82907, "lat": 49.130241}}, {"id": 6430448, "name": "Igoville", "country": "FR", "coord": {"lon": 1.15, "lat": 49.316669}}, {"id": 6554926, "name": "Weisenheim am Sand", "country": "DE", "coord": {"lon": 8.24778, "lat": 49.518101}}, {"id": 2948825, "name": "Bingen am Rhein", "country": "DE", "coord": {"lon": 7.9, "lat": 49.966671}}, {"id": 3068160, "name": "Plzen", "country": "CZ", "coord": {"lon": 13.37759, "lat": 49.747471}}, {"id": 6453595, "name": "Rethel", "country": "FR", "coord": {"lon": 4.36667, "lat": 49.51667}}, {"id": 2929873, "name": "Epfenbach", "country": "DE", "coord": {"lon": 8.91667, "lat": 49.333328}}, {"id": 6555942, "name": "Kusterdingen", "country": "DE", "coord": {"lon": 9.11938, "lat": 48.522999}}, {"id": 2829758, "name": "Stadtlohn", "country": "DE", "coord": {"lon": 6.93333, "lat": 51.98333}}, {"id": 3038375, "name": "D\u00e9partement de l'Aisne", "country": "FR", "coord": {"lon": 3.5, "lat": 49.5}}, {"id": 2891007, "name": "Kierwang", "country": "DE", "coord": {"lon": 10.23333, "lat": 47.466671}}, {"id": 2858592, "name": "Oberweinberg", "country": "DE", "coord": {"lon": 12.66667, "lat": 49.033329}}, {"id": 6556881, "name": "Veitsbronn", "country": "DE", "coord": {"lon": 10.8936, "lat": 49.5047}}, {"id": 3078748, "name": "B\u0159evnov", "country": "CZ", "coord": {"lon": 14.3831, "lat": 50.074379}}, {"id": 2989663, "name": "D\u00e9partement de l'Oise", "country": "FR", "coord": {"lon": 2.5, "lat": 49.5}}, {"id": 6438901, "name": "Pronleroy", "country": "FR", "coord": {"lon": 2.55, "lat": 49.466671}}, {"id": 7530726, "name": "Bia\u0142a Podlaska", "country": "PL", "coord": {"lon": 23.138309, "lat": 52.029041}}, {"id": 3069615, "name": "Nov\u00e1 Ves", "country": "CZ", "coord": {"lon": 18.37068, "lat": 49.577621}}, {"id": 6554766, "name": "Mehring", "country": "DE", "coord": {"lon": 6.8296, "lat": 49.7901}}, {"id": 6556271, "name": "Unterdie\u00dfen", "country": "DE", "coord": {"lon": 10.8333, "lat": 47.983299}}, {"id": 3075291, "name": "Horn\u00ed Morava", "country": "CZ", "coord": {"lon": 16.801189, "lat": 50.145611}}, {"id": 3070325, "name": "Moravska Trebova", "country": "CZ", "coord": {"lon": 16.664261, "lat": 49.757931}}, {"id": 6555272, "name": "Gensingen", "country": "DE", "coord": {"lon": 7.93333, "lat": 49.900002}}, {"id": 2858498, "name": "Dammbach", "country": "DE", "coord": {"lon": 9.32756, "lat": 49.857738}}, {"id": 6693317, "name": "Redange-sur-Attert", "country": "LU", "coord": {"lon": 5.89083, "lat": 49.76556}}, {"id": 2960183, "name": "Pettingen", "country": "LU", "coord": {"lon": 6.10917, "lat": 49.770279}}, {"id": 2846989, "name": "Riemerling", "country": "DE", "coord": {"lon": 11.68242, "lat": 48.060242}}, {"id": 2950257, "name": "Landkreis Bergstra\u00dfe", "country": "DE", "coord": {"lon": 8.66722, "lat": 49.666939}}, {"id": 2836320, "name": "Schorndorf", "country": "DE", "coord": {"lon": 9.52721, "lat": 48.80537}}, {"id": 2791836, "name": "Malmaison", "country": "BE", "coord": {"lon": 5.69962, "lat": 49.897228}}, {"id": 7292026, "name": "Tremaine", "country": "GB", "coord": {"lon": -4.50528, "lat": 50.684681}}, {"id": 3038788, "name": "Arrondissement d'Abbeville", "country": "FR", "coord": {"lon": 1.75, "lat": 50.166672}}, {"id": 3074967, "name": "Hradec Kralove", "country": "CZ", "coord": {"lon": 15.83277, "lat": 50.209229}}, {"id": 6553678, "name": "Ernst", "country": "DE", "coord": {"lon": 7.23333, "lat": 50.150002}}, {"id": 2946589, "name": "Bolsdorf", "country": "DE", "coord": {"lon": 6.66667, "lat": 50.283329}}, {"id": 3036783, "name": "Arrondissement d'Arras", "country": "FR", "coord": {"lon": 2.66667, "lat": 50.25}}, {"id": 2992522, "name": "Montgon", "country": "FR", "coord": {"lon": 3.21936, "lat": 45.283649}}, {"id": 3210390, "name": "Marktrodach", "country": "DE", "coord": {"lon": 11.38333, "lat": 50.25}}, {"id": 3065872, "name": "Slatinice", "country": "CZ", "coord": {"lon": 17.09992, "lat": 49.56155}}, {"id": 7530782, "name": "Powiat strzy\u017cowski", "country": "PL", "coord": {"lon": 21.749491, "lat": 49.87698}}, {"id": 6438173, "name": "Cond\u00e9-sur-l'Escaut", "country": "FR", "coord": {"lon": 3.58333, "lat": 50.450001}}, {"id": 3035697, "name": "Arrondissement d'Avesnes-sur-Helpe", "country": "FR", "coord": {"lon": 3.83333, "lat": 50.166672}}, {"id": 3074110, "name": "Jirkov", "country": "CZ", "coord": {"lon": 13.44769, "lat": 50.49979}}, {"id": 6553067, "name": "Kall", "country": "DE", "coord": {"lon": 6.555, "lat": 50.527401}}, {"id": 2822736, "name": "Thierstein", "country": "DE", "coord": {"lon": 12.1, "lat": 50.099998}}, {"id": 2892916, "name": "Kreisfreie Stadt Chemnitz", "country": "DE", "coord": {"lon": 12.93611, "lat": 50.83194}}, {"id": 6548558, "name": "Pockau", "country": "DE", "coord": {"lon": 13.2798, "lat": 50.724098}}, {"id": 2897180, "name": "Husen", "country": "DE", "coord": {"lon": 7.5961, "lat": 51.55912}}, {"id": 7533207, "name": "Nekla", "country": "PL", "coord": {"lon": 17.4058, "lat": 52.384998}}, {"id": 3068039, "name": "Podlusky", "country": "CZ", "coord": {"lon": 14.22851, "lat": 50.422569}}, {"id": 7530739, "name": "Powiat janowski", "country": "PL", "coord": {"lon": 22.41147, "lat": 50.745579}}, {"id": 7533529, "name": "Jan\u00f3w Lubelski", "country": "PL", "coord": {"lon": 22.413601, "lat": 50.7006}}, {"id": 2935022, "name": "Dresden", "country": "DE", "coord": {"lon": 13.73832, "lat": 51.050892}}, {"id": 6553051, "name": "Roetgen", "country": "DE", "coord": {"lon": 6.2, "lat": 50.650002}}, {"id": 2794054, "name": "Arrondissement Kortrijk", "country": "BE", "coord": {"lon": 3.30993, "lat": 50.82098}}, {"id": 6550345, "name": "Bad Klosterlausnitz", "country": "DE", "coord": {"lon": 11.8667, "lat": 50.916698}}, {"id": 2947618, "name": "Bl\u00f6sien", "country": "DE", "coord": {"lon": 11.91667, "lat": 51.333328}}, {"id": 7530849, "name": "Powiat wo\u0142owski", "country": "PL", "coord": {"lon": 16.613991, "lat": 51.372021}}, {"id": 2634729, "name": "Wartling", "country": "GB", "coord": {"lon": 0.35431, "lat": 50.858791}}, {"id": 6450300, "name": "Aubi\u00e8re", "country": "FR", "coord": {"lon": 3.11667, "lat": 45.75}}, {"id": 7290678, "name": "Teignbridge District", "country": "GB", "coord": {"lon": -3.65167, "lat": 50.612}}, {"id": 7290653, "name": "Worthing District", "country": "GB", "coord": {"lon": -0.38686, "lat": 50.831909}}, {"id": 2144382, "name": "Wattagong", "country": "AU", "coord": {"lon": 151.199997, "lat": -33.01667}}, {"id": 2651048, "name": "Dover", "country": "GB", "coord": {"lon": 1.3, "lat": 51.133331}}, {"id": 7290642, "name": "Spelthorne District", "country": "GB", "coord": {"lon": -0.46044, "lat": 51.424469}}, {"id": 6550142, "name": "Mannstedt", "country": "DE", "coord": {"lon": 11.3833, "lat": 51.133301}}, {"id": 6548545, "name": "Tirpersdorf", "country": "DE", "coord": {"lon": 12.25, "lat": 50.4333}}, {"id": 2934246, "name": "Dusseldorf", "country": "DE", "coord": {"lon": 6.77616, "lat": 51.221722}}, {"id": 2516394, "name": "Provincia de Ja\u00e9n", "country": "ES", "coord": {"lon": -3.5, "lat": 38}}, {"id": 2647716, "name": "Gwynedd", "country": "GB", "coord": {"lon": -3.91667, "lat": 52.833328}}, {"id": 6547224, "name": "Moor Park", "country": "GB", "coord": {"lon": -0.43412, "lat": 51.629501}}, {"id": 2652843, "name": "Clifton", "country": "GB", "coord": {"lon": -2.62, "lat": 51.461109}}, {"id": 2637349, "name": "South Oxfordshire District", "country": "GB", "coord": {"lon": -1.06667, "lat": 51.666672}}, {"id": 2855745, "name": "Paderborn", "country": "DE", "coord": {"lon": 8.75439, "lat": 51.719051}}, {"id": 2750630, "name": "Monster", "country": "NL", "coord": {"lon": 4.175, "lat": 52.025829}}, {"id": 2948831, "name": "Binenwalde", "country": "DE", "coord": {"lon": 12.8, "lat": 53.049999}}, {"id": 2751772, "name": "Gemeente Leiden", "country": "NL", "coord": {"lon": 4.48333, "lat": 52.150002}}, {"id": 7290654, "name": "Bromsgrove District", "country": "GB", "coord": {"lon": -2.00521, "lat": 52.361279}}, {"id": 7290660, "name": "Cambridge District", "country": "GB", "coord": {"lon": 0.12823, "lat": 52.19714}}, {"id": 7839641, "name": "Swan", "country": "AU", "coord": {"lon": 116.087463, "lat": -31.77039}}, {"id": 2828105, "name": "Steinfurt", "country": "DE", "coord": {"lon": 7.33664, "lat": 52.150452}}, {"id": 6553105, "name": "Lotte", "country": "DE", "coord": {"lon": 7.91667, "lat": 52.283298}}, {"id": 2866880, "name": "Naundorf", "country": "DE", "coord": {"lon": 13.9, "lat": 51.466671}}, {"id": 2641431, "name": "Northampton", "country": "GB", "coord": {"lon": -0.8812, "lat": 52.23439}}, {"id": 6558441, "name": "Apelern", "country": "DE", "coord": {"lon": 9.31588, "lat": 52.302299}}, {"id": 2849249, "name": "Rehren", "country": "DE", "coord": {"lon": 9.23333, "lat": 52.23333}}, {"id": 2963397, "name": "Kilkenny", "country": "IE", "coord": {"lon": -7.25, "lat": 52.583328}}, {"id": 2960964, "name": "Loch Garman", "country": "IE", "coord": {"lon": -6.4575, "lat": 52.334171}}, {"id": 2744946, "name": "Weberbuurt", "country": "NL", "coord": {"lon": 4.66667, "lat": 52.316669}}, {"id": 2638717, "name": "Saint Neots", "country": "GB", "coord": {"lon": -0.26667, "lat": 52.216671}}, {"id": 2939872, "name": "Consrade", "country": "DE", "coord": {"lon": 11.47968, "lat": 53.568298}}, {"id": 2810539, "name": "Westend", "country": "DE", "coord": {"lon": 13.6, "lat": 52.450001}}, {"id": 6556416, "name": "Surberg", "country": "DE", "coord": {"lon": 12.7, "lat": 47.866699}}, {"id": 6557378, "name": "Helmstedt, Stadt", "country": "DE", "coord": {"lon": 11.00176, "lat": 52.231602}}, {"id": 2833588, "name": "Seestall", "country": "DE", "coord": {"lon": 10.86667, "lat": 47.966671}}, {"id": 7290597, "name": "North Norfolk District", "country": "GB", "coord": {"lon": 1.1936, "lat": 52.83577}}, {"id": 7297121, "name": "Whixall", "country": "GB", "coord": {"lon": -2.7409, "lat": 52.906898}}, {"id": 7290596, "name": "King's Lynn and West Norfolk District", "country": "GB", "coord": {"lon": 0.48929, "lat": 52.712582}}, {"id": 6552560, "name": "H\u00f6fer", "country": "DE", "coord": {"lon": 10.25, "lat": 52.6833}}, {"id": 6552473, "name": "Betheln", "country": "DE", "coord": {"lon": 9.8, "lat": 52.116699}}, {"id": 2804313, "name": "Ziemetshausen", "country": "DE", "coord": {"lon": 10.53503, "lat": 48.292439}}, {"id": 3310247, "name": "Shannon", "country": "IE", "coord": {"lon": -8.86417, "lat": 52.703892}}, {"id": 2648735, "name": "Gedney Hill", "country": "GB", "coord": {"lon": -0.02008, "lat": 52.684341}}, {"id": 3303113, "name": "Ballytarsha Cross Roads", "country": "IE", "coord": {"lon": -6.87472, "lat": 52.749168}}, {"id": 3291024, "name": "Lohercannan", "country": "IE", "coord": {"lon": -9.73056, "lat": 52.26667}}, {"id": 2963436, "name": "Kildare", "country": "IE", "coord": {"lon": -6.91444, "lat": 53.156109}}, {"id": 2960936, "name": "Wicklow", "country": "IE", "coord": {"lon": -6.04944, "lat": 52.974998}}, {"id": 8133690, "name": "Dimos Patras", "country": "GR", "coord": {"lon": 21.79558, "lat": 38.2155}}, {"id": 7295552, "name": "Ringway", "country": "GB", "coord": {"lon": -2.28619, "lat": 53.35796}}, {"id": 6551495, "name": "Sandesneben", "country": "DE", "coord": {"lon": 10.4912, "lat": 53.688}}, {"id": 6552445, "name": "Eydelstedt", "country": "DE", "coord": {"lon": 8.55, "lat": 52.700001}}, {"id": 6547398, "name": "Klocksin", "country": "DE", "coord": {"lon": 12.55, "lat": 53.633301}}, {"id": 3313943, "name": "Templeoran", "country": "IE", "coord": {"lon": -7.38333, "lat": 53.400829}}, {"id": 6555903, "name": "Grenzach-Wyhlen", "country": "DE", "coord": {"lon": 7.68333, "lat": 47.549999}}, {"id": 2965119, "name": "Corraun", "country": "IE", "coord": {"lon": -8.76667, "lat": 53.716671}}, {"id": 2962029, "name": "Portarlington", "country": "IE", "coord": {"lon": -7.19111, "lat": 53.16222}}, {"id": 6552179, "name": "D\u00e4geling", "country": "DE", "coord": {"lon": 9.53333, "lat": 53.883301}}, {"id": 6556775, "name": "Niederf\u00fcllbach", "country": "DE", "coord": {"lon": 10.9833, "lat": 50.216702}}, {"id": 2917729, "name": "Grellsb\u00fcll", "country": "DE", "coord": {"lon": 8.86667, "lat": 54.866669}}, {"id": 6551690, "name": "Hemdingen", "country": "DE", "coord": {"lon": 9.83333, "lat": 53.766701}}, {"id": 2963940, "name": "Gortlee", "country": "IE", "coord": {"lon": -7.72556, "lat": 54.955002}}, {"id": 6551696, "name": "Kummerfeld", "country": "DE", "coord": {"lon": 9.78333, "lat": 53.6833}}, {"id": 7290608, "name": "Harrogate District", "country": "GB", "coord": {"lon": -1.58821, "lat": 54.076321}}, {"id": 6551342, "name": "Krempel", "country": "DE", "coord": {"lon": 9.03333, "lat": 54.3167}}, {"id": 6554094, "name": "Roth", "country": "DE", "coord": {"lon": 7.9, "lat": 50.266701}}, {"id": 6551835, "name": "Flintbek", "country": "DE", "coord": {"lon": 10.0667, "lat": 54.25}}, {"id": 6551711, "name": "Barmissen", "country": "DE", "coord": {"lon": 10.1833, "lat": 54.200001}}, {"id": 2834178, "name": "Schwinge", "country": "DE", "coord": {"lon": 9.38333, "lat": 53.549999}}, {"id": 6179602, "name": "Wetaskiwin", "country": "CA", "coord": {"lon": -113.36869, "lat": 52.966831}}, {"id": 6552023, "name": "Harrislee", "country": "DE", "coord": {"lon": 9.38333, "lat": 54.799999}}, {"id": 2856727, "name": "Oster Bargum", "country": "DE", "coord": {"lon": 8.96667, "lat": 54.700001}}, {"id": 7290664, "name": "Carlisle District", "country": "GB", "coord": {"lon": -2.83114, "lat": 54.982498}}, {"id": 2617743, "name": "Lilholt", "country": "DK", "coord": {"lon": 9.29281, "lat": 55.221642}}, {"id": 2620223, "name": "Hjerting", "country": "DK", "coord": {"lon": 9.03757, "lat": 55.392578}}, {"id": 2613292, "name": "Snoldelev", "country": "DK", "coord": {"lon": 12.12757, "lat": 55.56918}}, {"id": 2693678, "name": "Lund", "country": "SE", "coord": {"lon": 13.19321, "lat": 55.705841}}, {"id": 2616087, "name": "Norsminde", "country": "DK", "coord": {"lon": 10.2621, "lat": 56.026958}}, {"id": 2617000, "name": "Mejdal", "country": "DK", "coord": {"lon": 8.65067, "lat": 56.346619}}, {"id": 2619068, "name": "Karup", "country": "DK", "coord": {"lon": 9.16835, "lat": 56.306728}}, {"id": 2615006, "name": "Randers", "country": "DK", "coord": {"lon": 10.05, "lat": 56.466671}}, {"id": 2708365, "name": "Halmstad", "country": "SE", "coord": {"lon": 12.85676, "lat": 56.674461}}, {"id": 2663536, "name": "Vaexjoe", "country": "SE", "coord": {"lon": 14.80906, "lat": 56.87767}}, {"id": 2718839, "name": "Bua", "country": "SE", "coord": {"lon": 12.13333, "lat": 57.23333}}, {"id": 2685915, "name": "\u00d6sterby", "country": "SE", "coord": {"lon": 18.799999, "lat": 57.716671}}, {"id": 2693524, "name": "Lunna", "country": "SE", "coord": {"lon": 11.99306, "lat": 57.458328}}, {"id": 2657306, "name": "Angus", "country": "GB", "coord": {"lon": -2.91667, "lat": 56.666672}}, {"id": 2689018, "name": "Norrahammar", "country": "SE", "coord": {"lon": 14.1, "lat": 57.700001}}, {"id": 5866308, "name": "King Cove", "country": "US", "coord": {"lon": -162.310287, "lat": 55.061668}}, {"id": 6453396, "name": "Sandefjord", "country": "NO", "coord": {"lon": 10.21971, "lat": 59.128811}}, {"id": 2649966, "name": "Eoropie", "country": "GB", "coord": {"lon": -6.26667, "lat": 58.5}}, {"id": 2686657, "name": "Orebro", "country": "SE", "coord": {"lon": 15.2066, "lat": 59.27412}}, {"id": 2726416, "name": "Alster", "country": "SE", "coord": {"lon": 13.61369, "lat": 59.398529}}, {"id": 2703321, "name": "Jannelund", "country": "SE", "coord": {"lon": 14.43333, "lat": 59.23333}}, {"id": 2676176, "name": "Soedertaelje", "country": "SE", "coord": {"lon": 17.62525, "lat": 59.195541}}, {"id": 2673730, "name": "Stockholm", "country": "SE", "coord": {"lon": 18.064899, "lat": 59.332581}}, {"id": 6453394, "name": "Porsgrunn", "country": "NO", "coord": {"lon": 9.6568, "lat": 59.141899}}, {"id": 3134070, "name": "Tranby", "country": "NO", "coord": {"lon": 10.25, "lat": 59.816669}}, {"id": 6185377, "name": "Yellowknife", "country": "CA", "coord": {"lon": -114.352547, "lat": 62.456001}}, {"id": 3162320, "name": "Austevoll", "country": "NO", "coord": {"lon": 5.22156, "lat": 60.09486}}, {"id": 6955561, "name": "Mayo Road", "country": "CA", "coord": {"lon": -135.220993, "lat": 60.910599}}, {"id": 6087624, "name": "New Hazelton", "country": "CA", "coord": {"lon": -127.5923, "lat": 55.246349}}, {"id": 5859460, "name": "Clarks Point", "country": "US", "coord": {"lon": -158.550827, "lat": 58.84417}}, {"id": 840810, "name": "Lommila", "country": "FI", "coord": {"lon": 24.65959, "lat": 60.21891}}, {"id": 3162771, "name": "\u00c5sberg", "country": "NO", "coord": {"lon": 8.43333, "lat": 60.416672}}, {"id": 3135605, "name": "Strusshamn", "country": "NO", "coord": {"lon": 5.19083, "lat": 60.404442}}, {"id": 5876206, "name": "Tiekel (historical)", "country": "US", "coord": {"lon": -145.308609, "lat": 61.326111}}, {"id": 5871128, "name": "Paimiut", "country": "US", "coord": {"lon": -160.231934, "lat": 61.964169}}, {"id": 2706448, "name": "Hille", "country": "SE", "coord": {"lon": 17.17592, "lat": 60.730221}}, {"id": 650859, "name": "Kouvola", "country": "FI", "coord": {"lon": 26.700001, "lat": 60.866669}}, {"id": 830147, "name": "Hollola", "country": "FI", "coord": {"lon": 25.383329, "lat": 61.033329}}, {"id": 5927708, "name": "Coral Harbour", "country": "CA", "coord": {"lon": -83.166153, "lat": 64.134064}}, {"id": 5861493, "name": "Eklutna", "country": "US", "coord": {"lon": -149.362213, "lat": 61.458061}}, {"id": 3137441, "name": "S\u00f8r-Odal", "country": "NO", "coord": {"lon": 11.68246, "lat": 60.254551}}, {"id": 3159146, "name": "Doglo", "country": "NO", "coord": {"lon": 11.03333, "lat": 60.849998}}, {"id": 3147714, "name": "Lesja", "country": "NO", "coord": {"lon": 8.86262, "lat": 62.117851}}, {"id": 656685, "name": "Imatrankoski", "country": "FI", "coord": {"lon": 28.76787, "lat": 61.169651}}, {"id": 2676224, "name": "Soderhamn", "country": "SE", "coord": {"lon": 17.05921, "lat": 61.30373}}, {"id": 5858289, "name": "Butte", "country": "US", "coord": {"lon": -149.033325, "lat": 61.542221}}, {"id": 5871704, "name": "Pitkas Point", "country": "US", "coord": {"lon": -163.287781, "lat": 62.03278}}, {"id": 655194, "name": "Jyvaeskylae", "country": "FI", "coord": {"lon": 25.73333, "lat": 62.23333}}, {"id": 656740, "name": "Ilmajoki", "country": "FI", "coord": {"lon": 22.58333, "lat": 62.75}}, {"id": 3162880, "name": "\u00c5r\u00f8y", "country": "NO", "coord": {"lon": 7.26667, "lat": 62.75}}, {"id": 632220, "name": "Bon\u00e4s", "country": "FI", "coord": {"lon": 22.683331, "lat": 63.666672}}, {"id": 7670962, "name": "Berghem", "country": "SE", "coord": {"lon": 20.30411, "lat": 63.828522}}, {"id": 653939, "name": "Kaarlela", "country": "FI", "coord": {"lon": 23.133329, "lat": 63.833328}}, {"id": 3337404, "name": "Nor\u00f0urland Eystra", "country": "IS", "coord": {"lon": -17, "lat": 65.5}}, {"id": 5859065, "name": "Chena (historical)", "country": "US", "coord": {"lon": -147.933334, "lat": 64.800003}}, {"id": 654901, "name": "Kajaani", "country": "FI", "coord": {"lon": 27.66667, "lat": 64.166672}}, {"id": 2708326, "name": "H\u00e4lsingfors", "country": "SE", "coord": {"lon": 18.700001, "lat": 64.550003}}, {"id": 661364, "name": "Alavieska", "country": "FI", "coord": {"lon": 24.33333, "lat": 64.166672}}, {"id": 2671530, "name": "Storuman", "country": "SE", "coord": {"lon": 17.11731, "lat": 65.095901}}, {"id": 5859691, "name": "Coldfoot", "country": "US", "coord": {"lon": -150.184174, "lat": 67.256393}}, {"id": 2714727, "name": "Fj\u00e4llbon\u00e4s", "country": "SE", "coord": {"lon": 19.366671, "lat": 65.583328}}, {"id": 3133569, "name": "Tverr\u00e5nes", "country": "NO", "coord": {"lon": 14.16667, "lat": 66.316673}}, {"id": 2702997, "name": "Jokkmokk", "country": "SE", "coord": {"lon": 19.82324, "lat": 66.606651}}, {"id": 5873663, "name": "Selawik", "country": "US", "coord": {"lon": -160.006943, "lat": 66.603889}}, {"id": 4831207, "name": "Baldwin County", "country": "US", "coord": {"lon": -87.766663, "lat": 30.750469}}, {"id": 652590, "name": "Kittila", "country": "FI", "coord": {"lon": 24.9, "lat": 67.666672}}, {"id": 3146478, "name": "M\u00e5lselv", "country": "NO", "coord": {"lon": 18.614981, "lat": 69.123894}}, {"id": 780543, "name": "Bukta", "country": "NO", "coord": {"lon": 23.327499, "lat": 69.976936}}, {"id": 5877543, "name": "Wainwright", "country": "US", "coord": {"lon": -160.03833, "lat": 70.63694}}, {"id": 5869874, "name": "New Stuyahok", "country": "US", "coord": {"lon": -157.311935, "lat": 59.452782}}, {"id": 5913698, "name": "Cambridge Bay", "country": "CA", "coord": {"lon": -105.05484, "lat": 69.114891}}, {"id": 3333189, "name": "Borough of Rotherham", "country": "GB", "coord": {"lon": -1.25, "lat": 53.416672}}, {"id": 6536045, "name": "San Maurizio Canavese", "country": "IT", "coord": {"lon": 7.63052, "lat": 45.217049}}, {"id": 2990271, "name": "Arrondissement de Nogent-le-Rotrou", "country": "FR", "coord": {"lon": 1, "lat": 48.333328}}, {"id": 1267254, "name": "State of Kerala", "country": "IN", "coord": {"lon": 76.5, "lat": 10}}, {"id": 1283712, "name": "B\u0101glung", "country": "NP", "coord": {"lon": 83.166672, "lat": 28.41667}}, {"id": 7962279, "name": "Sinamangal", "country": "NP", "coord": {"lon": 85.354942, "lat": 27.69632}}, {"id": 508606, "name": "Pochinok", "country": "RU", "coord": {"lon": 32.44067, "lat": 54.406849}}, {"id": 2335727, "name": "Kaduna", "country": "NG", "coord": {"lon": 7.43828, "lat": 10.52224}}, {"id": 3338529, "name": "Parr\u00f2quia d'Escaldes-Engordany", "country": "AD", "coord": {"lon": 1.56667, "lat": 42.5}}, {"id": 508101, "name": "Podolsk", "country": "RU", "coord": {"lon": 37.554722, "lat": 55.424179}}, {"id": 6540826, "name": "Villabate", "country": "IT", "coord": {"lon": 13.44485, "lat": 38.076248}}, {"id": 6457397, "name": "Provincia di Biella", "country": "IT", "coord": {"lon": 8.08594, "lat": 45.587132}}, {"id": 2068079, "name": "Kwinana", "country": "AU", "coord": {"lon": 115.76667, "lat": -32.25}}, {"id": 2078913, "name": "Nedlands", "country": "AU", "coord": {"lon": 115.808327, "lat": -31.98333}}, {"id": 2783082, "name": "Zwijndrecht", "country": "BE", "coord": {"lon": 4.3257, "lat": 51.221939}}, {"id": 2790212, "name": "Nieuwdak", "country": "BE", "coord": {"lon": 5.48132, "lat": 50.960701}}, {"id": 2803560, "name": "Zwickau", "country": "DE", "coord": {"lon": 12.5, "lat": 50.73333}}, {"id": 3573374, "name": "The Valley", "country": "AI", "coord": {"lon": -63.057831, "lat": 18.217039}}, {"id": 2150660, "name": "Saint Kilda", "country": "AU", "coord": {"lon": 144.980988, "lat": -37.867599}}, {"id": 2146142, "name": "Townsville", "country": "AU", "coord": {"lon": 146.800003, "lat": -19.25}}, {"id": 3456283, "name": "Niteroi", "country": "BR", "coord": {"lon": -43.103611, "lat": -22.883329}}, {"id": 3473648, "name": "Icara\u00ed", "country": "BR", "coord": {"lon": -43.09972, "lat": -22.9}}, {"id": 6534021, "name": "Blanes", "country": "ES", "coord": {"lon": 2.79362, "lat": 41.68457}}, {"id": 3127978, "name": "Blanes", "country": "ES", "coord": {"lon": 2.79036, "lat": 41.674191}}, {"id": 2745675, "name": "Gemeente Velsen", "country": "NL", "coord": {"lon": 4.63211, "lat": 52.45182}}, {"id": 7118109, "name": "Velserbroek", "country": "NL", "coord": {"lon": 4.66155, "lat": 52.432831}}, {"id": 4568177, "name": "San Sebasti\u00e1n Municipio", "country": "PR", "coord": {"lon": -66.974617, "lat": 18.329121}}, {"id": 4562783, "name": "Barriada Chinto Rodon", "country": "PR", "coord": {"lon": -66.991013, "lat": 18.340231}}, {"id": 2839099, "name": "Schippach", "country": "DE", "coord": {"lon": 9.31667, "lat": 49.671391}}, {"id": 3042362, "name": "Bailiwick of Guernsey", "country": "GG", "coord": {"lon": -2.33333, "lat": 49.583328}}, {"id": 3013361, "name": "Hesingue", "country": "FR", "coord": {"lon": 7.52244, "lat": 47.57621}}, {"id": 3170620, "name": "Provincia di Pistoia", "country": "IT", "coord": {"lon": 10.83333, "lat": 43.966671}}, {"id": 6541867, "name": "Pistoia", "country": "IT", "coord": {"lon": 10.92361, "lat": 43.921249}}, {"id": 3165011, "name": "Uzzo", "country": "IT", "coord": {"lon": 10.91667, "lat": 43.98333}}, {"id": 3176870, "name": "Fogliano Marina", "country": "IT", "coord": {"lon": 12.64475, "lat": 44.012051}}, {"id": 3164383, "name": "Vigarano Mainarda", "country": "IT", "coord": {"lon": 11.49471, "lat": 44.84008}}, {"id": 3172391, "name": "Provincia di Napoli", "country": "IT", "coord": {"lon": 14.41667, "lat": 40.883331}}, {"id": 6541165, "name": "Ercolano", "country": "IT", "coord": {"lon": 14.36093, "lat": 40.806309}}, {"id": 3177363, "name": "Ercolano", "country": "IT", "coord": {"lon": 14.36093, "lat": 40.806309}}, {"id": 6424379, "name": "Luc\u00e9", "country": "FR", "coord": {"lon": 1.46667, "lat": 48.433331}}, {"id": 2975370, "name": "S\u00e8chec\u00f4te", "country": "FR", "coord": {"lon": 1.50007, "lat": 48.46685}}, {"id": 4011754, "name": "Dubl\u00e1n", "country": "MX", "coord": {"lon": -107.933327, "lat": 30.433331}}, {"id": 4473661, "name": "Jonathan", "country": "US", "coord": {"lon": -83.017921, "lat": 35.5676}}, {"id": 1724382, "name": "Bokbok", "country": "PH", "coord": {"lon": 124.716667, "lat": 9.25}}, {"id": 2637010, "name": "Starbeck", "country": "GB", "coord": {"lon": -1.49899, "lat": 53.999439}}, {"id": 3168842, "name": "Provincia di Rovigo", "country": "IT", "coord": {"lon": 11.83333, "lat": 45.033329}}, {"id": 6540403, "name": "Pincara", "country": "IT", "coord": {"lon": 11.60881, "lat": 44.991379}}, {"id": 3170696, "name": "Pincara", "country": "IT", "coord": {"lon": 11.60881, "lat": 44.991379}}, {"id": 3012849, "name": "D\u00e9partement d'Ille-et-Vilaine", "country": "FR", "coord": {"lon": -1.5, "lat": 48.166672}}, {"id": 3172395, "name": "Napoli", "country": "IT", "coord": {"lon": 14.25, "lat": 40.833328}}, {"id": 3168327, "name": "San Giacomo dei Capri", "country": "IT", "coord": {"lon": 14.21667, "lat": 40.849998}}, {"id": 2806610, "name": "Wolfshagen", "country": "DE", "coord": {"lon": 10.31951, "lat": 51.909279}}, {"id": 2809517, "name": "Wiehl", "country": "DE", "coord": {"lon": 7.53333, "lat": 50.950001}}, {"id": 3428071, "name": "Santo Tome", "country": "AR", "coord": {"lon": -56.040771, "lat": -28.549391}}, {"id": 3859512, "name": "Dean Funes", "country": "AR", "coord": {"lon": -64.349838, "lat": -30.420361}}, {"id": 3763693, "name": "Ambrosio", "country": "VE", "coord": {"lon": -71.45874, "lat": 10.421}}, {"id": 5160090, "name": "Lake County", "country": "US", "coord": {"lon": -81.383171, "lat": 41.633381}}, {"id": 8062980, "name": "Lakeshore", "country": "US", "coord": {"lon": -81.406631, "lat": 41.695412}}, {"id": 3111199, "name": "Sabadell", "country": "ES", "coord": {"lon": 2.10942, "lat": 41.543289}}, {"id": 3129857, "name": "Aranjuez", "country": "ES", "coord": {"lon": -3.60246, "lat": 40.031078}}, {"id": 2516450, "name": "La Indioteria", "country": "ES", "coord": {"lon": 2.68333, "lat": 39.599998}}, {"id": 6540285, "name": "Selva di Cadore", "country": "IT", "coord": {"lon": 12.03859, "lat": 46.452122}}, {"id": 7302788, "name": "Santa Fosca", "country": "IT", "coord": {"lon": 12.06196, "lat": 46.443062}}, {"id": 3036937, "name": "Arrondissement d'Arles", "country": "FR", "coord": {"lon": 4.75, "lat": 43.666672}}, {"id": 6447136, "name": "Lamanon", "country": "FR", "coord": {"lon": 5.08333, "lat": 43.700001}}, {"id": 3008308, "name": "Lamanon", "country": "FR", "coord": {"lon": 5.08857, "lat": 43.7006}}, {"id": 7290674, "name": "East Devon District", "country": "GB", "coord": {"lon": -3.23487, "lat": 50.756321}}, {"id": 2637853, "name": "Sidmouth", "country": "GB", "coord": {"lon": -3.2397, "lat": 50.690941}}, {"id": 6358534, "name": "Torredonjimeno", "country": "ES", "coord": {"lon": -4.04767, "lat": 37.78907}}, {"id": 2510301, "name": "Torredonjimeno", "country": "ES", "coord": {"lon": -3.95776, "lat": 37.767479}}, {"id": 6362388, "name": "Getxo", "country": "ES", "coord": {"lon": -3.01569, "lat": 43.35553}}, {"id": 3113082, "name": "Portugalete", "country": "ES", "coord": {"lon": -3.02064, "lat": 43.320992}}, {"id": 3119029, "name": "Areeta", "country": "ES", "coord": {"lon": -3.00974, "lat": 43.325859}}, {"id": 2184155, "name": "Pukekohe East", "country": "NZ", "coord": {"lon": 174.949997, "lat": -37.200001}}, {"id": 6457364, "name": "Arrondissement de Saint-Germain-en-Laye", "country": "FR", "coord": {"lon": 2.079, "lat": 48.892799}}, {"id": 6444069, "name": "Saint-Germain-en-Laye", "country": "FR", "coord": {"lon": 2.08333, "lat": 48.900002}}, {"id": 2979783, "name": "Saint-Germain-en-Laye", "country": "FR", "coord": {"lon": 2.08333, "lat": 48.900002}}, {"id": 2869791, "name": "Monheim", "country": "DE", "coord": {"lon": 6.88333, "lat": 51.083328}}, {"id": 6429679, "name": "Veyrines-de-Domme", "country": "FR", "coord": {"lon": 1.1051, "lat": 44.7939}}, {"id": 2969493, "name": "Veyrines-de-Domme", "country": "FR", "coord": {"lon": 1.10531, "lat": 44.79422}}, {"id": 2658370, "name": "Cantone Ticino", "country": "CH", "coord": {"lon": 8.58333, "lat": 46.25}}, {"id": 2658196, "name": "Vallemaggia", "country": "CH", "coord": {"lon": 8.58333, "lat": 46.349998}}, {"id": 7285125, "name": "Avegno Gordevio", "country": "CH", "coord": {"lon": 8.76598, "lat": 46.22398}}, {"id": 2660560, "name": "Gordevio", "country": "CH", "coord": {"lon": 8.74499, "lat": 46.226372}}, {"id": 4566447, "name": "Olimpo", "country": "PR", "coord": {"lon": -66.108223, "lat": 18.001909}}, {"id": 6362109, "name": "Torrent", "country": "ES", "coord": {"lon": -0.4969, "lat": 39.425911}}, {"id": 2510279, "name": "Torrent", "country": "ES", "coord": {"lon": -0.46546, "lat": 39.43705}}, {"id": 2894792, "name": "Johannisberg", "country": "DE", "coord": {"lon": 11.36667, "lat": 47.75}}, {"id": 2888157, "name": "Klein Str\u00f6bitz", "country": "DE", "coord": {"lon": 14.29214, "lat": 51.745762}}, {"id": 4214702, "name": "Paradise Acres", "country": "US", "coord": {"lon": -84.879921, "lat": 30.81908}}, {"id": 1880251, "name": "Republic of Singapore", "country": "SG", "coord": {"lon": 103.800003, "lat": 1.36667}}, {"id": 1880755, "name": "Bright Hill Crescent", "country": "SG", "coord": {"lon": 103.833328, "lat": 1.35}}, {"id": 1882558, "name": "Thomson Park", "country": "SG", "coord": {"lon": 103.836388, "lat": 1.35722}}, {"id": 6179560, "name": "Westville", "country": "CA", "coord": {"lon": -62.71534, "lat": 45.566849}}, {"id": 1152631, "name": "Changwat Krabi", "country": "TH", "coord": {"lon": 99.166672, "lat": 8.25}}, {"id": 1156778, "name": "Ban Krabi Yai", "country": "TH", "coord": {"lon": 98.916672, "lat": 8.1}}, {"id": 6538691, "name": "Ciampino", "country": "IT", "coord": {"lon": 12.60658, "lat": 41.80162}}, {"id": 3178738, "name": "Ciampino", "country": "IT", "coord": {"lon": 12.60658, "lat": 41.80162}}, {"id": 2958376, "name": "Allershausen", "country": "DE", "coord": {"lon": 11.6, "lat": 48.433331}}, {"id": 2268337, "name": "Distrito de Faro", "country": "PT", "coord": {"lon": -8.16667, "lat": 37.200001}}, {"id": 8010519, "name": "Loul\u00e9", "country": "PT", "coord": {"lon": -8.05432, "lat": 37.190842}}, {"id": 8012006, "name": "Quarteira", "country": "PT", "coord": {"lon": -8.10469, "lat": 37.08514}}, {"id": 6545006, "name": "Vilamoura", "country": "PT", "coord": {"lon": -8.11083, "lat": 37.081001}}, {"id": 5956016, "name": "Fort William", "country": "CA", "coord": {"lon": -52.714741, "lat": 47.57209}}, {"id": 2648402, "name": "Gloucestershire", "country": "GB", "coord": {"lon": -2.16667, "lat": 51.833328}}, {"id": 7290548, "name": "Cheltenham District", "country": "GB", "coord": {"lon": -2.07522, "lat": 51.898129}}, {"id": 2636388, "name": "Swindon", "country": "GB", "coord": {"lon": -2.09581, "lat": 51.922619}}, {"id": 2886526, "name": "Kohlung", "country": "DE", "coord": {"lon": 12.38333, "lat": 50.51667}}, {"id": 3333221, "name": "District of Wokingham", "country": "GB", "coord": {"lon": -0.91667, "lat": 51.416672}}, {"id": 7297501, "name": "Shinfield", "country": "GB", "coord": {"lon": -0.96136, "lat": 51.404919}}, {"id": 2637968, "name": "Shinfield", "country": "GB", "coord": {"lon": -0.94534, "lat": 51.405418}}, {"id": 7290570, "name": "Ashford District", "country": "GB", "coord": {"lon": 0.81147, "lat": 51.129299}}, {"id": 2645452, "name": "Kingsnorth", "country": "GB", "coord": {"lon": 0.85848, "lat": 51.11861}}, {"id": 2644974, "name": "Lancashire", "country": "GB", "coord": {"lon": -2.5, "lat": 53.833328}}, {"id": 2637338, "name": "South Ribble", "country": "GB", "coord": {"lon": -2.73333, "lat": 53.716671}}, {"id": 2640391, "name": "Penwortham", "country": "GB", "coord": {"lon": -2.72912, "lat": 53.749821}}, {"id": 2927218, "name": "Felsen", "country": "DE", "coord": {"lon": 7.6, "lat": 52.666672}}, {"id": 8030222, "name": "Heiderand", "country": "ZA", "coord": {"lon": 22.110331, "lat": -34.187809}}, {"id": 4982646, "name": "West Leeds", "country": "US", "coord": {"lon": -70.168388, "lat": 44.29285}}, {"id": 6540371, "name": "Asola", "country": "IT", "coord": {"lon": 10.41358, "lat": 45.221081}}, {"id": 3182734, "name": "Asola", "country": "IT", "coord": {"lon": 10.41358, "lat": 45.221081}}, {"id": 3173222, "name": "Regione Molise", "country": "IT", "coord": {"lon": 14.5, "lat": 41.666672}}, {"id": 3180990, "name": "Provincia di Campobasso", "country": "IT", "coord": {"lon": 14.58333, "lat": 41.633331}}, {"id": 6542000, "name": "Campobasso", "country": "IT", "coord": {"lon": 14.66753, "lat": 41.560032}}, {"id": 3180991, "name": "Campobasso", "country": "IT", "coord": {"lon": 14.66753, "lat": 41.560032}}, {"id": 2913891, "name": "Gudenhagen", "country": "DE", "coord": {"lon": 8.58333, "lat": 51.366669}}, {"id": 4282211, "name": "Adair County", "country": "US", "coord": {"lon": -85.299957, "lat": 37.11673}}, {"id": 4309140, "name": "Sparksville", "country": "US", "coord": {"lon": -85.401909, "lat": 37.008389}}, {"id": 2635511, "name": "Tremaine", "country": "GB", "coord": {"lon": -4.49704, "lat": 50.672218}}, {"id": 4259572, "name": "Jackson County", "country": "US", "coord": {"lon": -86.041924, "lat": 38.878941}}, {"id": 4256170, "name": "Cortland", "country": "US", "coord": {"lon": -85.964149, "lat": 38.97311}}, {"id": 2794634, "name": "Kaulen", "country": "BE", "coord": {"lon": 5.99244, "lat": 50.654789}}, {"id": 2997861, "name": "D\u00e9partement de la Loire-Atlantique", "country": "FR", "coord": {"lon": -1.83333, "lat": 47.25}}, {"id": 3233580, "name": "Saint-S\u00e9bastien", "country": "FR", "coord": {"lon": -2.31926, "lat": 47.255329}}, {"id": 2814598, "name": "Wallersdorf", "country": "DE", "coord": {"lon": 10.61667, "lat": 49.26667}}, {"id": 4272705, "name": "Harvey County", "country": "US", "coord": {"lon": -97.433647, "lat": 38.050011}}, {"id": 4272558, "name": "Halstead", "country": "US", "coord": {"lon": -97.508652, "lat": 38.0014}}, {"id": 649631, "name": "Kirkkonummi", "country": "FI", "coord": {"lon": 24.41667, "lat": 60.166672}}, {"id": 840758, "name": "\u00d6sterby", "country": "FI", "coord": {"lon": 24.43528, "lat": 60.177219}}, {"id": 2173777, "name": "Browns Plains", "country": "AU", "coord": {"lon": 153.033325, "lat": -27.65}}, {"id": 678688, "name": "Dumbravita", "country": "RO", "coord": {"lon": 21.2425, "lat": 45.79694}}, {"id": 4017698, "name": "Estado de Baja California Sur", "country": "MX", "coord": {"lon": -111.833328, "lat": 25.83333}}, {"id": 2800480, "name": "Arrondissement de Charleroi", "country": "BE", "coord": {"lon": 4.44534, "lat": 50.413658}}, {"id": 2798298, "name": "Fleurus", "country": "BE", "coord": {"lon": 4.55177, "lat": 50.484268}}, {"id": 4282006, "name": "Woodson County", "country": "US", "coord": {"lon": -95.733597, "lat": 37.883369}}, {"id": 4269896, "name": "Cookville", "country": "US", "coord": {"lon": -95.592201, "lat": 37.82032}}, {"id": 2928810, "name": "Essen", "country": "DE", "coord": {"lon": 7.01667, "lat": 51.450001}}, {"id": 5731570, "name": "Holdman", "country": "US", "coord": {"lon": -118.932503, "lat": 45.872082}}, {"id": 7839771, "name": "Singleton", "country": "AU", "coord": {"lon": 150.918716, "lat": -32.605469}}, {"id": 2149475, "name": "Singleton", "country": "AU", "coord": {"lon": 151.183334, "lat": -32.566669}}, {"id": 2191167, "name": "Fendalton", "country": "NZ", "coord": {"lon": 172.600006, "lat": -43.51667}}, {"id": 6220351, "name": "Riccarton", "country": "NZ", "coord": {"lon": 172.590134, "lat": -43.528332}}, {"id": 3433955, "name": "Ciudad Aut\u00f3noma de Buenos Aires", "country": "AR", "coord": {"lon": -58.450001, "lat": -34.599998}}, {"id": 3430975, "name": "Lynch", "country": "AR", "coord": {"lon": -58.524929, "lat": -34.59256}}, {"id": 3427451, "name": "Villa Devoto", "country": "AR", "coord": {"lon": -58.51231, "lat": -34.600639}}, {"id": 2523246, "name": "Santuario di Gibilmanna", "country": "IT", "coord": {"lon": 14.01667, "lat": 37.98333}}, {"id": 6543424, "name": "Dormelletto", "country": "IT", "coord": {"lon": 8.56663, "lat": 45.736271}}, {"id": 6693898, "name": "Dormelletto", "country": "IT", "coord": {"lon": 8.57912, "lat": 45.727268}}, {"id": 6058560, "name": "London", "country": "CA", "coord": {"lon": -81.23304, "lat": 42.983391}}, {"id": 2637532, "name": "Somerset", "country": "GB", "coord": {"lon": -3, "lat": 51.083328}}, {"id": 7290625, "name": "South Somerset District", "country": "GB", "coord": {"lon": -2.70785, "lat": 50.983749}}, {"id": 2633373, "name": "Yeovil", "country": "GB", "coord": {"lon": -2.63211, "lat": 50.941589}}, {"id": 2645217, "name": "Kirkton of Airlie", "country": "GB", "coord": {"lon": -3.11667, "lat": 56.633331}}, {"id": 5269209, "name": "Rock County", "country": "US", "coord": {"lon": -89.06678, "lat": 42.666679}}, {"id": 4833930, "name": "Newark", "country": "US", "coord": {"lon": -89.227608, "lat": 42.542229}}, {"id": 2651920, "name": "Crondall", "country": "GB", "coord": {"lon": -0.86329, "lat": 51.232849}}, {"id": 256968, "name": "M\u00edloi", "country": "GR", "coord": {"lon": 21.75, "lat": 38.216671}}, {"id": 2755634, "name": "Provincie Gelderland", "country": "NL", "coord": {"lon": 5.83333, "lat": 52}}, {"id": 2758095, "name": "Gemeente Buren", "country": "NL", "coord": {"lon": 5.33403, "lat": 51.909012}}, {"id": 2746066, "name": "Tweesluizen", "country": "NL", "coord": {"lon": 5.3625, "lat": 51.890831}}, {"id": 3333162, "name": "Borough of Knowsley", "country": "GB", "coord": {"lon": -2.83333, "lat": 53.416672}}, {"id": 7295927, "name": "Whiston", "country": "GB", "coord": {"lon": -2.79727, "lat": 53.412819}}, {"id": 6694788, "name": "Whiston", "country": "GB", "coord": {"lon": -2.78907, "lat": 53.419971}}, {"id": 2637141, "name": "Staffordshire", "country": "GB", "coord": {"lon": -2, "lat": 52.833328}}, {"id": 7290631, "name": "Stafford District", "country": "GB", "coord": {"lon": -2.17342, "lat": 52.847481}}, {"id": 2646937, "name": "High Offley", "country": "GB", "coord": {"lon": -2.32248, "lat": 52.832779}}, {"id": 3180229, "name": "Casale Bufalotta", "country": "IT", "coord": {"lon": 12.55, "lat": 41.98333}}, {"id": 8014704, "name": "Vila de S\u00e3o Sebasti\u00e3o", "country": "PT", "coord": {"lon": -27.120331, "lat": 38.687511}}, {"id": 3372588, "name": "S\u00e3o Sebasti\u00e3o", "country": "PT", "coord": {"lon": -27.1, "lat": 38.650002}}, {"id": 2801463, "name": "Borgt Driesen", "country": "BE", "coord": {"lon": 4.78333, "lat": 51.26667}}, {"id": 2922102, "name": "Geesthacht", "country": "DE", "coord": {"lon": 10.36667, "lat": 53.433331}}, {"id": 2658216, "name": "Uster", "country": "CH", "coord": {"lon": 8.72091, "lat": 47.34713}}, {"id": 2852430, "name": "Potthof", "country": "DE", "coord": {"lon": 8.13333, "lat": 52.033329}}, {"id": 4568404, "name": "Toa Alta Municipio", "country": "PR", "coord": {"lon": -66.253777, "lat": 18.36606}}, {"id": 4565918, "name": "Las Arenas", "country": "PR", "coord": {"lon": -66.214058, "lat": 18.39023}}, {"id": 272103, "name": "Republic of Lebanon", "country": "LB", "coord": {"lon": 35.833328, "lat": 33.833328}}, {"id": 273607, "name": "Mohafazat Mont-Liban", "country": "LB", "coord": {"lon": 35.666672, "lat": 33.916672}}, {"id": 2657830, "name": "Aberdeenshire", "country": "GB", "coord": {"lon": -2.66667, "lat": 57.166672}}, {"id": 2642692, "name": "Methlick", "country": "GB", "coord": {"lon": -2.24002, "lat": 57.425869}}, {"id": 265488, "name": "Acharnes", "country": "GR", "coord": {"lon": 23.73333, "lat": 38.083328}}, {"id": 2977083, "name": "Saint-Sandoux", "country": "FR", "coord": {"lon": 3.10795, "lat": 45.64019}}, {"id": 726320, "name": "Troyan", "country": "BG", "coord": {"lon": 24.715891, "lat": 42.894272}}, {"id": 727012, "name": "Oblast Sofiya", "country": "BG", "coord": {"lon": 23.633329, "lat": 42.650002}}, {"id": 730919, "name": "Ikhtiman", "country": "BG", "coord": {"lon": 23.816669, "lat": 42.433331}}, {"id": 3109718, "name": "Santander", "country": "ES", "coord": {"lon": -3.80444, "lat": 43.464722}}, {"id": 6543787, "name": "San Pietro Val Lemina", "country": "IT", "coord": {"lon": 7.31092, "lat": 44.90654}}, {"id": 6535816, "name": "San Pietro Val Lemina", "country": "IT", "coord": {"lon": 7.31092, "lat": 44.90654}}, {"id": 7839813, "name": "Mornington Peninsula", "country": "AU", "coord": {"lon": 144.956573, "lat": -38.332699}}, {"id": 2151898, "name": "Red Hill South", "country": "AU", "coord": {"lon": 145.033325, "lat": -38.383331}}, {"id": 5002390, "name": "Montcalm County", "country": "US", "coord": {"lon": -85.116692, "lat": 43.333359}}, {"id": 4990085, "name": "Crystal", "country": "US", "coord": {"lon": -84.914726, "lat": 43.263088}}, {"id": 2639259, "name": "Rockbeare", "country": "GB", "coord": {"lon": -3.39039, "lat": 50.74575}}, {"id": 2955199, "name": "Aschendorf", "country": "DE", "coord": {"lon": 7.33333, "lat": 53.049999}}, {"id": 3020061, "name": "Arrondissement d'\u00c9pernay", "country": "FR", "coord": {"lon": 3.75, "lat": 48.833328}}, {"id": 6435962, "name": "Rieux", "country": "FR", "coord": {"lon": 3.5, "lat": 48.849998}}, {"id": 2983589, "name": "Rieux", "country": "FR", "coord": {"lon": 3.5, "lat": 48.849998}}, {"id": 2863374, "name": "Niederham", "country": "DE", "coord": {"lon": 13.3, "lat": 48.666672}}, {"id": 2813464, "name": "Wedel", "country": "DE", "coord": {"lon": 9.69835, "lat": 53.58374}}, {"id": 2997856, "name": "D\u00e9partement du Loir-et-Cher", "country": "FR", "coord": {"lon": 1.5, "lat": 47.5}}, {"id": 2610601, "name": "Vejle Kommune", "country": "DK", "coord": {"lon": 9.5, "lat": 55.73333}}, {"id": 3222060, "name": "Tirsb\u00e6k", "country": "DK", "coord": {"lon": 9.65, "lat": 55.716671}}, {"id": 2949606, "name": "Beuggen", "country": "DE", "coord": {"lon": 7.81667, "lat": 47.583328}}, {"id": 2650345, "name": "East Riding of Yorkshire", "country": "GB", "coord": {"lon": -0.5, "lat": 53.916672}}, {"id": 7300469, "name": "Bridlington", "country": "GB", "coord": {"lon": -0.19542, "lat": 54.094711}}, {"id": 2654728, "name": "Bridlington", "country": "GB", "coord": {"lon": -0.19192, "lat": 54.083061}}, {"id": 2757344, "name": "Gemeente Delft", "country": "NL", "coord": {"lon": 4.35, "lat": 52}}, {"id": 2760055, "name": "Abtswoude", "country": "NL", "coord": {"lon": 4.35556, "lat": 51.979172}}, {"id": 6359403, "name": "Lozoyuela-Navas-Sieteiglesias", "country": "ES", "coord": {"lon": -3.61554, "lat": 40.921539}}, {"id": 3108977, "name": "Sieteiglesias", "country": "ES", "coord": {"lon": -3.58583, "lat": 40.91254}}, {"id": 2637890, "name": "Shrewton", "country": "GB", "coord": {"lon": -1.90264, "lat": 51.19194}}, {"id": 4562640, "name": "Arecibo", "country": "PR", "coord": {"lon": -66.674622, "lat": 18.40411}}, {"id": 4563047, "name": "Campamento Radley", "country": "PR", "coord": {"lon": -66.717117, "lat": 18.333561}}, {"id": 3333174, "name": "City and Borough of Newcastle upon Tyne", "country": "GB", "coord": {"lon": -1.66667, "lat": 55}}, {"id": 7296101, "name": "Woolsington", "country": "GB", "coord": {"lon": -1.70663, "lat": 55.02121}}, {"id": 2644627, "name": "Lemington", "country": "GB", "coord": {"lon": -1.70937, "lat": 54.978359}}, {"id": 2965750, "name": "Carracastle", "country": "IE", "coord": {"lon": -8.6925, "lat": 53.950279}}, {"id": 7275050, "name": "Coraz\u00f3n Comunidad", "country": "PR", "coord": {"lon": -66.083359, "lat": 17.994011}}, {"id": 6533967, "name": "Sencelles", "country": "ES", "coord": {"lon": 2.89631, "lat": 39.645222}}, {"id": 2511420, "name": "Sencelles", "country": "ES", "coord": {"lon": 2.89769, "lat": 39.645981}}, {"id": 5257788, "name": "Jefferson County", "country": "US", "coord": {"lon": -88.766769, "lat": 43.03334}}, {"id": 5249106, "name": "Cold Spring", "country": "US", "coord": {"lon": -88.774269, "lat": 42.890839}}, {"id": 7532743, "name": "\u017byrard\u00f3w", "country": "PL", "coord": {"lon": 20.4405, "lat": 52.0555}}, {"id": 7530933, "name": "Powiat kwidzy\u0144ski", "country": "PL", "coord": {"lon": 19.031111, "lat": 53.746899}}, {"id": 7532624, "name": "Kwidzyn", "country": "PL", "coord": {"lon": 18.945299, "lat": 53.720501}}, {"id": 3094086, "name": "Kwidzyn", "country": "PL", "coord": {"lon": 18.931141, "lat": 53.724949}}, {"id": 2744537, "name": "Gemeente Wieringermeer", "country": "NL", "coord": {"lon": 5.01667, "lat": 52.849998}}, {"id": 2750850, "name": "Middenmeer", "country": "NL", "coord": {"lon": 4.99861, "lat": 52.806671}}, {"id": 2963567, "name": "Johnstown", "country": "IE", "coord": {"lon": -7.55417, "lat": 52.749168}}, {"id": 6359493, "name": "Teba", "country": "ES", "coord": {"lon": -4.9059, "lat": 36.972481}}, {"id": 2510580, "name": "Teba", "country": "ES", "coord": {"lon": -4.91913, "lat": 36.983582}}, {"id": 673807, "name": "Marginea", "country": "RO", "coord": {"lon": 25.816669, "lat": 47.816669}}, {"id": 3175840, "name": "Gressan", "country": "IT", "coord": {"lon": 7.2869, "lat": 45.720661}}, {"id": 2029969, "name": "Mongolia", "country": "MN", "coord": {"lon": 105, "lat": 46}}, {"id": 5047121, "name": "Sherburne County", "country": "US", "coord": {"lon": -93.766922, "lat": 45.44997}}, {"id": 2649963, "name": "Epping", "country": "GB", "coord": {"lon": 0.11055, "lat": 51.698151}}, {"id": 5392967, "name": "Santa Barbara County", "country": "US", "coord": {"lon": -120.034309, "lat": 34.733318}}, {"id": 5361432, "name": "Junction Camp", "country": "US", "coord": {"lon": -119.980141, "lat": 34.731651}}, {"id": 1280239, "name": "Qinghai Sheng", "country": "CN", "coord": {"lon": 96, "lat": 36}}, {"id": 1280653, "name": "Machang", "country": "CN", "coord": {"lon": 97.01667, "lat": 32.833328}}, {"id": 6144312, "name": "Sept-Iles", "country": "CA", "coord": {"lon": -66.38208, "lat": 50.200111}}, {"id": 6356287, "name": "Cercs", "country": "ES", "coord": {"lon": 1.86782, "lat": 42.127491}}, {"id": 3128201, "name": "Berga", "country": "ES", "coord": {"lon": 1.84628, "lat": 42.10429}}, {"id": 830704, "name": "Birkaland", "country": "FI", "coord": {"lon": 23.716669, "lat": 61.700001}}, {"id": 2655192, "name": "The Scottish Borders", "country": "GB", "coord": {"lon": -2.83333, "lat": 55.583328}}, {"id": 2640526, "name": "Peebles", "country": "GB", "coord": {"lon": -3.1888, "lat": 55.651901}}, {"id": 6362070, "name": "Pu\u00e7ol", "country": "ES", "coord": {"lon": -0.30038, "lat": 39.613201}}, {"id": 2512127, "name": "Pucol", "country": "ES", "coord": {"lon": -0.3, "lat": 39.616669}}, {"id": 5233748, "name": "Bennington County", "country": "US", "coord": {"lon": -73.099548, "lat": 43.033409}}, {"id": 5239235, "name": "North Rupert", "country": "US", "coord": {"lon": -73.14566, "lat": 43.299519}}, {"id": 7839726, "name": "Guyra", "country": "AU", "coord": {"lon": 151.67894, "lat": -30.17581}}, {"id": 2164149, "name": "Guyra", "country": "AU", "coord": {"lon": 151.666672, "lat": -30.23333}}, {"id": 4567727, "name": "Rinc\u00f3n Municipio", "country": "PR", "coord": {"lon": -67.237129, "lat": 18.33967}}, {"id": 4563484, "name": "Centro Puntas", "country": "PR", "coord": {"lon": -67.263512, "lat": 18.363279}}, {"id": 4956199, "name": "Worcester County", "country": "US", "coord": {"lon": -71.832848, "lat": 42.333431}}, {"id": 4951699, "name": "Spencer", "country": "US", "coord": {"lon": -71.992302, "lat": 42.24398}}, {"id": 2511987, "name": "Rebolledo", "country": "ES", "coord": {"lon": -0.61667, "lat": 38.349998}}, {"id": 6553158, "name": "Gro\u00df-Rohrheim", "country": "DE", "coord": {"lon": 8.48278, "lat": 49.7211}}, {"id": 2915128, "name": "Gross-Rohrheim", "country": "DE", "coord": {"lon": 8.48278, "lat": 49.721111}}, {"id": 2990968, "name": "Arrondissement de Nantes", "country": "FR", "coord": {"lon": -1.58333, "lat": 47.166672}}, {"id": 6449113, "name": "Machecoul", "country": "FR", "coord": {"lon": -1.81667, "lat": 47}}, {"id": 2996905, "name": "Machecoul", "country": "FR", "coord": {"lon": -1.82352, "lat": 46.99358}}, {"id": 2167771, "name": "Edge Hill", "country": "AU", "coord": {"lon": 145.75, "lat": -16.9}}, {"id": 3333123, "name": "Bath and North East Somerset", "country": "GB", "coord": {"lon": -2.5, "lat": 51.333328}}, {"id": 7296170, "name": "Paulton", "country": "GB", "coord": {"lon": -2.48606, "lat": 51.304169}}, {"id": 2640559, "name": "Paulton", "country": "GB", "coord": {"lon": -2.50028, "lat": 51.304722}}, {"id": 7290547, "name": "Uttlesford District", "country": "GB", "coord": {"lon": 0.29535, "lat": 51.92952}}, {"id": 2638878, "name": "Saffron Walden", "country": "GB", "coord": {"lon": 0.24234, "lat": 52.023369}}, {"id": 4566180, "name": "Maricao Municipio", "country": "PR", "coord": {"lon": -66.945457, "lat": 18.17301}}, {"id": 7276369, "name": "Maricao Zona Urbana", "country": "PR", "coord": {"lon": -66.980499, "lat": 18.183491}}, {"id": 7839526, "name": "Ararat", "country": "AU", "coord": {"lon": 142.822388, "lat": -37.48925}}, {"id": 2177756, "name": "Ararat", "country": "AU", "coord": {"lon": 142.933334, "lat": -37.283329}}, {"id": 5874205, "name": "Silvertip", "country": "US", "coord": {"lon": -149.36972, "lat": 60.750561}}, {"id": 2655636, "name": "Binsted", "country": "GB", "coord": {"lon": -0.89899, "lat": 51.164268}}, {"id": 2954129, "name": "Augustusberg", "country": "DE", "coord": {"lon": 13.3, "lat": 51.049999}}, {"id": 3249073, "name": "Kreis Nordfriesland", "country": "DE", "coord": {"lon": 8.9675, "lat": 54.583889}}, {"id": 6551613, "name": "S\u00fcderl\u00fcgum", "country": "DE", "coord": {"lon": 8.91667, "lat": 54.866699}}, {"id": 2825108, "name": "Suderlugum", "country": "DE", "coord": {"lon": 8.91667, "lat": 54.866669}}, {"id": 2190142, "name": "Hawkins", "country": "NZ", "coord": {"lon": 172.033325, "lat": -43.48333}}, {"id": 2757990, "name": "Gemeente Castricum", "country": "NL", "coord": {"lon": 4.66667, "lat": 52.549999}}, {"id": 2757991, "name": "Castricum", "country": "NL", "coord": {"lon": 4.66944, "lat": 52.548328}}, {"id": 6451580, "name": "Orange", "country": "FR", "coord": {"lon": 4.8, "lat": 44.133331}}, {"id": 2989460, "name": "Orange", "country": "FR", "coord": {"lon": 4.80791, "lat": 44.139198}}, {"id": 3164697, "name": "Provincia di Varese", "country": "IT", "coord": {"lon": 8.8, "lat": 45.799999}}, {"id": 6540326, "name": "Vedano Olona", "country": "IT", "coord": {"lon": 8.88584, "lat": 45.775982}}, {"id": 3164657, "name": "Vedano Olona", "country": "IT", "coord": {"lon": 8.88584, "lat": 45.775982}}, {"id": 6693663, "name": "Writhlington", "country": "GB", "coord": {"lon": -2.42806, "lat": 51.29134}}, {"id": 2633840, "name": "Royal Borough of Windsor and Maidenhead", "country": "GB", "coord": {"lon": -0.66667, "lat": 51.466671}}, {"id": 2643186, "name": "Maidenhead", "country": "GB", "coord": {"lon": -0.71986, "lat": 51.522789}}, {"id": 949482, "name": "The Highlands", "country": "ZA", "coord": {"lon": 28.290831, "lat": -25.798059}}, {"id": 981117, "name": "Lynnwood", "country": "ZA", "coord": {"lon": 28.26506, "lat": -25.759741}}, {"id": 2834072, "name": "Seckenheim", "country": "DE", "coord": {"lon": 8.56083, "lat": 49.464439}}, {"id": 2929872, "name": "Epfenbach", "country": "DE", "coord": {"lon": 8.90778, "lat": 49.339169}}, {"id": 7869942, "name": "Clonlara", "country": "IE", "coord": {"lon": -8.55251, "lat": 52.724388}}, {"id": 3576916, "name": "Turks and Caicos Islands", "country": "TC", "coord": {"lon": -71.583328, "lat": 21.73333}}, {"id": 6555583, "name": "Gschwend", "country": "DE", "coord": {"lon": 9.74393, "lat": 48.933811}}, {"id": 2913972, "name": "Gschwend", "country": "DE", "coord": {"lon": 9.74436, "lat": 48.933331}}, {"id": 2818766, "name": "Unterschleissheim", "country": "DE", "coord": {"lon": 11.56667, "lat": 48.283329}}, {"id": 6944112, "name": "Forestville", "country": "CA", "coord": {"lon": -69.084778, "lat": 48.738079}}, {"id": 7301522, "name": "Midgham", "country": "GB", "coord": {"lon": -1.20141, "lat": 51.401852}}, {"id": 2642569, "name": "Midgham", "country": "GB", "coord": {"lon": -1.20279, "lat": 51.401508}}, {"id": 2651930, "name": "Cromer", "country": "GB", "coord": {"lon": 1.29892, "lat": 52.931229}}, {"id": 2651385, "name": "Denbighshire", "country": "GB", "coord": {"lon": -3.33333, "lat": 53.083328}}, {"id": 7297140, "name": "Llangynhafal", "country": "GB", "coord": {"lon": -3.29447, "lat": 53.159561}}, {"id": 2644004, "name": "Llangynhafal", "country": "GB", "coord": {"lon": -3.30394, "lat": 53.16201}}, {"id": 2643539, "name": "Lower Bebington", "country": "GB", "coord": {"lon": -3.00408, "lat": 53.351059}}, {"id": 6539514, "name": "Groscavallo", "country": "IT", "coord": {"lon": 7.25801, "lat": 45.36805}}, {"id": 3176688, "name": "Forno Alpi Graie", "country": "IT", "coord": {"lon": 7.21667, "lat": 45.366669}}, {"id": 2269513, "name": "Distrito de Castelo Branco", "country": "PT", "coord": {"lon": -7.5, "lat": 40}}, {"id": 8010474, "name": "Covilh\u00e3", "country": "PT", "coord": {"lon": -7.50366, "lat": 40.292271}}, {"id": 8011663, "name": "Covilh\u00e3 (Concei\u00e7\u00e3o)", "country": "PT", "coord": {"lon": -7.5031, "lat": 40.286831}}, {"id": 2740313, "name": "Covilha", "country": "PT", "coord": {"lon": -7.50396, "lat": 40.286011}}, {"id": 2939657, "name": "Landkreis Cuxhaven", "country": "DE", "coord": {"lon": 8.84944, "lat": 53.602779}}, {"id": 6552611, "name": "Sandstedt", "country": "DE", "coord": {"lon": 8.53333, "lat": 53.366699}}, {"id": 2841731, "name": "Sandstedt", "country": "DE", "coord": {"lon": 8.53333, "lat": 53.366669}}, {"id": 2755249, "name": "Provincie Groningen", "country": "NL", "coord": {"lon": 6.75, "lat": 53.25}}, {"id": 2755204, "name": "Grootegast", "country": "NL", "coord": {"lon": 6.27361, "lat": 53.212502}}, {"id": 8133921, "name": "Dimos Dionysos", "country": "GR", "coord": {"lon": 23.88793, "lat": 38.11919}}, {"id": 263535, "name": "B\u00e1la", "country": "GR", "coord": {"lon": 23.883329, "lat": 38.116669}}, {"id": 8049766, "name": "Rongyu", "country": "CN", "coord": {"lon": 96.699997, "lat": 28.799999}}, {"id": 3182164, "name": "Bergamo", "country": "IT", "coord": {"lon": 9.66895, "lat": 45.697979}}, {"id": 2949012, "name": "Bietigheim-Bissingen", "country": "DE", "coord": {"lon": 9.13333, "lat": 48.966671}}, {"id": 2638027, "name": "Sherburn in Elmet", "country": "GB", "coord": {"lon": -1.2466, "lat": 53.795189}}, {"id": 5033463, "name": "Koochiching County", "country": "US", "coord": {"lon": -93.783508, "lat": 48.233292}}, {"id": 7121193, "name": "Riverside Mobile Home Court", "country": "US", "coord": {"lon": -93.416672, "lat": 48.602779}}, {"id": 6355286, "name": "Vitoria-Gasteiz", "country": "ES", "coord": {"lon": -2.66976, "lat": 42.859081}}, {"id": 3107299, "name": "Ull\u00edvarri-Arrazua", "country": "ES", "coord": {"lon": -2.59294, "lat": 42.887901}}, {"id": 5964700, "name": "Greater Sudbury", "country": "CA", "coord": {"lon": -80.990013, "lat": 46.490002}}, {"id": 3333219, "name": "Borough of Wigan", "country": "GB", "coord": {"lon": -2.58333, "lat": 53.5}}, {"id": 2655726, "name": "Bickershaw", "country": "GB", "coord": {"lon": -2.56937, "lat": 53.51358}}, {"id": 2795774, "name": "Heisel", "country": "BE", "coord": {"lon": 4.33333, "lat": 50.883331}}, {"id": 971421, "name": "Newcastle", "country": "ZA", "coord": {"lon": 29.931801, "lat": -27.757959}}, {"id": 995039, "name": "Hutton Heights", "country": "ZA", "coord": {"lon": 29.926809, "lat": -27.735229}}, {"id": 3239086, "name": "Ob\u010dina Kanal", "country": "SI", "coord": {"lon": 13.64306, "lat": 46.089722}}, {"id": 3218387, "name": "Vrhovec", "country": "SI", "coord": {"lon": 13.73056, "lat": 46.0625}}, {"id": 3177496, "name": "Dosson", "country": "IT", "coord": {"lon": 12.25722, "lat": 45.635559}}, {"id": 2939482, "name": "Dageling", "country": "DE", "coord": {"lon": 9.53333, "lat": 53.883331}}, {"id": 5800813, "name": "Lewis County", "country": "US", "coord": {"lon": -122.401222, "lat": 46.58316}}, {"id": 5803574, "name": "Mineral", "country": "US", "coord": {"lon": -122.180939, "lat": 46.717049}}, {"id": 3333151, "name": "Harrow", "country": "GB", "coord": {"lon": -0.33333, "lat": 51.566669}}, {"id": 2647420, "name": "Harrow Weald", "country": "GB", "coord": {"lon": -0.3374, "lat": 51.610661}}, {"id": 7290578, "name": "Fylde District", "country": "GB", "coord": {"lon": -2.92633, "lat": 53.793079}}, {"id": 2642943, "name": "Marton", "country": "GB", "coord": {"lon": -3, "lat": 53.783329}}, {"id": 1810676, "name": "Gansu Sheng", "country": "CN", "coord": {"lon": 102, "lat": 38}}, {"id": 1796245, "name": "Shangguan", "country": "CN", "coord": {"lon": 106.650002, "lat": 35.099998}}, {"id": 2975246, "name": "D\u00e9partement de Seine-Saint-Denis", "country": "FR", "coord": {"lon": 2.5, "lat": 48.916672}}, {"id": 6457371, "name": "Arrondissement de Bobigny", "country": "FR", "coord": {"lon": 2.4513, "lat": 48.906601}}, {"id": 2982757, "name": "Rosny-sous-Bois", "country": "FR", "coord": {"lon": 2.4991, "lat": 48.870171}}, {"id": 2975517, "name": "D\u00e9partement de la Savoie", "country": "FR", "coord": {"lon": 6.41667, "lat": 45.5}}, {"id": 2651579, "name": "Dallington", "country": "GB", "coord": {"lon": -0.91667, "lat": 52.23333}}, {"id": 7839633, "name": "Rockingham", "country": "AU", "coord": {"lon": 115.732384, "lat": -32.282391}}, {"id": 2062338, "name": "Rockingham", "country": "AU", "coord": {"lon": 115.716667, "lat": -32.283329}}, {"id": 3036293, "name": "Arrondissement d'Aubusson", "country": "FR", "coord": {"lon": 2.16667, "lat": 46}}, {"id": 6447734, "name": "Flayat", "country": "FR", "coord": {"lon": 2.38333, "lat": 45.783329}}, {"id": 3018356, "name": "Flayat", "country": "FR", "coord": {"lon": 2.38144, "lat": 45.774261}}, {"id": 5879267, "name": "Alyeska", "country": "US", "coord": {"lon": -149.110825, "lat": 60.960831}}, {"id": 355182, "name": "Mu\u1e29\u0101faz\u0327at Jan\u016bb S\u012bn\u0101\u2019", "country": "EG", "coord": {"lon": 33.799999, "lat": 29}}, {"id": 349340, "name": "Sharm ash Shaykh", "country": "EG", "coord": {"lon": 34.304989, "lat": 27.85183}}, {"id": 2960823, "name": "Aspelt", "country": "LU", "coord": {"lon": 6.22472, "lat": 49.522781}}, {"id": 7701318, "name": "Monte Penice Vetta", "country": "IT", "coord": {"lon": 9.3189, "lat": 44.791641}}, {"id": 3182882, "name": "Province of Arezzo", "country": "IT", "coord": {"lon": 11.83333, "lat": 43.533329}}, {"id": 6542153, "name": "Arezzo", "country": "IT", "coord": {"lon": 11.86904, "lat": 43.472351}}, {"id": 3167654, "name": "Santa Firmina", "country": "IT", "coord": {"lon": 11.88333, "lat": 43.433331}}, {"id": 2177543, "name": "Asquith", "country": "AU", "coord": {"lon": 151.100006, "lat": -33.683331}}, {"id": 1007311, "name": "Durban", "country": "ZA", "coord": {"lon": 31.0292, "lat": -29.857901}}, {"id": 972535, "name": "Musgrave", "country": "ZA", "coord": {"lon": 30.994049, "lat": -29.84989}}, {"id": 7535501, "name": "Gemeente Zuidplas", "country": "NL", "coord": {"lon": 4.61048, "lat": 52.015739}}, {"id": 2750764, "name": "Moerkapelle", "country": "NL", "coord": {"lon": 4.575, "lat": 52.04417}}, {"id": 3013500, "name": "D\u00e9partement de l'H\u00e9rault", "country": "FR", "coord": {"lon": 3.5, "lat": 43.666672}}, {"id": 2992165, "name": "Arrondissement of Montpellier", "country": "FR", "coord": {"lon": 3.83333, "lat": 43.666672}}, {"id": 6432551, "name": "M\u00e8ze", "country": "FR", "coord": {"lon": 3.6053, "lat": 43.4268}}, {"id": 2994043, "name": "Meze", "country": "FR", "coord": {"lon": 3.6059, "lat": 43.425041}}, {"id": 6355458, "name": "Javea", "country": "ES", "coord": {"lon": 0.19166, "lat": 38.764389}}, {"id": 2522427, "name": "Aduanas", "country": "ES", "coord": {"lon": 0.18198, "lat": 38.796242}}, {"id": 2822100, "name": "Tirschenreuth", "country": "DE", "coord": {"lon": 12.33306, "lat": 49.8825}}, {"id": 6542191, "name": "Taibon Agordino", "country": "IT", "coord": {"lon": 12.0097, "lat": 46.301121}}, {"id": 3165978, "name": "Taibon", "country": "IT", "coord": {"lon": 12.00333, "lat": 46.298889}}, {"id": 1167718, "name": "Punch", "country": "IN", "coord": {"lon": 74.089737, "lat": 33.767879}}, {"id": 1261913, "name": "Nangloi Jat", "country": "IN", "coord": {"lon": 77.066673, "lat": 28.683331}}, {"id": 8051054, "name": "Chittaranjan Park", "country": "IN", "coord": {"lon": 77.248047, "lat": 28.54015}}, {"id": 2952981, "name": "Bamenohl", "country": "DE", "coord": {"lon": 7.98333, "lat": 51.166672}}, {"id": 6539762, "name": "Monterotondo", "country": "IT", "coord": {"lon": 12.61868, "lat": 42.052521}}, {"id": 3172768, "name": "Monterotondo", "country": "IT", "coord": {"lon": 12.61868, "lat": 42.052521}}, {"id": 2861402, "name": "Oberasbach", "country": "DE", "coord": {"lon": 10.95766, "lat": 49.422749}}, {"id": 864561, "name": "Oblast Veliko T\u016drnovo", "country": "BG", "coord": {"lon": 25.65, "lat": 43.23333}}, {"id": 6536633, "name": "Alleghe", "country": "IT", "coord": {"lon": 12.02469, "lat": 46.407219}}, {"id": 3219427, "name": "Masar\u00e8", "country": "IT", "coord": {"lon": 12.01556, "lat": 46.39806}}, {"id": 7669012, "name": "Walnut Grove", "country": "CA", "coord": {"lon": -122.640419, "lat": 49.16473}}, {"id": 5906222, "name": "Bottrel", "country": "CA", "coord": {"lon": -114.485321, "lat": 51.400108}}, {"id": 2802872, "name": "Avelgem", "country": "BE", "coord": {"lon": 3.46012, "lat": 50.7812}}, {"id": 2801348, "name": "Bossuit", "country": "BE", "coord": {"lon": 3.40822, "lat": 50.748508}}, {"id": 5799853, "name": "Kitsap County", "country": "US", "coord": {"lon": -122.667923, "lat": 47.616482}}, {"id": 5798318, "name": "Indianola", "country": "US", "coord": {"lon": -122.525688, "lat": 47.74704}}, {"id": 3319179, "name": "Provincie Flevoland", "country": "NL", "coord": {"lon": 5.66667, "lat": 52.533329}}, {"id": 2751737, "name": "Gemeente Lelystad", "country": "NL", "coord": {"lon": 5.48333, "lat": 52.466671}}, {"id": 2751738, "name": "Lelystad", "country": "NL", "coord": {"lon": 5.475, "lat": 52.508331}}, {"id": 6544220, "name": "Gemeente Koggenland", "country": "NL", "coord": {"lon": 4.94909, "lat": 52.641628}}, {"id": 2749745, "name": "Obdam", "country": "NL", "coord": {"lon": 4.90694, "lat": 52.675831}}, {"id": 3023414, "name": "D\u00e9partement des C\u00f4tes-d'Armor", "country": "FR", "coord": {"lon": -2.66667, "lat": 48.416672}}, {"id": 2981279, "name": "Arrondissement de Saint-Brieuc", "country": "FR", "coord": {"lon": -2.83333, "lat": 48.416672}}, {"id": 2986795, "name": "Plerin", "country": "FR", "coord": {"lon": -2.77984, "lat": 48.542488}}, {"id": 2187273, "name": "Marshland", "country": "NZ", "coord": {"lon": 172.649994, "lat": -43.48333}},