[{"id": 3117256, "name": "Mas\u00eda de la Lloma", "country": "ES", "coord": {"lon": -0.27705, "lat": 40.25423}}, {"id": 6359863, "name": "Maside", "country": "ES", "coord": {"lon": -8.00502, "lat": 42.420261}}, {"id": 3117238, "name": "Maside", "country": "ES", "coord": {"lon": -8.02582, "lat": 42.410309}}, {"id": 6358231, "name": "Palos de la Frontera", "country": "ES", "coord": {"lon": -6.83825, "lat": 37.152809}}, {"id": 2513986, "name": "Mazag\u00f3n", "country": "ES", "coord": {"lon": -6.76444, "lat": 37.11417}}, {"id": 6357361, "name": "Cari\u00f1o", "country": "ES", "coord": {"lon": -7.8869, "lat": 43.736691}}, {"id": 3126276, "name": "Carino", "country": "ES", "coord": {"lon": -7.86715, "lat": 43.741341}}, {"id": 6358401, "name": "Sabi\u00f1\u00e1nigo", "country": "ES", "coord": {"lon": -0.32919, "lat": 42.483479}}, {"id": 3114907, "name": "Or\u00f3s Alto", "country": "ES", "coord": {"lon": -0.31423, "lat": 42.607498}}, {"id": 6361042, "name": "Sanl\u00facar la Mayor", "country": "ES", "coord": {"lon": -6.2354, "lat": 37.482979}}, {"id": 2511304, "name": "Sanlucar la Mayor", "country": "ES", "coord": {"lon": -6.20106, "lat": 37.387138}}, {"id": 6359944, "name": "Navia", "country": "ES", "coord": {"lon": -6.66208, "lat": 43.544601}}, {"id": 3115553, "name": "Navia", "country": "ES", "coord": {"lon": -6.71935, "lat": 43.535439}}, {"id": 6355487, "name": "Rojales", "country": "ES", "coord": {"lon": -0.736, "lat": 38.075359}}, {"id": 2511752, "name": "Rojales", "country": "ES", "coord": {"lon": -0.72544, "lat": 38.08799}}, {"id": 3114547, "name": "Palausolit\u00e0", "country": "ES", "coord": {"lon": 2.16667, "lat": 41.583328}}, {"id": 6534138, "name": "Sant Pere Pescador", "country": "ES", "coord": {"lon": 3.08372, "lat": 42.18697}}, {"id": 3110129, "name": "Sant Pere Pescador", "country": "ES", "coord": {"lon": 3.08212, "lat": 42.188122}}, {"id": 6358860, "name": "Isona i Conca Dell\u00e0", "country": "ES", "coord": {"lon": 1.03854, "lat": 42.126282}}, {"id": 3128004, "name": "Biscarri", "country": "ES", "coord": {"lon": 1.09924, "lat": 42.105961}}, {"id": 2517747, "name": "Fem\u00e9s", "country": "ES", "coord": {"lon": -13.77887, "lat": 28.91205}}, {"id": 2519709, "name": "Castillo del Romeral", "country": "ES", "coord": {"lon": -15.46077, "lat": 27.799641}}, {"id": 6359775, "name": "Tiebas-Muruarte de Reta", "country": "ES", "coord": {"lon": -1.64894, "lat": 42.685631}}, {"id": 3108106, "name": "Tiebas", "country": "ES", "coord": {"lon": -1.63969, "lat": 42.69389}}, {"id": 6355280, "name": "San Mill\u00e1n/Donemiliaga", "country": "ES", "coord": {"lon": -2.39836, "lat": 42.868969}}, {"id": 3110967, "name": "Salvatierra", "country": "ES", "coord": {"lon": -2.39123, "lat": 42.85162}}, {"id": 6359908, "name": "Vilari\u00f1o de Conso", "country": "ES", "coord": {"lon": -7.28205, "lat": 42.15094}}, {"id": 3112920, "name": "Pradoalvar", "country": "ES", "coord": {"lon": -7.2774, "lat": 42.173561}}, {"id": 6359928, "name": "Franco (El)", "country": "ES", "coord": {"lon": -6.84197, "lat": 43.545101}}, {"id": 3123488, "name": "El Franco", "country": "ES", "coord": {"lon": -6.8662, "lat": 43.555222}}, {"id": 6359525, "name": "Fortuna", "country": "ES", "coord": {"lon": -1.12435, "lat": 38.184841}}, {"id": 2517679, "name": "Fortuna", "country": "ES", "coord": {"lon": -1.1259, "lat": 38.1814}}, {"id": 6355257, "name": "Kripan", "country": "ES", "coord": {"lon": -2.51248, "lat": 42.593399}}, {"id": 3104577, "name": "Vi\u00f1aspre", "country": "ES", "coord": {"lon": -2.49548, "lat": 42.576778}}, {"id": 6360094, "name": "Renedo de la Vega", "country": "ES", "coord": {"lon": -4.70558, "lat": 42.43874}}, {"id": 3116046, "name": "Moslares de la Vega", "country": "ES", "coord": {"lon": -4.71576, "lat": 42.46225}}, {"id": 6359244, "name": "Becerril de la Sierra", "country": "ES", "coord": {"lon": -3.93368, "lat": 40.703072}}, {"id": 3117198, "name": "Mataelpino", "country": "ES", "coord": {"lon": -3.94597, "lat": 40.736221}}, {"id": 2516883, "name": "Guatiza", "country": "ES", "coord": {"lon": -13.47934, "lat": 29.074089}}, {"id": 6361935, "name": "B\u00e9tera", "country": "ES", "coord": {"lon": -0.47443, "lat": 39.5853}}, {"id": 2520968, "name": "Betera", "country": "ES", "coord": {"lon": -0.45, "lat": 39.583328}}, {"id": 6358664, "name": "Quintana del Castillo", "country": "ES", "coord": {"lon": -5.99183, "lat": 42.65292}}, {"id": 3104908, "name": "Villarmeriel", "country": "ES", "coord": {"lon": -6.01934, "lat": 42.680431}}, {"id": 6534081, "name": "Madremanya", "country": "ES", "coord": {"lon": 2.94202, "lat": 41.98362}}, {"id": 3116756, "name": "Mill\u00e1s", "country": "ES", "coord": {"lon": 2.97134, "lat": 41.98983}}, {"id": 6534058, "name": "Foix\u00e0", "country": "ES", "coord": {"lon": 2.99729, "lat": 42.038651}}, {"id": 3122389, "name": "Foixa", "country": "ES", "coord": {"lon": 3.00021, "lat": 42.036259}}, {"id": 6360629, "name": "Gu\u00eda de Isora", "country": "ES", "coord": {"lon": -16.796499, "lat": 28.190689}}, {"id": 6544365, "name": "El Varadero", "country": "ES", "coord": {"lon": -16.8379, "lat": 28.2262}}, {"id": 6361442, "name": "Aliaga", "country": "ES", "coord": {"lon": -0.67562, "lat": 40.68462}}, {"id": 3130372, "name": "Aliaga", "country": "ES", "coord": {"lon": -0.70333, "lat": 40.67411}}, {"id": 3125488, "name": "Celanova", "country": "ES", "coord": {"lon": -7.95513, "lat": 42.15303}}, {"id": 6356625, "name": "Trespaderne", "country": "ES", "coord": {"lon": -3.38163, "lat": 42.809811}}, {"id": 3107504, "name": "Trespaderne", "country": "ES", "coord": {"lon": -3.38989, "lat": 42.802212}}, {"id": 6357620, "name": "Puigcerd\u00e0", "country": "ES", "coord": {"lon": 1.9266, "lat": 42.43058}}, {"id": 3112680, "name": "Puigcerda", "country": "ES", "coord": {"lon": 1.92819, "lat": 42.431599}}, {"id": 6360640, "name": "Santiago del Teide", "country": "ES", "coord": {"lon": -16.823351, "lat": 28.263479}}, {"id": 2518325, "name": "El Molledo", "country": "ES", "coord": {"lon": -16.814951, "lat": 28.286039}}, {"id": 3109981, "name": "Santa Coloma de Gramenet", "country": "ES", "coord": {"lon": 2.2081, "lat": 41.451519}}, {"id": 3122709, "name": "Ezcaray", "country": "ES", "coord": {"lon": -3.01309, "lat": 42.325359}}, {"id": 3126015, "name": "Casetas", "country": "ES", "coord": {"lon": -1.02812, "lat": 41.719669}}, {"id": 6358236, "name": "Punta Umbr\u00eda", "country": "ES", "coord": {"lon": -7.01433, "lat": 37.211102}}, {"id": 2565056, "name": "Punta Umbria", "country": "ES", "coord": {"lon": -6.96605, "lat": 37.182129}}, {"id": 6359428, "name": "Benahav\u00eds", "country": "ES", "coord": {"lon": -5.04222, "lat": 36.563599}}, {"id": 2521146, "name": "Benahavis", "country": "ES", "coord": {"lon": -5.04631, "lat": 36.523609}}, {"id": 6358533, "name": "Torre del Campo", "country": "ES", "coord": {"lon": -3.93297, "lat": 37.85408}}, {"id": 2510310, "name": "Torre del Campo", "country": "ES", "coord": {"lon": -3.89731, "lat": 37.770512}}, {"id": 6358796, "name": "Baix Pallars", "country": "ES", "coord": {"lon": 1.07052, "lat": 42.330799}}, {"id": 3108663, "name": "Sort", "country": "ES", "coord": {"lon": 1.13045, "lat": 42.413189}}, {"id": 6362559, "name": "Monfarracinos", "country": "ES", "coord": {"lon": -5.70126, "lat": 41.562279}}, {"id": 3116484, "name": "Monfarracinos", "country": "ES", "coord": {"lon": -5.70795, "lat": 41.55468}}, {"id": 6355935, "name": "Jerez de los Caballeros", "country": "ES", "coord": {"lon": -6.81169, "lat": 38.342831}}, {"id": 2516325, "name": "Jerez de los Caballeros", "country": "ES", "coord": {"lon": -6.7726, "lat": 38.320629}}, {"id": 6358831, "name": "Coll de Narg\u00f3", "country": "ES", "coord": {"lon": 1.31544, "lat": 42.172691}}, {"id": 3127884, "name": "Boixols", "country": "ES", "coord": {"lon": 1.1627, "lat": 42.170872}}, {"id": 6358300, "name": "Benabarre", "country": "ES", "coord": {"lon": 0.49223, "lat": 42.085171}}, {"id": 3117778, "name": "Llu\u00e7ars", "country": "ES", "coord": {"lon": 0.57704, "lat": 42.15551}}, {"id": 6357712, "name": "Gualchos", "country": "ES", "coord": {"lon": -3.39116, "lat": 36.725021}}, {"id": 2516915, "name": "Gualchos", "country": "ES", "coord": {"lon": -3.39079, "lat": 36.744671}}, {"id": 6359323, "name": "Nuevo Bazt\u00e1n", "country": "ES", "coord": {"lon": -3.24755, "lat": 40.375252}}, {"id": 3115314, "name": "Nuevo Baztan", "country": "ES", "coord": {"lon": -3.24125, "lat": 40.36731}}, {"id": 6360938, "name": "Valleruela de Pedraza", "country": "ES", "coord": {"lon": -3.82311, "lat": 41.172459}}, {"id": 3108225, "name": "Tejadilla", "country": "ES", "coord": {"lon": -3.82116, "lat": 41.169991}}, {"id": 6358731, "name": "Vegaquemada", "country": "ES", "coord": {"lon": -5.32837, "lat": 42.805069}}, {"id": 3128612, "name": "Barrillos de las Arrimadas", "country": "ES", "coord": {"lon": -5.28434, "lat": 42.811031}}, {"id": 6357046, "name": "Rossell", "country": "ES", "coord": {"lon": 0.23146, "lat": 40.619591}}, {"id": 3111344, "name": "Rosell", "country": "ES", "coord": {"lon": 0.22133, "lat": 40.61792}}, {"id": 6359687, "name": "Lana", "country": "ES", "coord": {"lon": -2.25458, "lat": 42.71011}}, {"id": 3115751, "name": "Narcu\u00e9", "country": "ES", "coord": {"lon": -2.25744, "lat": 42.724831}}, {"id": 6534181, "name": "Alajero", "country": "ES", "coord": {"lon": -17.245859, "lat": 28.049919}}, {"id": 2512089, "name": "Quise", "country": "ES", "coord": {"lon": -17.256941, "lat": 28.04627}}, {"id": 3124963, "name": "Ciudad Rodrigo", "country": "ES", "coord": {"lon": -6.53333, "lat": 40.599998}}, {"id": 6362513, "name": "Fonfr\u00eda", "country": "ES", "coord": {"lon": -6.16975, "lat": 41.633411}}, {"id": 3127683, "name": "Brandilanes", "country": "ES", "coord": {"lon": -6.21172, "lat": 41.620609}}, {"id": 6359506, "name": "Abanilla", "country": "ES", "coord": {"lon": -1.05451, "lat": 38.215912}}, {"id": 2522505, "name": "Abanilla", "country": "ES", "coord": {"lon": -1.04152, "lat": 38.205379}}, {"id": 6358759, "name": "Villaman\u00edn", "country": "ES", "coord": {"lon": -5.70508, "lat": 42.973122}}, {"id": 3126795, "name": "Camplongo", "country": "ES", "coord": {"lon": -5.68333, "lat": 42.98333}}, {"id": 3111022, "name": "Salinas de A\u00f1ana", "country": "ES", "coord": {"lon": -2.98636, "lat": 42.801991}}, {"id": 6359922, "name": "Castrill\u00f3n", "country": "ES", "coord": {"lon": -5.99341, "lat": 43.56913}}, {"id": 3112570, "name": "Quilo\u00f1o", "country": "ES", "coord": {"lon": -5.96667, "lat": 43.549999}}, {"id": 6360701, "name": "Puente Viesgo", "country": "ES", "coord": {"lon": -3.97084, "lat": 43.302952}}, {"id": 3124432, "name": "Corvera", "country": "ES", "coord": {"lon": -3.9471, "lat": 43.266972}}, {"id": 6360638, "name": "Santa Cruz de Tenerife", "country": "ES", "coord": {"lon": -16.20302, "lat": 28.53924}}, {"id": 3115811, "name": "Muruz\u00e1bal de Andi\u00f3n", "country": "ES", "coord": {"lon": -1.85523, "lat": 42.603809}}, {"id": 6357221, "name": "Espiel", "country": "ES", "coord": {"lon": -5.12243, "lat": 38.082699}}, {"id": 2517894, "name": "Espiel", "country": "ES", "coord": {"lon": -5.01667, "lat": 38.200001}}, {"id": 6362138, "name": "Arroyo de la Encomienda", "country": "ES", "coord": {"lon": -4.79225, "lat": 41.62476}}, {"id": 3129371, "name": "Arroyo", "country": "ES", "coord": {"lon": -4.79692, "lat": 41.609558}}, {"id": 6357055, "name": "Sierra Engarcer\u00e1n", "country": "ES", "coord": {"lon": -0.02213, "lat": 40.273788}}, {"id": 3108987, "name": "Sierra-Engarceran", "country": "ES", "coord": {"lon": -0.01892, "lat": 40.269291}}, {"id": 2513885, "name": "Miguelturra", "country": "ES", "coord": {"lon": -3.89047, "lat": 38.96442}}, {"id": 6361025, "name": "Palomares del R\u00edo", "country": "ES", "coord": {"lon": -6.05662, "lat": 37.31625}}, {"id": 2512964, "name": "Palomares del Rio", "country": "ES", "coord": {"lon": -6.05863, "lat": 37.322239}}, {"id": 2513465, "name": "Muchamiel", "country": "ES", "coord": {"lon": -0.44529, "lat": 38.415798}}, {"id": 2509479, "name": "Villaseca de la Sagra", "country": "ES", "coord": {"lon": -3.88291, "lat": 39.961849}}, {"id": 6357861, "name": "Cardoso de la Sierra (El)", "country": "ES", "coord": {"lon": -3.41719, "lat": 41.123909}}, {"id": 3113933, "name": "Pe\u00f1alba de la Sierra", "country": "ES", "coord": {"lon": -3.39083, "lat": 41.143291}}, {"id": 6360768, "name": "Ayll\u00f3n", "country": "ES", "coord": {"lon": -3.33665, "lat": 41.360088}}, {"id": 3129106, "name": "Ayllon", "country": "ES", "coord": {"lon": -3.37537, "lat": 41.418991}}, {"id": 6356954, "name": "Vejer de la Frontera", "country": "ES", "coord": {"lon": -5.97299, "lat": 36.269878}}, {"id": 2509783, "name": "Vejer de la Frontera", "country": "ES", "coord": {"lon": -5.96953, "lat": 36.24456}}, {"id": 6359885, "name": "Ramir\u00e1s", "country": "ES", "coord": {"lon": -8.03496, "lat": 42.188862}}, {"id": 3116036, "name": "Mosteiro", "country": "ES", "coord": {"lon": -8.03101, "lat": 42.168171}}, {"id": 6359943, "name": "Nava", "country": "ES", "coord": {"lon": -5.4949, "lat": 43.33952}}, {"id": 3112846, "name": "Priandi", "country": "ES", "coord": {"lon": -5.51667, "lat": 43.349998}}, {"id": 3107070, "name": "Valbueno", "country": "ES", "coord": {"lon": -3.26003, "lat": 40.63472}}, {"id": 6362367, "name": "Berriz", "country": "ES", "coord": {"lon": -2.59326, "lat": 43.19104}}, {"id": 3128129, "name": "Berriz", "country": "ES", "coord": {"lon": -2.56667, "lat": 43.166672}}, {"id": 6362436, "name": "Erandio", "country": "ES", "coord": {"lon": -2.95161, "lat": 43.322788}}, {"id": 3129228, "name": "Astrabud\u00faa", "country": "ES", "coord": {"lon": -2.98333, "lat": 43.316669}}, {"id": 3118469, "name": "Lezo", "country": "ES", "coord": {"lon": -1.89739, "lat": 43.321419}}, {"id": 6324817, "name": "Altamira", "country": "ES", "coord": {"lon": -1.8989, "lat": 43.31723}}, {"id": 6358140, "name": "Legazpi", "country": "ES", "coord": {"lon": -2.34237, "lat": 43.03075}}, {"id": 3118587, "name": "Legazpia", "country": "ES", "coord": {"lon": -2.33689, "lat": 43.053188}}, {"id": 3128718, "name": "Barciela", "country": "ES", "coord": {"lon": -8.43925, "lat": 42.959919}}, {"id": 6359883, "name": "Quintela de Leirado", "country": "ES", "coord": {"lon": -8.10318, "lat": 42.13678}}, {"id": 3112407, "name": "Quintela de Leirado", "country": "ES", "coord": {"lon": -8.10126, "lat": 42.139671}}, {"id": 6361045, "name": "Saucejo (El)", "country": "ES", "coord": {"lon": -5.09638, "lat": 37.078701}}, {"id": 2518113, "name": "El Saucejo", "country": "ES", "coord": {"lon": -5.09818, "lat": 37.072369}}, {"id": 6355607, "name": "Uleila del Campo", "country": "ES", "coord": {"lon": -2.18699, "lat": 37.19463}}, {"id": 2510100, "name": "Uleila del Campo", "country": "ES", "coord": {"lon": -2.20491, "lat": 37.184601}}, {"id": 6358578, "name": "Cabreros del R\u00edo", "country": "ES", "coord": {"lon": -5.52213, "lat": 42.406342}}, {"id": 3120214, "name": "Jabares de los Oteros", "country": "ES", "coord": {"lon": -5.51135, "lat": 42.413071}}, {"id": 6360989, "name": "Coria del R\u00edo", "country": "ES", "coord": {"lon": -6.04203, "lat": 37.244411}}, {"id": 2519233, "name": "Coria del Rio", "country": "ES", "coord": {"lon": -6.0541, "lat": 37.287659}}, {"id": 3127954, "name": "Boal", "country": "ES", "coord": {"lon": -6.81513, "lat": 43.431999}}, {"id": 7874332, "name": "Caleta de V\u00e9lez", "country": "ES", "coord": {"lon": -4.07279, "lat": 36.74958}}, {"id": 6356084, "name": "Castellar de n'Hug", "country": "ES", "coord": {"lon": 2.00606, "lat": 42.278938}}, {"id": 3124929, "name": "Clot del Moro", "country": "ES", "coord": {"lon": 1.97809, "lat": 42.265461}}, {"id": 3130379, "name": "Alguaire", "country": "ES", "coord": {"lon": 0.5845, "lat": 41.73703}}, {"id": 6356090, "name": "Castellet i la Gornal", "country": "ES", "coord": {"lon": 1.63013, "lat": 41.2775}}, {"id": 3125895, "name": "Castellet", "country": "ES", "coord": {"lon": 1.63369, "lat": 41.26281}}, {"id": 6361726, "name": "Fuensalida", "country": "ES", "coord": {"lon": -4.18003, "lat": 40.063961}}, {"id": 3109925, "name": "Santa Cruz del Retamar", "country": "ES", "coord": {"lon": -4.24158, "lat": 40.119171}}, {"id": 6356870, "name": "Serradilla", "country": "ES", "coord": {"lon": -6.0846, "lat": 39.816479}}, {"id": 2509492, "name": "Villarreal de San Carlos", "country": "ES", "coord": {"lon": -6.02949, "lat": 39.847462}}, {"id": 6359272, "name": "Collado Mediano", "country": "ES", "coord": {"lon": -4.03244, "lat": 40.693851}}, {"id": 3124798, "name": "Collado Mediano", "country": "ES", "coord": {"lon": -4.0228, "lat": 40.69326}}, {"id": 6358056, "name": "Uceda", "country": "ES", "coord": {"lon": -3.45128, "lat": 40.819832}}, {"id": 3107348, "name": "Uceda", "country": "ES", "coord": {"lon": -3.4604, "lat": 40.839439}}, {"id": 6357072, "name": "Useras/Useres (les)", "country": "ES", "coord": {"lon": -0.13581, "lat": 40.181881}}, {"id": 3130930, "name": "Adzaneta", "country": "ES", "coord": {"lon": -0.17028, "lat": 40.21616}}, {"id": 6355516, "name": "Montesinos (Los)", "country": "ES", "coord": {"lon": -0.75255, "lat": 38.030472}}, {"id": 2514593, "name": "Los Montesinos", "country": "ES", "coord": {"lon": -0.74501, "lat": 38.028221}}, {"id": 3104659, "name": "Villodas", "country": "ES", "coord": {"lon": -2.7882, "lat": 42.832802}}, {"id": 6360151, "name": "Villanu\u00f1o de Valdavia", "country": "ES", "coord": {"lon": -4.51551, "lat": 42.525581}}, {"id": 3105182, "name": "Villanuno de Valdavia", "country": "ES", "coord": {"lon": -4.51887, "lat": 42.507751}}, {"id": 6360334, "name": "Carbajosa de la Sagrada", "country": "ES", "coord": {"lon": -5.62988, "lat": 40.92366}}, {"id": 3126397, "name": "Carbajosa de la Sagrada", "country": "ES", "coord": {"lon": -5.65026, "lat": 40.933048}}, {"id": 6359523, "name": "Ceut\u00ed", "country": "ES", "coord": {"lon": -1.27412, "lat": 38.085789}}, {"id": 2519579, "name": "Ceuti", "country": "ES", "coord": {"lon": -1.27467, "lat": 38.07859}}, {"id": 6358347, "name": "Grado (El)", "country": "ES", "coord": {"lon": 0.20124, "lat": 42.122639}}, {"id": 3107356, "name": "Ubiergo", "country": "ES", "coord": {"lon": 0.26667, "lat": 42.157478}}, {"id": 3120868, "name": "Hazas de Cesto", "country": "ES", "coord": {"lon": -3.58916, "lat": 43.39653}}, {"id": 6357694, "name": "Diezma", "country": "ES", "coord": {"lon": -3.33988, "lat": 37.32663}}, {"id": 2514412, "name": "Los Villares", "country": "ES", "coord": {"lon": -3.33143, "lat": 37.348221}}, {"id": 6358899, "name": "Conca de Dalt", "country": "ES", "coord": {"lon": 0.99973, "lat": 42.251331}}, {"id": 3114868, "name": "Ortoneda", "country": "ES", "coord": {"lon": 1.04259, "lat": 42.245571}}, {"id": 2515620, "name": "La Puebla del Rio", "country": "ES", "coord": {"lon": -6.06264, "lat": 37.267872}}, {"id": 6358564, "name": "Bembibre", "country": "ES", "coord": {"lon": -6.43707, "lat": 42.641579}}, {"id": 3128308, "name": "Bembibre", "country": "ES", "coord": {"lon": -6.41545, "lat": 42.61771}}, {"id": 6534124, "name": "Sant Ferriol", "country": "ES", "coord": {"lon": 2.66918, "lat": 42.193489}}, {"id": 3119423, "name": "La Miana", "country": "ES", "coord": {"lon": 2.62898, "lat": 42.181332}}, {"id": 6362098, "name": "Sollana", "country": "ES", "coord": {"lon": -0.3763, "lat": 39.283199}}, {"id": 2510822, "name": "Sollana", "country": "ES", "coord": {"lon": -0.36667, "lat": 39.283329}}, {"id": 6355612, "name": "Vera", "country": "ES", "coord": {"lon": -1.84358, "lat": 37.20536}}, {"id": 2509693, "name": "Vera", "country": "ES", "coord": {"lon": -1.85905, "lat": 37.24345}}, {"id": 6356718, "name": "Arroyo de la Luz", "country": "ES", "coord": {"lon": -6.57968, "lat": 39.511478}}, {"id": 2521555, "name": "Arroyo de la Luz", "country": "ES", "coord": {"lon": -6.58401, "lat": 39.485111}}, {"id": 3113247, "name": "Pomaluengo", "country": "ES", "coord": {"lon": -3.92992, "lat": 43.309528}}, {"id": 6361392, "name": "Tivissa", "country": "ES", "coord": {"lon": 0.75886, "lat": 41.033009}}, {"id": 3109089, "name": "Serra de Alm\u00f3s", "country": "ES", "coord": {"lon": 0.744, "lat": 41.081001}}, {"id": 3107305, "name": "Ulldecona", "country": "ES", "coord": {"lon": 0.44718, "lat": 40.59734}}, {"id": 6362056, "name": "Pedralba", "country": "ES", "coord": {"lon": -0.7205, "lat": 39.594688}}, {"id": 2512837, "name": "Pedralba", "country": "ES", "coord": {"lon": -0.71667, "lat": 39.599998}}, {"id": 6534148, "name": "Sils", "country": "ES", "coord": {"lon": 2.73656, "lat": 41.829659}}, {"id": 3106662, "name": "Vallcanera", "country": "ES", "coord": {"lon": 2.75, "lat": 41.833328}}, {"id": 6360233, "name": "Mora\u00f1a", "country": "ES", "coord": {"lon": -8.57494, "lat": 42.583012}}, {"id": 3109308, "name": "Sai\u00e1ns", "country": "ES", "coord": {"lon": -8.58333, "lat": 42.583328}}, {"id": 3121453, "name": "Gerri", "country": "ES", "coord": {"lon": 1.06727, "lat": 42.323689}}, {"id": 6534161, "name": "Ventall\u00f3", "country": "ES", "coord": {"lon": 3.02652, "lat": 42.148338}}, {"id": 3106158, "name": "Ventallo", "country": "ES", "coord": {"lon": 3.02635, "lat": 42.149212}}, {"id": 6356808, "name": "Madro\u00f1era", "country": "ES", "coord": {"lon": -5.73904, "lat": 39.45911}}, {"id": 2514324, "name": "Madronera", "country": "ES", "coord": {"lon": -5.75568, "lat": 39.425259}}, {"id": 6358689, "name": "Santa Elena de Jamuz", "country": "ES", "coord": {"lon": -5.91393, "lat": 42.254501}}, {"id": 3110331, "name": "San Mart\u00edn de Torres", "country": "ES", "coord": {"lon": -5.85161, "lat": 42.271172}}, {"id": 6360692, "name": "Molledo", "country": "ES", "coord": {"lon": -4.01381, "lat": 43.123741}}, {"id": 3108952, "name": "Sili\u00f3", "country": "ES", "coord": {"lon": -4.01728, "lat": 43.148129}}, {"id": 6358640, "name": "Matallana de Tor\u00edo", "country": "ES", "coord": {"lon": -5.51101, "lat": 42.850979}}, {"id": 3118226, "name": "Llombera", "country": "ES", "coord": {"lon": -5.59109, "lat": 42.843208}}, {"id": 3127865, "name": "Bolibar", "country": "ES", "coord": {"lon": -2.52742, "lat": 43.003448}}, {"id": 6359615, "name": "Carcastillo", "country": "ES", "coord": {"lon": -1.42712, "lat": 42.361778}}, {"id": 3126331, "name": "Carcastillo", "country": "ES", "coord": {"lon": -1.44376, "lat": 42.379082}}, {"id": 6357095, "name": "Aben\u00f3jar", "country": "ES", "coord": {"lon": -4.437, "lat": 38.868919}}, {"id": 2513325, "name": "Navalmedio de Morales", "country": "ES", "coord": {"lon": -4.53393, "lat": 38.849178}}, {"id": 6533969, "name": "Sant Lloren\u00e7 des Cardassar", "country": "ES", "coord": {"lon": 3.28268, "lat": 39.6087}}, {"id": 2510812, "name": "Son Carri\u00f3", "country": "ES", "coord": {"lon": 3.32042, "lat": 39.58633}}, {"id": 6357888, "name": "Chiloeches", "country": "ES", "coord": {"lon": -3.1939, "lat": 40.567909}}, {"id": 3125149, "name": "Chiloeches", "country": "ES", "coord": {"lon": -3.16003, "lat": 40.570381}}, {"id": 6357932, "name": "Jadraque", "country": "ES", "coord": {"lon": -2.92923, "lat": 40.922531}}, {"id": 3120209, "name": "Jadraque", "country": "ES", "coord": {"lon": -2.92468, "lat": 40.924541}}, {"id": 6359892, "name": "San Cibrao das Vi\u00f1as", "country": "ES", "coord": {"lon": -7.85489, "lat": 42.28603}}, {"id": 3112285, "name": "Rante", "country": "ES", "coord": {"lon": -7.86091, "lat": 42.27335}}, {"id": 6359422, "name": "Archidona", "country": "ES", "coord": {"lon": -4.38852, "lat": 37.099449}}, {"id": 2521673, "name": "Archidona", "country": "ES", "coord": {"lon": -4.38869, "lat": 37.096539}}, {"id": 3118571, "name": "Leiro", "country": "ES", "coord": {"lon": -8.74924, "lat": 42.53196}}, {"id": 6357688, "name": "Chauchina", "country": "ES", "coord": {"lon": -3.78005, "lat": 37.181412}}, {"id": 2519534, "name": "Chauchina", "country": "ES", "coord": {"lon": -3.77157, "lat": 37.199772}}, {"id": 2512107, "name": "Quesada", "country": "ES", "coord": {"lon": -3.06561, "lat": 37.84338}}, {"id": 6357698, "name": "D\u00farcal", "country": "ES", "coord": {"lon": -3.49625, "lat": 37.027641}}, {"id": 2518774, "name": "Durcal", "country": "ES", "coord": {"lon": -3.56601, "lat": 36.987881}}, {"id": 6359905, "name": "Vilar de Barrio", "country": "ES", "coord": {"lon": -7.53473, "lat": 42.16943}}, {"id": 3117114, "name": "Maus", "country": "ES", "coord": {"lon": -7.61009, "lat": 42.18121}}, {"id": 6361083, "name": "Arcos de Jal\u00f3n", "country": "ES", "coord": {"lon": -2.28177, "lat": 41.191898}}, {"id": 3129723, "name": "Arcos de Jalon", "country": "ES", "coord": {"lon": -2.2747, "lat": 41.215919}}, {"id": 6360528, "name": "San Mu\u00f1oz", "country": "ES", "coord": {"lon": -6.12537, "lat": 40.764969}}, {"id": 3110229, "name": "San Munoz", "country": "ES", "coord": {"lon": -6.12758, "lat": 40.78334}}, {"id": 2519985, "name": "Casar de Caceres", "country": "ES", "coord": {"lon": -6.41944, "lat": 39.561062}}, {"id": 6356826, "name": "Navalmoral de la Mata", "country": "ES", "coord": {"lon": -5.56202, "lat": 39.936939}}, {"id": 2510689, "name": "Talayuela", "country": "ES", "coord": {"lon": -5.60982, "lat": 39.987011}}, {"id": 3111993, "name": "Requejada", "country": "ES", "coord": {"lon": -4.02816, "lat": 43.390251}}, {"id": 6360251, "name": "Tomi\u00f1o", "country": "ES", "coord": {"lon": -8.74886, "lat": 41.99226}}, {"id": 3122243, "name": "Forcadela", "country": "ES", "coord": {"lon": -8.71667, "lat": 41.98333}}, {"id": 2511376, "name": "Sangonera la Verde", "country": "ES", "coord": {"lon": -1.20794, "lat": 37.928619}}, {"id": 6359854, "name": "Xunqueira de Amb\u00eda", "country": "ES", "coord": {"lon": -7.71949, "lat": 42.184731}}, {"id": 3131087, "name": "Abeleda", "country": "ES", "coord": {"lon": -7.71043, "lat": 42.176289}}, {"id": 6359867, "name": "Montederramo", "country": "ES", "coord": {"lon": -7.4945, "lat": 42.28331}}, {"id": 3121785, "name": "Gab\u00edn", "country": "ES", "coord": {"lon": -7.48545, "lat": 42.26775}}, {"id": 3124455, "name": "Cortina", "country": "ES", "coord": {"lon": -5.78333, "lat": 43.200001}}, {"id": 6357755, "name": "\u00d3rgiva", "country": "ES", "coord": {"lon": -3.38416, "lat": 36.866428}}, {"id": 2513073, "name": "Orjiva", "country": "ES", "coord": {"lon": -3.42379, "lat": 36.902592}}, {"id": 3122404, "name": "Florejacs", "country": "ES", "coord": {"lon": 1.21667, "lat": 41.799999}}, {"id": 3104268, "name": "Zorelle", "country": "ES", "coord": {"lon": -7.66667, "lat": 42.299999}}, {"id": 6359704, "name": "Lizo\u00e1in", "country": "ES", "coord": {"lon": -1.46955, "lat": 42.829659}}, {"id": 3118350, "name": "Lizoain", "country": "ES", "coord": {"lon": -1.46753, "lat": 42.798679}}, {"id": 6534193, "name": "San Andr\u00e9s Y Sauces", "country": "ES", "coord": {"lon": -17.79974, "lat": 28.783979}}, {"id": 2515336, "name": "Las Ledas", "country": "ES", "coord": {"lon": -17.76667, "lat": 28.799999}}, {"id": 6357850, "name": "Brihuega", "country": "ES", "coord": {"lon": -2.8357, "lat": 40.744099}}, {"id": 3115124, "name": "Olmeda del Extremo", "country": "ES", "coord": {"lon": -2.73847, "lat": 40.765598}}, {"id": 6360208, "name": "Bueu", "country": "ES", "coord": {"lon": -8.88079, "lat": 42.355999}}, {"id": 3127538, "name": "Bueu", "country": "ES", "coord": {"lon": -8.78497, "lat": 42.324581}}, {"id": 3110527, "name": "San Juan de Mozarrifar", "country": "ES", "coord": {"lon": -0.84045, "lat": 41.718479}}, {"id": 6360022, "name": "Cervera de Pisuerga", "country": "ES", "coord": {"lon": -4.50989, "lat": 42.908611}}, {"id": 3106437, "name": "Valsurbio", "country": "ES", "coord": {"lon": -4.73307, "lat": 42.866241}}, {"id": 6359820, "name": "Amoeiro", "country": "ES", "coord": {"lon": -7.94064, "lat": 42.40406}}, {"id": 3123564, "name": "El Castro", "country": "ES", "coord": {"lon": -7.91667, "lat": 42.366669}}, {"id": 3107147, "name": "Useras", "country": "ES", "coord": {"lon": -0.16522, "lat": 40.15765}}, {"id": 3112803, "name": "Pruvia", "country": "ES", "coord": {"lon": -5.77103, "lat": 43.450081}}, {"id": 6356188, "name": "Piera", "country": "ES", "coord": {"lon": 1.74854, "lat": 41.513279}}, {"id": 3123267, "name": "els Hostalets de Pierola", "country": "ES", "coord": {"lon": 1.76667, "lat": 41.533329}}, {"id": 6533952, "name": "Llucmajor", "country": "ES", "coord": {"lon": 2.88983, "lat": 39.490028}}, {"id": 2518723, "name": "sArenal", "country": "ES", "coord": {"lon": 2.75, "lat": 39.5}}, {"id": 6359876, "name": "Peroxa (A)", "country": "ES", "coord": {"lon": -7.78795, "lat": 42.458832}}, {"id": 3129512, "name": "Armental", "country": "ES", "coord": {"lon": -7.81667, "lat": 42.466671}}, {"id": 3113784, "name": "Peratallada", "country": "ES", "coord": {"lon": 3.08999, "lat": 41.978119}}, {"id": 3116145, "name": "Morcuera", "country": "ES", "coord": {"lon": -3.21663, "lat": 41.46468}}, {"id": 6360464, "name": "Orbada (La)", "country": "ES", "coord": {"lon": -5.46575, "lat": 41.10545}}, {"id": 3105215, "name": "Villanueva de los Pavones", "country": "ES", "coord": {"lon": -5.45134, "lat": 41.092152}}, {"id": 6356374, "name": "Briviesca", "country": "ES", "coord": {"lon": -3.32483, "lat": 42.530041}}, {"id": 3127611, "name": "Briviesca", "country": "ES", "coord": {"lon": -3.32315, "lat": 42.549931}}, {"id": 2513792, "name": "Mog\u00f3n", "country": "ES", "coord": {"lon": -3.03329, "lat": 38.075142}}, {"id": 6362037, "name": "Montserrat", "country": "ES", "coord": {"lon": -0.59021, "lat": 39.349628}}, {"id": 2513674, "name": "Monserrat", "country": "ES", "coord": {"lon": -0.6, "lat": 39.366669}}, {"id": 6355265, "name": "Laguardia", "country": "ES", "coord": {"lon": -2.58333, "lat": 42.552071}}, {"id": 3119645, "name": "Laguardia", "country": "ES", "coord": {"lon": -2.58528, "lat": 42.5546}}, {"id": 6533958, "name": "es Mercadal", "country": "ES", "coord": {"lon": 4.12184, "lat": 40.0415}}, {"id": 2513922, "name": "Es Mercadal", "country": "ES", "coord": {"lon": 4.09387, "lat": 39.990139}}, {"id": 6356636, "name": "Valle de Mena", "country": "ES", "coord": {"lon": -3.24417, "lat": 43.111118}}, {"id": 3112054, "name": "Relloso", "country": "ES", "coord": {"lon": -3.2343, "lat": 43.058231}}, {"id": 6359901, "name": "Ver\u00edn", "country": "ES", "coord": {"lon": -7.40906, "lat": 41.886791}}, {"id": 3106086, "name": "Verin", "country": "ES", "coord": {"lon": -7.43809, "lat": 41.94149}}, {"id": 3112206, "name": "Rebordechao", "country": "ES", "coord": {"lon": -7.4992, "lat": 42.178921}}, {"id": 6361899, "name": "Almoines", "country": "ES", "coord": {"lon": -0.17881, "lat": 38.947571}}, {"id": 2521863, "name": "Almoines", "country": "ES", "coord": {"lon": -0.18155, "lat": 38.943249}}, {"id": 6362869, "name": "Muela (La)", "country": "ES", "coord": {"lon": -1.09056, "lat": 41.564529}}, {"id": 3119384, "name": "La Muela", "country": "ES", "coord": {"lon": -1.11719, "lat": 41.580139}}, {"id": 3129793, "name": "L'Arbo\u00e7", "country": "ES", "coord": {"lon": 1.6, "lat": 41.26667}}, {"id": 3131115, "name": "Abanto y Ci\u00e9rvana", "country": "ES", "coord": {"lon": -3.08333, "lat": 43.316669}}, {"id": 3121721, "name": "Gallarta", "country": "ES", "coord": {"lon": -3.07282, "lat": 43.321178}}, {"id": 6357290, "name": "Carnota", "country": "ES", "coord": {"lon": -9.12952, "lat": 42.847179}}, {"id": 3112196, "name": "Reboredo", "country": "ES", "coord": {"lon": -9.09183, "lat": 42.900051}}, {"id": 3108916, "name": "Simes", "country": "ES", "coord": {"lon": -8.76667, "lat": 42.433331}}, {"id": 2515013, "name": "Llano del Moro", "country": "ES", "coord": {"lon": -16.333031, "lat": 28.441311}}, {"id": 6359280, "name": "Escorial (El)", "country": "ES", "coord": {"lon": -4.09697, "lat": 40.5742}}, {"id": 6697573, "name": "El Alcor II", "country": "ES", "coord": {"lon": -4.10975, "lat": 40.545151}}, {"id": 6359309, "name": "Miraflores de la Sierra", "country": "ES", "coord": {"lon": -3.75983, "lat": 40.78442}}, {"id": 3116708, "name": "Miraflores de la Sierra", "country": "ES", "coord": {"lon": -3.76213, "lat": 40.815498}}, {"id": 6360687, "name": "Mazcuerras", "country": "ES", "coord": {"lon": -4.18006, "lat": 43.289989}}, {"id": 3120470, "name": "Ibio", "country": "ES", "coord": {"lon": -4.17698, "lat": 43.312778}}, {"id": 6357338, "name": "Pontes de Garc\u00eda Rodr\u00edguez (As)", "country": "ES", "coord": {"lon": -7.84834, "lat": 43.483082}}, {"id": 3108718, "name": "Somozas", "country": "ES", "coord": {"lon": -7.93333, "lat": 43.533329}}, {"id": 3113425, "name": "Pi\u00f1or", "country": "ES", "coord": {"lon": -7.9, "lat": 42.333328}}, {"id": 3116983, "name": "Meil\u00e1n", "country": "ES", "coord": {"lon": -7.26667, "lat": 43.349998}}, {"id": 6359804, "name": "Villatuerta", "country": "ES", "coord": {"lon": -1.9567, "lat": 42.63731}}, {"id": 3129873, "name": "Arandigoyen", "country": "ES", "coord": {"lon": -1.9899, "lat": 42.667801}}, {"id": 6355299, "name": "Alcal\u00e1 del J\u00facar", "country": "ES", "coord": {"lon": -1.40555, "lat": 39.19894}}, {"id": 2510400, "name": "Tolosa", "country": "ES", "coord": {"lon": -1.36667, "lat": 39.200001}}, {"id": 3104978, "name": "Villarejo-Sobrehuerta", "country": "ES", "coord": {"lon": -2.48681, "lat": 40.01907}}, {"id": 6359919, "name": "Cangas de On\u00eds", "country": "ES", "coord": {"lon": -5.07175, "lat": 43.328411}}, {"id": 3124638, "name": "Corao", "country": "ES", "coord": {"lon": -5.06676, "lat": 43.346649}}, {"id": 6358488, "name": "Guardia de Ja\u00e9n (La)", "country": "ES", "coord": {"lon": -3.70342, "lat": 37.75552}}, {"id": 2515908, "name": "La Guardia de Jaen", "country": "ES", "coord": {"lon": -3.69312, "lat": 37.743031}}, {"id": 6362759, "name": "Cadrete", "country": "ES", "coord": {"lon": -0.95408, "lat": 41.549191}}, {"id": 3127099, "name": "Cadrete", "country": "ES", "coord": {"lon": -0.96013, "lat": 41.555752}}, {"id": 3128449, "name": "Bazt\u00e1n", "country": "ES", "coord": {"lon": -1.55, "lat": 43.150002}}, {"id": 3120301, "name": "Irurita", "country": "ES", "coord": {"lon": -1.54758, "lat": 43.131241}}, {"id": 6356936, "name": "Jimena de la Frontera", "country": "ES", "coord": {"lon": -5.43205, "lat": 36.422211}}, {"id": 2516315, "name": "Jimena de la Frontera", "country": "ES", "coord": {"lon": -5.45387, "lat": 36.435169}}, {"id": 6359404, "name": "Puentes Viejas", "country": "ES", "coord": {"lon": -3.56047, "lat": 40.969639}}, {"id": 3109090, "name": "Serrada de la Fuente", "country": "ES", "coord": {"lon": -3.53387, "lat": 40.98719}}, {"id": 6356174, "name": "Olesa de Bonesvalls", "country": "ES", "coord": {"lon": 1.84388, "lat": 41.3531}}, {"id": 3114996, "name": "Ordal", "country": "ES", "coord": {"lon": 1.85064, "lat": 41.39661}}, {"id": 6361821, "name": "Sese\u00f1a", "country": "ES", "coord": {"lon": -3.66015, "lat": 40.08535}}, {"id": 3109048, "name": "Sese\u00f1a Nuevo", "country": "ES", "coord": {"lon": -3.64918, "lat": 40.10611}}, {"id": 6355382, "name": "Alcalal\u00ed", "country": "ES", "coord": {"lon": -0.03312, "lat": 38.748241}}, {"id": 2522159, "name": "Alcalali", "country": "ES", "coord": {"lon": -0.04013, "lat": 38.750381}}, {"id": 2519464, "name": "Chiva", "country": "ES", "coord": {"lon": -0.71667, "lat": 39.466671}}, {"id": 6361974, "name": "Cheste", "country": "ES", "coord": {"lon": -0.70508, "lat": 39.518719}}, {"id": 2519522, "name": "Cheste", "country": "ES", "coord": {"lon": -0.68333, "lat": 39.48333}}, {"id": 6356638, "name": "Valle de Tobalina", "country": "ES", "coord": {"lon": -3.27269, "lat": 42.81039}}, {"id": 3105225, "name": "Villanueva del Grillo", "country": "ES", "coord": {"lon": -3.2188, "lat": 42.813499}}, {"id": 6359840, "name": "Castrelo de Mi\u00f1o", "country": "ES", "coord": {"lon": -8.05972, "lat": 42.294121}}, {"id": 3129246, "name": "Astariz", "country": "ES", "coord": {"lon": -8.04047, "lat": 42.323872}}, {"id": 3108569, "name": "Sotrondio", "country": "ES", "coord": {"lon": -5.6049, "lat": 43.2757}}, {"id": 6356512, "name": "O\u00f1a", "country": "ES", "coord": {"lon": -3.3691, "lat": 42.717659}}, {"id": 3108768, "name": "Solduengo", "country": "ES", "coord": {"lon": -3.34237, "lat": 42.661461}}, {"id": 6534190, "name": "Paso (El)", "country": "ES", "coord": {"lon": -17.868919, "lat": 28.658701}}, {"id": 2521269, "name": "Barrial", "country": "ES", "coord": {"lon": -17.86754, "lat": 28.65451}}, {"id": 6359653, "name": "Fitero", "country": "ES", "coord": {"lon": -1.85475, "lat": 42.040749}}, {"id": 3122415, "name": "Fitero", "country": "ES", "coord": {"lon": -1.85756, "lat": 42.057701}}, {"id": 6358588, "name": "Carrizo", "country": "ES", "coord": {"lon": -5.85169, "lat": 42.593399}}, {"id": 3126155, "name": "Carrizo de la Ribera", "country": "ES", "coord": {"lon": -5.82881, "lat": 42.58395}}, {"id": 6357214, "name": "Castro del R\u00edo", "country": "ES", "coord": {"lon": -4.49786, "lat": 37.68494}}, {"id": 2519697, "name": "Castro del Rio", "country": "ES", "coord": {"lon": -4.48058, "lat": 37.69125}}, {"id": 6534102, "name": "Peralada", "country": "ES", "coord": {"lon": 3.00768, "lat": 42.307701}}, {"id": 3105887, "name": "Vilanova de la Muga", "country": "ES", "coord": {"lon": 3.04323, "lat": 42.280521}}, {"id": 6360880, "name": "Palazuelos de Eresma", "country": "ES", "coord": {"lon": -4.0193, "lat": 40.924961}}, {"id": 3114535, "name": "Palazuelos de Eresma", "country": "ES", "coord": {"lon": -4.06071, "lat": 40.93055}}, {"id": 6544074, "name": "Benalm\u00e1dena Costa", "country": "ES", "coord": {"lon": -4.53684, "lat": 36.59996}}, {"id": 6533930, "name": "Algaida", "country": "ES", "coord": {"lon": 2.89395, "lat": 39.55822}}, {"id": 2522036, "name": "Algaida", "country": "ES", "coord": {"lon": 2.89541, "lat": 39.55899}}, {"id": 6355445, "name": "Finestrat", "country": "ES", "coord": {"lon": -0.19913, "lat": 38.561508}}, {"id": 2517719, "name": "Finestrat", "country": "ES", "coord": {"lon": -0.21235, "lat": 38.567371}}, {"id": 6356100, "name": "Cervell\u00f3", "country": "ES", "coord": {"lon": 1.95506, "lat": 41.401249}}, {"id": 3125309, "name": "Cervello", "country": "ES", "coord": {"lon": 1.95917, "lat": 41.39587}}, {"id": 6362074, "name": "Rafelguaraf", "country": "ES", "coord": {"lon": -0.44317, "lat": 39.051201}}, {"id": 2512071, "name": "Rafelguaraf", "country": "ES", "coord": {"lon": -0.45543, "lat": 39.051262}}, {"id": 6361191, "name": "Rioseco de Soria", "country": "ES", "coord": {"lon": -2.87734, "lat": 41.649288}}, {"id": 3107872, "name": "Torralba del Burgo", "country": "ES", "coord": {"lon": -2.9262, "lat": 41.637562}}, {"id": 6359484, "name": "Pizarra", "country": "ES", "coord": {"lon": -4.70139, "lat": 36.769211}}, {"id": 2512490, "name": "Pizarra", "country": "ES", "coord": {"lon": -4.70833, "lat": 36.76543}}, {"id": 3109355, "name": "Sarsa de Surta", "country": "ES", "coord": {"lon": 0.01544, "lat": 42.317509}}, {"id": 6360169, "name": "Loma de Ucieza", "country": "ES", "coord": {"lon": -4.58373, "lat": 42.477268}}, {"id": 3120257, "name": "Itero Seco", "country": "ES", "coord": {"lon": -4.5573, "lat": 42.461681}}, {"id": 6358611, "name": "Chozas de Abajo", "country": "ES", "coord": {"lon": -5.64836, "lat": 42.48568}}, {"id": 3105032, "name": "Villar de Mazarife", "country": "ES", "coord": {"lon": -5.72822, "lat": 42.484329}}, {"id": 6361660, "name": "Vivel del R\u00edo Mart\u00edn", "country": "ES", "coord": {"lon": -0.92044, "lat": 40.88826}}, {"id": 3104482, "name": "Vivel del Rio Martin", "country": "ES", "coord": {"lon": -0.93889, "lat": 40.870918}}, {"id": 6534004, "name": "Albany\u00e0", "country": "ES", "coord": {"lon": 2.72135, "lat": 42.304482}}, {"id": 3130693, "name": "Albany\u00e0", "country": "ES", "coord": {"lon": 2.71995, "lat": 42.30431}}, {"id": 6362052, "name": "Palma de Gand\u00eda", "country": "ES", "coord": {"lon": -0.23497, "lat": 38.943668}}, {"id": 2512991, "name": "Palma de Gandia", "country": "ES", "coord": {"lon": -0.22028, "lat": 38.92672}}, {"id": 6359972, "name": "Taramundi", "country": "ES", "coord": {"lon": -7.07799, "lat": 43.36734}}, {"id": 3115646, "name": "Navallo", "country": "ES", "coord": {"lon": -7.09417, "lat": 43.332298}}, {"id": 6534185, "name": "Frontera", "country": "ES", "coord": {"lon": -18.0532, "lat": 27.72975}}, {"id": 2521176, "name": "Belgara Baja", "country": "ES", "coord": {"lon": -18, "lat": 27.75}}, {"id": 3104848, "name": "Villasabariego de Ucieza", "country": "ES", "coord": {"lon": -4.57285, "lat": 42.380341}}, {"id": 2514984, "name": "Llucmajor", "country": "ES", "coord": {"lon": 2.89108, "lat": 39.490929}}, {"id": 6355021, "name": "Port de Pollen\u00e7a", "country": "ES", "coord": {"lon": 3.0814, "lat": 39.907501}}, {"id": 2514709, "name": "Los Garres", "country": "ES", "coord": {"lon": -1.09151, "lat": 37.956791}}, {"id": 6359937, "name": "Vald\u00e9s", "country": "ES", "coord": {"lon": -6.485, "lat": 43.533379}}, {"id": 3130277, "name": "Almu\u00f1a", "country": "ES", "coord": {"lon": -6.52647, "lat": 43.5317}}, {"id": 2510452, "name": "Tindaya", "country": "ES", "coord": {"lon": -13.98082, "lat": 28.583879}}, {"id": 6355560, "name": "Gallardos (Los)", "country": "ES", "coord": {"lon": -1.95826, "lat": 37.14843}}, {"id": 2514717, "name": "Los Gallardos", "country": "ES", "coord": {"lon": -1.94029, "lat": 37.16832}}, {"id": 6361680, "name": "Bargas", "country": "ES", "coord": {"lon": -4.06769, "lat": 39.964161}}, {"id": 2521316, "name": "Bargas", "country": "ES", "coord": {"lon": -4.01979, "lat": 39.941132}}, {"id": 6361594, "name": "Puebla de Valverde (La)", "country": "ES", "coord": {"lon": -0.94823, "lat": 40.205872}}, {"id": 3122222, "name": "Formiche Bajo", "country": "ES", "coord": {"lon": -0.87572, "lat": 40.288502}}, {"id": 6324880, "name": "Astigarraga", "country": "ES", "coord": {"lon": -2.17802, "lat": 43.00058}}, {"id": 3128162, "name": "Bernedo", "country": "ES", "coord": {"lon": -2.49784, "lat": 42.626629}}, {"id": 3110756, "name": "San Crimenso", "country": "ES", "coord": {"lon": -9.10507, "lat": 42.936089}}, {"id": 6358663, "name": "Puente de Domingo Fl\u00f3rez", "country": "ES", "coord": {"lon": -6.78791, "lat": 42.42696}}, {"id": 3111095, "name": "Salas de la Ribera", "country": "ES", "coord": {"lon": -6.81626, "lat": 42.436138}}, {"id": 3112879, "name": "Pratdip", "country": "ES", "coord": {"lon": 0.87135, "lat": 41.05191}}, {"id": 6359560, "name": "All\u00edn", "country": "ES", "coord": {"lon": -2.07559, "lat": 42.70929}}, {"id": 3115909, "name": "Muneta", "country": "ES", "coord": {"lon": -2.0989, "lat": 42.713341}}, {"id": 6359857, "name": "Laza", "country": "ES", "coord": {"lon": -7.44323, "lat": 42.098431}}, {"id": 3130662, "name": "Alberguer\u00eda", "country": "ES", "coord": {"lon": -7.55231, "lat": 42.12302}}, {"id": 6357669, "name": "C\u00e1jar", "country": "ES", "coord": {"lon": -3.56984, "lat": 37.133331}}, {"id": 2520592, "name": "Cajar", "country": "ES", "coord": {"lon": -3.57274, "lat": 37.13382}}, {"id": 6355620, "name": "Adrada (La)", "country": "ES", "coord": {"lon": -4.65527, "lat": 40.307831}}, {"id": 3120038, "name": "La Adrada", "country": "ES", "coord": {"lon": -4.63588, "lat": 40.29953}}, {"id": 3116660, "name": "Miyar", "country": "ES", "coord": {"lon": -5.13908, "lat": 43.39542}}, {"id": 6361054, "name": "Villanueva del R\u00edo y Minas", "country": "ES", "coord": {"lon": -5.71075, "lat": 37.639111}}, {"id": 2511354, "name": "San Jos\u00e9", "country": "ES", "coord": {"lon": -5.71603, "lat": 37.607151}}, {"id": 3127374, "name": "Bustiyerro", "country": "ES", "coord": {"lon": -3.84109, "lat": 43.11565}}, {"id": 2512656, "name": "Per\u00edn", "country": "ES", "coord": {"lon": -1.11973, "lat": 37.623379}}, {"id": 6358467, "name": "Beas de Segura", "country": "ES", "coord": {"lon": -2.87691, "lat": 38.255451}}, {"id": 2521207, "name": "Beas de Segura", "country": "ES", "coord": {"lon": -2.88875, "lat": 38.252399}}, {"id": 2510493, "name": "Tesejerague", "country": "ES", "coord": {"lon": -14.11354, "lat": 28.27804}}, {"id": 6359257, "name": "Cadalso de los Vidrios", "country": "ES", "coord": {"lon": -4.43881, "lat": 40.298409}}, {"id": 3127121, "name": "Cadalso de los Vidrios", "country": "ES", "coord": {"lon": -4.43348, "lat": 40.300671}}, {"id": 3116279, "name": "Montmajor", "country": "ES", "coord": {"lon": 1.73502, "lat": 42.017479}}, {"id": 6361418, "name": "Vimbod\u00ed", "country": "ES", "coord": {"lon": 1.04664, "lat": 41.362331}}, {"id": 3104603, "name": "Vimbodi", "country": "ES", "coord": {"lon": 1.05056, "lat": 41.400688}}, {"id": 2515600, "name": "La Rajita", "country": "ES", "coord": {"lon": -17.283331, "lat": 28.049999}}, {"id": 2514353, "name": "M\u00e1cher", "country": "ES", "coord": {"lon": -13.69117, "lat": 28.9484}}, {"id": 6360627, "name": "Granadilla de Abona", "country": "ES", "coord": {"lon": -16.55765, "lat": 28.10211}}, {"id": 2514912, "name": "Lomo de Arico", "country": "ES", "coord": {"lon": -16.48333, "lat": 28.16667}}, {"id": 6359179, "name": "Fonsagrada (A)", "country": "ES", "coord": {"lon": -7.07969, "lat": 43.149429}}, {"id": 3114365, "name": "Paradanova", "country": "ES", "coord": {"lon": -7.05694, "lat": 43.134762}}, {"id": 3128236, "name": "Berbes", "country": "ES", "coord": {"lon": -5.15353, "lat": 43.472599}}, {"id": 6358225, "name": "Minas de Riotinto", "country": "ES", "coord": {"lon": -6.56939, "lat": 37.690651}}, {"id": 2513859, "name": "Minas de R\u00edotinto", "country": "ES", "coord": {"lon": -6.59434, "lat": 37.696941}}, {"id": 3127115, "name": "Cadavedo", "country": "ES", "coord": {"lon": -6.38481, "lat": 43.551868}}, {"id": 3108991, "name": "Sierra de Ibio", "country": "ES", "coord": {"lon": -4.16063, "lat": 43.315781}}, {"id": 6355782, "name": "Pedro Bernardo", "country": "ES", "coord": {"lon": -4.9044, "lat": 40.235851}}, {"id": 3114101, "name": "Pedro Bernardo", "country": "ES", "coord": {"lon": -4.90962, "lat": 40.242142}}, {"id": 6360955, "name": "San Crist\u00f3bal de Segovia", "country": "ES", "coord": {"lon": -4.07921, "lat": 40.954491}}, {"id": 3110723, "name": "San Cristobal de Segovia", "country": "ES", "coord": {"lon": -4.07652, "lat": 40.952251}}, {"id": 3118447, "name": "Liencres", "country": "ES", "coord": {"lon": -3.92906, "lat": 43.460152}}, {"id": 6357644, "name": "Albu\u00f1ol", "country": "ES", "coord": {"lon": -3.18122, "lat": 36.78249}}, {"id": 2522187, "name": "Albunol", "country": "ES", "coord": {"lon": -3.205, "lat": 36.79203}}, {"id": 6356200, "name": "Puig-reig", "country": "ES", "coord": {"lon": 1.87299, "lat": 41.96265}}, {"id": 3112670, "name": "Puig-reig", "country": "ES", "coord": {"lon": 1.88333, "lat": 41.966671}}, {"id": 2520832, "name": "Bornos", "country": "ES", "coord": {"lon": -5.74448, "lat": 36.816769}}, {"id": 3107965, "name": "Torce", "country": "ES", "coord": {"lon": -6.0895, "lat": 43.111511}}, {"id": 6359958, "name": "Ribadedeva", "country": "ES", "coord": {"lon": -4.55755, "lat": 43.381329}}, {"id": 3127830, "name": "Boquerizo", "country": "ES", "coord": {"lon": -4.60121, "lat": 43.361259}}, {"id": 3130354, "name": "Allariz", "country": "ES", "coord": {"lon": -7.80175, "lat": 42.190441}}, {"id": 6358673, "name": "Robla (La)", "country": "ES", "coord": {"lon": -5.6136, "lat": 42.80724}}, {"id": 3119100, "name": "La Robla", "country": "ES", "coord": {"lon": -5.62904, "lat": 42.80302}}, {"id": 6356540, "name": "Pradoluengo", "country": "ES", "coord": {"lon": -3.19664, "lat": 42.313042}}, {"id": 3112907, "name": "Pradoluengo", "country": "ES", "coord": {"lon": -3.20284, "lat": 42.324841}}, {"id": 2521103, "name": "Beniaj\u00e1n", "country": "ES", "coord": {"lon": -1.07062, "lat": 37.9739}}, {"id": 6362057, "name": "Petr\u00e9s", "country": "ES", "coord": {"lon": -0.31282, "lat": 39.685848}}, {"id": 2512636, "name": "Petres", "country": "ES", "coord": {"lon": -0.3, "lat": 39.683331}}, {"id": 6358199, "name": "Cerro de And\u00e9valo (El)", "country": "ES", "coord": {"lon": -7.02102, "lat": 37.716061}}, {"id": 2518575, "name": "El Cerro de Andevalo", "country": "ES", "coord": {"lon": -6.93692, "lat": 37.735359}}, {"id": 6359822, "name": "Avi\u00f3n", "country": "ES", "coord": {"lon": -8.25845, "lat": 42.414619}}, {"id": 3128991, "name": "Baiste", "country": "ES", "coord": {"lon": -8.28775, "lat": 42.448029}}, {"id": 6360033, "name": "Due\u00f1as", "country": "ES", "coord": {"lon": -4.55494, "lat": 41.877811}}, {"id": 3123786, "name": "Duenas", "country": "ES", "coord": {"lon": -4.54714, "lat": 41.877171}}, {"id": 6360875, "name": "Olombrada", "country": "ES", "coord": {"lon": -4.15046, "lat": 41.432259}}, {"id": 3121851, "name": "Fuentes de Cu\u00e9llar", "country": "ES", "coord": {"lon": -4.21508, "lat": 41.414879}}, {"id": 6360986, "name": "Castillo de las Guardas (El)", "country": "ES", "coord": {"lon": -6.35031, "lat": 37.689121}}, {"id": 2516514, "name": "Huertas de Medialegua", "country": "ES", "coord": {"lon": -6.28333, "lat": 37.683331}}, {"id": 6359932, "name": "Grandas de Salime", "country": "ES", "coord": {"lon": -6.89817, "lat": 43.205761}}, {"id": 3108246, "name": "Teijeira", "country": "ES", "coord": {"lon": -6.90908, "lat": 43.175171}}, {"id": 6359264, "name": "Cercedilla", "country": "ES", "coord": {"lon": -4.05422, "lat": 40.756989}}, {"id": 3125408, "name": "Cercedilla", "country": "ES", "coord": {"lon": -4.05644, "lat": 40.741009}}, {"id": 6361201, "name": "Santa Mar\u00eda de las Hoyas", "country": "ES", "coord": {"lon": -3.12715, "lat": 41.776421}}, {"id": 3109792, "name": "Santa Maria de las Hoyas", "country": "ES", "coord": {"lon": -3.14172, "lat": 41.77145}}, {"id": 3111185, "name": "Sabinanigo", "country": "ES", "coord": {"lon": -0.36607, "lat": 42.519241}}, {"id": 6358029, "name": "Tamaj\u00f3n", "country": "ES", "coord": {"lon": -3.2251, "lat": 41.03516}}, {"id": 3126817, "name": "Campillejo", "country": "ES", "coord": {"lon": -3.29024, "lat": 41.064018}}, {"id": 6356062, "name": "el Brull", "country": "ES", "coord": {"lon": 2.30249, "lat": 41.815208}}, {"id": 3109023, "name": "Seva", "country": "ES", "coord": {"lon": 2.28007, "lat": 41.83831}}, {"id": 3117443, "name": "Marchamalo", "country": "ES", "coord": {"lon": -3.19914, "lat": 40.666771}}, {"id": 6362974, "name": "Villanueva de G\u00e1llego", "country": "ES", "coord": {"lon": -0.84852, "lat": 41.77858}}, {"id": 3105257, "name": "Villanueva de Gallego", "country": "ES", "coord": {"lon": -0.8235, "lat": 41.769161}}, {"id": 6355598, "name": "Sorbas", "country": "ES", "coord": {"lon": -2.07457, "lat": 37.095032}}, {"id": 2518551, "name": "El Chive", "country": "ES", "coord": {"lon": -2.0734, "lat": 37.177509}}, {"id": 6358722, "name": "Valencia de Don Juan", "country": "ES", "coord": {"lon": -5.50554, "lat": 42.283909}}, {"id": 3106718, "name": "Valencia de Don Juan", "country": "ES", "coord": {"lon": -5.5172, "lat": 42.293739}}, {"id": 2517891, "name": "Espinardo", "country": "ES", "coord": {"lon": -1.15036, "lat": 38.007198}}, {"id": 6359373, "name": "Torres de la Alameda", "country": "ES", "coord": {"lon": -3.3725, "lat": 40.42141}}, {"id": 3107722, "name": "Torres de la Alameda", "country": "ES", "coord": {"lon": -3.35767, "lat": 40.402641}}, {"id": 6360014, "name": "Carri\u00f3n de los Condes", "country": "ES", "coord": {"lon": -4.62336, "lat": 42.317009}}, {"id": 3126161, "name": "Carrion de los Condes", "country": "ES", "coord": {"lon": -4.60071, "lat": 42.341301}}, {"id": 3126020, "name": "Caser\u00edo de Ca\u2019n Rosell", "country": "ES", "coord": {"lon": 1.80553, "lat": 41.397999}}, {"id": 2519791, "name": "Casillas de Morales", "country": "ES", "coord": {"lon": -14.00829, "lat": 28.376921}}, {"id": 6358517, "name": "Pegalajar", "country": "ES", "coord": {"lon": -3.61274, "lat": 37.7248}}, {"id": 2512784, "name": "Pegalajar", "country": "ES", "coord": {"lon": -3.64946, "lat": 37.740082}}, {"id": 6359499, "name": "Villanueva de Algaidas", "country": "ES", "coord": {"lon": -4.40953, "lat": 37.181068}}, {"id": 2511857, "name": "Rincona", "country": "ES", "coord": {"lon": -4.44998, "lat": 37.184139}}, {"id": 3125296, "name": "Cervera de Pisuerga", "country": "ES", "coord": {"lon": -4.49796, "lat": 42.86676}}, {"id": 3122937, "name": "Esgos", "country": "ES", "coord": {"lon": -7.68333, "lat": 42.316669}}, {"id": 6358349, "name": "Graus", "country": "ES", "coord": {"lon": 0.3746, "lat": 42.19825}}, {"id": 3121135, "name": "Graus", "country": "ES", "coord": {"lon": 0.33749, "lat": 42.18885}}, {"id": 6355239, "name": "Huerto", "country": "ES", "coord": {"lon": -0.17806, "lat": 41.921101}}, {"id": 3128952, "name": "Baller\u00edas", "country": "ES", "coord": {"lon": -0.15537, "lat": 41.902031}}, {"id": 3120049, "name": "La Abadilla", "country": "ES", "coord": {"lon": -3.8548, "lat": 43.314659}}, {"id": 2510796, "name": "Soo", "country": "ES", "coord": {"lon": -13.62231, "lat": 29.09915}}, {"id": 6356489, "name": "Medina de Pomar", "country": "ES", "coord": {"lon": -3.40831, "lat": 42.952518}}, {"id": 3111680, "name": "R\u00edo de Losa", "country": "ES", "coord": {"lon": -3.27538, "lat": 42.94952}}, {"id": 3116929, "name": "Menamayor", "country": "ES", "coord": {"lon": -3.25023, "lat": 43.12191}}, {"id": 2512811, "name": "Pedro \u00c1lvarez", "country": "ES", "coord": {"lon": -16.323771, "lat": 28.51899}}, {"id": 3117771, "name": "Maceda", "country": "ES", "coord": {"lon": -7.65052, "lat": 42.269718}}, {"id": 6357851, "name": "Budia", "country": "ES", "coord": {"lon": -2.75475, "lat": 40.676861}}, {"id": 3127563, "name": "Budia", "country": "ES", "coord": {"lon": -2.75846, "lat": 40.627338}}, {"id": 3108503, "name": "Suesa", "country": "ES", "coord": {"lon": -3.71762, "lat": 43.443569}}, {"id": 3127798, "name": "les Borges Blanques", "country": "ES", "coord": {"lon": 0.86667, "lat": 41.51667}}, {"id": 3124979, "name": "Cirugeda", "country": "ES", "coord": {"lon": -0.68044, "lat": 40.746342}}, {"id": 6362121, "name": "Castell\u00f3 de la Ribera", "country": "ES", "coord": {"lon": -0.51803, "lat": 39.076679}}, {"id": 2509564, "name": "Villanueva de Castellon", "country": "ES", "coord": {"lon": -0.51167, "lat": 39.077412}}, {"id": 3107900, "name": "Torneiros", "country": "ES", "coord": {"lon": -7.7815, "lat": 42.15036}}, {"id": 6357798, "name": "Guajares (Los)", "country": "ES", "coord": {"lon": -3.6056, "lat": 36.85767}}, {"id": 2516920, "name": "Gu\u00e1jar Alto", "country": "ES", "coord": {"lon": -3.625, "lat": 36.85434}}, {"id": 3105903, "name": "Vilamitjana", "country": "ES", "coord": {"lon": 0.91858, "lat": 42.147099}}, {"id": 6359875, "name": "Pereiro de Aguiar (O)", "country": "ES", "coord": {"lon": -7.78019, "lat": 42.357601}}, {"id": 3105026, "name": "Villar de Ordelles", "country": "ES", "coord": {"lon": -7.73434, "lat": 42.315659}}, {"id": 6361782, "name": "Ol\u00edas del Rey", "country": "ES", "coord": {"lon": -3.98408, "lat": 39.952419}}, {"id": 2513146, "name": "Olias del Rey", "country": "ES", "coord": {"lon": -3.98684, "lat": 39.944359}}, {"id": 3105918, "name": "Vilajoan", "country": "ES", "coord": {"lon": 2.9347, "lat": 42.165661}}, {"id": 3107153, "name": "Usana", "country": "ES", "coord": {"lon": 0.16351, "lat": 42.409901}}, {"id": 6359836, "name": "Carballeda de Avia", "country": "ES", "coord": {"lon": -8.18119, "lat": 42.336781}}, {"id": 3131082, "name": "Abelenda", "country": "ES", "coord": {"lon": -8.18152, "lat": 42.342442}}, {"id": 6358397, "name": "Pueyo de Aragu\u00e1s (El)", "country": "ES", "coord": {"lon": 0.20009, "lat": 42.46455}}, {"id": 3119919, "name": "La Cabezonada", "country": "ES", "coord": {"lon": 0.30293, "lat": 42.436192}}, {"id": 6461762, "name": "els Riells", "country": "ES", "coord": {"lon": 3.13844, "lat": 42.112919}}, {"id": 6359657, "name": "Galar", "country": "ES", "coord": {"lon": -1.66834, "lat": 42.756512}}, {"id": 3122809, "name": "Esqu\u00edroz", "country": "ES", "coord": {"lon": -1.65538, "lat": 42.775002}}, {"id": 2517336, "name": "Garc\u00edez", "country": "ES", "coord": {"lon": -3.86196, "lat": 37.843231}}, {"id": 6360649, "name": "Ampuero", "country": "ES", "coord": {"lon": -3.43059, "lat": 43.322239}}, {"id": 3124806, "name": "Collado", "country": "ES", "coord": {"lon": -3.41667, "lat": 43.349998}}, {"id": 6534140, "name": "Santa Cristina d'Aro", "country": "ES", "coord": {"lon": 2.98053, "lat": 41.806339}}, {"id": 3109957, "name": "Santa Cristina dAro", "country": "ES", "coord": {"lon": 3, "lat": 41.816669}}, {"id": 6358735, "name": "Villadangos del P\u00e1ramo", "country": "ES", "coord": {"lon": -5.77041, "lat": 42.522709}}, {"id": 3106209, "name": "Velilla de la Reina", "country": "ES", "coord": {"lon": -5.79461, "lat": 42.550499}}, {"id": 2510715, "name": "Tahiche", "country": "ES", "coord": {"lon": -13.54451, "lat": 29.019119}}, {"id": 6359314, "name": "Moralzarzal", "country": "ES", "coord": {"lon": -3.94042, "lat": 40.671261}}, {"id": 3127952, "name": "Boalo", "country": "ES", "coord": {"lon": -3.91656, "lat": 40.716019}}, {"id": 3128133, "name": "Berriobeiti", "country": "ES", "coord": {"lon": -1.7, "lat": 42.849998}}, {"id": 6358992, "name": "Agoncillo", "country": "ES", "coord": {"lon": -2.27884, "lat": 42.436218}}, {"id": 3130916, "name": "Agoncillo", "country": "ES", "coord": {"lon": -2.2898, "lat": 42.446671}}, {"id": 6358589, "name": "Carrocera", "country": "ES", "coord": {"lon": -5.75812, "lat": 42.807892}}, {"id": 3114783, "name": "Otero de las Due\u00f1as", "country": "ES", "coord": {"lon": -5.76927, "lat": 42.7868}}, {"id": 6357748, "name": "Moraleda de Zafayona", "country": "ES", "coord": {"lon": -3.95943, "lat": 37.191021}}, {"id": 2513579, "name": "Moraleda de Zafayona", "country": "ES", "coord": {"lon": -3.96505, "lat": 37.167229}}, {"id": 3126599, "name": "Ca\u00f1edo", "country": "ES", "coord": {"lon": -3.56863, "lat": 43.182331}}, {"id": 2519111, "name": "Creu Vermella", "country": "ES", "coord": {"lon": 2.71532, "lat": 39.579731}}, {"id": 2510806, "name": "Son Ferriol", "country": "ES", "coord": {"lon": 2.71667, "lat": 39.566669}}, {"id": 2510858, "name": "Sobradillo", "country": "ES", "coord": {"lon": -16.32284, "lat": 28.43936}}, {"id": 3114909, "name": "Ororbia", "country": "ES", "coord": {"lon": -1.74786, "lat": 42.816368}}, {"id": 6356697, "name": "Valle de Losa", "country": "ES", "coord": {"lon": -3.21234, "lat": 42.991531}}, {"id": 3105320, "name": "Villa\u00f1o", "country": "ES", "coord": {"lon": -3.12294, "lat": 42.968048}}, {"id": 6358763, "name": "Agramunt", "country": "ES", "coord": {"lon": 1.07083, "lat": 41.803322}}, {"id": 3130911, "name": "Agramunt", "country": "ES", "coord": {"lon": 1.09683, "lat": 41.786861}}, {"id": 3118004, "name": "Los Hueros", "country": "ES", "coord": {"lon": -3.34958, "lat": 40.443802}}, {"id": 6359624, "name": "Cizur", "country": "ES", "coord": {"lon": -1.71586, "lat": 42.760841}}, {"id": 3104309, "name": "Zariquiegui", "country": "ES", "coord": {"lon": -1.72262, "lat": 42.748482}}, {"id": 6359361, "name": "Sevilla la Nueva", "country": "ES", "coord": {"lon": -4.04282, "lat": 40.358109}}, {"id": 3109018, "name": "Sevilla La Nueva", "country": "ES", "coord": {"lon": -4.02727, "lat": 40.347752}}, {"id": 6358218, "name": "Isla Cristina", "country": "ES", "coord": {"lon": -7.30739, "lat": 37.22086}}, {"id": 2516431, "name": "Isla Cristina", "country": "ES", "coord": {"lon": -7.31667, "lat": 37.200001}}, {"id": 2509768, "name": "Velez Rubio", "country": "ES", "coord": {"lon": -2.07686, "lat": 37.648441}}, {"id": 6358903, "name": "Pinell de Solson\u00e8s", "country": "ES", "coord": {"lon": 1.37391, "lat": 41.953049}}, {"id": 3117720, "name": "Madrona", "country": "ES", "coord": {"lon": 1.33762, "lat": 41.96769}}, {"id": 3125889, "name": "Castellnou de Bassella", "country": "ES", "coord": {"lon": 1.3, "lat": 41.98333}}, {"id": 6360247, "name": "Salvaterra de Mi\u00f1o", "country": "ES", "coord": {"lon": -8.47174, "lat": 42.125568}}, {"id": 3110965, "name": "Salvatierra de Mi\u00f1o", "country": "ES", "coord": {"lon": -8.5, "lat": 42.083328}}, {"id": 2516486, "name": "Hurchillo", "country": "ES", "coord": {"lon": -0.91915, "lat": 38.056961}}, {"id": 6361978, "name": "Daim\u00fas", "country": "ES", "coord": {"lon": -0.15081, "lat": 38.972061}}, {"id": 2518923, "name": "Daimus", "country": "ES", "coord": {"lon": -0.15, "lat": 38.966671}}, {"id": 6359220, "name": "Triacastela", "country": "ES", "coord": {"lon": -7.20527, "lat": 42.759048}}, {"id": 3114225, "name": "Pasantes", "country": "ES", "coord": {"lon": -7.22016, "lat": 42.750038}}, {"id": 6362031, "name": "Meliana", "country": "ES", "coord": {"lon": -0.33439, "lat": 39.525162}}, {"id": 2513949, "name": "Meliana", "country": "ES", "coord": {"lon": -0.33333, "lat": 39.533329}}, {"id": 3106385, "name": "Vandell\u00f3s", "country": "ES", "coord": {"lon": 0.83065, "lat": 41.019852}}, {"id": 2512334, "name": "Pozo de la Higuera", "country": "ES", "coord": {"lon": -1.73333, "lat": 37.433331}}, {"id": 6357146, "name": "Malag\u00f3n", "country": "ES", "coord": {"lon": -4.00053, "lat": 39.213921}}, {"id": 2514252, "name": "Malagon", "country": "ES", "coord": {"lon": -3.85419, "lat": 39.166679}}, {"id": 3120888, "name": "Guzparras", "country": "ES", "coord": {"lon": -3.8586, "lat": 43.18475}}, {"id": 6359182, "name": "Xermade", "country": "ES", "coord": {"lon": -7.79688, "lat": 43.376991}}, {"id": 3121460, "name": "Germade", "country": "ES", "coord": {"lon": -7.81324, "lat": 43.354671}}, {"id": 3107364, "name": "Tui", "country": "ES", "coord": {"lon": -8.64435, "lat": 42.047131}}, {"id": 6356744, "name": "Carcaboso", "country": "ES", "coord": {"lon": -6.20982, "lat": 40.044159}}, {"id": 3126335, "name": "Carcaboso", "country": "ES", "coord": {"lon": -6.21376, "lat": 40.049679}}, {"id": 3109399, "name": "Sardedo", "country": "ES", "coord": {"lon": -5.11551, "lat": 43.436531}}, {"id": 6360266, "name": "Alba de Tormes", "country": "ES", "coord": {"lon": -5.5085, "lat": 40.82922}}, {"id": 3130706, "name": "Alba de Tormes", "country": "ES", "coord": {"lon": -5.51237, "lat": 40.826641}}, {"id": 6360999, "name": "Gelves", "country": "ES", "coord": {"lon": -6.06141, "lat": 37.33485}}, {"id": 2517262, "name": "Gelves", "country": "ES", "coord": {"lon": -6.02601, "lat": 37.334808}}, {"id": 6361784, "name": "Orgaz", "country": "ES", "coord": {"lon": -3.90875, "lat": 39.64994}}, {"id": 2513081, "name": "Orgaz", "country": "ES", "coord": {"lon": -3.87577, "lat": 39.648258}}, {"id": 6356356, "name": "Balbases (Los)", "country": "ES", "coord": {"lon": -4.0634, "lat": 42.215172}}, {"id": 3118052, "name": "Los Balbases", "country": "ES", "coord": {"lon": -4.06481, "lat": 42.215069}}, {"id": 6356493, "name": "Merindad de Sotoscueva", "country": "ES", "coord": {"lon": -3.64511, "lat": 43.029072}}, {"id": 3113768, "name": "Pereda", "country": "ES", "coord": {"lon": -3.57571, "lat": 43.01532}}, {"id": 6360743, "name": "Villaescusa", "country": "ES", "coord": {"lon": -3.85281, "lat": 43.36375}}, {"id": 3118467, "name": "Lia\u00f1o", "country": "ES", "coord": {"lon": -3.84172, "lat": 43.37962}}, {"id": 3104206, "name": "Zuri\u00e1in", "country": "ES", "coord": {"lon": -1.56611, "lat": 42.880348}}, {"id": 6358477, "name": "Castillo de Locub\u00edn", "country": "ES", "coord": {"lon": -3.94008, "lat": 37.544151}}, {"id": 2519711, "name": "Castillo de Locubin", "country": "ES", "coord": {"lon": -3.9422, "lat": 37.52858}}, {"id": 6360367, "name": "Endrinal", "country": "ES", "coord": {"lon": -5.81798, "lat": 40.58997}}, {"id": 3126063, "name": "Casas de Monle\u00f3n", "country": "ES", "coord": {"lon": -5.83615, "lat": 40.567669}}, {"id": 6355888, "name": "Cabeza del Buey", "country": "ES", "coord": {"lon": -5.27196, "lat": 38.773369}}, {"id": 2520672, "name": "Cabeza del Buey", "country": "ES", "coord": {"lon": -5.21946, "lat": 38.722271}}, {"id": 6360146, "name": "Villameriel", "country": "ES", "coord": {"lon": -4.47127, "lat": 42.54911}}, {"id": 3104646, "name": "Villorquite de Herrera", "country": "ES", "coord": {"lon": -4.44487, "lat": 42.499439}}, {"id": 6533975, "name": "Selva", "country": "ES", "coord": {"lon": 2.89962, "lat": 39.75399}}, {"id": 2520593, "name": "Caimari", "country": "ES", "coord": {"lon": 2.90343, "lat": 39.771332}}, {"id": 6362755, "name": "Burgo de Ebro (El)", "country": "ES", "coord": {"lon": -0.72329, "lat": 41.56913}}, {"id": 3123623, "name": "El Burgo de Ebro", "country": "ES", "coord": {"lon": -0.74128, "lat": 41.571571}}, {"id": 6360679, "name": "Hermandad de Campoo de Suso", "country": "ES", "coord": {"lon": -4.25535, "lat": 43.024899}}, {"id": 3105135, "name": "Villar", "country": "ES", "coord": {"lon": -4.26446, "lat": 43.019669}}, {"id": 6544399, "name": "Montouto", "country": "ES", "coord": {"lon": -8.5462, "lat": 42.836102}}, {"id": 6544331, "name": "Solana Matorral", "country": "ES", "coord": {"lon": -14.3359, "lat": 28.0499}}, {"id": 3118149, "name": "Logrosa", "country": "ES", "coord": {"lon": -8.72769, "lat": 42.902149}}, {"id": 6359783, "name": "Ultzama", "country": "ES", "coord": {"lon": -1.6773, "lat": 42.999001}}, {"id": 3119079, "name": "Larr\u00e1inzar", "country": "ES", "coord": {"lon": -1.68333, "lat": 42.98333}}, {"id": 6356337, "name": "Alfoz de Bricia", "country": "ES", "coord": {"lon": -3.8761, "lat": 42.900509}}, {"id": 3127636, "name": "Bricia", "country": "ES", "coord": {"lon": -3.81939, "lat": 42.915051}}, {"id": 2511731, "name": "Romilla", "country": "ES", "coord": {"lon": -3.79397, "lat": 37.201962}}, {"id": 6358616, "name": "Fabero", "country": "ES", "coord": {"lon": -6.61823, "lat": 42.773788}}, {"id": 3114781, "name": "Otero de Naraguantes", "country": "ES", "coord": {"lon": -6.60894, "lat": 42.76696}}, {"id": 3123496, "name": "El Espino", "country": "ES", "coord": {"lon": -6.64987, "lat": 42.71862}}, {"id": 6360137, "name": "Villaherreros", "country": "ES", "coord": {"lon": -4.46761, "lat": 42.391479}}, {"id": 3121952, "name": "Fuente-Andrino", "country": "ES", "coord": {"lon": -4.45393, "lat": 42.412239}}, {"id": 6359923, "name": "Castropol", "country": "ES", "coord": {"lon": -6.96711, "lat": 43.486012}}, {"id": 3120175, "name": "Jar\u00e9n", "country": "ES", "coord": {"lon": -6.90106, "lat": 43.502899}}, {"id": 6360598, "name": "Villares de la Reina", "country": "ES", "coord": {"lon": -5.65834, "lat": 41.01078}}, {"id": 3104969, "name": "Villares de la Reina", "country": "ES", "coord": {"lon": -5.64881, "lat": 41.00832}}, {"id": 6360639, "name": "Santa \u00darsula", "country": "ES", "coord": {"lon": -16.481701, "lat": 28.4153}}, {"id": 2510229, "name": "Tosca de Ana Mar\u00eda", "country": "ES", "coord": {"lon": -16.450001, "lat": 28.41667}}, {"id": 3121625, "name": "Gara\u00f1a", "country": "ES", "coord": {"lon": -4.96621, "lat": 43.453259}}, {"id": 6360207, "name": "Baiona", "country": "ES", "coord": {"lon": -8.85547, "lat": 42.106812}}, {"id": 3128462, "name": "Baiona", "country": "ES", "coord": {"lon": -8.85, "lat": 42.116669}}, {"id": 6358478, "name": "Cazalilla", "country": "ES", "coord": {"lon": -3.8852, "lat": 37.963661}}, {"id": 2515979, "name": "La Estaci\u00f3n", "country": "ES", "coord": {"lon": -3.91667, "lat": 38}}, {"id": 3126762, "name": "Campo Lameiro", "country": "ES", "coord": {"lon": -8.54286, "lat": 42.543819}}, {"id": 3116172, "name": "Morana", "country": "ES", "coord": {"lon": -8.58333, "lat": 42.549999}}, {"id": 6362239, "name": "Pe\u00f1afiel", "country": "ES", "coord": {"lon": -4.12809, "lat": 41.59967}}, {"id": 3113957, "name": "Penafiel", "country": "ES", "coord": {"lon": -4.11418, "lat": 41.60165}}, {"id": 6358450, "name": "Sotonera (La)", "country": "ES", "coord": {"lon": -0.53258, "lat": 42.24049}}, {"id": 3113328, "name": "Plasencia del Monte", "country": "ES", "coord": {"lon": -0.58081, "lat": 42.227379}}, {"id": 6360142, "name": "Villalob\u00f3n", "country": "ES", "coord": {"lon": -4.47335, "lat": 42.025318}}, {"id": 3105471, "name": "Villalobon", "country": "ES", "coord": {"lon": -4.5034, "lat": 42.030369}}, {"id": 6359228, "name": "Ajalvir", "country": "ES", "coord": {"lon": -3.47658, "lat": 40.529091}}, {"id": 3130753, "name": "Ajalvir", "country": "ES", "coord": {"lon": -3.47841, "lat": 40.532051}}, {"id": 6358356, "name": "Is\u00e1bena", "country": "ES", "coord": {"lon": 0.54485, "lat": 42.30925}}, {"id": 3111466, "name": "Roda de Is\u00e1bena", "country": "ES", "coord": {"lon": 0.52845, "lat": 42.29142}}, {"id": 2514305, "name": "M\u00e1guez", "country": "ES", "coord": {"lon": -13.49293, "lat": 29.160089}}, {"id": 6362043, "name": "N\u00e1quera", "country": "ES", "coord": {"lon": -0.41499, "lat": 39.645962}}, {"id": 2513375, "name": "Naquera", "country": "ES", "coord": {"lon": -0.41667, "lat": 39.650002}}, {"id": 2518555, "name": "Elche de la Sierra", "country": "ES", "coord": {"lon": -2.0476, "lat": 38.451229}}, {"id": 6361886, "name": "Aldaia", "country": "ES", "coord": {"lon": -0.46168, "lat": 39.464691}}, {"id": 2522077, "name": "Aldaia", "country": "ES", "coord": {"lon": -0.46005, "lat": 39.465691}}, {"id": 6360721, "name": "Santillana del Mar", "country": "ES", "coord": {"lon": -4.09922, "lat": 43.404289}}, {"id": 3109582, "name": "Santillana", "country": "ES", "coord": {"lon": -4.10844, "lat": 43.38903}}, {"id": 6356695, "name": "Merindad de R\u00edo Ubierna", "country": "ES", "coord": {"lon": -3.68128, "lat": 42.550171}}, {"id": 3110328, "name": "San Mart\u00edn de Ubierna", "country": "ES", "coord": {"lon": -3.70708, "lat": 42.506149}}, {"id": 2518272, "name": "El Pedrosillo", "country": "ES", "coord": {"lon": -6.34066, "lat": 37.661251}}, {"id": 6362001, "name": "Godelleta", "country": "ES", "coord": {"lon": -0.68752, "lat": 39.431629}}, {"id": 2517199, "name": "Godelleta", "country": "ES", "coord": {"lon": -0.68333, "lat": 39.416672}}, {"id": 6361474, "name": "Calamocha", "country": "ES", "coord": {"lon": -1.23548, "lat": 40.94825}}, {"id": 3127059, "name": "Calamocha", "country": "ES", "coord": {"lon": -1.2975, "lat": 40.919331}}, {"id": 3129239, "name": "Astigarraga", "country": "ES", "coord": {"lon": -1.94634, "lat": 43.281738}}, {"id": 6325036, "name": "Igerain", "country": "ES", "coord": {"lon": -1.94706, "lat": 43.281139}}, {"id": 6358108, "name": "Azkoitia", "country": "ES", "coord": {"lon": -2.33096, "lat": 43.17065}}, {"id": 3129071, "name": "Azkoitia", "country": "ES", "coord": {"lon": -2.31129, "lat": 43.177441}}, {"id": 6325251, "name": "Santa Krutz", "country": "ES", "coord": {"lon": -2.29767, "lat": 43.176842}}, {"id": 6358650, "name": "Palacios de la Valduerna", "country": "ES", "coord": {"lon": -5.94776, "lat": 42.31707}}, {"id": 3114583, "name": "Palacios de la Valduerna", "country": "ES", "coord": {"lon": -5.9383, "lat": 42.327728}}, {"id": 6356283, "name": "Sant Vicen\u00e7 dels Horts", "country": "ES", "coord": {"lon": 1.99928, "lat": 41.392979}}, {"id": 3109442, "name": "Sant Vicenc dels Horts", "country": "ES", "coord": {"lon": 2.00689, "lat": 41.393169}}, {"id": 6355547, "name": "Carboneras", "country": "ES", "coord": {"lon": -1.92125, "lat": 37.00153}}, {"id": 2521248, "name": "Barrio de Pescadores", "country": "ES", "coord": {"lon": -1.89895, "lat": 36.99329}}, {"id": 6360723, "name": "Santiurde de Toranzo", "country": "ES", "coord": {"lon": -3.91803, "lat": 43.227219}}, {"id": 3115040, "name": "Ontaneda", "country": "ES", "coord": {"lon": -3.92386, "lat": 43.199249}}, {"id": 6360741, "name": "Vega de Pas", "country": "ES", "coord": {"lon": -3.77911, "lat": 43.155689}}, {"id": 3106291, "name": "Vega de Pas", "country": "ES", "coord": {"lon": -3.78316, "lat": 43.156921}}, {"id": 6534049, "name": "Cornell\u00e0 de Terri", "country": "ES", "coord": {"lon": 2.83004, "lat": 42.08511}}, {"id": 3112662, "name": "Pujals dels Pagesos", "country": "ES", "coord": {"lon": 2.81924, "lat": 42.111382}}, {"id": 6360975, "name": "Cabezas de San Juan (Las)", "country": "ES", "coord": {"lon": -5.90631, "lat": 36.97509}}, {"id": 2515493, "name": "Las Cabezas de San Juan", "country": "ES", "coord": {"lon": -5.93933, "lat": 36.983799}}, {"id": 3126801, "name": "Campino", "country": "ES", "coord": {"lon": -3.80501, "lat": 42.896858}}, {"id": 3127492, "name": "Bu\u00f1ales", "country": "ES", "coord": {"lon": -0.40682, "lat": 42.046539}}, {"id": 3129605, "name": "Argestues", "country": "ES", "coord": {"lon": 1.31124, "lat": 42.327259}}, {"id": 6355656, "name": "Candeleda", "country": "ES", "coord": {"lon": -5.28659, "lat": 40.170368}}, {"id": 3126622, "name": "Candeleda", "country": "ES", "coord": {"lon": -5.24046, "lat": 40.155209}}, {"id": 6358791, "name": "Artesa de Segre", "country": "ES", "coord": {"lon": 1.04782, "lat": 41.897041}}, {"id": 3129322, "name": "Artesa de Segre", "country": "ES", "coord": {"lon": 1.04625, "lat": 41.894669}}, {"id": 2517689, "name": "Formentera de Segura", "country": "ES", "coord": {"lon": -0.74604, "lat": 38.085091}}, {"id": 3130544, "name": "Aldaba", "country": "ES", "coord": {"lon": -1.75301, "lat": 42.854012}}, {"id": 6355993, "name": "Talavera la Real", "country": "ES", "coord": {"lon": -6.72675, "lat": 38.85722}}, {"id": 2510692, "name": "Talavera La Real", "country": "ES", "coord": {"lon": -6.76856, "lat": 38.877941}}, {"id": 3112287, "name": "Ran\u00f3n", "country": "ES", "coord": {"lon": -6.41667, "lat": 43.533329}}, {"id": 3118877, "name": "Las Parras de Mart\u00edn", "country": "ES", "coord": {"lon": -0.93082, "lat": 40.793839}}, {"id": 3127943, "name": "Bobes", "country": "ES", "coord": {"lon": -5.77177, "lat": 43.396301}}, {"id": 6361404, "name": "Vandell\u00f2s i l'Hospitalet de l'Infant", "country": "ES", "coord": {"lon": 0.8642, "lat": 40.99445}}, {"id": 3117224, "name": "Mas Riudoms", "country": "ES", "coord": {"lon": 0.88414, "lat": 41.02066}}, {"id": 2521670, "name": "Archivel", "country": "ES", "coord": {"lon": -2.00605, "lat": 38.072819}}, {"id": 6360321, "name": "Calvarrasa de Abajo", "country": "ES", "coord": {"lon": -5.538, "lat": 40.949638}}, {"id": 3126968, "name": "Calvarrasa de Abajo", "country": "ES", "coord": {"lon": -5.55258, "lat": 40.946381}}, {"id": 6355521, "name": "Alb\u00e1nchez", "country": "ES", "coord": {"lon": -2.15997, "lat": 37.286659}}, {"id": 2522242, "name": "Albanchez", "country": "ES", "coord": {"lon": -2.18229, "lat": 37.283611}}, {"id": 6359880, "name": "Pobra de Trives (A)", "country": "ES", "coord": {"lon": -7.27027, "lat": 42.322109}}, {"id": 3131001, "name": "Aceboso", "country": "ES", "coord": {"lon": -7.25, "lat": 42.299999}}, {"id": 2515583, "name": "La Redondela", "country": "ES", "coord": {"lon": -7.2694, "lat": 37.222481}}, {"id": 6360690, "name": "Miengo", "country": "ES", "coord": {"lon": -4.00298, "lat": 43.43821}}, {"id": 3124141, "name": "Cud\u00f3n", "country": "ES", "coord": {"lon": -4.01521, "lat": 43.415508}}, {"id": 6362984, "name": "Zuera", "country": "ES", "coord": {"lon": -0.75176, "lat": 41.889198}}, {"id": 3104226, "name": "Zuera", "country": "ES", "coord": {"lon": -0.78984, "lat": 41.867748}}, {"id": 6358550, "name": "Santiago-Pontones", "country": "ES", "coord": {"lon": -2.67918, "lat": 38.086632}}, {"id": 2513666, "name": "Montalvo", "country": "ES", "coord": {"lon": -2.70346, "lat": 38.149078}}, {"id": 6358375, "name": "Naval", "country": "ES", "coord": {"lon": 0.16993, "lat": 42.20129}}, {"id": 3115668, "name": "Naval", "country": "ES", "coord": {"lon": 0.15183, "lat": 42.195042}}, {"id": 6359317, "name": "Navacerrada", "country": "ES", "coord": {"lon": -4.00711, "lat": 40.756859}}, {"id": 3115704, "name": "Navacerrada", "country": "ES", "coord": {"lon": -4.01696, "lat": 40.72905}}, {"id": 2521892, "name": "Almendricos", "country": "ES", "coord": {"lon": -1.77468, "lat": 37.472561}}, {"id": 6533960, "name": "Muro", "country": "ES", "coord": {"lon": 3.05424, "lat": 39.734951}}, {"id": 2513406, "name": "Muro", "country": "ES", "coord": {"lon": 3.05559, "lat": 39.73661}}, {"id": 6534031, "name": "Calonge", "country": "ES", "coord": {"lon": 3.0848, "lat": 41.858372}}, {"id": 3126974, "name": "Calonge", "country": "ES", "coord": {"lon": 3.07926, "lat": 41.858688}}, {"id": 3116630, "name": "Mogro", "country": "ES", "coord": {"lon": -3.97626, "lat": 43.427601}}, {"id": 6360742, "name": "Villacarriedo", "country": "ES", "coord": {"lon": -3.82479, "lat": 43.2215}}, {"id": 3105721, "name": "Villacarriedo", "country": "ES", "coord": {"lon": -3.81057, "lat": 43.228512}}, {"id": 6358182, "name": "Alosno", "country": "ES", "coord": {"lon": -7.05164, "lat": 37.55262}}, {"id": 2521839, "name": "Alosno", "country": "ES", "coord": {"lon": -7.1147, "lat": 37.548611}}, {"id": 3106293, "name": "Vegadeo", "country": "ES", "coord": {"lon": -7.0539, "lat": 43.468342}}, {"id": 6358301, "name": "Benasque", "country": "ES", "coord": {"lon": 0.56336, "lat": 42.63269}}, {"id": 6544358, "name": "Cerler", "country": "ES", "coord": {"lon": 0.53833, "lat": 42.59341}}, {"id": 2518653, "name": "El Campamento", "country": "ES", "coord": {"lon": -5.38125, "lat": 36.17878}}, {"id": 3118238, "name": "Llica dAmunt", "country": "ES", "coord": {"lon": 2.23333, "lat": 41.616669}}, {"id": 6355519, "name": "Abrucena", "country": "ES", "coord": {"lon": -2.8162, "lat": 37.15126}}, {"id": 2522476, "name": "Abrucena", "country": "ES", "coord": {"lon": -2.79711, "lat": 37.132259}}, {"id": 3110219, "name": "San Pantale\u00f3n de Losa", "country": "ES", "coord": {"lon": -3.28799, "lat": 42.93129}}, {"id": 6534115, "name": "Roses", "country": "ES", "coord": {"lon": 3.18161, "lat": 42.261372}}, {"id": 3111348, "name": "Roses", "country": "ES", "coord": {"lon": 3.17689, "lat": 42.26199}}, {"id": 6459096, "name": "els Grecs", "country": "ES", "coord": {"lon": 3.18541, "lat": 42.264969}}, {"id": 3129801, "name": "Arboces", "country": "ES", "coord": {"lon": -6.81337, "lat": 43.547958}}, {"id": 2510158, "name": "Triquivijate", "country": "ES", "coord": {"lon": -13.9722, "lat": 28.42835}}, {"id": 2516879, "name": "Guazamara", "country": "ES", "coord": {"lon": -1.78333, "lat": 37.349998}}, {"id": 6360178, "name": "Firgas", "country": "ES", "coord": {"lon": -15.55731, "lat": 28.10865}}, {"id": 2517717, "name": "Firgas", "country": "ES", "coord": {"lon": -15.56299, "lat": 28.107109}}, {"id": 3115211, "name": "Ojuriego", "country": "ES", "coord": {"lon": -3.9, "lat": 43.268848}}, {"id": 6359348, "name": "Rozas de Madrid (Las)", "country": "ES", "coord": {"lon": -3.903, "lat": 40.52673}}, {"id": 3118900, "name": "Las Matas", "country": "ES", "coord": {"lon": -3.89173, "lat": 40.557789}}, {"id": 6360734, "name": "Ud\u00edas", "country": "ES", "coord": {"lon": -4.26707, "lat": 43.339722}}, {"id": 3111451, "name": "Rodezas", "country": "ES", "coord": {"lon": -4.23138, "lat": 43.343269}}, {"id": 6534143, "name": "Sarri\u00e0 de Ter", "country": "ES", "coord": {"lon": 2.81419, "lat": 42.015518}}, {"id": 3109364, "name": "Sarria de Ter", "country": "ES", "coord": {"lon": 2.83333, "lat": 42.01667}}, {"id": 6360101, "name": "Salda\u00f1a", "country": "ES", "coord": {"lon": -4.69641, "lat": 42.554951}}, {"id": 3111065, "name": "Saldana", "country": "ES", "coord": {"lon": -4.73605, "lat": 42.521461}}, {"id": 6359269, "name": "Colmenar de Oreja", "country": "ES", "coord": {"lon": -3.45799, "lat": 40.07357}}, {"id": 3124769, "name": "Colmenar de Oreja", "country": "ES", "coord": {"lon": -3.38547, "lat": 40.10675}}, {"id": 6355534, "name": "Armu\u00f1a de Almanzora", "country": "ES", "coord": {"lon": -2.41689, "lat": 37.358521}}, {"id": 2510463, "name": "Tijola", "country": "ES", "coord": {"lon": -2.43326, "lat": 37.346062}}, {"id": 6533931, "name": "Art\u00e0", "country": "ES", "coord": {"lon": 3.34907, "lat": 39.691959}}, {"id": 2521534, "name": "Arta", "country": "ES", "coord": {"lon": 3.34979, "lat": 39.69315}}, {"id": 3116718, "name": "Mio\u00f1o", "country": "ES", "coord": {"lon": -3.20212, "lat": 43.359928}}, {"id": 2522293, "name": "Alajero", "country": "ES", "coord": {"lon": -17.24073, "lat": 28.06205}}, {"id": 6534014, "name": "Banyoles", "country": "ES", "coord": {"lon": 2.77249, "lat": 42.12561}}, {"id": 3128885, "name": "Banyoles", "country": "ES", "coord": {"lon": 2.76667, "lat": 42.116669}}, {"id": 6357557, "name": "Villagarc\u00eda del Llano", "country": "ES", "coord": {"lon": -1.82836, "lat": 39.335041}}, {"id": 2519887, "name": "Casas de Santa Cruz", "country": "ES", "coord": {"lon": -1.85, "lat": 39.400002}}, {"id": 6533957, "name": "Marratx\u00ed", "country": "ES", "coord": {"lon": 2.75225, "lat": 39.641651}}, {"id": 2516149, "name": "sa Cabaneta", "country": "ES", "coord": {"lon": 2.74577, "lat": 39.621658}}, {"id": 6357324, "name": "Neda", "country": "ES", "coord": {"lon": -8.13624, "lat": 43.500542}}, {"id": 3115538, "name": "Neda", "country": "ES", "coord": {"lon": -8.15, "lat": 43.333328}}, {"id": 2513395, "name": "Museros", "country": "ES", "coord": {"lon": -0.35, "lat": 39.566669}}, {"id": 6534018, "name": "Bescan\u00f3", "country": "ES", "coord": {"lon": 2.71793, "lat": 41.95845}}, {"id": 3128090, "name": "Bescano", "country": "ES", "coord": {"lon": 2.73922, "lat": 41.966019}}, {"id": 6357713, "name": "G\u00fcejar Sierra", "country": "ES", "coord": {"lon": -3.35559, "lat": 37.142792}}, {"id": 2512110, "name": "Quentar", "country": "ES", "coord": {"lon": -3.46653, "lat": 37.192532}}, {"id": 6361925, "name": "Benifai\u00f3", "country": "ES", "coord": {"lon": -0.44072, "lat": 39.28886}}, {"id": 2521080, "name": "Benifaio", "country": "ES", "coord": {"lon": -0.42598, "lat": 39.284389}}, {"id": 6358580, "name": "Cacabelos", "country": "ES", "coord": {"lon": -6.73835, "lat": 42.627251}}, {"id": 3127135, "name": "Cacabelos", "country": "ES", "coord": {"lon": -6.72373, "lat": 42.600208}}, {"id": 6360209, "name": "Caldas de Reis", "country": "ES", "coord": {"lon": -8.65468, "lat": 42.60532}}, {"id": 3127034, "name": "Caldas de Reis", "country": "ES", "coord": {"lon": -8.63333, "lat": 42.599998}}, {"id": 3124884, "name": "Codeseda", "country": "ES", "coord": {"lon": -8.43333, "lat": 42.616669}}, {"id": 6359262, "name": "Casarrubuelos", "country": "ES", "coord": {"lon": -3.82685, "lat": 40.174889}}, {"id": 3126082, "name": "Casarrubuelos", "country": "ES", "coord": {"lon": -3.83105, "lat": 40.171459}}, {"id": 2509975, "name": "Valderrubio", "country": "ES", "coord": {"lon": -3.82005, "lat": 37.23378}}, {"id": 6357189, "name": "Villarrubia de los Ojos", "country": "ES", "coord": {"lon": -3.6405, "lat": 39.203499}}, {"id": 2517530, "name": "Fuente el Fresno", "country": "ES", "coord": {"lon": -3.77487, "lat": 39.228401}}, {"id": 6357074, "name": "Vall d'Alba", "country": "ES", "coord": {"lon": -0.03223, "lat": 40.180309}}, {"id": 3117285, "name": "Mas del Ventero", "country": "ES", "coord": {"lon": -0.03333, "lat": 40.183331}}, {"id": 6356030, "name": "Andratx", "country": "ES", "coord": {"lon": 2.41884, "lat": 39.574669}}, {"id": 2510810, "name": "Son Curt", "country": "ES", "coord": {"lon": 2.41667, "lat": 39.583328}}, {"id": 6358982, "name": "Ribera d'Ondara", "country": "ES", "coord": {"lon": 1.32431, "lat": 41.62883}}, {"id": 3125308, "name": "Cervera", "country": "ES", "coord": {"lon": 1.2721, "lat": 41.670029}}, {"id": 3118251, "name": "Llerona", "country": "ES", "coord": {"lon": 2.29786, "lat": 41.647289}}, {"id": 2517213, "name": "Ginigin\u00e1mar", "country": "ES", "coord": {"lon": -14.07477, "lat": 28.20113}}, {"id": 6359926, "name": "Cudillero", "country": "ES", "coord": {"lon": -6.23253, "lat": 43.561508}}, {"id": 3124142, "name": "Cudillero", "country": "ES", "coord": {"lon": -6.14589, "lat": 43.562168}}, {"id": 3117301, "name": "Mas d\u2019Alentao", "country": "ES", "coord": {"lon": -0.06341, "lat": 40.210999}}, {"id": 6358818, "name": "Camarasa", "country": "ES", "coord": {"lon": 0.86379, "lat": 41.947361}}, {"id": 3126923, "name": "Camarasa", "country": "ES", "coord": {"lon": 0.87814, "lat": 41.874859}}, {"id": 6362113, "name": "Tur\u00eds", "country": "ES", "coord": {"lon": -0.67036, "lat": 39.38052}}, {"id": 2510128, "name": "Turis", "country": "ES", "coord": {"lon": -0.7, "lat": 39.383331}}, {"id": 2521859, "name": "Almonaster la Real", "country": "ES", "coord": {"lon": -6.78872, "lat": 37.873959}}, {"id": 3128132, "name": "Berriogoiti", "country": "ES", "coord": {"lon": -1.68743, "lat": 42.860741}}, {"id": 3105763, "name": "Atarrabia", "country": "ES", "coord": {"lon": -1.60735, "lat": 42.832298}}, {"id": 6362767, "name": "Caspe", "country": "ES", "coord": {"lon": -0.02252, "lat": 41.269192}}, {"id": 3125994, "name": "Caspe", "country": "ES", "coord": {"lon": -0.03945, "lat": 41.23402}}, {"id": 3115771, "name": "Nanclares de la Oca", "country": "ES", "coord": {"lon": -2.80949, "lat": 42.818439}}, {"id": 6356693, "name": "Villarcayo de Merindad de Castilla la Vieja", "country": "ES", "coord": {"lon": -3.56567, "lat": 42.942219}}, {"id": 3120659, "name": "Horna", "country": "ES", "coord": {"lon": -3.57347, "lat": 42.928398}}, {"id": 6358532, "name": "Torreblascopedro", "country": "ES", "coord": {"lon": -3.66083, "lat": 37.987728}}, {"id": 2510330, "name": "Torreblascopedro", "country": "ES", "coord": {"lon": -3.6378, "lat": 37.997501}}, {"id": 3121076, "name": "Grulleros", "country": "ES", "coord": {"lon": -5.54967, "lat": 42.502682}}, {"id": 6360398, "name": "Guijuelo", "country": "ES", "coord": {"lon": -5.67854, "lat": 40.5704}}, {"id": 3120963, "name": "Guijuelo", "country": "ES", "coord": {"lon": -5.67067, "lat": 40.557571}}, {"id": 3126906, "name": "Camba", "country": "ES", "coord": {"lon": -7.39628, "lat": 42.115372}}, {"id": 6356876, "name": "Tejeda de Ti\u00e9tar", "country": "ES", "coord": {"lon": -5.87045, "lat": 39.993931}}, {"id": 3108211, "name": "Tejeda de Tietar", "country": "ES", "coord": {"lon": -5.86953, "lat": 40.017899}}, {"id": 6360641, "name": "Sauzal (El)", "country": "ES", "coord": {"lon": -16.434629, "lat": 28.461321}}, {"id": 2514856, "name": "Los \u00c1ngeles", "country": "ES", "coord": {"lon": -16.41667, "lat": 28.466669}}, {"id": 6355321, "name": "Chinchilla de Monte-Arag\u00f3n", "country": "ES", "coord": {"lon": -1.59322, "lat": 38.864609}}, {"id": 2512337, "name": "Pozo-Canada", "country": "ES", "coord": {"lon": -1.73532, "lat": 38.803329}}, {"id": 3115167, "name": "Olicio", "country": "ES", "coord": {"lon": -5.11534, "lat": 43.38271}}, {"id": 6360646, "name": "Victoria de Acentejo (La)", "country": "ES", "coord": {"lon": -16.455721, "lat": 28.42288}}, {"id": 2515118, "name": "La Victoria de Acentejo", "country": "ES", "coord": {"lon": -16.46232, "lat": 28.43231}}, {"id": 3104544, "name": "Vio\u00f1o", "country": "ES", "coord": {"lon": -3.96923, "lat": 43.363899}}, {"id": 2519483, "name": "Chinchilla de Monte Aragon", "country": "ES", "coord": {"lon": -1.72018, "lat": 38.920879}}, {"id": 2510338, "name": "Torreag\u00fcera", "country": "ES", "coord": {"lon": -1.05298, "lat": 37.98074}}, {"id": 6360102, "name": "Salinas de Pisuerga", "country": "ES", "coord": {"lon": -4.36685, "lat": 42.857681}}, {"id": 3111012, "name": "Salinas de Pisuerga", "country": "ES", "coord": {"lon": -4.37783, "lat": 42.85046}}, {"id": 6357044, "name": "Pobla Tornesa (la)", "country": "ES", "coord": {"lon": -0.01259, "lat": 40.107601}}, {"id": 3105630, "name": "Villafames", "country": "ES", "coord": {"lon": -0.05, "lat": 40.116669}}, {"id": 6534000, "name": "Valle De Sedano", "country": "ES", "coord": {"lon": -3.76035, "lat": 42.728371}}, {"id": 3113673, "name": "Pesquera de Ebro", "country": "ES", "coord": {"lon": -3.72072, "lat": 42.801331}}, {"id": 6361361, "name": "Puigpelat", "country": "ES", "coord": {"lon": 1.2987, "lat": 41.277271}}, {"id": 3112671, "name": "Puigpelat", "country": "ES", "coord": {"lon": 1.29713, "lat": 41.278992}}, {"id": 3109377, "name": "Sar\u00f3n", "country": "ES", "coord": {"lon": -3.85179, "lat": 43.32571}}, {"id": 6361730, "name": "Guadamur", "country": "ES", "coord": {"lon": -4.13674, "lat": 39.831451}}, {"id": 2516957, "name": "Guadamur", "country": "ES", "coord": {"lon": -4.14885, "lat": 39.811779}}, {"id": 6533974, "name": "Santany\u00ed", "country": "ES", "coord": {"lon": 3.12819, "lat": 39.353779}}, {"id": 2511106, "name": "Santanyi", "country": "ES", "coord": {"lon": 3.12907, "lat": 39.35461}}, {"id": 2518659, "name": "El Calguer\u00edn", "country": "ES", "coord": {"lon": -1.88428, "lat": 37.302219}}, {"id": 6358368, "name": "Loarre", "country": "ES", "coord": {"lon": -0.62485, "lat": 42.313751}}, {"id": 3129111, "name": "Ayerbe", "country": "ES", "coord": {"lon": -0.68844, "lat": 42.272678}}, {"id": 6362838, "name": "Lumpiaque", "country": "ES", "coord": {"lon": -1.35147, "lat": 41.643009}}, {"id": 3117798, "name": "Lumpiaque", "country": "ES", "coord": {"lon": -1.30156, "lat": 41.629532}}, {"id": 2517763, "name": "Fasnia", "country": "ES", "coord": {"lon": -16.43886, "lat": 28.23638}}, {"id": 6359971, "name": "Tapia de Casariego", "country": "ES", "coord": {"lon": -6.92516, "lat": 43.547161}}, {"id": 3108335, "name": "Tapia de Casariego", "country": "ES", "coord": {"lon": -6.94383, "lat": 43.57019}}, {"id": 6360965, "name": "Almensilla", "country": "ES", "coord": {"lon": -6.11103, "lat": 37.30658}}, {"id": 2521887, "name": "Almensilla", "country": "ES", "coord": {"lon": -6.10998, "lat": 37.310989}}, {"id": 3110519, "name": "Sant Joan Despi", "country": "ES", "coord": {"lon": 2.06667, "lat": 41.366669}}, {"id": 6357109, "name": "Almod\u00f3var del Campo", "country": "ES", "coord": {"lon": -4.47323, "lat": 38.650242}}, {"id": 2521869, "name": "Almodovar del Campo", "country": "ES", "coord": {"lon": -4.17908, "lat": 38.709358}}, {"id": 6360239, "name": "Portas", "country": "ES", "coord": {"lon": -8.66592, "lat": 42.573029}}, {"id": 3113147, "name": "Portas", "country": "ES", "coord": {"lon": -8.65573, "lat": 42.585312}}, {"id": 6534110, "name": "Rab\u00f3s", "country": "ES", "coord": {"lon": 3.02817, "lat": 42.378201}}, {"id": 3112355, "name": "Rabos", "country": "ES", "coord": {"lon": 3.02828, "lat": 42.378899}}, {"id": 2511401, "name": "La Laguna", "country": "ES", "coord": {"lon": -16.320141, "lat": 28.4853}}, {"id": 2516422, "name": "Isso", "country": "ES", "coord": {"lon": -1.74271, "lat": 38.490891}}, {"id": 3128019, "name": "Bimenes", "country": "ES", "coord": {"lon": -5.55, "lat": 43.316669}}, {"id": 6358240, "name": "San Juan del Puerto", "country": "ES", "coord": {"lon": -6.83952, "lat": 37.333302}}, {"id": 2511326, "name": "San Juan del Puerto", "country": "ES", "coord": {"lon": -6.84139, "lat": 37.316669}}, {"id": 3114815, "name": "Otazu", "country": "ES", "coord": {"lon": -2.62899, "lat": 42.831791}}, {"id": 3127185, "name": "Cabrales", "country": "ES", "coord": {"lon": -4.80274, "lat": 43.299568}}, {"id": 2521174, "name": "Belicena", "country": "ES", "coord": {"lon": -3.69089, "lat": 37.172291}}, {"id": 6359909, "name": "Allande", "country": "ES", "coord": {"lon": -6.70435, "lat": 43.239471}}, {"id": 3123961, "name": "Defradas del Coto", "country": "ES", "coord": {"lon": -6.66667, "lat": 43.150002}}, {"id": 6360925, "name": "Torreiglesias", "country": "ES", "coord": {"lon": -4.04411, "lat": 41.104481}}, {"id": 3114763, "name": "Otones de Benjumea", "country": "ES", "coord": {"lon": -4.05578, "lat": 41.135578}}, {"id": 6355497, "name": "Sax", "country": "ES", "coord": {"lon": -0.80276, "lat": 38.543201}}, {"id": 2511010, "name": "Sax", "country": "ES", "coord": {"lon": -0.81779, "lat": 38.537289}}, {"id": 2512230, "name": "Puente Mayorga", "country": "ES", "coord": {"lon": -5.38391, "lat": 36.182919}}, {"id": 6362029, "name": "Massamagrell", "country": "ES", "coord": {"lon": -0.32642, "lat": 39.57259}}, {"id": 2512265, "name": "la Pobla de Farnals", "country": "ES", "coord": {"lon": -0.32672, "lat": 39.57782}}, {"id": 6358494, "name": "Huelma", "country": "ES", "coord": {"lon": -3.38997, "lat": 37.671322}}, {"id": 2516549, "name": "Huelma", "country": "ES", "coord": {"lon": -3.45985, "lat": 37.647839}}, {"id": 6359187, "name": "L\u00e1ncara", "country": "ES", "coord": {"lon": -7.37458, "lat": 42.852428}}, {"id": 3119361, "name": "Lancara", "country": "ES", "coord": {"lon": -7.33667, "lat": 42.86425}}, {"id": 6355615, "name": "Zurgena", "country": "ES", "coord": {"lon": -2.0348, "lat": 37.358822}}, {"id": 7114175, "name": "La Alfoquia", "country": "ES", "coord": {"lon": -2.0408, "lat": 37.353378}}, {"id": 3124696, "name": "Condado de Trevi\u00f1o", "country": "ES", "coord": {"lon": -2.7, "lat": 42.700001}}, {"id": 3121163, "name": "Grand\u00edval", "country": "ES", "coord": {"lon": -2.78245, "lat": 42.714359}}, {"id": 6358539, "name": "Valdepe\u00f1as de Ja\u00e9n", "country": "ES", "coord": {"lon": -3.75666, "lat": 37.573372}}, {"id": 2509980, "name": "Valdepenas de Jaen", "country": "ES", "coord": {"lon": -3.8145, "lat": 37.589031}}, {"id": 6359183, "name": "Guitiriz", "country": "ES", "coord": {"lon": -7.8253, "lat": 43.227348}}, {"id": 3119660, "name": "Lagostelle", "country": "ES", "coord": {"lon": -7.9, "lat": 43.183331}}, {"id": 2518524, "name": "El Convoy", "country": "ES", "coord": {"lon": -1.76278, "lat": 37.397251}}, {"id": 3128055, "name": "Bezana", "country": "ES", "coord": {"lon": -3.83639, "lat": 42.958569}}, {"id": 3110777, "name": "San Claudio", "country": "ES", "coord": {"lon": -5.91667, "lat": 43.349998}}, {"id": 6356914, "name": "Zorita", "country": "ES", "coord": {"lon": -5.67261, "lat": 39.287579}}, {"id": 2509311, "name": "Zorita", "country": "ES", "coord": {"lon": -5.69973, "lat": 39.285221}}, {"id": 3129352, "name": "Arroyuelos", "country": "ES", "coord": {"lon": -3.85851, "lat": 42.840019}}, {"id": 3124146, "name": "Cuchia", "country": "ES", "coord": {"lon": -4.01799, "lat": 43.438309}}, {"id": 2513061, "name": "Orzola", "country": "ES", "coord": {"lon": -13.45201, "lat": 29.220949}}, {"id": 6360217, "name": "Cuntis", "country": "ES", "coord": {"lon": -8.55599, "lat": 42.628689}}, {"id": 3124021, "name": "Cuntis", "country": "ES", "coord": {"lon": -8.56256, "lat": 42.633961}}, {"id": 6360797, "name": "Coca", "country": "ES", "coord": {"lon": -4.53195, "lat": 41.21825}}, {"id": 3124895, "name": "Coca", "country": "ES", "coord": {"lon": -4.52145, "lat": 41.21767}}, {"id": 6357339, "name": "Porto do Son", "country": "ES", "coord": {"lon": -8.99648, "lat": 42.69289}}, {"id": 3108943, "name": "Silva", "country": "ES", "coord": {"lon": -8.94324, "lat": 42.747501}}, {"id": 6360630, "name": "G\u00fc\u00edmar", "country": "ES", "coord": {"lon": -16.408291, "lat": 28.27371}}, {"id": 2512198, "name": "Puerto de G\u00fcimar", "country": "ES", "coord": {"lon": -16.376419, "lat": 28.294609}}, {"id": 6355962, "name": "Orellana la Vieja", "country": "ES", "coord": {"lon": -5.54863, "lat": 39.02438}}, {"id": 2513084, "name": "Orellana la Vieja", "country": "ES", "coord": {"lon": -5.53441, "lat": 39.006168}}, {"id": 2517253, "name": "Genov\u00e9s", "country": "ES", "coord": {"lon": -16.743679, "lat": 28.365499}}, {"id": 3114415, "name": "Panticosa", "country": "ES", "coord": {"lon": -0.2817, "lat": 42.723808}}, {"id": 2516298, "name": "Jordana", "country": "ES", "coord": {"lon": -0.76333, "lat": 37.613899}}, {"id": 3121521, "name": "Gauna", "country": "ES", "coord": {"lon": -2.49531, "lat": 42.824478}}, {"id": 3105888, "name": "Vilanova de l'Aguda", "country": "ES", "coord": {"lon": 1.25, "lat": 41.916672}}, {"id": 2515729, "name": "La Murada", "country": "ES", "coord": {"lon": -0.96976, "lat": 38.177441}}, {"id": 3129121, "name": "Aia", "country": "ES", "coord": {"lon": -2.15512, "lat": 42.966068}}, {"id": 3126650, "name": "Cancienes", "country": "ES", "coord": {"lon": -5.87179, "lat": 43.513069}}, {"id": 3117472, "name": "Mar", "country": "ES", "coord": {"lon": -4.00938, "lat": 43.4002}}, {"id": 2509316, "name": "Zeneta", "country": "ES", "coord": {"lon": -0.9967, "lat": 38.011059}}, {"id": 6359858, "name": "Leiro", "country": "ES", "coord": {"lon": -8.15659, "lat": 42.3745}}, {"id": 3128387, "name": "Beiro", "country": "ES", "coord": {"lon": -8.1601, "lat": 42.341259}}, {"id": 2514370, "name": "Puerto Lumbreras", "country": "ES", "coord": {"lon": -1.80974, "lat": 37.56329}}, {"id": 3129493, "name": "Armillas", "country": "ES", "coord": {"lon": -0.88916, "lat": 40.897911}}, {"id": 3107454, "name": "Trobajo del Cerecedo", "country": "ES", "coord": {"lon": -5.5788, "lat": 42.562939}}, {"id": 6358718, "name": "Valderrueda", "country": "ES", "coord": {"lon": -4.98181, "lat": 42.83963}}, {"id": 3116105, "name": "Morgovejo", "country": "ES", "coord": {"lon": -4.9584, "lat": 42.84481}}, {"id": 3123143, "name": "Entines", "country": "ES", "coord": {"lon": -8.91667, "lat": 42.849998}}, {"id": 3107983, "name": "Tora de Riubregos", "country": "ES", "coord": {"lon": 1.4, "lat": 41.816669}}, {"id": 3130107, "name": "Anaz", "country": "ES", "coord": {"lon": -3.7529, "lat": 43.362259}}, {"id": 3116492, "name": "Monells", "country": "ES", "coord": {"lon": 2.99914, "lat": 41.975159}}, {"id": 3117009, "name": "Medina de Pomar", "country": "ES", "coord": {"lon": -3.48804, "lat": 42.929379}}, {"id": 3128304, "name": "Benavarri / Benabarre", "country": "ES", "coord": {"lon": 0.48211, "lat": 42.105862}}, {"id": 6355352, "name": "P\u00e9trola", "country": "ES", "coord": {"lon": -1.51389, "lat": 38.799492}}, {"id": 2512634, "name": "Petrola", "country": "ES", "coord": {"lon": -1.55662, "lat": 38.826279}}, {"id": 6361943, "name": "Burjassot", "country": "ES", "coord": {"lon": -0.40546, "lat": 39.50613}}, {"id": 2520712, "name": "Burjassot", "country": "ES", "coord": {"lon": -0.41667, "lat": 39.51667}}, {"id": 6359871, "name": "O\u00edmbra", "country": "ES", "coord": {"lon": -7.52513, "lat": 41.868271}}, {"id": 3110789, "name": "San Cipri\u00e1n", "country": "ES", "coord": {"lon": -7.46374, "lat": 41.868019}}, {"id": 6360206, "name": "Barro", "country": "ES", "coord": {"lon": -8.64787, "lat": 42.52972}}, {"id": 3128566, "name": "Barro", "country": "ES", "coord": {"lon": -8.62231, "lat": 42.55534}}, {"id": 2511026, "name": "Sardina", "country": "ES", "coord": {"lon": -15.46769, "lat": 27.84828}}, {"id": 6358310, "name": "Blecua y Torres", "country": "ES", "coord": {"lon": -0.19123, "lat": 42.070911}}, {"id": 3107718, "name": "Torres de Montes", "country": "ES", "coord": {"lon": -0.19351, "lat": 42.09174}}, {"id": 6358515, "name": "Orcera", "country": "ES", "coord": {"lon": -2.77298, "lat": 38.383339}}, {"id": 2515617, "name": "La Puerta de Segura", "country": "ES", "coord": {"lon": -2.73956, "lat": 38.352928}}, {"id": 3122760, "name": "Est\u00e9noz", "country": "ES", "coord": {"lon": -1.92278, "lat": 42.74424}}, {"id": 6355586, "name": "Pechina", "country": "ES", "coord": {"lon": -2.39951, "lat": 36.950062}}, {"id": 2512842, "name": "Pechina", "country": "ES", "coord": {"lon": -2.43689, "lat": 36.916191}}, {"id": 3111237, "name": "Rufrancos", "country": "ES", "coord": {"lon": -3.28188, "lat": 42.850761}}, {"id": 6361882, "name": "Alzira", "country": "ES", "coord": {"lon": -0.5051, "lat": 39.13884}}, {"id": 2522129, "name": "Alzira", "country": "ES", "coord": {"lon": -0.43333, "lat": 39.150002}}, {"id": 3113429, "name": "Pinofranqueado", "country": "ES", "coord": {"lon": -6.33181, "lat": 40.303501}}, {"id": 3123735, "name": "Echavarri", "country": "ES", "coord": {"lon": -2.06491, "lat": 42.72747}}, {"id": 6356923, "name": "Barrios (Los)", "country": "ES", "coord": {"lon": -5.53671, "lat": 36.218449}}, {"id": 2512980, "name": "Palmones", "country": "ES", "coord": {"lon": -5.4375, "lat": 36.176102}}, {"id": 2511072, "name": "Santiago de la Ribera", "country": "ES", "coord": {"lon": -0.80544, "lat": 37.802189}}, {"id": 6355562, "name": "G\u00e9rgal", "country": "ES", "coord": {"lon": -2.54244, "lat": 37.131969}}, {"id": 2517247, "name": "Gergal", "country": "ES", "coord": {"lon": -2.54012, "lat": 37.118858}}, {"id": 6534040, "name": "Castell\u00f3 d'Emp\u00faries", "country": "ES", "coord": {"lon": 3.07694, "lat": 42.254761}}, {"id": 3125884, "name": "Castello dEmpuries", "country": "ES", "coord": {"lon": 3.07446, "lat": 42.256729}}, {"id": 6459141, "name": "Castell\u00f3 Nou", "country": "ES", "coord": {"lon": 3.07128, "lat": 42.25174}}, {"id": 3122236, "name": "Forcarei", "country": "ES", "coord": {"lon": -8.35, "lat": 42.599998}}, {"id": 3128646, "name": "Barra\u00f1\u00e1n", "country": "ES", "coord": {"lon": -8.53333, "lat": 43.299999}}, {"id": 3104272, "name": "Zolina", "country": "ES", "coord": {"lon": -1.58499, "lat": 42.76754}},