[{"id": 2891687, "name": "Kemmern", "country": "DE", "coord": {"lon": 10.87784, "lat": 49.954861}}, {"id": 2891682, "name": "Kemminghausen", "country": "DE", "coord": {"lon": 7.48333, "lat": 51.566669}}, {"id": 2891680, "name": "Kemmlitz", "country": "DE", "coord": {"lon": 13, "lat": 51.23333}}, {"id": 2891677, "name": "Kemna", "country": "DE", "coord": {"lon": 7.26667, "lat": 51.25}}, {"id": 2891675, "name": "Kemnat", "country": "DE", "coord": {"lon": 9.9, "lat": 48.01667}}, {"id": 2891669, "name": "Kemnath", "country": "DE", "coord": {"lon": 11.34004, "lat": 49.299889}}, {"id": 2891668, "name": "Kemnath", "country": "DE", "coord": {"lon": 11.895, "lat": 49.868889}}, {"id": 5990689, "name": "Kemnay", "country": "CA", "coord": {"lon": -100.135078, "lat": 49.841709}}, {"id": 2645836, "name": "Kemnay", "country": "GB", "coord": {"lon": -2.44395, "lat": 57.235729}}, {"id": 6548275, "name": "Kemnitz", "country": "DE", "coord": {"lon": 13.55, "lat": 54.0667}}, {"id": 2891653, "name": "Kemnitz", "country": "DE", "coord": {"lon": 13.55, "lat": 54.066669}}, {"id": 4702914, "name": "Kemp", "country": "US", "coord": {"lon": -96.22998, "lat": 32.442638}}, {"id": 4359721, "name": "Kemp Mill", "country": "US", "coord": {"lon": -77.019142, "lat": 39.039001}}, {"id": 653253, "name": "Kempele", "country": "FI", "coord": {"lon": 25.58333, "lat": 64.916672}}, {"id": 653252, "name": "Kempele", "country": "FI", "coord": {"lon": 25.503389, "lat": 64.913139}}, {"id": 2891643, "name": "Kempen", "country": "DE", "coord": {"lon": 6.41667, "lat": 51.366669}}, {"id": 2891640, "name": "Kempenich", "country": "DE", "coord": {"lon": 7.13333, "lat": 50.416672}}, {"id": 6553358, "name": "Kempenich", "country": "DE", "coord": {"lon": 7.13333, "lat": 50.416698}}, {"id": 6553606, "name": "Kempfeld", "country": "DE", "coord": {"lon": 7.24514, "lat": 49.790352}}, {"id": 2891629, "name": "Kempfeld", "country": "DE", "coord": {"lon": 7.24634, "lat": 49.789909}}, {"id": 4702998, "name": "Kempner", "country": "US", "coord": {"lon": -98.002518, "lat": 31.081011}}, {"id": 3830951, "name": "Kemps Point", "country": "BS", "coord": {"lon": -76.183327, "lat": 24.906389}}, {"id": 7839737, "name": "Kempsey", "country": "AU", "coord": {"lon": 152.686081, "lat": -30.905531}}, {"id": 2161658, "name": "Kempsey", "country": "AU", "coord": {"lon": 152.833328, "lat": -31.08333}}, {"id": 2645833, "name": "Kempsey", "country": "GB", "coord": {"lon": -2.21751, "lat": 52.139359}}, {"id": 2645832, "name": "Kempsford", "country": "GB", "coord": {"lon": -1.77359, "lat": 51.671349}}, {"id": 7301693, "name": "Kempston", "country": "GB", "coord": {"lon": -0.49955, "lat": 52.116791}}, {"id": 2645831, "name": "Kempston", "country": "GB", "coord": {"lon": -0.50044, "lat": 52.11599}}, {"id": 6947168, "name": "Kempston Hardwick", "country": "GB", "coord": {"lon": -0.49908, "lat": 52.089561}}, {"id": 2891621, "name": "Kempten (Allgaeu)", "country": "DE", "coord": {"lon": 10.31389, "lat": 47.726742}}, {"id": 2161656, "name": "Kempton", "country": "AU", "coord": {"lon": 147.199997, "lat": -42.51667}}, {"id": 4941188, "name": "Kempton Croft", "country": "US", "coord": {"lon": -71.009209, "lat": 41.640381}}, {"id": 991415, "name": "Kempton Park", "country": "ZA", "coord": {"lon": 28.2377, "lat": -26.108589}}, {"id": 5990737, "name": "Kemptville", "country": "CA", "coord": {"lon": -75.641037, "lat": 45.0168}}, {"id": 1267297, "name": "Kemri", "country": "IN", "coord": {"lon": 79.216667, "lat": 28.816669}}, {"id": 2645830, "name": "Kemsing", "country": "GB", "coord": {"lon": 0.22917, "lat": 51.306042}}, {"id": 1965826, "name": "Kemulan", "country": "ID", "coord": {"lon": 112.657112, "lat": -8.22226}}, {"id": 8185403, "name": "Kemuning", "country": "ID", "coord": {"lon": 113.622704, "lat": -8.2919}}, {"id": 8190883, "name": "Kemuningsari", "country": "ID", "coord": {"lon": 113.603104, "lat": -8.1741}}, {"id": 5427207, "name": "Ken Caryl", "country": "US", "coord": {"lon": -105.116867, "lat": 39.577259}}, {"id": 5990742, "name": "Kenabeek", "country": "CA", "coord": {"lon": -79.983002, "lat": 47.650162}}, {"id": 5866063, "name": "Kenai", "country": "US", "coord": {"lon": -151.258331, "lat": 60.55444}}, {"id": 5866071, "name": "Kenai Peninsula Borough", "country": "US", "coord": {"lon": -151.250565, "lat": 60.416672}}, {"id": 4474147, "name": "Kenansville", "country": "US", "coord": {"lon": -77.962212, "lat": 34.962391}}, {"id": 8075924, "name": "Kenanti", "country": "ID", "coord": {"lon": 111.849197, "lat": -6.8023}}, {"id": 7378418, "name": "Kenari", "country": "ID", "coord": {"lon": 119.840302, "lat": -8.6184}}, {"id": 5990752, "name": "Kenaston", "country": "CA", "coord": {"lon": -106.284523, "lat": 51.500069}}, {"id": 4767509, "name": "Kenbridge", "country": "US", "coord": {"lon": -78.125, "lat": 36.96209}}, {"id": 7570546, "name": "Kenca", "country": "ID", "coord": {"lon": 120.558998, "lat": -8.4727}}, {"id": 1640354, "name": "Kencong", "country": "ID", "coord": {"lon": 113.366669, "lat": -8.28333}}, {"id": 3489882, "name": "Kencot", "country": "JM", "coord": {"lon": -76.796982, "lat": 17.999161}}, {"id": 1267290, "name": "Kenda", "country": "IN", "coord": {"lon": 86.533333, "lat": 23.200001}}, {"id": 2645826, "name": "Kendal", "country": "GB", "coord": {"lon": -2.74757, "lat": 54.326809}}, {"id": 3373754, "name": "Kendal Hill", "country": "BB", "coord": {"lon": -59.549999, "lat": 13.06667}}, {"id": 8068786, "name": "Kendalagung", "country": "ID", "coord": {"lon": 111.603798, "lat": -6.7093}}, {"id": 4160705, "name": "Kendale Lakes", "country": "US", "coord": {"lon": -80.406998, "lat": 25.70816}}, {"id": 2161654, "name": "Kendall", "country": "AU", "coord": {"lon": 152.699997, "lat": -31.633329}}, {"id": 4160711, "name": "Kendall", "country": "US", "coord": {"lon": -80.317268, "lat": 25.67927}}, {"id": 4898342, "name": "Kendall County", "country": "US", "coord": {"lon": -88.433403, "lat": 41.583359}}, {"id": 4160717, "name": "Kendall Green", "country": "US", "coord": {"lon": -80.123932, "lat": 26.253969}}, {"id": 5099988, "name": "Kendall Park", "country": "US", "coord": {"lon": -74.560707, "lat": 40.42094}}, {"id": 7260327, "name": "Kendall West", "country": "US", "coord": {"lon": -80.438797, "lat": 25.706499}}, {"id": 4922252, "name": "Kendallville", "country": "US", "coord": {"lon": -85.264977, "lat": 41.441441}}, {"id": 7848916, "name": "Kendalngupuk", "country": "ID", "coord": {"lon": 107.255302, "lat": -7.4435}}, {"id": 7037724, "name": "Kendalrejo", "country": "ID", "coord": {"lon": 114.319901, "lat": -8.5507}}, {"id": 1640344, "name": "Kendari", "country": "ID", "coord": {"lon": 122.498894, "lat": -3.945}}, {"id": 7036677, "name": "Kendaruan", "country": "ID", "coord": {"lon": 112.421997, "lat": -7.1185}}, {"id": 7375451, "name": "Kendayakan", "country": "ID", "coord": {"lon": 111.309601, "lat": -7.053}}, {"id": 2334592, "name": "Kende", "country": "NG", "coord": {"lon": 4.2603, "lat": 11.51966}}, {"id": 2068589, "name": "Kendenup", "country": "AU", "coord": {"lon": 117.650002, "lat": -34.48333}}, {"id": 719252, "name": "Kenderes", "country": "HU", "coord": {"lon": 20.683331, "lat": 47.25}}, {"id": 7039329, "name": "Kendo Satu", "country": "ID", "coord": {"lon": 118.779999, "lat": -8.4685}}, {"id": 1267283, "name": "Kendraparha", "country": "IN", "coord": {"lon": 86.416672, "lat": 20.5}}, {"id": 1267280, "name": "Kenduadih", "country": "IN", "coord": {"lon": 86.383331, "lat": 23.783331}}, {"id": 4968688, "name": "Kenduskeag", "country": "US", "coord": {"lon": -68.931702, "lat": 44.91951}}, {"id": 2413023, "name": "Keneba", "country": "GM", "coord": {"lon": -16.014999, "lat": 13.32889}}, {"id": 4702965, "name": "Kenedy", "country": "US", "coord": {"lon": -97.84861, "lat": 28.819151}}, {"id": 2407790, "name": "Kenema", "country": "SL", "coord": {"lon": -11.1875, "lat": 7.87667}}, {"id": 1522061, "name": "Kenes", "country": "KZ", "coord": {"lon": 75.559441, "lat": 53.23333}}, {"id": 1503896, "name": "Kenga", "country": "RU", "coord": {"lon": 80.995827, "lat": 57.429722}}, {"id": 7337846, "name": "Kengga", "country": "ID", "coord": {"lon": 121.713799, "lat": -8.7596}}, {"id": 1804761, "name": "Kengtian", "country": "CN", "coord": {"lon": 115.378731, "lat": 27.344999}}, {"id": 719232, "name": "Kengyel", "country": "HU", "coord": {"lon": 20.33333, "lat": 47.083328}}, {"id": 1804758, "name": "Kengyuan", "country": "CN", "coord": {"lon": 119.767776, "lat": 26.340281}}, {"id": 5195978, "name": "Kenhorst", "country": "US", "coord": {"lon": -75.939377, "lat": 40.31065}}, {"id": 2161650, "name": "Kenilworth", "country": "AU", "coord": {"lon": 152.733337, "lat": -26.58333}}, {"id": 2645822, "name": "Kenilworth", "country": "GB", "coord": {"lon": -1.58015, "lat": 52.342861}}, {"id": 4898349, "name": "Kenilworth", "country": "US", "coord": {"lon": -87.71756, "lat": 42.085861}}, {"id": 5100007, "name": "Kenilworth", "country": "US", "coord": {"lon": -74.290703, "lat": 40.676491}}, {"id": 5195980, "name": "Kenilworth", "country": "US", "coord": {"lon": -75.634079, "lat": 40.231491}}, {"id": 1734098, "name": "Keningau", "country": "MY", "coord": {"lon": 116.160202, "lat": 5.3378}}, {"id": 2544568, "name": "Kenitra", "country": "MA", "coord": {"lon": -6.33333, "lat": 34.583328}}, {"id": 6546897, "name": "Kenitra", "country": "MA", "coord": {"lon": -6.57719, "lat": 34.26593}}, {"id": 2544571, "name": "Kenitra", "country": "MA", "coord": {"lon": -6.5802, "lat": 34.261009}}, {"id": 609440, "name": "Kenkiyak", "country": "KZ", "coord": {"lon": 57.121941, "lat": 48.603329}}, {"id": 2645820, "name": "Kenley", "country": "GB", "coord": {"lon": -2.63333, "lat": 52.599998}}, {"id": 5990823, "name": "Kenloch", "country": "CA", "coord": {"lon": -61.265221, "lat": 46.183441}}, {"id": 4474159, "name": "Kenly", "country": "US", "coord": {"lon": -78.124161, "lat": 35.596272}}, {"id": 5195982, "name": "Kenmar", "country": "US", "coord": {"lon": -76.959412, "lat": 41.25341}}, {"id": 2963522, "name": "Kenmare", "country": "IE", "coord": {"lon": -9.58333, "lat": 51.883331}}, {"id": 5689936, "name": "Kenmare", "country": "US", "coord": {"lon": -102.082657, "lat": 48.674751}}, {"id": 5123247, "name": "Kenmore", "country": "US", "coord": {"lon": -78.870041, "lat": 42.965889}}, {"id": 5799587, "name": "Kenmore", "country": "US", "coord": {"lon": -122.244011, "lat": 47.75732}}, {"id": 6554752, "name": "Kenn", "country": "DE", "coord": {"lon": 6.71667, "lat": 49.799999}}, {"id": 2891605, "name": "Kenn", "country": "DE", "coord": {"lon": 6.71667, "lat": 49.799999}}, {"id": 2645815, "name": "Kenn", "country": "GB", "coord": {"lon": -2.85, "lat": 51.416672}}, {"id": 5228958, "name": "Kennebec", "country": "US", "coord": {"lon": -99.861778, "lat": 43.903599}}, {"id": 4968714, "name": "Kennebec County", "country": "US", "coord": {"lon": -69.766159, "lat": 44.466728}}, {"id": 4968729, "name": "Kennebunk", "country": "US", "coord": {"lon": -70.544777, "lat": 43.383968}}, {"id": 4968747, "name": "Kennebunkport", "country": "US", "coord": {"lon": -70.476723, "lat": 43.361752}}, {"id": 4702986, "name": "Kennedale", "country": "US", "coord": {"lon": -97.225853, "lat": 32.646801}}, {"id": 2161639, "name": "Kennedy", "country": "AU", "coord": {"lon": 145.966675, "lat": -18.200001}}, {"id": 5990851, "name": "Kennedy", "country": "CA", "coord": {"lon": -102.35099, "lat": 50.016731}}, {"id": 3796083, "name": "Kennedy", "country": "VE", "coord": {"lon": -62.302608, "lat": 10.58407}}, {"id": 5362776, "name": "Kennedy", "country": "US", "coord": {"lon": -121.252724, "lat": 37.92992}}, {"id": 2161622, "name": "Kennedys Creek", "country": "AU", "coord": {"lon": 143.25, "lat": -38.599998}}, {"id": 7872661, "name": "Kennelbach", "country": "AT", "coord": {"lon": 9.76895, "lat": 47.482868}}, {"id": 2774534, "name": "Kennelbach", "country": "AT", "coord": {"lon": 9.76667, "lat": 47.483059}}, {"id": 4329753, "name": "Kenner", "country": "US", "coord": {"lon": -90.241737, "lat": 29.994089}}, {"id": 4203696, "name": "Kennesaw", "country": "US", "coord": {"lon": -84.615494, "lat": 34.02343}}, {"id": 5990957, "name": "Kennetcook", "country": "CA", "coord": {"lon": -63.73201, "lat": 45.183449}}, {"id": 4160749, "name": "Kenneth City", "country": "US", "coord": {"lon": -82.7201, "lat": 27.81558}}, {"id": 4393451, "name": "Kennett", "country": "US", "coord": {"lon": -90.055649, "lat": 36.236179}}, {"id": 4558942, "name": "Kennett Square", "country": "US", "coord": {"lon": -75.711601, "lat": 39.846779}}, {"id": 5799610, "name": "Kennewick", "country": "US", "coord": {"lon": -119.13723, "lat": 46.21125}}, {"id": 2161613, "name": "Kennington", "country": "AU", "coord": {"lon": 144.300003, "lat": -36.783329}}, {"id": 2645804, "name": "Kennington", "country": "GB", "coord": {"lon": 0.88491, "lat": 51.1674}}, {"id": 6545174, "name": "Kennington", "country": "GB", "coord": {"lon": -0.10566, "lat": 51.487961}}, {"id": 2645803, "name": "Kennoway", "country": "GB", "coord": {"lon": -3.04917, "lat": 56.210812}}, {"id": 5991034, "name": "Kenny Woods", "country": "CA", "coord": {"lon": -111.385208, "lat": 58.11694}}, {"id": 2891599, "name": "Kenoden", "country": "DE", "coord": {"lon": 12.75, "lat": 48.51667}}, {"id": 7036837, "name": "Kenongo", "country": "ID", "coord": {"lon": 112.539299, "lat": -8.0089}}, {"id": 5991055, "name": "Kenora", "country": "CA", "coord": {"lon": -94.483742, "lat": 49.766708}}, {"id": 5991056, "name": "Kenora", "country": "CA", "coord": {"lon": -94.433731, "lat": 49.816711}}, {"id": 5258393, "name": "Kenosha", "country": "US", "coord": {"lon": -87.82119, "lat": 42.58474}}, {"id": 5258396, "name": "Kenosha County", "country": "US", "coord": {"lon": -88.050079, "lat": 42.566689}}, {"id": 4810818, "name": "Kenova", "country": "US", "coord": {"lon": -82.578209, "lat": 38.398972}}, {"id": 3365999, "name": "Kenridge", "country": "ZA", "coord": {"lon": 18.63633, "lat": -33.85918}}, {"id": 3723440, "name": "Kenscoff", "country": "HT", "coord": {"lon": -72.286942, "lat": 18.45056}}, {"id": 4117358, "name": "Kensett", "country": "US", "coord": {"lon": -91.667641, "lat": 35.23175}}, {"id": 2161608, "name": "Kensington", "country": "AU", "coord": {"lon": 151.216675, "lat": -33.916672}}, {"id": 5991080, "name": "Kensington", "country": "CA", "coord": {"lon": -63.648708, "lat": 46.43343}}, {"id": 2645801, "name": "Kensington", "country": "GB", "coord": {"lon": -0.19175, "lat": 51.500938}}, {"id": 4359760, "name": "Kensington", "country": "US", "coord": {"lon": -77.07637, "lat": 39.025669}}, {"id": 4837222, "name": "Kensington", "country": "US", "coord": {"lon": -72.768707, "lat": 41.63538}}, {"id": 5088311, "name": "Kensington", "country": "US", "coord": {"lon": -70.943939, "lat": 42.927029}}, {"id": 5123281, "name": "Kensington", "country": "US", "coord": {"lon": -73.722076, "lat": 40.79343}}, {"id": 5362849, "name": "Kensington", "country": "US", "coord": {"lon": -122.280251, "lat": 37.91048}}, {"id": 4160752, "name": "Kensington Park", "country": "US", "coord": {"lon": -82.49649, "lat": 27.359489}}, {"id": 2068574, "name": "Kensington and Norwood", "country": "AU", "coord": {"lon": 138.649994, "lat": -34.916672}}, {"id": 2645800, "name": "Kensworth", "country": "GB", "coord": {"lon": -0.50386, "lat": 51.85173}}, {"id": 3333158, "name": "Kent", "country": "GB", "coord": {"lon": 0.66667, "lat": 51.166672}}, {"id": 5159537, "name": "Kent", "country": "US", "coord": {"lon": -81.357887, "lat": 41.153671}}, {"id": 5799625, "name": "Kent", "country": "US", "coord": {"lon": -122.23484, "lat": 47.380932}}, {"id": 4143218, "name": "Kent Acres", "country": "US", "coord": {"lon": -75.524918, "lat": 39.131779}}, {"id": 4998002, "name": "Kent City", "country": "US", "coord": {"lon": -85.751152, "lat": 43.22002}}, {"id": 4143221, "name": "Kent County", "country": "US", "coord": {"lon": -75.549652, "lat": 39.08345}}, {"id": 4998005, "name": "Kent County", "country": "US", "coord": {"lon": -85.550034, "lat": 43.03336}}, {"id": 5222961, "name": "Kent County", "country": "US", "coord": {"lon": -71.59951, "lat": 41.666771}}, {"id": 5991118, "name": "Kent Junction", "country": "CA", "coord": {"lon": -65.332047, "lat": 46.58342}}, {"id": 2068570, "name": "Kent Shire", "country": "AU", "coord": {"lon": 118.66993, "lat": -33.538811}}, {"id": 1522751, "name": "Kentau", "country": "KZ", "coord": {"lon": 68.509399, "lat": 43.520611}}, {"id": 5362864, "name": "Kentfield", "country": "US", "coord": {"lon": -122.557198, "lat": 37.952148}}, {"id": 2161602, "name": "Kenthurst", "country": "AU", "coord": {"lon": 151, "lat": -33.666672}}, {"id": 2645794, "name": "Kentisbeare", "country": "GB", "coord": {"lon": -3.32502, "lat": 50.86515}}, {"id": 7839674, "name": "Kentish", "country": "AU", "coord": {"lon": 146.177261, "lat": -41.463409}}, {"id": 4922267, "name": "Kentland", "country": "US", "coord": {"lon": -87.445297, "lat": 40.770321}}, {"id": 4634352, "name": "Kenton", "country": "US", "coord": {"lon": -89.012291, "lat": 36.20229}}, {"id": 5159554, "name": "Kenton", "country": "US", "coord": {"lon": -83.60965, "lat": 40.646999}}, {"id": 4296902, "name": "Kenton County", "country": "US", "coord": {"lon": -84.533279, "lat": 38.950062}}, {"id": 7035899, "name": "Kentongan", "country": "ID", "coord": {"lon": 111.560501, "lat": -7.1655}}, {"id": 6254925, "name": "Kentucky", "country": "US", "coord": {"lon": -84.877617, "lat": 38.20042}}, {"id": 4117366, "name": "Kentucky", "country": "US", "coord": {"lon": -92.66127, "lat": 34.608429}}, {"id": 2161599, "name": "Kentucky", "country": "AU", "coord": {"lon": 151.449997, "lat": -30.76667}}, {"id": 4767575, "name": "Kentucky Farms", "country": "US", "coord": {"lon": -76.493279, "lat": 37.145699}}, {"id": 2161596, "name": "Kentville", "country": "AU", "coord": {"lon": 152.433334, "lat": -27.48333}}, {"id": 5991148, "name": "Kentville", "country": "CA", "coord": {"lon": -64.498756, "lat": 45.08345}}, {"id": 4998018, "name": "Kentwood", "country": "US", "coord": {"lon": -85.644753, "lat": 42.869469}}, {"id": 4329775, "name": "Kentwood", "country": "US", "coord": {"lon": -90.50898, "lat": 30.93824}}, {"id": 5100001, "name": "Kenvil", "country": "US", "coord": {"lon": -74.618492, "lat": 40.879822}}, {"id": 2068569, "name": "Kenwick", "country": "AU", "coord": {"lon": 115.966667, "lat": -32.033329}}, {"id": 4515813, "name": "Kenwood", "country": "US", "coord": {"lon": -84.367157, "lat": 39.210609}}, {"id": 4540155, "name": "Kenwood", "country": "US", "coord": {"lon": -94.985786, "lat": 36.314529}}, {"id": 5362885, "name": "Kenwood", "country": "US", "coord": {"lon": -122.546089, "lat": 38.413799}}, {"id": 5033090, "name": "Kenyon", "country": "US", "coord": {"lon": -92.985481, "lat": 44.27219}}, {"id": 551070, "name": "Kenzhe", "country": "RU", "coord": {"lon": 43.55722, "lat": 43.501671}}, {"id": 2891590, "name": "Kenzingen", "country": "DE", "coord": {"lon": 7.76974, "lat": 48.196301}}, {"id": 5849207, "name": "Keokea", "country": "US", "coord": {"lon": -156.358337, "lat": 20.708611}}, {"id": 4863349, "name": "Keokuk", "country": "US", "coord": {"lon": -91.384872, "lat": 40.39727}}, {"id": 5991182, "name": "Keoma", "country": "CA", "coord": {"lon": -113.651947, "lat": 51.21682}}, {"id": 1267267, "name": "Keonjhargarh", "country": "IN", "coord": {"lon": 85.583328, "lat": 21.633329}}, {"id": 4863380, "name": "Keosauqua", "country": "US", "coord": {"lon": -91.962387, "lat": 40.730309}}, {"id": 4863391, "name": "Keota", "country": "US", "coord": {"lon": -91.953789, "lat": 41.363899}}, {"id": 1735506, "name": "Kepala Batas", "country": "MY", "coord": {"lon": 100.426498, "lat": 5.51707}}, {"id": 1640296, "name": "Kepanjen", "country": "ID", "coord": {"lon": 112.572701, "lat": -8.1303}}, {"id": 8180957, "name": "Kepanjen", "country": "ID", "coord": {"lon": 113.372803, "lat": -8.3436}}, {"id": 7083154, "name": "Kepatihan", "country": "ID", "coord": {"lon": 113.702499, "lat": -8.1746}}, {"id": 7579592, "name": "Kepatihan", "country": "ID", "coord": {"lon": 111.9133, "lat": -8.0629}}, {"id": 7581895, "name": "Kepeg Satu", "country": "ID", "coord": {"lon": 114.071198, "lat": -7.8378}}, {"id": 7035618, "name": "Kepel", "country": "ID", "coord": {"lon": 112.428902, "lat": -8.1157}}, {"id": 8053825, "name": "Kepel", "country": "ID", "coord": {"lon": 108.486298, "lat": -7.3378}}, {"id": 3096353, "name": "Kepice", "country": "PL", "coord": {"lon": 16.889681, "lat": 54.241112}}, {"id": 769285, "name": "Kepie Zaleszanskie", "country": "PL", "coord": {"lon": 21.88133, "lat": 50.639832}}, {"id": 3096338, "name": "Kepno", "country": "PL", "coord": {"lon": 17.98908, "lat": 51.2784}}, {"id": 8058319, "name": "Kepoh", "country": "ID", "coord": {"lon": 111.104301, "lat": -6.6752}}, {"id": 8070801, "name": "Kepohagung", "country": "ID", "coord": {"lon": 111.420502, "lat": -6.7696}}, {"id": 1760605, "name": "Kepong", "country": "MY", "coord": {"lon": 101.633331, "lat": 3.21667}}, {"id": 2161589, "name": "Keppel Sands", "country": "AU", "coord": {"lon": 150.783325, "lat": -23.35}}, {"id": 6554452, "name": "Keppeshausen", "country": "DE", "coord": {"lon": 6.16667, "lat": 49.966702}}, {"id": 2891585, "name": "Keppeshausen", "country": "DE", "coord": {"lon": 6.16667, "lat": 49.966671}}, {"id": 874391, "name": "Kepsha", "country": "RU", "coord": {"lon": 40.048332, "lat": 43.618332}}, {"id": 308133, "name": "Kepsut", "country": "TR", "coord": {"lon": 28.15222, "lat": 39.688889}}, {"id": 7036830, "name": "Kepuh", "country": "ID", "coord": {"lon": 112.618797, "lat": -8.006}}, {"id": 7036927, "name": "Kepuh", "country": "ID", "coord": {"lon": 112.618797, "lat": -8.006}}, {"id": 7084364, "name": "Kepuh Wetan", "country": "ID", "coord": {"lon": 114.356903, "lat": -8.2489}}, {"id": 7036699, "name": "Keputran", "country": "ID", "coord": {"lon": 112.446999, "lat": -7.0912}}, {"id": 1804753, "name": "Keqiao", "country": "CN", "coord": {"lon": 120.486443, "lat": 30.072651}}, {"id": 551058, "name": "Kera", "country": "RU", "coord": {"lon": 44.052422, "lat": 53.620449}}, {"id": 735821, "name": "Keramoti", "country": "GR", "coord": {"lon": 24.70611, "lat": 40.85833}}, {"id": 2161587, "name": "Kerang", "country": "AU", "coord": {"lon": 143.916672, "lat": -35.73333}}, {"id": 260220, "name": "Kerasochori", "country": "GR", "coord": {"lon": 21.637779, "lat": 39.005562}}, {"id": 260210, "name": "Keratea", "country": "GR", "coord": {"lon": 23.976919, "lat": 37.807331}}, {"id": 260204, "name": "Keratsini", "country": "GR", "coord": {"lon": 23.61972, "lat": 37.962502}}, {"id": 653186, "name": "Kerava", "country": "FI", "coord": {"lon": 25.116671, "lat": 60.383331}}, {"id": 653185, "name": "Kerava", "country": "FI", "coord": {"lon": 25.105, "lat": 60.403381}}, {"id": 3011920, "name": "Kerbach", "country": "FR", "coord": {"lon": 6.96744, "lat": 49.166271}}, {"id": 586268, "name": "Kerbakhiar", "country": "AZ", "coord": {"lon": 46.03833, "lat": 40.10667}}, {"id": 6553758, "name": "Kerben", "country": "DE", "coord": {"lon": 7.36667, "lat": 50.3167}}, {"id": 2891582, "name": "Kerben", "country": "DE", "coord": {"lon": 7.36667, "lat": 50.316669}}, {"id": 2891580, "name": "Kerbfeld", "country": "DE", "coord": {"lon": 10.46667, "lat": 50.133331}}, {"id": 3231216, "name": "Kerbonne", "country": "FR", "coord": {"lon": -4.5012, "lat": 48.383282}}, {"id": 2562816, "name": "Kercem", "country": "MT", "coord": {"lon": 14.22667, "lat": 36.041939}}, {"id": 706524, "name": "Kerch", "country": "UA", "coord": {"lon": 36.475834, "lat": 45.358334}}, {"id": 551047, "name": "Kerchevskiy", "country": "RU", "coord": {"lon": 56.288368, "lat": 59.945961}}, {"id": 719211, "name": "Kerecsend", "country": "HU", "coord": {"lon": 20.35, "lat": 47.799999}}, {"id": 6610262, "name": "Keregino", "country": "RU", "coord": {"lon": 42.722221, "lat": 56.636665}}, {"id": 1640239, "name": "Kerek", "country": "ID", "coord": {"lon": 111.886597, "lat": -6.8951}}, {"id": 3050311, "name": "Kerekegyhaza", "country": "HU", "coord": {"lon": 19.47806, "lat": 46.937222}}, {"id": 2094144, "name": "Kerema", "country": "PG", "coord": {"lon": 145.778503, "lat": -7.96309}}, {"id": 5991216, "name": "Keremeos", "country": "CA", "coord": {"lon": -119.835701, "lat": 49.199749}}, {"id": 333287, "name": "Keren", "country": "ER", "coord": {"lon": 38.458061, "lat": 15.77778}}, {"id": 1921199, "name": "Keren", "country": "CN", "coord": {"lon": 118.663612, "lat": 24.578609}}, {"id": 4703063, "name": "Kerens", "country": "US", "coord": {"lon": -96.227753, "lat": 32.133209}}, {"id": 8070776, "name": "Kerep Wetan", "country": "ID", "coord": {"lon": 111.390404, "lat": -6.7561}}, {"id": 2188882, "name": "Kerepehi", "country": "NZ", "coord": {"lon": 175.533325, "lat": -37.299999}}, {"id": 7284912, "name": "Kerepes", "country": "HU", "coord": {"lon": 19.28289, "lat": 47.560081}}, {"id": 2645778, "name": "Keresley", "country": "GB", "coord": {"lon": -1.53319, "lat": 52.451561}}, {"id": 3198172, "name": "Kerestinec", "country": "HR", "coord": {"lon": 15.8, "lat": 45.76667}}, {"id": 2412992, "name": "Kerewan", "country": "GM", "coord": {"lon": -16.088791, "lat": 13.4898}}, {"id": 3011841, "name": "Kerfeunteun", "country": "FR", "coord": {"lon": -4.09275, "lat": 48.004559}}, {"id": 2161582, "name": "Kergunyah", "country": "AU", "coord": {"lon": 147.050003, "lat": -36.383331}}, {"id": 298533, "name": "Kerh", "country": "TR", "coord": {"lon": 40.54361, "lat": 37.825241}}, {"id": 5123309, "name": "Kerhonkson", "country": "US", "coord": {"lon": -74.29821, "lat": 41.774818}}, {"id": 192900, "name": "Kericho", "country": "KE", "coord": {"lon": 35.283138, "lat": -0.36774}}, {"id": 2188874, "name": "Kerikeri", "country": "NZ", "coord": {"lon": 173.947388, "lat": -35.226761}}, {"id": 653180, "name": "Kerimaki", "country": "FI", "coord": {"lon": 29.283331, "lat": 61.916672}}, {"id": 653181, "name": "Kerim\u00e4ki", "country": "FI", "coord": {"lon": 29.33333, "lat": 62}}, {"id": 2492345, "name": "Kerkera", "country": "DZ", "coord": {"lon": 6.58556, "lat": 36.929169}}, {"id": 2891568, "name": "Kerkhofen", "country": "DE", "coord": {"lon": 11.39531, "lat": 49.171322}}, {"id": 735813, "name": "Kerkini", "country": "GR", "coord": {"lon": 23.08333, "lat": 41.216671}}, {"id": 2891564, "name": "Kerkow", "country": "DE", "coord": {"lon": 13.98834, "lat": 53.037289}}, {"id": 2752923, "name": "Kerkrade", "country": "NL", "coord": {"lon": 6.0625, "lat": 50.865829}}, {"id": 2463679, "name": "Kerkyra", "country": "GR", "coord": {"lon": 19.91972, "lat": 39.619999}}, {"id": 706515, "name": "Kerleut", "country": "UA", "coord": {"lon": 34.416668, "lat": 45.733334}}, {"id": 3011686, "name": "Kerlouan", "country": "FR", "coord": {"lon": -4.36556, "lat": 48.645}}, {"id": 128234, "name": "Kerman", "country": "IR", "coord": {"lon": 57.078789, "lat": 30.283211}}, {"id": 5362909, "name": "Kerman", "country": "US", "coord": {"lon": -120.059883, "lat": 36.72356}}, {"id": 128226, "name": "Kermanshah", "country": "IR", "coord": {"lon": 47.064999, "lat": 34.314171}}, {"id": 6460584, "name": "Kermen", "country": "BG", "coord": {"lon": 26.25, "lat": 42.5}}, {"id": 730478, "name": "Kermen", "country": "BG", "coord": {"lon": 26.25, "lat": 42.5}}, {"id": 2891549, "name": "Kermes", "country": "DE", "coord": {"lon": 9.9, "lat": 50.616669}}, {"id": 5524527, "name": "Kermit", "country": "US", "coord": {"lon": -103.092667, "lat": 31.85763}}, {"id": 5362932, "name": "Kern County", "country": "US", "coord": {"lon": -118.667587, "lat": 35.29607}}, {"id": 2660172, "name": "Kernenried", "country": "CH", "coord": {"lon": 7.54679, "lat": 47.069679}}, {"id": 7286186, "name": "Kernenried", "country": "CH", "coord": {"lon": 7.54982, "lat": 47.066189}}, {"id": 4474221, "name": "Kernersville", "country": "US", "coord": {"lon": -80.073647, "lat": 36.119862}}, {"id": 3011624, "name": "Kernilis", "country": "FR", "coord": {"lon": -4.418, "lat": 48.570751}}, {"id": 2161575, "name": "Kernot", "country": "AU", "coord": {"lon": 145.600006, "lat": -38.433331}}, {"id": 7286187, "name": "Kerns", "country": "CH", "coord": {"lon": 8.30134, "lat": 46.839859}}, {"id": 2660171, "name": "Kerns", "country": "CH", "coord": {"lon": 8.27652, "lat": 46.900879}}, {"id": 591450, "name": "Kernu", "country": "EE", "coord": {"lon": 24.49968, "lat": 59.13628}}, {"id": 7522301, "name": "Kernu vald", "country": "EE", "coord": {"lon": 24.415819, "lat": 59.16851}}, {"id": 5362994, "name": "Kernville", "country": "US", "coord": {"lon": -118.425362, "lat": 35.754669}}, {"id": 7377168, "name": "Keroak", "country": "ID", "coord": {"lon": 116.498001, "lat": -8.5705}}, {"id": 192869, "name": "Keroka", "country": "KE", "coord": {"lon": 34.945309, "lat": -0.77584}}, {"id": 2419622, "name": "Kerouane", "country": "GN", "coord": {"lon": -9.01667, "lat": 9.26667}}, {"id": 2891524, "name": "Kerpen", "country": "DE", "coord": {"lon": 6.7, "lat": 50.866669}}, {"id": 4703071, "name": "Kerr County", "country": "US", "coord": {"lon": -99.300323, "lat": 30.050211}}, {"id": 2161573, "name": "Kerrabee", "country": "AU", "coord": {"lon": 150.300003, "lat": -32.416672}}, {"id": 5033135, "name": "Kerrick", "country": "US", "coord": {"lon": -92.585747, "lat": 46.338829}}, {"id": 5991284, "name": "Kerrobert", "country": "CA", "coord": {"lon": -109.134789, "lat": 51.916821}}, {"id": 2544510, "name": "Kerrouchen", "country": "MA", "coord": {"lon": -5.3188, "lat": 32.796391}}, {"id": 5991285, "name": "Kerrowgare", "country": "CA", "coord": {"lon": -62.431911, "lat": 45.40015}}, {"id": 2161561, "name": "Kerrs Creek", "country": "AU", "coord": {"lon": 149.100006, "lat": -33.049999}}, {"id": 4703078, "name": "Kerrville", "country": "US", "coord": {"lon": -99.14032, "lat": 30.04743}}, {"id": 4634365, "name": "Kerrville", "country": "US", "coord": {"lon": -89.858971, "lat": 35.38147}}, {"id": 2161557, "name": "Kerry", "country": "AU", "coord": {"lon": 153.016663, "lat": -28.1}}, {"id": 2965689, "name": "Kerrykeel", "country": "IE", "coord": {"lon": -7.65, "lat": 55.133331}}, {"id": 3011563, "name": "Kersaint-Plabennec", "country": "FR", "coord": {"lon": -4.37233, "lat": 48.471661}}, {"id": 2794516, "name": "Kersbeek-Miskom", "country": "BE", "coord": {"lon": 4.99578, "lat": 50.885441}}, {"id": 2068547, "name": "Kersbrook", "country": "AU", "coord": {"lon": 138.850006, "lat": -34.783329}}, {"id": 2891511, "name": "Kerschdorf", "country": "DE", "coord": {"lon": 12.20384, "lat": 48.019211}}, {"id": 6554695, "name": "Kerschenbach", "country": "DE", "coord": {"lon": 6.5, "lat": 50.349998}}, {"id": 2891510, "name": "Kerschenbach", "country": "DE", "coord": {"lon": 6.5, "lat": 50.349998}}, {"id": 2891508, "name": "Kerschlach", "country": "DE", "coord": {"lon": 11.20708, "lat": 47.91864}}, {"id": 5578683, "name": "Kersey", "country": "US", "coord": {"lon": -104.56163, "lat": 40.387482}}, {"id": 4584007, "name": "Kershaw", "country": "US", "coord": {"lon": -80.583679, "lat": 34.551819}}, {"id": 4583989, "name": "Kershaw County", "country": "US", "coord": {"lon": -80.56646, "lat": 34.45015}}, {"id": 2891501, "name": "Kerspenhausen", "country": "DE", "coord": {"lon": 9.65, "lat": 50.816669}}, {"id": 2891499, "name": "Kerspleben", "country": "DE", "coord": {"lon": 11.1, "lat": 51}}, {"id": 1640203, "name": "Kertabumi", "country": "ID", "coord": {"lon": 108.4384, "lat": -7.3347}}, {"id": 8046815, "name": "Kertaharja", "country": "ID", "coord": {"lon": 108.324203, "lat": -7.1814}}, {"id": 8057346, "name": "Kertahayu", "country": "ID", "coord": {"lon": 108.558403, "lat": -7.4594}}, {"id": 7849009, "name": "Kertajadi", "country": "ID", "coord": {"lon": 107.346603, "lat": -7.4876}}, {"id": 8018881, "name": "Kertamukti", "country": "ID", "coord": {"lon": 108.122398, "lat": -7.1958}}, {"id": 7084621, "name": "Kertanadi", "country": "ID", "coord": {"lon": 114.950302, "lat": -8.234}}, {"id": 8046795, "name": "Kertanagara", "country": "ID", "coord": {"lon": 108.345703, "lat": -7.188}}, {"id": 7914436, "name": "Kertanegla", "country": "ID", "coord": {"lon": 107.957497, "lat": -7.5128}}, {"id": 1640197, "name": "Kertapati", "country": "ID", "coord": {"lon": 104.75, "lat": -3.01667}}, {"id": 8018919, "name": "Kertapura", "country": "ID", "coord": {"lon": 108.018303, "lat": -7.2345}}, {"id": 8017997, "name": "Kertasari", "country": "ID", "coord": {"lon": 108.0784, "lat": -7.3288}}, {"id": 8046178, "name": "Kertasari", "country": "ID", "coord": {"lon": 108.281403, "lat": -7.3461}}, {"id": 8078008, "name": "Kertasari", "country": "ID", "coord": {"lon": 108.829002, "lat": -7.0685}}, {"id": 8054244, "name": "Kertayuga", "country": "ID", "coord": {"lon": 108.437599, "lat": -7.0299}}, {"id": 2618944, "name": "Kerteminde", "country": "DK", "coord": {"lon": 10.65769, "lat": 55.449032}}, {"id": 2618941, "name": "Kerteminde Kommune", "country": "DK", "coord": {"lon": 10.66667, "lat": 55.5}}, {"id": 1734316, "name": "Kertih", "country": "MY", "coord": {"lon": 103.448303, "lat": 4.5141}}, {"id": 7035613, "name": "Kertorejo", "country": "ID", "coord": {"lon": 112.471703, "lat": -8.1085}}, {"id": 1640187, "name": "Kertosari", "country": "ID", "coord": {"lon": 114.2024, "lat": -7.7543}}, {"id": 7083484, "name": "Kertosari", "country": "ID", "coord": {"lon": 113.761902, "lat": -8.1862}}, {"id": 7084389, "name": "Kertosari", "country": "ID", "coord": {"lon": 114.323997, "lat": -8.2396}}, {"id": 1640185, "name": "Kertosono", "country": "ID", "coord": {"lon": 112.099998, "lat": -7.58333}}, {"id": 8144603, "name": "Kertosono", "country": "ID", "coord": {"lon": 111.450401, "lat": -8.2183}}, {"id": 8142566, "name": "Kertosonopilang", "country": "ID", "coord": {"lon": 112.520599, "lat": -6.9856}}, {"id": 3011539, "name": "Kertzfeld", "country": "FR", "coord": {"lon": 7.57082, "lat": 48.379341}}, {"id": 192859, "name": "Keruguya", "country": "KE", "coord": {"lon": 37.280312, "lat": -0.49886}}, {"id": 1267239, "name": "Kerur", "country": "IN", "coord": {"lon": 75.566673, "lat": 16.01667}}, {"id": 550973, "name": "Kerva", "country": "RU", "coord": {"lon": 39.576649, "lat": 55.611671}}, {"id": 2891487, "name": "Kervenheim", "country": "DE", "coord": {"lon": 6.26667, "lat": 51.633331}}, {"id": 3011506, "name": "Kervignac", "country": "FR", "coord": {"lon": -3.23778, "lat": 47.76289}}, {"id": 2891485, "name": "Kerzell", "country": "DE", "coord": {"lon": 9.67037, "lat": 50.485691}}, {"id": 6554960, "name": "Kerzenheim", "country": "DE", "coord": {"lon": 8.05972, "lat": 49.576401}}, {"id": 2891480, "name": "Kerzenheim", "country": "DE", "coord": {"lon": 8.05972, "lat": 49.576389}}, {"id": 7286188, "name": "Kerzers", "country": "CH", "coord": {"lon": 7.19875, "lat": 46.981232}}, {"id": 2660170, "name": "Kerzers", "country": "CH", "coord": {"lon": 7.1957, "lat": 46.975861}}, {"id": 6418615, "name": "Kerzhenskiy", "country": "RU", "coord": {"lon": 44.963333, "lat": 56.149445}}, {"id": 1197895, "name": "Kesabpur", "country": "BD", "coord": {"lon": 89.216667, "lat": 22.91667}}, {"id": 1348583, "name": "Kesabpur", "country": "IN", "coord": {"lon": 88.262779, "lat": 22.96833}}, {"id": 653129, "name": "Kesalahti", "country": "FI", "coord": {"lon": 29.83333, "lat": 61.900002}}, {"id": 1640169, "name": "Kesamben", "country": "ID", "coord": {"lon": 112.365799, "lat": -8.1462}}, {"id": 8185043, "name": "Kesambilerenkrajan", "country": "ID", "coord": {"lon": 113.407303, "lat": -8.2794}}, {"id": 743439, "name": "Kesan", "country": "TR", "coord": {"lon": 26.63028, "lat": 40.855831}}, {"id": 743438, "name": "Kesap", "country": "TR", "coord": {"lon": 38.514439, "lat": 40.916389}}, {"id": 6553410, "name": "Kescheid", "country": "DE", "coord": {"lon": 7.48333, "lat": 50.666698}}, {"id": 2891476, "name": "Kescheid", "country": "DE", "coord": {"lon": 7.48333, "lat": 50.666672}}, {"id": 7036687, "name": "Keset", "country": "ID", "coord": {"lon": 112.427597, "lat": -7.1061}}, {"id": 6554555, "name": "Kesfeld", "country": "DE", "coord": {"lon": 6.23333, "lat": 50.150002}}, {"id": 2891470, "name": "Kesfeld", "country": "DE", "coord": {"lon": 6.23333, "lat": 50.150002}}, {"id": 6301921, "name": "Kesgrave", "country": "GB", "coord": {"lon": 1.2365, "lat": 52.062408}}, {"id": 1804751, "name": "Kesha", "country": "CN", "coord": {"lon": 109.947571, "lat": 29.0958}}, {"id": 2963513, "name": "Keshcarrigan", "country": "IE", "coord": {"lon": -7.94333, "lat": 54.01778}}, {"id": 5258448, "name": "Keshena", "country": "US", "coord": {"lon": -88.63372, "lat": 44.883869}}, {"id": 161808, "name": "Keshi", "country": "TM", "coord": {"lon": 58.33857, "lat": 37.965511}}, {"id": 1267227, "name": "Keshod", "country": "IN", "coord": {"lon": 70.25, "lat": 21.299999}}, {"id": 1267226, "name": "Keshorai Patan", "country": "IN", "coord": {"lon": 75.933327, "lat": 25.299999}}, {"id": 8185455, "name": "Kesilirkrajan", "country": "ID", "coord": {"lon": 113.582497, "lat": -8.3436}}, {"id": 1267222, "name": "Kesinga", "country": "IN", "coord": {"lon": 83.23333, "lat": 20.200001}}, {"id": 7335070, "name": "Kesiutkawan Kaja", "country": "ID", "coord": {"lon": 115.108803, "lat": -8.4801}}, {"id": 3011467, "name": "Keskastel", "country": "FR", "coord": {"lon": 7.04412, "lat": 48.971321}}, {"id": 308024, "name": "Keskin", "country": "TR", "coord": {"lon": 33.613609, "lat": 39.673061}}, {"id": 4810850, "name": "Kesling Mill", "country": "US", "coord": {"lon": -80.142303, "lat": 39.005379}}, {"id": 550949, "name": "Kesova Gora", "country": "RU", "coord": {"lon": 37.292221, "lat": 57.583611}}, {"id": 3096334, "name": "Kesowo", "country": "PL", "coord": {"lon": 17.715799, "lat": 53.55872}}, {"id": 2469744, "name": "Kesra", "country": "TN", "coord": {"lon": 9.36434, "lat": 35.813641}}, {"id": 2891458, "name": "Kesselbach", "country": "DE", "coord": {"lon": 8.2, "lat": 50.216671}}, {"id": 2891362, "name": "Kesseler", "country": "DE", "coord": {"lon": 8.11667, "lat": 51.666672}}, {"id": 6553316, "name": "Kesseling", "country": "DE", "coord": {"lon": 7.01667, "lat": 50.483299}}, {"id": 2891404, "name": "Kesseling", "country": "DE", "coord": {"lon": 7.01667, "lat": 50.48333}}, {"id": 2891391, "name": "Kesselsdorf", "country": "DE", "coord": {"lon": 13.58333, "lat": 51.033329}}, {"id": 2891371, "name": "Kessenich", "country": "DE", "coord": {"lon": 6.8, "lat": 50.683331}}, {"id": 2891368, "name": "Kessin", "country": "DE", "coord": {"lon": 13.31667, "lat": 53.73333}}, {"id": 2645761, "name": "Kessingland", "country": "GB", "coord": {"lon": 1.70878, "lat": 52.419868}}, {"id": 7286189, "name": "Kesswil", "country": "CH", "coord": {"lon": 9.3129, "lat": 47.587559}}, {"id": 2660168, "name": "Kesswil", "country": "CH", "coord": {"lon": 9.31809, "lat": 47.593361}}, {"id": 743404, "name": "Kestel", "country": "TR", "coord": {"lon": 29.21237, "lat": 40.19828}}, {"id": 6554337, "name": "Kesten", "country": "DE", "coord": {"lon": 6.95, "lat": 49.900002}}, {"id": 2891355, "name": "Kesten", "country": "DE", "coord": {"lon": 6.95, "lat": 49.900002}}, {"id": 7286190, "name": "Kestenholz", "country": "CH", "coord": {"lon": 7.75331, "lat": 47.27634}}, {"id": 6691409, "name": "Kestenholz", "country": "CH", "coord": {"lon": 7.75291, "lat": 47.280392}}, {"id": 550941, "name": "Kesten\u2019ga", "country": "RU", "coord": {"lon": 31.833332, "lat": 65.883331}}, {"id": 2752899, "name": "Kesteren", "country": "NL", "coord": {"lon": 5.56944, "lat": 51.935001}}, {"id": 6554052, "name": "Kestert", "country": "DE", "coord": {"lon": 7.65, "lat": 50.1833}}, {"id": 2891352, "name": "Kestert", "country": "DE", "coord": {"lon": 7.65, "lat": 50.183331}}, {"id": 653039, "name": "Kestila", "country": "FI", "coord": {"lon": 26.283331, "lat": 64.349998}}, {"id": 2645758, "name": "Keston", "country": "GB", "coord": {"lon": 0.02747, "lat": 51.36219}}, {"id": 2891351, "name": "Kestrich", "country": "DE", "coord": {"lon": 9.18333, "lat": 50.650002}}, {"id": 1640154, "name": "Kesugihan", "country": "ID", "coord": {"lon": 109.121391, "lat": -7.6175}}, {"id": 5991370, "name": "Keswick", "country": "CA", "coord": {"lon": -79.466316, "lat": 44.250111}}, {"id": 2068542, "name": "Keswick", "country": "AU", "coord": {"lon": 138.566666, "lat": -34.933331}}, {"id": 5991369, "name": "Keswick", "country": "CA", "coord": {"lon": -66.832176, "lat": 46.000111}}, {"id": 2645756, "name": "Keswick", "country": "GB", "coord": {"lon": -3.13256, "lat": 54.599468}}, {"id": 3050212, "name": "Keszthely", "country": "HU", "coord": {"lon": 17.24317, "lat": 46.76812}}, {"id": 3050208, "name": "Kesztolc", "country": "HU", "coord": {"lon": 18.801769, "lat": 47.712662}}, {"id": 653130, "name": "Kes\u00e4lahti", "country": "FI", "coord": {"lon": 29.83333, "lat": 61.916672}}, {"id": 2299645, "name": "Keta", "country": "GH", "coord": {"lon": 0.9879, "lat": 5.91793}}, {"id": 8058274, "name": "Ketanen", "country": "ID", "coord": {"lon": 111.063698, "lat": -6.6539}}, {"id": 8140952, "name": "Ketanen", "country": "ID", "coord": {"lon": 112.441498, "lat": -6.9252}}, {"id": 1916289, "name": "Ketang", "country": "CN", "coord": {"lon": 115.452003, "lat": 22.943649}}, {"id": 7375369, "name": "Ketanggi", "country": "ID", "coord": {"lon": 111.3162, "lat": -7.0156}}, {"id": 8060784, "name": "Ketanggi", "country": "ID", "coord": {"lon": 111.3395, "lat": -6.7317}}, {"id": 6374049, "name": "Ketanggung", "country": "ID", "coord": {"lon": 109.19944, "lat": -7.60222}}, {"id": 8144526, "name": "Ketanggung", "country": "ID", "coord": {"lon": 111.3815, "lat": -8.1953}}, {"id": 1640138, "name": "Ketanggungan", "country": "ID", "coord": {"lon": 108.890999, "lat": -6.9383}}, {"id": 7375795, "name": "Ketangi", "country": "ID", "coord": {"lon": 113.2211, "lat": -8.2233}}, {"id": 8137951, "name": "Ketangi", "country": "ID", "coord": {"lon": 111.408401, "lat": -6.7482}}, {"id": 8056415, "name": "Ketapang", "country": "ID", "coord": {"lon": 111.037903, "lat": -6.5589}}, {"id": 8142605, "name": "Ketapang", "country": "ID", "coord": {"lon": 112.554497, "lat": -6.9589}}, {"id": 1640118, "name": "Ketapang Kecil", "country": "ID", "coord": {"lon": 109.966667, "lat": -1.83333}}, {"id": 7085036, "name": "Ketara", "country": "ID", "coord": {"lon": 116.280502, "lat": -8.789}}, {"id": 1965634, "name": "Ketawang", "country": "ID", "coord": {"lon": 112.643539, "lat": -8.14111}}, {"id": 7035971, "name": "Ketawang", "country": "ID", "coord": {"lon": 111.563004, "lat": -7.2122}}, {"id": 7036126, "name": "Ketawang", "country": "ID", "coord": {"lon": 111.625999, "lat": -7.1657}}, {"id": 5554428, "name": "Ketchikan", "country": "US", "coord": {"lon": -131.646103, "lat": 55.34222}}, {"id": 5554432, "name": "Ketchikan Gateway Borough", "country": "US", "coord": {"lon": -131.416672, "lat": 55.500561}}, {"id": 5597711, "name": "Ketchum", "country": "US", "coord": {"lon": -114.363663, "lat": 43.68074}}, {"id": 2299642, "name": "Kete Krachi", "country": "GH", "coord": {"lon": -0.0498, "lat": 7.79391}}, {"id": 719126, "name": "Ketegyhaza", "country": "HU", "coord": {"lon": 21.183331, "lat": 46.533329}}, {"id": 2891349, "name": "Ketelsb\u00fcttel", "country": "DE", "coord": {"lon": 9.01667, "lat": 54.150002}}, {"id": 1735535, "name": "Ketereh", "country": "MY", "coord": {"lon": 102.248169, "lat": 5.95701}}, {"id": 3050204, "name": "Kethely", "country": "HU", "coord": {"lon": 17.39362, "lat": 46.646049}}, {"id": 1174451, "name": "Keti Bandar", "country": "PK", "coord": {"lon": 67.449722, "lat": 24.14472}}, {"id": 8060299, "name": "Ketip", "country": "ID", "coord": {"lon": 111.166496, "lat": -6.7323}}, {"id": 8060262, "name": "Ketitang Wetan", "country": "ID", "coord": {"lon": 111.189796, "lat": -6.7108}}, {"id": 4634383, "name": "Ketner Mill", "country": "US", "coord": {"lon": -85.517189, "lat": 35.13813}}, {"id": 8074740, "name": "Ketodan", "country": "ID", "coord": {"lon": 111.641998, "lat": -6.8497}}, {"id": 1950702, "name": "Ketos Dua", "country": "ID", "coord": {"lon": 106.540001, "lat": -6.14694}}, {"id": 2393551, "name": "Ketou", "country": "BJ", "coord": {"lon": 2.59978, "lat": 7.36332}}, {"id": 1503879, "name": "Ketovo", "country": "RU", "coord": {"lon": 65.325829, "lat": 55.355}}, {"id": 1640101, "name": "Ketowan", "country": "ID", "coord": {"lon": 114.131401, "lat": -7.7829}}, {"id": 8074085, "name": "Ketringan", "country": "ID", "coord": {"lon": 111.559998, "lat": -6.9617}}, {"id": 769274, "name": "Ketrzyn", "country": "PL", "coord": {"lon": 21.375271, "lat": 54.076759}}, {"id": 6555666, "name": "Ketsch", "country": "DE", "coord": {"lon": 8.5275, "lat": 49.355202}}, {"id": 2891343, "name": "Ketsch", "country": "DE", "coord": {"lon": 8.53111, "lat": 49.367779}}, {"id": 2891339, "name": "Ketschendorf", "country": "DE", "coord": {"lon": 10.96667, "lat": 50.25}}, {"id": 2891323, "name": "Ketten", "country": "DE", "coord": {"lon": 9.93333, "lat": 50.633331}}, {"id": 2891320, "name": "Kettenbach", "country": "DE", "coord": {"lon": 8.06667, "lat": 50.25}}, {"id": 2891315, "name": "Kettenham", "country": "DE", "coord": {"lon": 12.18899, "lat": 47.995979}}, {"id": 6553411, "name": "Kettenhausen", "country": "DE", "coord": {"lon": 7.63333, "lat": 50.716702}}, {"id": 2891314, "name": "Kettenhausen", "country": "DE", "coord": {"lon": 7.63333, "lat": 50.716671}}, {"id": 6554859, "name": "Kettenheim", "country": "DE", "coord": {"lon": 8.11333, "lat": 49.721699}}, {"id": 2891313, "name": "Kettenheim", "country": "DE", "coord": {"lon": 8.11333, "lat": 49.721668}}, {"id": 6552989, "name": "Kettenkamp", "country": "DE", "coord": {"lon": 7.83333, "lat": 52.583302}}, {"id": 2891310, "name": "Kettenkamp", "country": "DE", "coord": {"lon": 7.83333, "lat": 52.583328}}, {"id": 2161546, "name": "Kettering", "country": "AU", "coord": {"lon": 147.266663, "lat": -43.116669}}, {"id": 2645753, "name": "Kettering", "country": "GB", "coord": {"lon": -0.72571, "lat": 52.398361}}, {"id": 4515843, "name": "Kettering", "country": "US", "coord": {"lon": -84.168831, "lat": 39.689499}}, {"id": 4359858, "name": "Kettering", "country": "US", "coord": {"lon": -76.81469, "lat": 38.88456}}, {"id": 7290603, "name": "Kettering District", "country": "GB", "coord": {"lon": -0.75846, "lat": 52.437302}}, {"id": 2891305, "name": "Ketternschwalbach", "country": "DE", "coord": {"lon": 8.15, "lat": 50.26667}}, {"id": 2891302, "name": "Ketterschwang", "country": "DE", "coord": {"lon": 10.7, "lat": 47.966671}}, {"id": 6557268, "name": "Kettershausen", "country": "DE", "coord": {"lon": 10.2667, "lat": 48.1833}}, {"id": 2891300, "name": "Kettershausen", "country": "DE", "coord": {"lon": 10.26667, "lat": 48.183331}}, {"id": 6553800, "name": "Kettig", "country": "DE", "coord": {"lon": 7.46667, "lat": 50.400002}}, {"id": 2891297, "name": "Kettig", "country": "DE", "coord": {"lon": 7.46667, "lat": 50.400002}}, {"id": 5799687, "name": "Kettle Falls", "country": "US", "coord": {"lon": -118.055817, "lat": 48.610741}}, {"id": 5363042, "name": "Kettleman City", "country": "US", "coord": {"lon": -119.9618, "lat": 36.008289}}, {"id": 2891293, "name": "Kettmannshausen", "country": "DE", "coord": {"lon": 10.96667, "lat": 50.76667}}, {"id": 2645741, "name": "Ketton", "country": "GB", "coord": {"lon": -0.55459, "lat": 52.62804}}, {"id": 652996, "name": "Kettula", "country": "FI", "coord": {"lon": 27.883329, "lat": 61.866669}}, {"id": 2891290, "name": "Kettwig", "country": "DE", "coord": {"lon": 6.95, "lat": 51.366669}}, {"id": 2891289, "name": "Kettwig vor der Br\u00fccke", "country": "DE", "coord": {"lon": 6.91667, "lat": 51.366669}}, {"id": 2334528, "name": "Ketu Adieowe", "country": "NG", "coord": {"lon": 3.06667, "lat": 6.6}}, {"id": 6620954, "name": "Ketura", "country": "IL", "coord": {"lon": 35.061298, "lat": 29.9702}}, {"id": 7035985, "name": "Ketuwan", "country": "ID", "coord": {"lon": 111.509903, "lat": -7.2325}}, {"id": 3096328, "name": "Kety", "country": "PL", "coord": {"lon": 19.22333, "lat": 49.882141}}, {"id": 2891282, "name": "Ketzin", "country": "DE", "coord": {"lon": 12.85, "lat": 52.466671}}, {"id": 5123347, "name": "Keuka Park", "country": "US", "coord": {"lon": -77.092194, "lat": 42.615349}}, {"id": 2794480, "name": "Keumi\u00e9e", "country": "BE", "coord": {"lon": 4.58233, "lat": 50.461769}}, {"id": 2891266, "name": "Keune", "country": "DE", "coord": {"lon": 14.66667, "lat": 51.716671}}, {"id": 2794479, "name": "Keur", "country": "BE", "coord": {"lon": 4.1129, "lat": 51.033161}}, {"id": 2250338, "name": "Keur Issa Bambara", "country": "SN", "coord": {"lon": -16.9, "lat": 14.8}}, {"id": 2250139, "name": "Keur Mor Ibra", "country": "SN", "coord": {"lon": -15.42222, "lat": 16.3375}}, {"id": 652978, "name": "Keuruu", "country": "FI", "coord": {"lon": 24.75, "lat": 62.25}}, {"id": 652977, "name": "Keuruu", "country": "FI", "coord": {"lon": 24.700001, "lat": 62.26667}}, {"id": 7872762, "name": "Keutschach am See", "country": "AT", "coord": {"lon": 14.17948, "lat": 46.588291}}, {"id": 2774482, "name": "Keutschach am See", "country": "AT", "coord": {"lon": 14.18889, "lat": 46.59306}}, {"id": 550924, "name": "Kevdo-Mel\u2019sitovo", "country": "RU", "coord": {"lon": 43.890732, "lat": 53.159611}}, {"id": 2891258, "name": "Kevelaer", "country": "DE", "coord": {"lon": 6.25, "lat": 51.583328}}, {"id": 719093, "name": "Kevermes", "country": "HU", "coord": {"lon": 21.183331, "lat": 46.416672}}, {"id": 1221417, "name": "Kevrun", "country": "TJ", "coord": {"lon": 70.889313, "lat": 38.470821}}, {"id": 550918, "name": "Kevsala", "country": "RU", "coord": {"lon": 42.690281, "lat": 45.798328}}, {"id": 3576979, "name": "Kew", "country": "TC", "coord": {"lon": -72.033333, "lat": 21.9}}, {"id": 991247, "name": "Kew", "country": "ZA", "coord": {"lon": 28.09573, "lat": -26.121321}}, {"id": 7932628, "name": "Kew East", "country": "AU", "coord": {"lon": 145.053787, "lat": -37.797581}}, {"id": 4898433, "name": "Kewanee", "country": "US", "coord": {"lon": -89.924828, "lat": 41.24559}}, {"id": 5258480, "name": "Kewaskum", "country": "US", "coord": {"lon": -88.228989, "lat": 43.520828}}, {"id": 5258490, "name": "Kewaunee", "country": "US", "coord": {"lon": -87.503143, "lat": 44.458328}}, {"id": 5258491, "name": "Kewaunee County", "country": "US", "coord": {"lon": -87.633423, "lat": 44.516659}}, {"id": 4998067, "name": "Keweenaw County", "country": "US", "coord": {"lon": -88.200111, "lat": 47.366581}}, {"id": 3345387, "name": "Kewstoke", "country": "GB", "coord": {"lon": -2.95901, "lat": 51.365299}}, {"id": 4160789, "name": "Key Biscayne", "country": "US", "coord": {"lon": -80.162819, "lat": 25.69371}}, {"id": 5799692, "name": "Key Center", "country": "US", "coord": {"lon": -122.745407, "lat": 47.340649}}, {"id": 4160795, "name": "Key Largo", "country": "US", "coord": {"lon": -80.447281, "lat": 25.086519}}, {"id": 4160812, "name": "Key West", "country": "US", "coord": {"lon": -81.782593, "lat": 24.5557}}, {"id": 2891254, "name": "Keyenberg", "country": "DE", "coord": {"lon": 6.41667, "lat": 51.083328}}, {"id": 5363058, "name": "Keyes", "country": "US", "coord": {"lon": -120.915489, "lat": 37.556599}}, {"id": 2645734, "name": "Keyingham", "country": "GB", "coord": {"lon": -0.11325, "lat": 53.70961}}, {"id": 2068531, "name": "Keyneton", "country": "AU", "coord": {"lon": 139.133331, "lat": -34.566669}}, {"id": 7296076, "name": "Keynsham", "country": "GB", "coord": {"lon": -2.49775, "lat": 51.41251}}, {"id": 2645733, "name": "Keynsham", "country": "GB", "coord": {"lon": -2.4978, "lat": 51.413872}}, {"id": 5100008, "name": "Keyport", "country": "US", "coord": {"lon": -74.199593, "lat": 40.433159}}, {"id": 2161532, "name": "Keysborough", "country": "AU", "coord": {"lon": 145.173843, "lat": -37.991161}}, {"id": 2068530, "name": "Keysbrook", "country": "AU", "coord": {"lon": 115.966667, "lat": -32.433331}}, {"id": 4810884, "name": "Keyser", "country": "US", "coord": {"lon": -78.973923, "lat": 39.440929}}, {"id": 5696694, "name": "Keystone", "country": "US", "coord": {"lon": -101.583511, "lat": 41.216099}}, {"id": 4160822, "name": "Keystone", "country": "US", "coord": {"lon": -82.621208, "lat": 28.155849}}, {"id": 5427299, "name": "Keystone", "country": "US", "coord": {"lon": -105.987244, "lat": 39.59943}}, {"id": 4160830, "name": "Keystone Heights", "country": "US", "coord": {"lon": -82.031487, "lat": 29.786079}}, {"id": 4393535, "name": "Keytesville", "country": "US", "coord": {"lon": -92.938248, "lat": 39.434471}}, {"id": 550902, "name": "Kez", "country": "RU", "coord": {"lon": 53.71521, "lat": 57.897861}}, {"id": 724503, "name": "Kezmarok", "country": "SK", "coord": {"lon": 20.433519, "lat": 49.1357}}, {"id": 8199384, "name": "Kfar NaOranim", "country": "IL", "coord": {"lon": 35.03669, "lat": 31.919821}}, {"id": 294514, "name": "Kfar Saba", "country": "IL", "coord": {"lon": 34.90694, "lat": 32.174999}}, {"id": 933657, "name": "Kgalagadi District", "country": "BW", "coord": {"lon": 22, "lat": -25}}, {"id": 1106211, "name": "Kgaphamadi", "country": "BW", "coord": {"lon": 25.9275, "lat": -24.537781}}, {"id": 933654, "name": "Kgatleng District", "country": "BW", "coord": {"lon": 26.5, "lat": -24.25}}, {"id": 7908931, "name": "Kgome", "country": "BW", "coord": {"lon": 24.65811, "lat": -24.589211}}, {"id": 2022890, "name": "Khabarovsk", "country": "RU", "coord": {"lon": 135.092773, "lat": 48.480831}}, {"id": 2056752, "name": "Khabarovsk Vtoroy", "country": "RU", "coord": {"lon": 135.135559, "lat": 48.443062}}, {"id": 2022888, "name": "Khabarovskiy Kray", "country": "RU", "coord": {"lon": 134, "lat": 55}}, {"id": 1503856, "name": "Khabary", "country": "RU", "coord": {"lon": 79.5345, "lat": 53.625881}}, {"id": 550868, "name": "Khabez", "country": "RU", "coord": {"lon": 41.771999, "lat": 44.0434}}, {"id": 586001, "name": "Khachmaz Rayon", "country": "AZ", "coord": {"lon": 48.75, "lat": 41.583328}}, {"id": 1267203, "name": "Khachrod", "country": "IN", "coord": {"lon": 75.283333, "lat": 23.41667}}, {"id": 1267202, "name": "Khada", "country": "IN", "coord": {"lon": 83.883331, "lat": 27.183331}}, {"id": 1347927, "name": "Khadan Khak", "country": "PK", "coord": {"lon": 67.708458, "lat": 30.74774}}, {"id": 1348242, "name": "Khadir", "country": "AF", "coord": {"lon": 65.933983, "lat": 33.922321}}, {"id": 1267195, "name": "Khadki", "country": "IN", "coord": {"lon": 73.866669, "lat": 18.566669}}, {"id": 1174408, "name": "Khadro", "country": "PK", "coord": {"lon": 68.717644, "lat": 26.14723}}, {"id": 550846, "name": "Khadyzhensk", "country": "RU", "coord": {"lon": 39.531944, "lat": 44.425556}}, {"id": 550844, "name": "Khadzhalmakhi", "country": "RU", "coord": {"lon": 47.18206, "lat": 42.419998}}, {"id": 1140382, "name": "Khadzhi-Alam-Kalay", "country": "AF", "coord": {"lon": 65.536209, "lat": 32.31834}}, {"id": 730464, "name": "Khadzhidimovo", "country": "BG", "coord": {"lon": 23.86861, "lat": 41.522221}}, {"id": 7511028, "name": "Khaen Dong", "country": "TH", "coord": {"lon": 103.13343, "lat": 15.32476}}, {"id": 1140435, "name": "Khafizan", "country": "AF", "coord": {"lon": 70.372467, "lat": 34.286652}}, {"id": 168422, "name": "Khafsah", "country": "SY", "coord": {"lon": 38.021721, "lat": 36.231098}}, {"id": 1267190, "name": "Khaga", "country": "IN", "coord": {"lon": 81.116669, "lat": 25.783331}}, {"id": 1267189, "name": "Khagaria", "country": "IN", "coord": {"lon": 86.48333, "lat": 25.5}}, {"id": 1267187, "name": "Khagaul", "country": "IN", "coord": {"lon": 85.050003, "lat": 25.58333}}, {"id": 1185252, "name": "Khagrachhari", "country": "BD", "coord": {"lon": 91.966667, "lat": 23.1}}, {"id": 7510902, "name": "Khai Bang Rachan", "country": "TH", "coord": {"lon": 100.310219, "lat": 14.79983}}, {"id": 1267185, "name": "Khailar", "country": "IN", "coord": {"lon": 78.533333, "lat": 25.35}}, {"id": 2022859, "name": "Khaim", "country": "RU", "coord": {"lon": 108.083328, "lat": 52.599998}}, {"id": 1267182, "name": "Khair", "country": "IN", "coord": {"lon": 77.833328, "lat": 27.950001}}, {"id": 1267175, "name": "Khairabad", "country": "IN", "coord": {"lon": 80.75, "lat": 27.533331}}, {"id": 1267173, "name": "Khairagarh", "country": "IN", "coord": {"lon": 77.816673, "lat": 26.950001}}, {"id": 1267174, "name": "Khairagarh", "country": "IN", "coord": {"lon": 80.966667, "lat": 21.41667}}, {"id": 1162004, "name": "Khairpur", "country": "PK", "coord": {"lon": 68.761703, "lat": 27.52948}}, {"id": 1174355, "name": "Khairpur", "country": "PK", "coord": {"lon": 72.236389, "lat": 29.58111}}, {"id": 1174357, "name": "Khairpur", "country": "PK", "coord": {"lon": 69.70076, "lat": 28.06526}}, {"id": 1174344, "name": "Khairpur Nathan Shah", "country": "PK", "coord": {"lon": 67.733658, "lat": 27.09359}}, {"id": 7998675, "name": "Khajura", "country": "NP", "coord": {"lon": 81.63163, "lat": 28.58744}}, {"id": 1267154, "name": "Khajuraho", "country": "IN", "coord": {"lon": 79.933334, "lat": 24.85}}, {"id": 933649, "name": "Khakhea", "country": "BW", "coord": {"lon": 23.49403, "lat": -24.689541}}, {"id": 1137359, "name": "Khakiran", "country": "AF", "coord": {"lon": 67.073769, "lat": 32.838501}}, {"id": 1174301, "name": "Khalabat", "country": "PK", "coord": {"lon": 72.889442, "lat": 34.060001}}, {"id": 260172, "name": "Khalandrion", "country": "GR", "coord": {"lon": 23.79793, "lat": 38.030579}}, {"id": 6610608, "name": "Khalezovo", "country": "RU", "coord": {"lon": 41.591946, "lat": 58.118332}}, {"id": 1267115, "name": "Khalilabad", "country": "IN", "coord": {"lon": 83.073608, "lat": 26.775}}, {"id": 550801, "name": "Khalipino", "country": "RU", "coord": {"lon": 41.173332, "lat": 57.606388}}, {"id": 99169, "name": "Khalis", "country": "IQ", "coord": {"lon": 44.526371, "lat": 33.819962}}, {"id": 1222299, "name": "Khalkadzhar", "country": "TJ", "coord": {"lon": 68.835991, "lat": 38.538101}}, {"id": 260144, "name": "Khalki", "country": "GR", "coord": {"lon": 22.533331, "lat": 39.566669}}, {"id": 260128, "name": "Khalkoutsion", "country": "GR", "coord": {"lon": 23.73333, "lat": 38.333328}}, {"id": 7890366, "name": "Khallat Hamamah", "country": "PS", "coord": {"lon": 35.192429, "lat": 31.7216}}, {"id": 7891512, "name": "Khallat Salih", "country": "PS", "coord": {"lon": 35.115162, "lat": 31.42013}}, {"id": 7890846, "name": "Khallat ad Dar", "country": "PS", "coord": {"lon": 35.113621, "lat": 31.49737}}, {"id": 283286, "name": "Khallat al Mayyah", "country": "PS", "coord": {"lon": 35.14286, "lat": 31.442221}}, {"id": 7890353, "name": "Khallat an Numan", "country": "PS", "coord": {"lon": 35.24226, "lat": 31.717489}}, {"id": 1267112, "name": "Khallikot", "country": "IN", "coord": {"lon": 85.083328, "lat": 19.616671}}, {"id": 627424, "name": "Khalopyenichy", "country": "BY", "coord": {"lon": 28.956791, "lat": 54.515999}}, {"id": 2050891, "name": "Khalyarty", "country": "RU", "coord": {"lon": 102.409172, "lat": 53.612782}}, {"id": 550778, "name": "Khalymovo", "country": "RU", "coord": {"lon": 41.516666, "lat": 54.916668}}, {"id": 1459084, "name": "Khal\u012bl Murdah", "country": "AF", "coord": {"lon": 68.044724, "lat": 34.327499}}, {"id": 1610086, "name": "Kham Khuean Kaeo", "country": "TH", "coord": {"lon": 104.308609, "lat": 15.65233}}, {"id": 7511003, "name": "Kham Khuean Kaeo", "country": "TH", "coord": {"lon": 104.308609, "lat": 15.65233}}, {"id": 1610081, "name": "Kham Muang", "country": "TH", "coord": {"lon": 103.635178, "lat": 16.92902}}, {"id": 1610072, "name": "Kham Sakae Saeng", "country": "TH", "coord": {"lon": 102.172783, "lat": 15.33221}}, {"id": 1610069, "name": "Kham Ta Kla", "country": "TH", "coord": {"lon": 103.756569, "lat": 17.85231}}, {"id": 1610068, "name": "Kham Thale So", "country": "TH", "coord": {"lon": 101.947891, "lat": 14.96083}}, {"id": 550775, "name": "Khamamatyurt", "country": "RU", "coord": {"lon": 46.500599, "lat": 43.608089}}, {"id": 1267105, "name": "Khamanon", "country": "IN", "coord": {"lon": 76.35083, "lat": 30.818609}}, {"id": 1267097, "name": "Khamaria", "country": "IN", "coord": {"lon": 79.883331, "lat": 23.216669}}, {"id": 1267091, "name": "Khambhaliya", "country": "IN", "coord": {"lon": 69.668327, "lat": 22.20722}}, {"id": 1267090, "name": "Khambhat", "country": "IN", "coord": {"lon": 72.616669, "lat": 22.299999}}, {"id": 803021, "name": "Khambi-Irze", "country": "RU", "coord": {"lon": 45.453018, "lat": 43.23502}}, {"id": 1610093, "name": "Khamcha-i", "country": "TH", "coord": {"lon": 104.419563, "lat": 16.577641}}, {"id": 1267084, "name": "Khamgaon", "country": "IN", "coord": {"lon": 76.566673, "lat": 20.683331}}, {"id": 1267083, "name": "Khamharia", "country": "IN", "coord": {"lon": 82.26667, "lat": 20.98333}}, {"id": 73861, "name": "Khamir", "country": "YE", "coord": {"lon": 43.953621, "lat": 15.98792}}, {"id": 105072, "name": "Khamis Mushayt", "country": "SA", "coord": {"lon": 42.729172, "lat": 18.306391}}, {"id": 1267076, "name": "Khammam", "country": "IN", "coord": {"lon": 80.150002, "lat": 17.25}}, {"id": 1137247, "name": "Khamyab", "country": "AF", "coord": {"lon": 65.758331, "lat": 37.5275}}, {"id": 550757, "name": "Khamyshki", "country": "RU", "coord": {"lon": 40.133888, "lat": 44.094723}}, {"id": 168355, "name": "Khan Arnabah", "country": "SY", "coord": {"lon": 35.891579, "lat": 33.183781}}, {"id": 7026817, "name": "Khan Na Yao", "country": "TH", "coord": {"lon": 100.679329, "lat": 13.82609}}, {"id": 1137079, "name": "Khan Neshin", "country": "AF", "coord": {"lon": 63.788799, "lat": 30.5488}}, {"id": 168325, "name": "Khan Shaykhun", "country": "SY", "coord": {"lon": 36.649948, "lat": 35.440632}}, {"id": 281124, "name": "Khan Yunis", "country": "PS", "coord": {"lon": 34.306271, "lat": 31.340179}}, {"id": 1137168, "name": "Khanabad", "country": "AF", "coord": {"lon": 69.115562, "lat": 36.682499}}, {"id": 1267065, "name": "Khanapur", "country": "IN", "coord": {"lon": 74.51667, "lat": 15.63333}}, {"id": 1137121, "name": "Khanaqah", "country": "AF", "coord": {"lon": 69.536949, "lat": 36.62587}}, {"id": 1137160, "name": "Khanaqah", "country": "AF", "coord": {"lon": 66.167549, "lat": 36.858898}}, {"id": 168351, "name": "Khanasir", "country": "SY", "coord": {"lon": 37.499298, "lat": 35.781101}}, {"id": 1513639, "name": "Khanavat", "country": "UZ", "coord": {"lon": 71.216667, "lat": 40.599998}}, {"id": 2161529, "name": "Khancoban", "country": "AU", "coord": {"lon": 148.083328, "lat": -36.200001}}, {"id": 1503796, "name": "Khandagayty", "country": "RU", "coord": {"lon": 92.050003, "lat": 50.73333}}, {"id": 1283217, "name": "Khandbari", "country": "NP", "coord": {"lon": 87.203903, "lat": 27.374689}}, {"id": 1267044, "name": "Khandela", "country": "IN", "coord": {"lon": 75.5, "lat": 27.6}}, {"id": 1137148, "name": "Khandud", "country": "AF", "coord": {"lon": 72.318001, "lat": 36.951271}}, {"id": 1267031, "name": "Khandwa", "country": "IN", "coord": {"lon": 76.333328, "lat": 21.83333}}, {"id": 2022773, "name": "Khandyga", "country": "RU", "coord": {"lon": 135.600006, "lat": 62.666672}}, {"id": 1174220, "name": "Khanewal", "country": "PK", "coord": {"lon": 71.933327, "lat": 30.299999}}, {"id": 1174217, "name": "Khangah Dogran", "country": "PK", "coord": {"lon": 73.623062, "lat": 31.831671}}, {"id": 1174211, "name": "Khangarh", "country": "PK", "coord": {"lon": 71.161842, "lat": 29.917299}}, {"id": 7800933, "name": "Khangsar", "country": "NP", "coord": {"lon": 83.925346, "lat": 28.660391}}, {"id": 127878, "name": "Khani Yek", "country": "IR", "coord": {"lon": 51.686668, "lat": 29.89167}}, {"id": 550726, "name": "Khanino", "country": "RU", "coord": {"lon": 36.622921, "lat": 54.210999}}, {"id": 260093, "name": "Khaniotis", "country": "GR", "coord": {"lon": 23.580009, "lat": 39.999081}}, {"id": 749748, "name": "Khanjarah", "country": "TR", "coord": {"lon": 33.615299, "lat": 40.599949}}, {"id": 865321, "name": "Khankala", "country": "RU", "coord": {"lon": 45.755638, "lat": 43.30212}}, {"id": 1267016, "name": "Khanna", "country": "IN", "coord": {"lon": 76.223061, "lat": 30.704439}}, {"id": 1174167, "name": "Khanpur", "country": "PK", "coord": {"lon": 70.6567, "lat": 28.64534}}, {"id": 1174171, "name": "Khanpur", "country": "PK", "coord": {"lon": 69.413727, "lat": 27.84358}}, {"id": 1267014, "name": "Khanpur", "country": "IN", "coord": {"lon": 78.050003, "lat": 28.533331}}, {"id": 1267015, "name": "Khanpur", "country": "IN", "coord": {"lon": 76.396011, "lat": 24.73241}}, {"id": 550708, "name": "Khanskaya", "country": "RU", "coord": {"lon": 39.961601, "lat": 44.677021}}, {"id": 1523512, "name": "Khantaghy", "country": "KZ", "coord": {"lon": 68.577499, "lat": 43.52639}}, {"id": 1522714, "name": "Khantau", "country": "KZ", "coord": {"lon": 73.800003, "lat": 44.230831}}, {"id": 1503772, "name": "Khanty-Mansiysk", "country": "RU", "coord": {"lon": 69.001938, "lat": 61.004169}}, {"id": 1503773, "name": "Khanty-Mansiyskiy Avtonomnyy Okrug", "country": "RU", "coord": {"lon": 72, "lat": 62}}, {"id": 1152953, "name": "Khanu Woralaksaburi", "country": "TH", "coord": {"lon": 99.86058, "lat": 16.061701}}, {"id": 1610018, "name": "Khao Chaison", "country": "TH", "coord": {"lon": 100.13372, "lat": 7.46125}}, {"id": 1618473, "name": "Khao Chakan", "country": "TH", "coord": {"lon": 102.088249, "lat": 13.6535}}, {"id": 7510932, "name": "Khao Chamao", "country": "TH", "coord": {"lon": 101.685112, "lat": 12.97586}}, {"id": 7510943, "name": "Khao Khitchakut", "country": "TH", "coord": {"lon": 102.115143, "lat": 12.80481}}, {"id": 7511025, "name": "Khao Kho", "country": "TH", "coord": {"lon": 101.022079, "lat": 16.657909}}, {"id": 1152933, "name": "Khao Phanom", "country": "TH", "coord": {"lon": 99.051239, "lat": 8.26549}}, {"id": 1609997, "name": "Khao Saming", "country": "TH", "coord": {"lon": 102.435501, "lat": 12.35353}}, {"id": 1609990, "name": "Khao Wong", "country": "TH", "coord": {"lon": 104.090202, "lat": 16.700081}}, {"id": 1152919, "name": "Khao Yoi", "country": "TH", "coord": {"lon": 99.82428, "lat": 13.24025}}, {"id": 1267006, "name": "Khapa", "country": "IN", "coord": {"lon": 78.966667, "lat": 21.433331}}, {"id": 1174094, "name": "Khapalu", "country": "PK", "coord": {"lon": 76.34404, "lat": 35.152679}}, {"id": 550671, "name": "Kharabali", "country": "RU", "coord": {"lon": 47.256779, "lat": 47.419579}}, {"id": 7667751, "name": "Kharagauli", "country": "GE", "coord": {"lon": 43.197731, "lat": 42.02137}}, {"id": 1266976, "name": "Kharagpur", "country": "IN", "coord": {"lon": 87.333328, "lat": 22.33333}}, {"id": 1266975, "name": "Kharagpur", "country": "IN", "coord": {"lon": 86.550003, "lat": 25.116671}}, {"id": 1266966, "name": "Kharakvasla", "country": "IN", "coord": {"lon": 73.76667, "lat": 18.433331}}, {"id": 1174062, "name": "Kharan", "country": "PK", "coord": {"lon": 65.416672, "lat": 28.58333}}, {"id": 1266960, "name": "Kharar", "country": "IN", "coord": {"lon": 76.647781, "lat": 30.74444}}, {"id": 1266962, "name": "Kharar", "country": "IN", "coord": {"lon": 87.683327, "lat": 22.700001}}, {"id": 283246, "name": "Kharas", "country": "PS", "coord": {"lon": 35.04174, "lat": 31.614799}}, {"id": 627403, "name": "Kharava", "country": "BY", "coord": {"lon": 24.583332, "lat": 52.633331}}, {"id": 283245, "name": "Kharbatha Bani Harith", "country": "PS", "coord": {"lon": 35.071941, "lat": 31.94508}}, {"id": 283157, "name": "Kharbatha al Misbah", "country": "PS", "coord": {"lon": 35.07185, "lat": 31.88546}}, {"id": 2022650, "name": "Kharch\u00ebv", "country": "RU", "coord": {"lon": 101.866112, "lat": 54.228889}}, {"id": 1266945, "name": "Khardah", "country": "IN", "coord": {"lon": 88.378059, "lat": 22.718611}}, {"id": 820990, "name": "Khardikovskoye Dvory", "country": "RU", "coord": {"lon": 36.101669, "lat": 53.00806}}, {"id": 1266937, "name": "Kharela", "country": "IN", "coord": {"lon": 79.816673, "lat": 25.549999}}, {"id": 1266931, "name": "Khargapur", "country": "IN", "coord": {"lon": 79.143997, "lat": 24.823}}, {"id": 1266928, "name": "Khargon", "country": "IN", "coord": {"lon": 75.599998, "lat": 21.816669}}, {"id": 1266926, "name": "Khargupur", "country": "IN", "coord": {"lon": 81.98333, "lat": 27.383329}}, {"id": 1266924, "name": "Kharhial", "country": "IN", "coord": {"lon": 82.76667, "lat": 20.283331}}, {"id": 1174042, "name": "Kharian", "country": "PK", "coord": {"lon": 73.863586, "lat": 32.81493}}, {"id": 816596, "name": "Kharino", "country": "RU", "coord": {"lon": 37.666389, "lat": 54.836391}}, {"id": 550587, "name": "Kharitonovka", "country": "RU", "coord": {"lon": 50.233334, "lat": 51.666668}}, {"id": 550574, "name": "Kharitonovo", "country": "RU", "coord": {"lon": 47.497791, "lat": 61.400921}}, {"id": 248627, "name": "Kharja", "country": "JO", "coord": {"lon": 35.886971, "lat": 32.65873}}, {"id": 1266891, "name": "Kharkhauda", "country": "IN", "coord": {"lon": 76.849998, "lat": 28.883329}}, {"id": 1266892, "name": "Kharkhauda", "country": "IN", "coord": {"lon": 77.75, "lat": 28.83333}}, {"id": 7648891, "name": "Kharkhorin", "country": "MN", "coord": {"lon": 102.813492, "lat": 47.192451}}, {"id": 706483, "name": "Kharkiv", "country": "UA", "coord": {"lon": 36.25, "lat": 50}}, {"id": 706482, "name": "Kharkivs\u2019ka Oblast\u2019", "country": "UA", "coord": {"lon": 36.5, "lat": 49.5}}, {"id": 550516, "name": "Kharlu", "country": "RU", "coord": {"lon": 30.950001, "lat": 61.799999}}, {"id": 730442, "name": "Kharmanli", "country": "BG", "coord": {"lon": 25.9, "lat": 41.933331}}, {"id": 1266882, "name": "Kharod", "country": "IN", "coord": {"lon": 82.566673, "lat": 21.75}}, {"id": 735794, "name": "Kharopon", "country": "GR", "coord": {"lon": 23.383329, "lat": 41.26667}}, {"id": 1136938, "name": "Kharoti", "country": "AF", "coord": {"lon": 69.032967, "lat": 33.54871}}, {"id": 550512, "name": "Kharovsk", "country": "RU", "coord": {"lon": 40.191212, "lat": 59.964249}}, {"id": 1503726, "name": "Kharp", "country": "RU", "coord": {"lon": 65.80806, "lat": 66.801392}}, {"id": 1266873, "name": "Kharsawan", "country": "IN", "coord": {"lon": 85.833328, "lat": 22.799999}}, {"id": 1266872, "name": "Kharsia", "country": "IN", "coord": {"lon": 83.116669, "lat": 21.966669}}, {"id": 379252, "name": "Khartoum", "country": "SD", "coord": {"lon": 32.53241, "lat": 15.55177}}, {"id": 379251, "name": "Khartoum North", "country": "SD", "coord": {"lon": 32.625832, "lat": 15.62889}}, {"id": 379253, "name": "Khartoum State", "country": "SD", "coord": {"lon": 33, "lat": 15.8}}, {"id": 823556, "name": "Khartsiz Pervyy", "country": "RU", "coord": {"lon": 39.638889, "lat": 43.794167}}, {"id": 706466, "name": "Khartsyzsk", "country": "UA", "coord": {"lon": 38.147282, "lat": 48.042431}}, {"id": 1266862, "name": "Kharupatia", "country": "IN", "coord": {"lon": 92.133331, "lat": 26.51667}}, {"id": 841015, "name": "Khar\u2019kovskiy", "country": "RU", "coord": {"lon": 41.898888, "lat": 44.525833}}, {"id": 287614, "name": "Khasab", "country": "OM", "coord": {"lon": 56.247742, "lat": 26.17993}}, {"id": 550478, "name": "Khasavyurt", "country": "RU", "coord": {"lon": 46.588058, "lat": 43.25}}, {"id": 550476, "name": "Khasavyurtovskiy Rayon", "country": "RU", "coord": {"lon": 46.666672, "lat": 43.333328}}, {"id": 1160571, "name": "Khash", "country": "IR", "coord": {"lon": 61.21582, "lat": 28.221069}}, {"id": 1136863, "name": "Khash", "country": "AF", "coord": {"lon": 62.79055, "lat": 31.52919}}, {"id": 616537, "name": "Khashtarrak", "country": "AM", "coord": {"lon": 45.182098, "lat": 40.93668}}, {"id": 613988, "name": "Khashuri", "country": "GE", "coord": {"lon": 43.599941, "lat": 41.994141}}, {"id": 613987, "name": "Khashuris Raioni", "country": "GE", "coord": {"lon": 43.633331, "lat": 42}}, {"id": 730435, "name": "Khaskovo", "country": "BG", "coord": {"lon": 25.569441, "lat": 41.940281}}, {"id": 7632860, "name": "Khas\u0101r\u0101t", "country": "SY", "coord": {"lon": 40.165939, "lat": 35.307098}}, {"id": 2022572, "name": "Khatanga", "country": "RU", "coord": {"lon": 102.5, "lat": 71.966667}}, {"id": 2022564, "name": "Khatassy", "country": "RU", "coord": {"lon": 129.638336, "lat": 61.90361}}, {"id": 1266849, "name": "Khatauli", "country": "IN", "coord": {"lon": 77.716667, "lat": 29.283331}}, {"id": 1266847, "name": "Khategaon", "country": "IN", "coord": {"lon": 76.916672, "lat": 22.6}}, {"id": 1266843, "name": "Khatima", "country": "IN", "coord": {"lon": 79.966667, "lat": 28.91667}}, {"id": 1266838, "name": "Khatra", "country": "IN", "coord": {"lon": 86.849998, "lat": 22.98333}}, {"id": 7966485, "name": "Khatrigaun", "country": "NP", "coord": {"lon": 84.371452, "lat": 28.199881}}, {"id": 8019679, "name": "Khatsyezhyna", "country": "BY", "coord": {"lon": 27.3069, "lat": 53.909401}}, {"id": 550452, "name": "Khatukay", "country": "RU", "coord": {"lon": 39.666389, "lat": 45.188889}}, {"id": 2021026, "name": "Khaty", "country": "RU", "coord": {"lon": 116.67028, "lat": 63.625561}}, {"id": 1266829, "name": "Khaur", "country": "IN", "coord": {"lon": 74.800003, "lat": 32.599998}}, {"id": 403220, "name": "Khavas Kuh", "country": "IR", "coord": {"lon": 53.674438, "lat": 32.30611}}, {"id": 1266821, "name": "Khawhai", "country": "IN", "coord": {"lon": 93.116669, "lat": 23.366671}}, {"id": 291696, "name": "Khawr Fakkan", "country": "AE", "coord": {"lon": 56.341991, "lat": 25.33132}}, {"id": 73786, "name": "Khawr Maksar", "country": "YE", "coord": {"lon": 45.033371, "lat": 12.81227}}, {"id": 73788, "name": "Khawrah", "country": "YE", "coord": {"lon": 46.15435, "lat": 14.43201}}, {"id": 1222635, "name": "Khaydarkan", "country": "KG", "coord": {"lon": 71.342941, "lat": 39.944309}}, {"id": 1437517, "name": "Khayr Kot", "country": "AF", "coord": {"lon": 68.449722, "lat": 32.85355}}, {"id": 730425, "name": "Khayredin", "country": "BG", "coord": {"lon": 23.66667, "lat": 43.599998}}, {"id": 828062, "name": "Khazar", "country": "RU", "coord": {"lon": 48.333248, "lat": 41.997398}}, {"id": 489999, "name": "Khebda", "country": "RU", "coord": {"lon": 46.55172, "lat": 42.444229}}, {"id": 1266813, "name": "Khed", "country": "IN", "coord": {"lon": 73.833328, "lat": 18.33333}}, {"id": 1266814, "name": "Khed", "country": "IN", "coord": {"lon": 73.383331, "lat": 17.716669}}, {"id": 1266806, "name": "Khed Brahma", "country": "IN", "coord": {"lon": 73.050003, "lat": 24.033331}}, {"id": 1266809, "name": "Kheda", "country": "IN", "coord": {"lon": 72.683327, "lat": 22.75}}, {"id": 1266794, "name": "Khekra", "country": "IN", "coord": {"lon": 77.283333, "lat": 28.866671}}, {"id": 550366, "name": "Khelyulya", "country": "RU", "coord": {"lon": 30.683331, "lat": 61.73333}}, {"id": 1266787, "name": "Khem Karan", "country": "IN", "coord": {"lon": 74.566673, "lat": 31.14278}}, {"id": 1609970, "name": "Khemarat", "country": "TH", "coord": {"lon": 105.218361, "lat": 16.042521}}, {"id": 2491911, "name": "Khemis Miliana", "country": "DZ", "coord": {"lon": 2.22015, "lat": 36.26104}}, {"id": 2491913, "name": "Khemis el Khechna", "country": "DZ", "coord": {"lon": 3.3308, "lat": 36.649971}}, {"id": 2544363, "name": "Khemisset", "country": "MA", "coord": {"lon": -6.25, "lat": 33.666672}}, {"id": 6546130, "name": "Khemisset", "country": "MA", "coord": {"lon": -6.07048, "lat": 33.82449}}, {"id": 2558470, "name": "Khemisset", "country": "MA", "coord": {"lon": -6.06627, "lat": 33.824039}}, {"id": 933644, "name": "Khemsbok", "country": "BW", "coord": {"lon": 21.633329, "lat": -21.683331}}, {"id": 2491889, "name": "Khenchela", "country": "DZ", "coord": {"lon": 7.14333, "lat": 35.435829}}, {"id": 2544331, "name": "Khenifra", "country": "MA", "coord": {"lon": -5.66667, "lat": 32.933331}}, {"id": 6546573, "name": "Khenifra", "country": "MA", "coord": {"lon": -5.66629, "lat": 32.932072}}, {"id": 2544333, "name": "Khenifra", "country": "MA", "coord": {"lon": -5.6686, "lat": 32.939098}}, {"id": 6419694, "name": "Khenina Sopka", "country": "RU", "coord": {"lon": 131.968338, "lat": 43.768612}}, {"id": 1266776, "name": "Kheradi", "country": "IN", "coord": {"lon": 73.300003, "lat": 23.683332}}, {"id": 1266774, "name": "Kheralu", "country": "IN", "coord": {"lon": 72.616669, "lat": 23.883329}}, {"id": 1266762, "name": "Kheri", "country": "IN", "coord": {"lon": 80.800003, "lat": 27.9}}, {"id": 1436767, "name": "Kheri Sampla", "country": "IN", "coord": {"lon": 76.775284, "lat": 28.777781}}, {"id": 2491776, "name": "Kherrata", "country": "DZ", "coord": {"lon": 5.27802, "lat": 36.493488}}, {"id": 706448, "name": "Kherson", "country": "UA", "coord": {"lon": 32.617802, "lat": 46.655811}}, {"id": 706442, "name": "Khersons\u2019ka Oblast\u2019", "country": "UA", "coord": {"lon": 34, "lat": 46.5}}, {"id": 1266746, "name": "Khetia", "country": "IN", "coord": {"lon": 74.583328, "lat": 21.66667}}, {"id": 1266744, "name": "Khetri", "country": "IN", "coord": {"lon": 75.800003, "lat": 27.98333}}, {"id": 1266741, "name": "Khetw\u0101di", "country": "IN", "coord": {"lon": 72.822372, "lat": 18.959909}}, {"id": 1173920, "name": "Khewra", "country": "PK", "coord": {"lon": 73.010582, "lat": 32.64793}}, {"id": 1152899, "name": "Khian Sa", "country": "TH", "coord": {"lon": 99.198563, "lat": 8.84295}}, {"id": 1266731, "name": "Khilchipur", "country": "IN", "coord": {"lon": 76.566673, "lat": 24.033331}}, {"id": 259993, "name": "Khiliomodhion", "country": "GR", "coord": {"lon": 22.866671, "lat": 37.816669}}, {"id": 2022463, "name": "Khilok", "country": "RU", "coord": {"lon": 110.467598, "lat": 51.367401}}, {"id": 550284, "name": "Khimik", "country": "RU", "coord": {"lon": 52.694199, "lat": 59.025162}}, {"id": 550280, "name": "Khimki", "country": "RU", "coord": {"lon": 37.4375, "lat": 55.901669}}, {"id": 627490, "name": "Khimy", "country": "BY", "coord": {"lon": 30.266666, "lat": 54.366669}}, {"id": 2022454, "name": "Khingansk", "country": "RU", "coord": {"lon": 131.183334, "lat": 49.116669}}, {"id": 6941675, "name": "Khingar", "country": "NP", "coord": {"lon": 83.829529, "lat": 28.821741}}, {"id": 1136737, "name": "Khinj", "country": "AF", "coord": {"lon": 69.734818, "lat": 35.428982}}, {"id": 1136723, "name": "Khinjan", "country": "AF", "coord": {"lon": 68.900932, "lat": 35.589081}}, {"id": 1173889, "name": "Khipro", "country": "PK", "coord": {"lon": 69.37719, "lat": 25.82847}}, {"id": 283189, "name": "Khirbat Abu Falah", "country": "PS", "coord": {"lon": 35.30135, "lat": 32.016781}}, {"id": 585915, "name": "Khirdalan", "country": "AZ", "coord": {"lon": 49.75502, "lat": 40.448078}}, {"id": 1152876, "name": "Khiri Mat", "country": "TH", "coord": {"lon": 99.800003, "lat": 16.83333}}, {"id": 1152873, "name": "Khiri Ratthanikhom", "country": "TH", "coord": {"lon": 98.952858, "lat": 9.0302}}, {"id": 550258, "name": "Khirino", "country": "RU", "coord": {"lon": 39.556389, "lat": 54.665001}}, {"id": 1266710, "name": "Khirkian", "country": "IN", "coord": {"lon": 76.849998, "lat": 22.16667}}, {"id": 730419, "name": "Khisarya", "country": "BG", "coord": {"lon": 24.700001, "lat": 42.5}}, {"id": 396460, "name": "Khishayb\u012b al \u1e28a\u1e11ar", "country": "SA", "coord": {"lon": 43.283531, "lat": 25.762119}}, {"id": 550234, "name": "Khislavichi", "country": "RU", "coord": {"lon": 32.158169, "lat": 54.187141}}, {"id": 550201, "name": "Khiv", "country": "RU", "coord": {"lon": 47.93063, "lat": 41.75428}}, {"id": 1513604, "name": "Khiwa", "country": "UZ", "coord": {"lon": 60.363892, "lat": 41.37833}}, {"id": 550189, "name": "Khizhozero", "country": "RU", "coord": {"lon": 32.366669, "lat": 64.383331}}, {"id": 828306, "name": "Khizi Rayon", "country": "AZ", "coord": {"lon": 49.166672, "lat": 40.75}}, {"id": 550158, "name": "Khlebnikovo", "country": "RU", "coord": {"lon": 37.509445, "lat": 55.968334}}, {"id": 550154, "name": "Khlebnikovskiy", "country": "RU", "coord": {"lon": 37.516666, "lat": 55.966667}}, {"id": 823684, "name": "Khleborob", "country": "RU", "coord": {"lon": 39.884445, "lat": 43.56139}}, {"id": 550102, "name": "Khlevnoye", "country": "RU", "coord": {"lon": 39.093159, "lat": 52.195122}}, {"id": 1609907, "name": "Khlong Hat", "country": "TH", "coord": {"lon": 102.298233, "lat": 13.45177}}, {"id": 1618326, "name": "Khlong Hoi Khong", "country": "TH", "coord": {"lon": 100.388847, "lat": 6.89865}}, {"id": 1152854, "name": "Khlong Khlung", "country": "TH", "coord": {"lon": 99.719063, "lat": 16.21633}}, {"id": 1618294, "name": "Khlong Khuean", "country": "TH", "coord": {"lon": 101.163528, "lat": 13.79131}}, {"id": 7510925, "name": "Khlong Khuean", "country": "TH", "coord": {"lon": 101.163528, "lat": 13.79131}}, {"id": 1152850, "name": "Khlong Lan", "country": "TH", "coord": {"lon": 99.319969, "lat": 16.20331}}, {"id": 1609899, "name": "Khlong Luang", "country": "TH", "coord": {"lon": 100.645782, "lat": 14.06467}}, {"id": 7026826, "name": "Khlong Sam Wa", "country": "TH", "coord": {"lon": 100.735237, "lat": 13.83616}}, {"id": 1609879, "name": "Khlong San", "country": "TH", "coord": {"lon": 100.509033, "lat": 13.73086}}, {"id": 1152843, "name": "Khlong Thom", "country": "TH", "coord": {"lon": 99.144569, "lat": 7.9375}}, {"id": 6908641, "name": "Khlong Toei", "country": "TH", "coord": {"lon": 100.571587, "lat": 13.71668}}, {"id": 1609863, "name": "Khlong Yai", "country": "TH", "coord": {"lon": 102.885674, "lat": 11.77644}}, {"id": 550099, "name": "Khlopki", "country": "RU", "coord": {"lon": 38.633888, "lat": 55.366943}}, {"id": 146490, "name": "Khlorakas", "country": "CY", "coord": {"lon": 32.408329, "lat": 34.804169}}, {"id": 1609858, "name": "Khlung", "country": "TH", "coord": {"lon": 102.22142, "lat": 12.45467}}, {"id": 550082, "name": "Khlyabishino", "country": "RU", "coord": {"lon": 44.299999, "lat": 58.116669}}, {"id": 550058, "name": "Khlyupino", "country": "RU", "coord": {"lon": 36.961109, "lat": 55.673611}}, {"id": 6609032, "name": "Khmelino", "country": "RU", "coord": {"lon": 42.358612, "lat": 56.771389}}, {"id": 706369, "name": "Khmelnytskyy", "country": "UA", "coord": {"lon": 26.996531, "lat": 49.421612}}, {"id": 627470, "name": "Khmel\u2019nitsa", "country": "BY", "coord": {"lon": 25.133333, "lat": 52.983334}}, {"id": 706370, "name": "Khmel\u2019nyts\u2019ka Oblast\u2019", "country": "UA", "coord": {"lon": 27, "lat": 49.5}}, {"id": 706372, "name": "Khmel\u2019nyts\u2019ke", "country": "UA", "coord": {"lon": 33.650002, "lat": 44.549999}}, {"id": 706380, "name": "Khmilnyk", "country": "UA", "coord": {"lon": 27.957541, "lat": 49.559792}}, {"id": 706075, "name": "Khmil\u2019", "country": "UA", "coord": {"lon": 27.35268, "lat": 51.478821}}, {"id": 174849, "name": "Khndzoresk", "country": "AM", "coord": {"lon": 46.432838, "lat": 39.512241}}, {"id": 1609753, "name": "Kho Wang", "country": "TH", "coord": {"lon": 104.35231, "lat": 15.36998}}, {"id": 613918, "name": "Khobi", "country": "GE", "coord": {"lon": 41.898708, "lat": 42.315578}}, {"id": 706352, "name": "Khodorov", "country": "UA", "coord": {"lon": 24.313601, "lat": 49.406631}}, {"id": 549904, "name": "Khoduzhets", "country": "RU", "coord": {"lon": 34.483334, "lat": 52.833332}}, {"id": 549896, "name": "Khodynino", "country": "RU", "coord": {"lon": 39.549999, "lat": 54.733334}}, {"id": 549891, "name": "Khodz", "country": "RU", "coord": {"lon": 40.714199, "lat": 44.510201}}, {"id": 1221344, "name": "Khodzha-Maston", "country": "TJ", "coord": {"lon": 68.627022, "lat": 38.744572}}, {"id": 585940, "name": "Khodzhi-Gasan", "country": "AZ", "coord": {"lon": 49.772091, "lat": 40.413479}}, {"id": 1609839, "name": "Khok Charoen", "country": "TH", "coord": {"lon": 100.818703, "lat": 15.37927}}, {"id": 1609820, "name": "Khok Pho", "country": "TH", "coord": {"lon": 101.096199, "lat": 6.73064}}, {"id": 7510951, "name": "Khok Pho Chai", "country": "TH", "coord": {"lon": 102.399002, "lat": 16.08375}}, {"id": 1609812, "name": "Khok Samrong", "country": "TH", "coord": {"lon": 100.722328, "lat": 15.0665}}, {"id": 1609808, "name": "Khok Si Suphan", "country": "TH", "coord": {"lon": 104.275597, "lat": 17.045071}}, {"id": 7511007, "name": "Khok Si Suphan", "country": "TH", "coord": {"lon": 104.273109, "lat": 17.043579}}, {"id": 1617816, "name": "Khok Sung", "country": "TH", "coord": {"lon": 102.622543, "lat": 13.83824}}, {"id": 549882, "name": "Khokhlevo", "country": "RU", "coord": {"lon": 39.133331, "lat": 55.400002}}, {"id": 549881, "name": "Khokhloma", "country": "RU", "coord": {"lon": 43.899445, "lat": 56.971668}}, {"id": 549863, "name": "Khokhlovka", "country": "RU", "coord": {"lon": 37.715, "lat": 55.727501}}, {"id": 549854, "name": "Khokhlovo", "country": "RU", "coord": {"lon": 37.39978, "lat": 59.149231}}, {"id": 549860, "name": "Khokhlovo", "country": "RU", "coord": {"lon": 31.84111, "lat": 54.698334}}, {"id": 828447, "name": "Khokholevka", "country": "RU", "coord": {"lon": 45.085278, "lat": 56.133888}}, {"id": 549844, "name": "Khokhryaki", "country": "RU", "coord": {"lon": 53.322102, "lat": 56.915611}}, {"id": 627445, "name": "Kholbnya", "country": "BY", "coord": {"lon": 31.1, "lat": 54.599998}}, {"id": 2022394, "name": "Kholbon", "country": "RU", "coord": {"lon": 116.25, "lat": 51.883331}}, {"id": 549786, "name": "Kholm", "country": "RU", "coord": {"lon": 32.849998, "lat": 59.26667}}, {"id": 549797, "name": "Kholm", "country": "RU", "coord": {"lon": 31.177799, "lat": 57.145432}}, {"id": 549718, "name": "Kholm-Zhirkovskiy", "country": "RU", "coord": {"lon": 33.473061, "lat": 55.51889}}, {"id": 549748, "name": "Kholmogory", "country": "RU", "coord": {"lon": 41.655998, "lat": 64.2229}}, {"id": 2124615, "name": "Kholmsk", "country": "RU", "coord": {"lon": 142.056946, "lat": 47.051109}}, {"id": 549741, "name": "Kholmskiy", "country": "RU", "coord": {"lon": 38.384998, "lat": 44.846939}}, {"id": 549729, "name": "Kholmy", "country": "RU", "coord": {"lon": 36.976665, "lat": 55.979168}}, {"id": 706335, "name": "Kholmy", "country": "UA", "coord": {"lon": 32.600632, "lat": 51.87096}}, {"id": 549719, "name": "Kholmyashchevo", "country": "RU", "coord": {"lon": 42.466667, "lat": 59.900002}}, {"id": 706333, "name": "Kholodnaya Balka", "country": "UA", "coord": {"lon": 30.583332, "lat": 46.599998}}, {"id": 2124611, "name": "Kholodnyy", "country": "RU", "coord": {"lon": 147.949997, "lat": 62.716671}}, {"id": 839725, "name": "Kholodnyy Rodnik", "country": "RU", "coord": {"lon": 39.150002, "lat": 44.120556}}, {"id": 549692, "name": "Kholodnyy Rodnik", "country": "RU", "coord": {"lon": 38.470833, "lat": 44.56778}}, {"id": 2022369, "name": "Kholtoson", "country": "RU", "coord": {"lon": 103.3097, "lat": 50.2981}}, {"id": 549645, "name": "Kholuy", "country": "RU", "coord": {"lon": 41.869167, "lat": 56.575001}}, {"id": 2022365, "name": "Kholzanovo", "country": "RU", "coord": {"lon": 107.666672, "lat": 52.23333}}, {"id": 3352137, "name": "Khomas", "country": "NA", "coord": {"lon": 17.08333, "lat": -22.75}}, {"id": 2249901, "name": "Khombole", "country": "SN", "coord": {"lon": -16.700001, "lat": 14.76667}}, {"id": 127403, "name": "Khomeyn", "country": "IR", "coord": {"lon": 50.078899, "lat": 33.642262}}, {"id": 418710, "name": "Khomeyni Shahr", "country": "IR", "coord": {"lon": 51.52113, "lat": 32.70018}}, {"id": 627414, "name": "Khomichi", "country": "BY", "coord": {"lon": 29.483334, "lat": 53.299999}}, {"id": 549617, "name": "Khomutovka", "country": "RU", "coord": {"lon": 34.561901, "lat": 51.9207}}, {"id": 2124604, "name": "Khomutovo", "country": "RU", "coord": {"lon": 142.744431, "lat": 46.885979}}, {"id": 2022342, "name": "Khomutovo", "country": "RU", "coord": {"lon": 104.402496, "lat": 52.465832}}, {"id": 549610, "name": "Khomutovo", "country": "RU", "coord": {"lon": 37.438801, "lat": 52.853859}}, {"id": 549608, "name": "Khomutovo", "country": "RU", "coord": {"lon": 37.966671, "lat": 55.933331}}, {"id": 549584, "name": "Khomyakovo", "country": "RU", "coord": {"lon": 37.605831, "lat": 54.294441}}, {"id": 1609795, "name": "Khon Buri", "country": "TH", "coord": {"lon": 102.245911, "lat": 14.52541}}, {"id": 1609776, "name": "Khon Kaen", "country": "TH", "coord": {"lon": 102.833, "lat": 16.446711}}, {"id": 1609768, "name": "Khon San", "country": "TH", "coord": {"lon": 101.919441, "lat": 16.61286}}, {"id": 1609765, "name": "Khon Sawan", "country": "TH", "coord": {"lon": 102.281029, "lat": 15.93192}}, {"id": 1655192, "name": "Khong", "country": "LA", "coord": {"lon": 105.849998, "lat": 14.11667}}, {"id": 1609793, "name": "Khong", "country": "TH", "coord": {"lon": 102.328621, "lat": 15.44392}}, {"id": 7510975, "name": "Khong Chai", "country": "TH", "coord": {"lon": 103.458282, "lat": 16.26025}}, {"id": 1609784, "name": "Khong Chiam", "country": "TH", "coord": {"lon": 105.495064, "lat": 15.31856}}, {"id": 613902, "name": "Khoni", "country": "GE", "coord": {"lon": 42.420609, "lat": 42.322601}}, {"id": 2022334, "name": "Khonkhino", "country": "RU", "coord": {"lon": 110.23333, "lat": 54.216671}}, {"id": 1513642, "name": "Khonobod", "country": "UZ", "coord": {"lon": 69.285004, "lat": 41.223888}}, {"id": 1266668, "name": "Khonsa", "country": "IN", "coord": {"lon": 95.566673, "lat": 27.01667}}, {"id": 5566285, "name": "Khoonkhwuttunne (historical)", "country": "US", "coord": {"lon": -124.20314, "lat": 41.948448}}, {"id": 1266666, "name": "Khopoli", "country": "IN", "coord": {"lon": 73.333328, "lat": 18.783331}}, {"id": 2022317, "name": "Khor", "country": "RU", "coord": {"lon": 134.946396, "lat": 47.886108}}, {"id": 259919, "name": "Khora", "country": "GR", "coord": {"lon": 21.716669, "lat": 37.049999}}, {"id": 7644927, "name": "Khordha", "country": "IN", "coord": {"lon": 85.599998, "lat": 20.200001}}, {"id": 2022304, "name": "Khorinsk", "country": "RU", "coord": {"lon": 109.772598, "lat": 52.165699}}, {"id": 735769, "name": "Khoristi", "country": "GR", "coord": {"lon": 24.216669, "lat": 41.133331}}, {"id": 3356213, "name": "Khorixas", "country": "NA", "coord": {"lon": 14.96667, "lat": -20.366671}}, {"id": 549531, "name": "Khorlovo", "country": "RU", "coord": {"lon": 38.813057, "lat": 55.335278}}, {"id": 2022289, "name": "Khorol", "country": "RU", "coord": {"lon": 132.072495, "lat": 44.426109}}, {"id": 706289, "name": "Khorol", "country": "UA", "coord": {"lon": 33.278332, "lat": 49.783669}}, {"id": 616484, "name": "Khoronk", "country": "AM", "coord": {"lon": 44.245411, "lat": 40.135071}}, {"id": 1503557, "name": "Khorosheborka", "country": "RU", "coord": {"lon": 85.427299, "lat": 55.5201}}, {"id": 706281, "name": "Khorosheve", "country": "UA", "coord": {"lon": 36.219479, "lat": 49.852791}}, {"id": 866704, "name": "Khoroshovskiy", "country": "RU", "coord": {"lon": 43.13361, "lat": 44.003613}}, {"id": 6610063, "name": "Khorosh\u00ebvo", "country": "RU", "coord": {"lon": 42.680832, "lat": 56.135834}}, {"id": 706271, "name": "Khorostkiv", "country": "UA", "coord": {"lon": 25.92165, "lat": 49.21114}}, {"id": 41210, "name": "Khorram Darreh", "country": "IR", "coord": {"lon": 49.195999, "lat": 36.213001}}, {"id": 127349, "name": "Khorramabad", "country": "IR", "coord": {"lon": 48.355831, "lat": 33.487782}}, {"id": 127319, "name": "Khorramshahr", "country": "IR", "coord": {"lon": 48.166401, "lat": 30.439699}}, {"id": 403714, "name": "Khorram\u0101b\u0101d", "country": "IR", "coord": {"lon": 50.537701, "lat": 34.4161}}, {"id": 1221328, "name": "Khorugh", "country": "TJ", "coord": {"lon": 71.55304, "lat": 37.489738}}, {"id": 2419582, "name": "Khor\u00e8ra", "country": "GN", "coord": {"lon": -14.3, "lat": 10.96667}}, {"id": 1135980, "name": "Khoshamand", "country": "AF", "coord": {"lon": 68.238007, "lat": 32.685669}}, {"id": 1135960, "name": "Khoshi", "country": "AF", "coord": {"lon": 69.211937, "lat": 33.99889}}, {"id": 1136469, "name": "Khost", "country": "AF", "coord": {"lon": 69.92041, "lat": 33.339512}}, {"id": 549424, "name": "Khosta", "country": "RU", "coord": {"lon": 39.868889, "lat": 43.514721}}, {"id": 549414, "name": "Khoten\u2019", "country": "RU", "coord": {"lon": 35.449722, "lat": 54.143333}}, {"id": 549409, "name": "Khotetovo", "country": "RU", "coord": {"lon": 36.298061, "lat": 52.77861}}, {"id": 549373, "name": "Khotkovo", "country": "RU", "coord": {"lon": 37.995441, "lat": 56.256989}}, {"id": 6460826, "name": "Khotnica", "country": "BG", "coord": {"lon": 25.533331, "lat": 43.150002}}, {"id": 730407, "name": "Khotnitsa", "country": "BG", "coord": {"lon": 25.533331, "lat": 43.150002}}, {"id": 706232, "name": "Khotov", "country": "UA", "coord": {"lon": 30.468361, "lat": 50.330681}}, {"id": 549359, "name": "Khotovo", "country": "RU", "coord": {"lon": 38.016666, "lat": 55.900002}}, {"id": 549343, "name": "Khotyazhi", "country": "RU", "coord": {"lon": 36.570557, "lat": 55.644722}}, {"id": 549342, "name": "Khotylevo", "country": "RU", "coord": {"lon": 34.11916, "lat": 53.339149}}, {"id": 706244, "name": "Khotyn", "country": "UA", "coord": {"lon": 26.5, "lat": 48.483334}}, {"id": 549341, "name": "Khotynets", "country": "RU", "coord": {"lon": 35.396599, "lat": 53.128601}}, {"id": 2544246, "name": "Khouribga", "country": "MA", "coord": {"lon": -6.6, "lat": 32.933331}}, {"id": 6546695, "name": "Khouribga", "country": "MA", "coord": {"lon": -6.91356, "lat": 32.886768}}, {"id": 2544248, "name": "Khouribga", "country": "MA", "coord": {"lon": -6.9063, "lat": 32.881081}}, {"id": 1665045, "name": "Khou\u00e8ng Attapu", "country": "LA", "coord": {"lon": 107, "lat": 14.66667}}, {"id": 1904616, "name": "Khou\u00e8ng Bok\u00e8o", "country": "LA", "coord": {"lon": 100.5, "lat": 20.5}}, {"id": 1904617, "name": "Khou\u00e8ng Bolikhamxai", "country": "LA", "coord": {"lon": 104.333328, "lat": 18.5}}, {"id": 1657818, "name": "Khou\u00e8ng Champasak", "country": "LA", "coord": {"lon": 106, "lat": 14.75}}, {"id": 1657114, "name": "Khou\u00e8ng Houaphan", "country": "LA", "coord": {"lon": 104, "lat": 20.5}}, {"id": 1656538, "name": "Khou\u00e8ng Khammouan", "country": "LA", "coord": {"lon": 105.333328, "lat": 17.5}}, {"id": 1655561, "name": "Khou\u00e8ng Louangnamtha", "country": "LA", "coord": {"lon": 101.333328, "lat": 20.91667}}, {"id": 1654491, "name": "Khou\u00e8ng Oud\u00f4mxai", "country": "LA", "coord": {"lon": 101.5, "lat": 20.16667}}, {"id": 1653333, "name": "Khou\u00e8ng Salavan", "country": "LA", "coord": {"lon": 106.25, "lat": 15.75}}, {"id": 1653315, "name": "Khou\u00e8ng Savannakh\u00e9t", "country": "LA", "coord": {"lon": 105.75, "lat": 16.5}}, {"id": 1652238, "name": "Khou\u00e8ng Viangchan", "country": "LA", "coord": {"lon": 102.416672, "lat": 18.75}}, {"id": 1652210, "name": "Khou\u00e8ng Xaignabouli", "country": "LA", "coord": {"lon": 101.5, "lat": 18.5}}, {"id": 1652077, "name": "Khou\u00e8ng Xiangkhouang", "country": "LA", "coord": {"lon": 103.5, "lat": 19.41667}}, {"id": 549327, "name": "Khovanskoye", "country": "RU", "coord": {"lon": 37.061668, "lat": 55.927776}}, {"id": 1503527, "name": "Khovu-Aksy", "country": "RU", "coord": {"lon": 93.599998, "lat": 51.133331}}, {"id": 1266649, "name": "Khowai", "country": "IN", "coord": {"lon": 91.633331, "lat": 24.1}}, {"id": 627362, "name": "Khoyniki", "country": "BY", "coord": {"lon": 29.9552, "lat": 51.891102}}, {"id": 706225, "name": "Khozyain", "country": "UA", "coord": {"lon": 35.366669, "lat": 47.299999}}, {"id": 549302, "name": "Khrabrovo", "country": "RU", "coord": {"lon": 20.580351, "lat": 54.897091}}, {"id": 2491653, "name": "Khraicia", "country": "DZ", "coord": {"lon": 2.98213, "lat": 36.6772}}, {"id": 549294, "name": "Khranevo", "country": "RU", "coord": {"lon": 35.590118, "lat": 56.414024}}, {"id": 549293, "name": "Khrapki", "country": "RU", "coord": {"lon": 38.766666, "lat": 56.133331}}, {"id": 2022232, "name": "Khrebtovaya", "country": "RU", "coord": {"lon": 104.249397, "lat": 56.703201}}, {"id": 549280, "name": "Khrebtovoye", "country": "RU", "coord": {"lon": 38.96611, "lat": 44.544167}}, {"id": 549266, "name": "Khrenovoye", "country": "RU", "coord": {"lon": 40.288891, "lat": 51.119999}}, {"id": 735751, "name": "Khrisokhorafa", "country": "GR", "coord": {"lon": 23.23333, "lat": 41.183331}}, {"id": 735750, "name": "Khrisokhorion", "country": "GR", "coord": {"lon": 24.716669, "lat": 40.933331}}, {"id": 549241, "name": "Khristanvaraka", "country": "RU", "coord": {"lon": 33.400002, "lat": 64.699997}}, {"id": 6459916, "name": "Khristo Danovo", "country": "BG", "coord": {"lon": 24.6, "lat": 42.73333}}, {"id": 730395, "name": "Khristo-Danovo", "country": "BG", "coord": {"lon": 24.6, "lat": 42.73333}}, {"id": 627346, "name": "Khrol\u2019chitsy", "country": "BY", "coord": {"lon": 25.666668, "lat": 53.5}}, {"id": 609404, "name": "Khromtau", "country": "KZ", "coord": {"lon": 58.434719, "lat": 50.250278}}, {"id": 6423177, "name": "Khrul\u00ebvo", "country": "RU", "coord": {"lon": 41.830555, "lat": 56.753613}}, {"id": 549206, "name": "Khrushch\u00ebvo", "country": "RU", "coord": {"lon": 37.36372, "lat": 54.622341}}, {"id": 875301, "name": "Khrushch\u00ebvo", "country": "RU", "coord": {"lon": 44.0275, "lat": 56.393055}}, {"id": 549191, "name": "Khryashchevka", "country": "RU", "coord": {"lon": 49.091599, "lat": 53.811901}}, {"id": 706200, "name": "Khrystynivka", "country": "UA", "coord": {"lon": 29.96806, "lat": 48.824879}}, {"id": 1609708, "name": "Khu Khan", "country": "TH", "coord": {"lon": 104.198357, "lat": 14.71358}}, {"id": 1609699, "name": "Khu Mueang", "country": "TH", "coord": {"lon": 103.001671, "lat": 15.2716}}, {"id": 7510972, "name": "Khu Mueang", "country": "TH", "coord": {"lon": 103.001671, "lat": 15.27114}}, {"id": 1609722, "name": "Khuan Don", "country": "TH", "coord": {"lon": 100.077782, "lat": 6.78758}}, {"id": 1609717, "name": "Khuan Kalong", "country": "TH", "coord": {"lon": 100.07148, "lat": 6.84538}}, {"id": 1609715, "name": "Khuan Khanun", "country": "TH", "coord": {"lon": 100.009308, "lat": 7.7347}}, {"id": 1609711, "name": "Khuan Niang", "country": "TH", "coord": {"lon": 100.353554, "lat": 7.19138}}, {"id": 549175, "name": "Khuchni", "country": "RU", "coord": {"lon": 47.94854, "lat": 41.94986}}, {"id": 1266640, "name": "Khudaganj", "country": "IN", "coord": {"lon": 79.716667, "lat": 28.15}}, {"id": 1136604, "name": "Khudaydad Khel", "country": "AF", "coord": {"lon": 67.687576, "lat": 35.178349}}, {"id": 6941690, "name": "Khudi", "country": "NP", "coord": {"lon": 84.359123, "lat": 28.282162}}, {"id": 7801994, "name": "Khudi", "country": "NP", "coord": {"lon": 84.36631, "lat": 28.32102}}, {"id": 6418149, "name": "Khudorozhkina", "country": "RU", "coord": {"lon": 103.232498, "lat": 52.965}}, {"id": 933633, "name": "Khudumelapye", "country": "BW", "coord": {"lon": 24.75, "lat": -23.883329}}, {"id": 1605248, "name": "Khuean Ubolratana", "country": "TH", "coord": {"lon": 102.632439, "lat": 16.752701}}, {"id": 1609720, "name": "Khueang Nai", "country": "TH", "coord": {"lon": 104.550827, "lat": 15.38989}}, {"id": 1136442, "name": "Khugyani", "country": "AF", "coord": {"lon": 66.581398, "lat": 31.56267}}, {"id": 1514879, "name": "Khujand", "country": "TJ", "coord": {"lon": 69.627922, "lat": 40.285271}}, {"id": 1513600, "name": "Khujaobod", "country": "UZ", "coord": {"lon": 72.56002, "lat": 40.668861}}, {"id": 601339, "name": "Khujayli", "country": "UZ", "coord": {"lon": 59.460049, "lat": 42.400429}}, {"id": 1266632, "name": "Khujner", "country": "IN", "coord": {"lon": 76.599998, "lat": 23.783331}}, {"id": 1136414, "name": "Khulbisat", "country": "AF", "coord": {"lon": 70.00605, "lat": 33.494801}}, {"id": 1266631, "name": "Khuldabad", "country": "IN", "coord": {"lon": 75.183327, "lat": 20.049999}}, {"id": 1503481, "name": "Khulimsunt", "country": "RU", "coord": {"lon": 61.643608, "lat": 62.863331}}, {"id": 1136575, "name": "Khulm", "country": "AF", "coord": {"lon": 67.698257, "lat": 36.697361}}, {"id": 1336135, "name": "Khulna", "country": "BD", "coord": {"lon": 89.56723, "lat": 22.81348}}, {"id": 1337210, "name": "Khulna Division", "country": "BD", "coord": {"lon": 89.25, "lat": 22.91667}}, {"id": 549118, "name": "Khumalag", "country": "RU", "coord": {"lon": 44.475208, "lat": 43.240311}}, {"id": 7801416, "name": "Khumjung", "country": "NP", "coord": {"lon": 86.757339, "lat": 27.87332}}, {"id": 1609688, "name": "Khun Han", "country": "TH", "coord": {"lon": 104.425056, "lat": 14.61739}}, {"id": 7383661, "name": "Khun Tan", "country": "TH", "coord": {"lon": 100.258583, "lat": 19.83353}}, {"id": 1152765, "name": "Khun Yuam", "country": "TH", "coord": {"lon": 97.933472, "lat": 18.82958}}, {"id": 1266622, "name": "Khunti", "country": "IN", "coord": {"lon": 85.283333, "lat": 23.08333}},