[{"id": 1186675, "name": "Takipur", "country": "BD", "coord": {"lon": 88.616669, "lat": 24.433331}}, {"id": 1194898, "name": "Manoharpur", "country": "BD", "coord": {"lon": 89.157707, "lat": 23.183491}}, {"id": 1200682, "name": "Iswardi", "country": "BD", "coord": {"lon": 89.050003, "lat": 24.15}}, {"id": 6415551, "name": "Charp\u0101ra", "country": "BD", "coord": {"lon": 91.795387, "lat": 22.24407}}, {"id": 6413898, "name": "Ahmad Hossa\u012bn p\u0101ra", "country": "BD", "coord": {"lon": 91.813812, "lat": 22.25246}}, {"id": 1185755, "name": "Un\u0101is\u0101r", "country": "BD", "coord": {"lon": 91.183327, "lat": 23.433331}}, {"id": 1822028, "name": "Kh\u00e9tt St\u0153\u0306ng Tr\u00eang", "country": "KH", "coord": {"lon": 106.25, "lat": 13.75}}, {"id": 1828491, "name": "Phum\u012d D\u014fng Ta D\u0103m", "country": "KH", "coord": {"lon": 106.005692, "lat": 13.53626}}, {"id": 1822213, "name": "Kh\u00e9tt Si\u0115m R\u00e9ab", "country": "KH", "coord": {"lon": 104, "lat": 13.5}}, {"id": 1825049, "name": "Phum\u012d S\u00e2nd\u0103n", "country": "KH", "coord": {"lon": 103.80619, "lat": 13.39364}}, {"id": 1825664, "name": "Phum\u012d Prey Snu\u014fl", "country": "KH", "coord": {"lon": 104.842461, "lat": 11.55681}}, {"id": 1831166, "name": "Kh\u00e9tt K\u00e2mp\u00f3ng Chhn\u0103ng", "country": "KH", "coord": {"lon": 104.550003, "lat": 12.16667}}, {"id": 1826509, "name": "Phum\u012d Phlov", "country": "KH", "coord": {"lon": 104.560204, "lat": 12.2549}}, {"id": 1226391, "name": "Thirukkaikuda", "country": "LK", "coord": {"lon": 81.188698, "lat": 8.5421}}, {"id": 7441574, "name": "Puthoor", "country": "LK", "coord": {"lon": 81.676598, "lat": 7.7031}}, {"id": 1227109, "name": "Tammannekulama", "country": "LK", "coord": {"lon": 80.433327, "lat": 8.3}}, {"id": 7542695, "name": "Goluwapokuna", "country": "LK", "coord": {"lon": 79.874199, "lat": 7.1898}}, {"id": 1326149, "name": "Ekyigon", "country": "MM", "coord": {"lon": 95.98333, "lat": 21.683331}}, {"id": 1298852, "name": "Rakhine State", "country": "MM", "coord": {"lon": 94.25, "lat": 19}}, {"id": 1295765, "name": "Sittwe", "country": "MM", "coord": {"lon": 92.900002, "lat": 20.15}}, {"id": 1307641, "name": "Myoma", "country": "MM", "coord": {"lon": 92.883331, "lat": 20.133329}}, {"id": 1254163, "name": "Thiruvananthapuram", "country": "IN", "coord": {"lon": 76.916672, "lat": 8.48333}}, {"id": 1260745, "name": "Palayam", "country": "IN", "coord": {"lon": 76.916672, "lat": 8.48333}}, {"id": 7603116, "name": "Trichy", "country": "IN", "coord": {"lon": 78.698753, "lat": 10.80289}}, {"id": 1260692, "name": "Pallavaram", "country": "IN", "coord": {"lon": 80.183609, "lat": 12.97611}}, {"id": 1465625, "name": "Palavantangai", "country": "IN", "coord": {"lon": 80.191109, "lat": 12.98556}}, {"id": 1270623, "name": "Gurpur", "country": "IN", "coord": {"lon": 74.933327, "lat": 12.96667}}, {"id": 1254356, "name": "Tirupparangunram", "country": "IN", "coord": {"lon": 78.066673, "lat": 9.86667}}, {"id": 7648816, "name": "Shamshabad", "country": "IN", "coord": {"lon": 78.41835, "lat": 17.25186}}, {"id": 2429058, "name": "R\u00e9gion du Logone Oriental", "country": "TD", "coord": {"lon": 16.42, "lat": 8.25}}, {"id": 2435014, "name": "Bogomia I", "country": "TD", "coord": {"lon": 15.6682, "lat": 7.7962}}, {"id": 1266200, "name": "Kondotti", "country": "IN", "coord": {"lon": 75.966667, "lat": 11.15}}, {"id": 323004, "name": "Aksu", "country": "TR", "coord": {"lon": 36.916672, "lat": 37.533329}}, {"id": 1269690, "name": "Irugur", "country": "IN", "coord": {"lon": 77.066673, "lat": 11.01667}}, {"id": 1271613, "name": "Gannavaram", "country": "IN", "coord": {"lon": 80.800003, "lat": 16.533331}}, {"id": 6695241, "name": "BIAL 2 Wheeler Parking", "country": "IN", "coord": {"lon": 77.706032, "lat": 13.19801}}, {"id": 1266320, "name": "Kolagallu", "country": "IN", "coord": {"lon": 76.866669, "lat": 15.2}}, {"id": 6695208, "name": "Alok Mishra", "country": "IN", "coord": {"lon": 80.374107, "lat": 26.4196}}, {"id": 8030622, "name": "Jagatpura", "country": "IN", "coord": {"lon": 75.825577, "lat": 26.837749}}, {"id": 8051230, "name": "Ratanada", "country": "IN", "coord": {"lon": 73.029297, "lat": 26.28097}}, {"id": 1268831, "name": "Jon\u0101pura", "country": "IN", "coord": {"lon": 78.23333, "lat": 26.299999}}, {"id": 1260788, "name": "P\u0101lam", "country": "IN", "coord": {"lon": 77.099998, "lat": 28.566669}}, {"id": 1266019, "name": "Kot Bhai", "country": "IN", "coord": {"lon": 74.699997, "lat": 30.283331}}, {"id": 1259189, "name": "Pura Raghun\u0101th", "country": "IN", "coord": {"lon": 82.866669, "lat": 25.450001}}, {"id": 1258903, "name": "Raja Sansi", "country": "IN", "coord": {"lon": 74.797783, "lat": 31.71917}}, {"id": 1255588, "name": "S\u016bbed\u0101rganj", "country": "IN", "coord": {"lon": 81.800003, "lat": 25.433331}}, {"id": 1277247, "name": "Banposh", "country": "IN", "coord": {"lon": 84.800003, "lat": 22.25}}, {"id": 1270210, "name": "Hati\u0101", "country": "IN", "coord": {"lon": 85.300003, "lat": 23.299999}}, {"id": 1262920, "name": "Mohanb\u0101ri", "country": "IN", "coord": {"lon": 95.033333, "lat": 27.450001}}, {"id": 1272576, "name": "Diju", "country": "IN", "coord": {"lon": 94.050003, "lat": 27.283331}}, {"id": 1255784, "name": "Sonari Town", "country": "IN", "coord": {"lon": 86.166672, "lat": 22.816669}}, {"id": 1254113, "name": "Tulihal", "country": "IN", "coord": {"lon": 93.883331, "lat": 24.75}}, {"id": 1260769, "name": "Palasbari", "country": "IN", "coord": {"lon": 91.548607, "lat": 26.13611}}, {"id": 1271454, "name": "Gauripur", "country": "IN", "coord": {"lon": 88.449997, "lat": 22.65}}, {"id": 1277897, "name": "Baghdogra", "country": "IN", "coord": {"lon": 88.316673, "lat": 26.700001}}, {"id": 1193239, "name": "N\u0101r\u0101yanpur", "country": "BD", "coord": {"lon": 91.23333, "lat": 23.9}}, {"id": 1272965, "name": "Dhaneli", "country": "IN", "coord": {"lon": 81.699997, "lat": 21.16667}}, {"id": 7357900, "name": "Viman Nagar", "country": "IN", "coord": {"lon": 73.91584, "lat": 18.56848}}, {"id": 1266991, "name": "Kh\u0101pri", "country": "IN", "coord": {"lon": 79.033333, "lat": 21.049999}}, {"id": 1253774, "name": "Unchagao", "country": "IN", "coord": {"lon": 74.283333, "lat": 16.700001}}, {"id": 1271717, "name": "G\u0101ndh\u012bdh\u0101m", "country": "IN", "coord": {"lon": 70.133331, "lat": 23.08333}}, {"id": 1276627, "name": "Bedi", "country": "IN", "coord": {"lon": 70.050003, "lat": 22.5}}, {"id": 1277008, "name": "Barela", "country": "IN", "coord": {"lon": 80.050003, "lat": 23.1}}, {"id": 1274258, "name": "Chicolna", "country": "IN", "coord": {"lon": 73.833328, "lat": 15.36667}}, {"id": 1257531, "name": "S\u0101mbre", "country": "IN", "coord": {"lon": 74.616669, "lat": 15.86667}}, {"id": 1276531, "name": "Belha", "country": "IN", "coord": {"lon": 82.083328, "lat": 21.950001}}, {"id": 1274247, "name": "Chikalth\u0101n", "country": "IN", "coord": {"lon": 75.400002, "lat": 19.85}}, {"id": 1255939, "name": "Sivni", "country": "IN", "coord": {"lon": 77.050003, "lat": 20.683331}}, {"id": 1684495, "name": "Tagbilaran City", "country": "PH", "coord": {"lon": 123.849998, "lat": 9.65}}, {"id": 1723951, "name": "Booy", "country": "PH", "coord": {"lon": 123.849998, "lat": 9.66667}}, {"id": 1713444, "name": "Gabuan", "country": "PH", "coord": {"lon": 122.750557, "lat": 11.60139}}, {"id": 1696177, "name": "Province of Palawan", "country": "PH", "coord": {"lon": 118.75, "lat": 10}}, {"id": 1727450, "name": "Bancaobancao", "country": "PH", "coord": {"lon": 118.766113, "lat": 9.73083}}, {"id": 1707266, "name": "Lapu-Lapu City", "country": "PH", "coord": {"lon": 123.949997, "lat": 10.31667}}, {"id": 1727472, "name": "Bankal", "country": "PH", "coord": {"lon": 123.980827, "lat": 10.30083}}, {"id": 1713735, "name": "Estancia", "country": "PH", "coord": {"lon": 122.370201, "lat": 11.6864}}, {"id": 1700711, "name": "Province of Masbate", "country": "PH", "coord": {"lon": 123.583328, "lat": 12.16667}}, {"id": 1719199, "name": "Cangbaliguia", "country": "PH", "coord": {"lon": 123.623611, "lat": 12.36444}}, {"id": 1701917, "name": "Mandurriao", "country": "PH", "coord": {"lon": 122.535561, "lat": 10.71972}}, {"id": 1704567, "name": "Mabini", "country": "PH", "coord": {"lon": 124.633331, "lat": 12.5}}, {"id": 1697806, "name": "Province of Negros Oriental", "country": "PH", "coord": {"lon": 123, "lat": 9.75}}, {"id": 1700627, "name": "Maslog", "country": "PH", "coord": {"lon": 123.295998, "lat": 9.3291}}, {"id": 1720400, "name": "Calbayog City", "country": "PH", "coord": {"lon": 124.599998, "lat": 12.06667}}, {"id": 1681313, "name": "Sabang", "country": "PH", "coord": {"lon": 124.535561, "lat": 12.07833}}, {"id": 1683114, "name": "Tangub", "country": "PH", "coord": {"lon": 122.930557, "lat": 10.63389}}, {"id": 1684711, "name": "Tacloban City", "country": "PH", "coord": {"lon": 125, "lat": 11.25}}, {"id": 1722478, "name": "Burayan", "country": "PH", "coord": {"lon": 125.01667, "lat": 11.21667}}, {"id": 1700902, "name": "Province of Marinduque", "country": "PH", "coord": {"lon": 121.949997, "lat": 13.41667}}, {"id": 1700686, "name": "Masiga", "country": "PH", "coord": {"lon": 121.827797, "lat": 13.3607}}, {"id": 1717952, "name": "Province of Catanduanes", "country": "PH", "coord": {"lon": 124.25, "lat": 13.83333}}, {"id": 1717651, "name": "Cavinitan", "country": "PH", "coord": {"lon": 124.199997, "lat": 13.58333}}, {"id": 1729954, "name": "Atulayan", "country": "PH", "coord": {"lon": 121.723892, "lat": 17.63139}}, {"id": 1729926, "name": "Province of Aurora", "country": "PH", "coord": {"lon": 121.75, "lat": 16}}, {"id": 1715098, "name": "Diabuyo", "country": "PH", "coord": {"lon": 121.497498, "lat": 15.71389}}, {"id": 1689493, "name": "San Jose", "country": "PH", "coord": {"lon": 123.266701, "lat": 13.5854}}, {"id": 1699586, "name": "Province of Mindoro Occidental", "country": "PH", "coord": {"lon": 120.916672, "lat": 13}}, {"id": 1715551, "name": "Dapi", "country": "PH", "coord": {"lon": 120.6054, "lat": 13.2208}}, {"id": 1723635, "name": "Babug", "country": "PH", "coord": {"lon": 121.04171, "lat": 12.37325}}, {"id": 1719846, "name": "Province of Camarines Norte", "country": "PH", "coord": {"lon": 122.75, "lat": 14.16667}}, {"id": 1703893, "name": "Magdua", "country": "PH", "coord": {"lon": 122.9823, "lat": 14.133}}, {"id": 1705906, "name": "Loacan", "country": "PH", "coord": {"lon": 120.61306, "lat": 16.37389}}, {"id": 1679430, "name": "Zamboanga City", "country": "PH", "coord": {"lon": 122.069611, "lat": 6.91348}}, {"id": 1727976, "name": "Baliwasan", "country": "PH", "coord": {"lon": 122.054382, "lat": 6.91534}}, {"id": 1685215, "name": "Province of Surigao del Norte", "country": "PH", "coord": {"lon": 125.633331, "lat": 9.66667}}, {"id": 1702771, "name": "Maliko", "country": "PH", "coord": {"lon": 125.473892, "lat": 9.75528}}, {"id": 1700815, "name": "Marum", "country": "PH", "coord": {"lon": 123.464203, "lat": 7.8286}}, {"id": 6569685, "name": "Chartered City of Cagayan de Oro", "country": "PH", "coord": {"lon": 124.688889, "lat": 8.46917}}, {"id": 1720747, "name": "Calacapan", "country": "PH", "coord": {"lon": 124.608612, "lat": 8.40333}}, {"id": 1715347, "name": "Province of Davao del Norte", "country": "PH", "coord": {"lon": 125.81543, "lat": 7.45099}}, {"id": 1707692, "name": "Lanang", "country": "PH", "coord": {"lon": 125.65139, "lat": 7.11778}}, {"id": 7091218, "name": "Moonwalk II", "country": "PH", "coord": {"lon": 121.019302, "lat": 14.5003}}, {"id": 1711034, "name": "Province of Ilocos Norte", "country": "PH", "coord": {"lon": 120.75, "lat": 18.16667}}, {"id": 1682765, "name": "Tasod", "country": "PH", "coord": {"lon": 120.533333, "lat": 18.183331}}, {"id": 1716549, "name": "Culayo", "country": "PH", "coord": {"lon": 120.566673, "lat": 15.18333}}, {"id": 1895287, "name": "S\u014fnbawi", "country": "KR", "coord": {"lon": 128.335556, "lat": 36.63139}}, {"id": 1843495, "name": "Ipyang-ni", "country": "KR", "coord": {"lon": 127.5, "lat": 36.716671}}, {"id": 1843502, "name": "Ips\u014fk-tong", "country": "KR", "coord": {"lon": 128.649994, "lat": 35.900002}}, {"id": 1845585, "name": "Ch\u2019\u014fngnim", "country": "KR", "coord": {"lon": 129.404724, "lat": 35.991669}}, {"id": 6575883, "name": "Seryui-dong", "country": "KR", "coord": {"lon": 127.008888, "lat": 37.244438}}, {"id": 6575423, "name": "Haejeong", "country": "KR", "coord": {"lon": 127.024437, "lat": 37.096111}}, {"id": 1836164, "name": "Songj\u014fng", "country": "KR", "coord": {"lon": 129.357224, "lat": 35.589169}}, {"id": 1836034, "name": "Seisan-ri", "country": "KR", "coord": {"lon": 128.066666, "lat": 35.099998}}, {"id": 1979031, "name": "S\u014flman", "country": "KR", "coord": {"lon": 128.928329, "lat": 35.175282}}, {"id": 1832008, "name": "Tokusan-ri", "country": "KR", "coord": {"lon": 128.699997, "lat": 35.133331}}, {"id": 1876888, "name": "Hwanghae-bukto", "country": "KP", "coord": {"lon": 126.300003, "lat": 38.562778}}, {"id": 1875069, "name": "Kuy\u014fl-li", "country": "KP", "coord": {"lon": 126.037216, "lat": 38.471668}}, {"id": 7588461, "name": "Changjon", "country": "KR", "coord": {"lon": 128.674957, "lat": 38.06588}}, {"id": 6794156, "name": "Hup\u2019y\u014fng", "country": "KR", "coord": {"lon": 127.958702, "lat": 37.444599}}, {"id": 6816630, "name": "P\u014fdang", "country": "KR", "coord": {"lon": 128.949524, "lat": 37.74902}}, {"id": 7588425, "name": "Changsal-li", "country": "KR", "coord": {"lon": 128.589996, "lat": 38.13792}}, {"id": 1837640, "name": "San\u2019gok", "country": "KR", "coord": {"lon": 127.616669, "lat": 34.833328}}, {"id": 6877998, "name": "Yongh\u016dng", "country": "KR", "coord": {"lon": 127.112129, "lat": 35.873299}}, {"id": 1885994, "name": "Songch\u2019\u014fni-dong", "country": "KR", "coord": {"lon": 127.112312, "lat": 35.876282}}, {"id": 1886130, "name": "S\u014fny\u014fl-li", "country": "KR", "coord": {"lon": 126.625832, "lat": 35.896389}}, {"id": 1832973, "name": "Yach\u2019on", "country": "KR", "coord": {"lon": 126.815826, "lat": 35.13028}}, {"id": 1864655, "name": "Chabana", "country": "JP", "coord": {"lon": 128.416672, "lat": 27.049999}}, {"id": 7533595, "name": "shimochi", "country": "JP", "coord": {"lon": 125.149467, "lat": 24.827169}}, {"id": 1855847, "name": "Nakanoku", "country": "JP", "coord": {"lon": 131.310883, "lat": 25.94562}}, {"id": 1855357, "name": "Nishi", "country": "JP", "coord": {"lon": 127.23333, "lat": 26.58333}}, {"id": 1852579, "name": "Nanabari", "country": "JP", "coord": {"lon": 125.308693, "lat": 24.783461}}, {"id": 1852038, "name": "Shinhigashi", "country": "JP", "coord": {"lon": 131.259277, "lat": 25.85195}}, {"id": 1854588, "name": "\u014chama", "country": "JP", "coord": {"lon": 124.19706, "lat": 24.344481}}, {"id": 1854964, "name": "Nosato", "country": "JP", "coord": {"lon": 127.76667, "lat": 26.35}}, {"id": 1860847, "name": "Kaganji", "country": "JP", "coord": {"lon": 127.650002, "lat": 26.200001}}, {"id": 1863356, "name": "Hakonegasaki", "country": "JP", "coord": {"lon": 139.351105, "lat": 35.76944}}, {"id": 1054116, "name": "Voalavo", "country": "MG", "coord": {"lon": 44.466671, "lat": -16.616671}}, {"id": 1849771, "name": "Tsubota", "country": "JP", "coord": {"lon": 139.533325, "lat": 34.049999}}, {"id": 1854431, "name": "Okata", "country": "JP", "coord": {"lon": 139.383331, "lat": 34.783329}}, {"id": 1854372, "name": "Okazato", "country": "JP", "coord": {"lon": 139.783325, "lat": 33.099998}}, {"id": 1848598, "name": "Yamato-minami", "country": "JP", "coord": {"lon": 139.456116, "lat": 35.46722}}, {"id": 1863282, "name": "Hamanaka", "country": "JP", "coord": {"lon": 139.783325, "lat": 38.816669}}, {"id": 2112234, "name": "Kitagama", "country": "JP", "coord": {"lon": 140.935287, "lat": 38.13472}}, {"id": 6822204, "name": "Kita-Akita", "country": "JP", "coord": {"lon": 140.393875, "lat": 40.199558}}, {"id": 1857533, "name": "Matsugasakihama", "country": "JP", "coord": {"lon": 139.133331, "lat": 37.957779}}, {"id": 2112761, "name": "Higashi-miyanome", "country": "JP", "coord": {"lon": 141.133331, "lat": 39.416672}}, {"id": 2129530, "name": "Kitanuma", "country": "JP", "coord": {"lon": 141.483337, "lat": 40.566669}}, {"id": 2111541, "name": "Odaka", "country": "JP", "coord": {"lon": 140.416672, "lat": 37.200001}}, {"id": 1848193, "name": "Yoshii", "country": "JP", "coord": {"lon": 138.399994, "lat": 38.049999}}, {"id": 2112498, "name": "Jimmachi", "country": "JP", "coord": {"lon": 140.383331, "lat": 38.400002}}, {"id": 2129653, "name": "Kareizawa", "country": "JP", "coord": {"lon": 140.649994, "lat": 40.716671}}, {"id": 1850916, "name": "Takatsu", "country": "JP", "coord": {"lon": 131.783325, "lat": 34.683331}}, {"id": 1856801, "name": "Miyaji", "country": "JP", "coord": {"lon": 133.983337, "lat": 34.200001}}, {"id": 1860841, "name": "Kagasuno", "country": "JP", "coord": {"lon": 134.583328, "lat": 34.116669}}, {"id": 1860031, "name": "Karoch\u014d", "country": "JP", "coord": {"lon": 134.183334, "lat": 35.533329}}, {"id": 1858025, "name": "Kushiro", "country": "JP", "coord": {"lon": 135.416672, "lat": 34.799999}}, {"id": 1857829, "name": "Maehama", "country": "JP", "coord": {"lon": 133.666672, "lat": 33.533329}}, {"id": 1858707, "name": "Ko-shinozu", "country": "JP", "coord": {"lon": 133.25, "lat": 35.5}}, {"id": 1852097, "name": "Shinji", "country": "JP", "coord": {"lon": 132.899994, "lat": 35.400002}}, {"id": 1860876, "name": "Kado", "country": "JP", "coord": {"lon": 133.850006, "lat": 34.783329}}, {"id": 1848364, "name": "Yokodaid\u014d", "country": "JP", "coord": {"lon": 132.899994, "lat": 34.400002}}, {"id": 1848230, "name": "Yoromi", "country": "JP", "coord": {"lon": 136.966675, "lat": 37.316669}}, {"id": 1863410, "name": "Hagiwara", "country": "JP", "coord": {"lon": 137.199997, "lat": 36.666672}}, {"id": 1861661, "name": "Imazu", "country": "JP", "coord": {"lon": 133.316666, "lat": 36.166672}}, {"id": 1859262, "name": "Kita-toyama", "country": "JP", "coord": {"lon": 136.916672, "lat": 35.26667}}, {"id": 1864948, "name": "Ataka-shimmachi", "country": "JP", "coord": {"lon": 136.407196, "lat": 36.402981}}, {"id": 1864240, "name": "Edome-naka", "country": "JP", "coord": {"lon": 136.212357, "lat": 36.138432}}, {"id": 1848906, "name": "Wano", "country": "JP", "coord": {"lon": 129.699997, "lat": 28.41667}}, {"id": 6941611, "name": "Babagasu", "country": "JP", "coord": {"lon": 130.847504, "lat": 32.852211}}, {"id": 1863836, "name": "Furuichi", "country": "JP", "coord": {"lon": 131.716675, "lat": 33.48333}}, {"id": 1860941, "name": "J\u016brokuban", "country": "JP", "coord": {"lon": 130.983337, "lat": 30.6}}, {"id": 1861296, "name": "Itazuke", "country": "JP", "coord": {"lon": 130.449997, "lat": 33.566669}}, {"id": 1854585, "name": "Hama", "country": "JP", "coord": {"lon": 128.816666, "lat": 32.650002}}, {"id": 2130019, "name": "Hontomari", "country": "JP", "coord": {"lon": 141.183334, "lat": 45.25}}, {"id": 2045397, "name": "Buhama", "country": "JP", "coord": {"lon": 139.424438, "lat": 42.073059}}, {"id": 2128925, "name": "Nishi-kagura", "country": "JP", "coord": {"lon": 142.399994, "lat": 43.683331}}, {"id": 2129052, "name": "Naka-mobetsu", "country": "JP", "coord": {"lon": 143.366669, "lat": 44.283329}}, {"id": 1854712, "name": "\u014cfunakoshi", "country": "JP", "coord": {"lon": 129.354721, "lat": 34.273331}}, {"id": 1861598, "name": "Ind\u014dji", "country": "JP", "coord": {"lon": 129.75, "lat": 33.73333}}, {"id": 2129501, "name": "Koetoi", "country": "JP", "coord": {"lon": 141.752777, "lat": 45.40139}}, {"id": 2130316, "name": "Funadomari", "country": "JP", "coord": {"lon": 141.039719, "lat": 45.436939}}, {"id": 2128412, "name": "Retsureppu", "country": "JP", "coord": {"lon": 141.366669, "lat": 43.116669}}, {"id": 2129791, "name": "Kaiy\u014d", "country": "JP", "coord": {"lon": 144.916672, "lat": 43.583328}}, {"id": 2130024, "name": "Hong\u014d", "country": "JP", "coord": {"lon": 144.138733, "lat": 43.89814}}, {"id": 2129072, "name": "Nait\u014dbokuj\u014d", "country": "JP", "coord": {"lon": 144.216675, "lat": 43.049999}}, {"id": 2127386, "name": "Zenikame", "country": "JP", "coord": {"lon": 140.833328, "lat": 41.76667}}, {"id": 2129210, "name": "Misawa", "country": "JP", "coord": {"lon": 141.716675, "lat": 42.75}}, {"id": 2128141, "name": "Shimo-ihira", "country": "JP", "coord": {"lon": 143.266663, "lat": 42.716671}}, {"id": 1860250, "name": "Kanayama", "country": "JP", "coord": {"lon": 135.350006, "lat": 33.683331}}, {"id": 2111937, "name": "Minami", "country": "JP", "coord": {"lon": 141.316666, "lat": 24.783331}}, {"id": 1855882, "name": "Nakamura", "country": "JP", "coord": {"lon": 137.916672, "lat": 36.150002}}, {"id": 1677307, "name": "Zhongliao", "country": "TW", "coord": {"lon": 121.471939, "lat": 22.67417}}, {"id": 6658309, "name": "Zhongkangle", "country": "TW", "coord": {"lon": 121.098198, "lat": 22.7547}}, {"id": 1669401, "name": "Dongshan", "country": "TW", "coord": {"lon": 120.6325, "lat": 24.27306}}, {"id": 6643057, "name": "Xincheng", "country": "TW", "coord": {"lon": 121.605988, "lat": 24.03334}}, {"id": 1678813, "name": "Jiali", "country": "TW", "coord": {"lon": 121.606262, "lat": 24.021469}}, {"id": 1665310, "name": "Yuren", "country": "TW", "coord": {"lon": 121.542778, "lat": 22.0275}}, {"id": 1677314, "name": "Chonglan", "country": "TW", "coord": {"lon": 120.485023, "lat": 22.692551}}, {"id": 6599990, "name": "Wuyi", "country": "TW", "coord": {"lon": 120.73278, "lat": 22.041941}}, {"id": 1676087, "name": "Houzhuangzi", "country": "TW", "coord": {"lon": 120.662033, "lat": 24.194019}}, {"id": 1673046, "name": "Laodian", "country": "TW", "coord": {"lon": 120.406113, "lat": 23.4575}}, {"id": 1666529, "name": "Tongpanqian", "country": "TW", "coord": {"lon": 120.213608, "lat": 22.95417}}, {"id": 1677210, "name": "Zhongdacuo", "country": "TW", "coord": {"lon": 120.354874, "lat": 22.58102}}, {"id": 7280288, "name": "Fukien", "country": "TW", "coord": {"lon": 121.764221, "lat": 24.68446}}, {"id": 1675247, "name": "Xiguoshan", "country": "TW", "coord": {"lon": 118.349998, "lat": 24.425831}}, {"id": 1668630, "name": "Wucheng", "country": "TW", "coord": {"lon": 119.624107, "lat": 23.56588}}, {"id": 1677028, "name": "Zhuzilin", "country": "TW", "coord": {"lon": 121.549149, "lat": 25.080521}}, {"id": 1676453, "name": "Fuxingcun", "country": "TW", "coord": {"lon": 119.949997, "lat": 26.16667}}, {"id": 1670395, "name": "Pojiao", "country": "TW", "coord": {"lon": 121.223083, "lat": 25.08622}}, {"id": 7544739, "name": "Beifenglindong", "country": "CN", "coord": {"lon": 129.422684, "lat": 42.864281}}, {"id": 2054243, "name": "Taoxian", "country": "CN", "coord": {"lon": 123.494438, "lat": 41.647781}}, {"id": 7403438, "name": "Hainantun", "country": "CN", "coord": {"lon": 121.540878, "lat": 38.969551}}, {"id": 2045548, "name": "Ta-pa-hu-t\u2019un", "country": "CN", "coord": {"lon": 124.023888, "lat": 47.261669}}, {"id": 2037161, "name": "Gudianzi", "country": "CN", "coord": {"lon": 126.369171, "lat": 43.980831}}, {"id": 2034558, "name": "Taipingzhuang", "country": "CN", "coord": {"lon": 126.199997, "lat": 45.616669}}, {"id": 7395786, "name": "Daqiao", "country": "CN", "coord": {"lon": 120.452606, "lat": 41.523521}}, {"id": 2037428, "name": "Fangniugou", "country": "CN", "coord": {"lon": 125.635834, "lat": 43.952499}}, {"id": 1538375, "name": "Dadamtu", "country": "CN", "coord": {"lon": 81.314171, "lat": 43.980282}}, {"id": 1532302, "name": "Diwopu", "country": "CN", "coord": {"lon": 87.48333, "lat": 43.883331}}, {"id": 1281019, "name": "Hotan", "country": "CN", "coord": {"lon": 79.926941, "lat": 37.09972}}, {"id": 1538518, "name": "Huangtian Nongchang", "country": "CN", "coord": {"lon": 93.749443, "lat": 42.784721}}, {"id": 6924996, "name": "Shuangguisi", "country": "CN", "coord": {"lon": 103.955208, "lat": 30.57642}}, {"id": 6547307, "name": "Gyazhugling", "country": "CN", "coord": {"lon": 90.899078, "lat": 29.28842}}, {"id": 1809437, "name": "Gujiao", "country": "CN", "coord": {"lon": 106.849998, "lat": 26.533331}}, {"id": 1803998, "name": "Jiangbei", "country": "CN", "coord": {"lon": 106.621674, "lat": 29.720831}}, {"id": 309166, "name": "Karc\u0131", "country": "TR", "coord": {"lon": 29, "lat": 37.76667}}, {"id": 1894471, "name": "Nandang", "country": "CN", "coord": {"lon": 120.849442, "lat": 27.919439}}, {"id": 1810373, "name": "Gaosuban", "country": "CN", "coord": {"lon": 117.996262, "lat": 27.701969}}, {"id": 1553371, "name": "Yiqi", "country": "CN", "coord": {"lon": 118.25692, "lat": 29.72669}}, {"id": 7843545, "name": "Houjiajiao", "country": "CN", "coord": {"lon": 121.332603, "lat": 31.209499}}, {"id": 1932513, "name": "Zhaocun", "country": "CN", "coord": {"lon": 120.371941, "lat": 36.245281}}, {"id": 1887427, "name": "Tangwan", "country": "CN", "coord": {"lon": 121.806671, "lat": 31.145}}, {"id": 1555227, "name": "Luogangzhen", "country": "CN", "coord": {"lon": 117.308327, "lat": 31.79167}}, {"id": 7741741, "name": "Wansuigong", "country": "CN", "coord": {"lon": 120.984306, "lat": 32.077209}}, {"id": 1548909, "name": "Donghucun", "country": "CN", "coord": {"lon": 118.862503, "lat": 31.725}}, {"id": 7072184, "name": "Daijia", "country": "CN", "coord": {"lon": 121.45089, "lat": 29.82752}}, {"id": 1786853, "name": "Yawangkou", "country": "CN", "coord": {"lon": 117.216667, "lat": 36.816669}}, {"id": 4355514, "name": "Foxwell Point", "country": "US", "coord": {"lon": -76.633293, "lat": 38.287071}}, {"id": 1981717, "name": "Guanhubian", "country": "CN", "coord": {"lon": 119.664169, "lat": 25.92861}}, {"id": 7327812, "name": "Tanjia", "country": "CN", "coord": {"lon": 115.896423, "lat": 28.86187}}, {"id": 1801836, "name": "Luoshuwan", "country": "CN", "coord": {"lon": 119.800003, "lat": 31.91667}}, {"id": 1975094, "name": "Andou", "country": "CN", "coord": {"lon": 118.126671, "lat": 24.524719}}, {"id": 939493, "name": "Wingate Park", "country": "ZA", "coord": {"lon": 28.26709, "lat": -25.82593}}, {"id": 981084, "name": "Lyttelton", "country": "ZA", "coord": {"lon": 28.2012, "lat": -25.82988}}, {"id": 1816264, "name": "Boshang", "country": "CN", "coord": {"lon": 100.01667, "lat": 23.700001}}, {"id": 2724413, "name": "\u00c5sumtorp", "country": "SE", "coord": {"lon": 14.15, "lat": 56}}, {"id": 1912743, "name": "Gaozhai", "country": "CN", "coord": {"lon": 101.992218, "lat": 36.516109}}, {"id": 7101573, "name": "Dhok Halyan", "country": "PK", "coord": {"lon": 73.646439, "lat": 33.117882}}, {"id": 1936475, "name": "Xicao", "country": "CN", "coord": {"lon": 103.633331, "lat": 36.49472}}, {"id": 1803416, "name": "Linhepu", "country": "CN", "coord": {"lon": 106.366669, "lat": 38.316669}}, {"id": 1871952, "name": "P\u2019y\u014fngan-namdo", "country": "KP", "coord": {"lon": 126.18, "lat": 39.511108}}, {"id": 1889484, "name": "Punam-ni", "country": "KP", "coord": {"lon": 125.660828, "lat": 39.23}}, {"id": 1887493, "name": "Fenghuang", "country": "CN", "coord": {"lon": 109.423553, "lat": 18.291969}}, {"id": 7642903, "name": "Yonglu", "country": "CN", "coord": {"lon": 110.466171, "lat": 19.938459}}, {"id": 7880719, "name": "Daoshidian", "country": "CN", "coord": {"lon": 114.216339, "lat": 30.78418}}, {"id": 1910597, "name": "Shanshiwang", "country": "CN", "coord": {"lon": 113.812218, "lat": 34.548061}}, {"id": 6834796, "name": "Guanying", "country": "CN", "coord": {"lon": 110.350197, "lat": 21.226}}, {"id": 6958812, "name": "Qigang", "country": "CN", "coord": {"lon": 113.825706, "lat": 22.63973}}, {"id": 7292820, "name": "Hanmer", "country": "GB", "coord": {"lon": -2.83166, "lat": 52.957821}}, {"id": 2647522, "name": "Hanmer", "country": "GB", "coord": {"lon": -2.81289, "lat": 52.951069}}, {"id": 1998137, "name": "Renheli", "country": "CN", "coord": {"lon": 116.771591, "lat": 23.434179}}, {"id": 1992517, "name": "Qingtang", "country": "CN", "coord": {"lon": 110.047783, "lat": 25.21056}}, {"id": 1927474, "name": "Gutang", "country": "CN", "coord": {"lon": 113.193329, "lat": 28.21806}}, {"id": 7504453, "name": "Donghu", "country": "CN", "coord": {"lon": 113.283127, "lat": 23.40624}}, {"id": 7059550, "name": "Sifangyan", "country": "CN", "coord": {"lon": 110.447884, "lat": 29.104959}}, {"id": 1813419, "name": "Datuopu", "country": "CN", "coord": {"lon": 112.949997, "lat": 28.049999}}, {"id": 1893334, "name": "Fucheng", "country": "CN", "coord": {"lon": 109.330276, "lat": 21.569719}}, {"id": 7301465, "name": "North Elmsall", "country": "GB", "coord": {"lon": -1.28292, "lat": 53.62394}}, {"id": 2641369, "name": "North Elmsall", "country": "GB", "coord": {"lon": -1.28214, "lat": 53.608849}}, {"id": 1788747, "name": "Xinlicun", "country": "CN", "coord": {"lon": 117.335564, "lat": 39.084721}}, {"id": 1789166, "name": "Xinchengpu", "country": "CN", "coord": {"lon": 114.683327, "lat": 38.26667}}, {"id": 2051340, "name": "Qianming", "country": "CN", "coord": {"lon": 109.973328, "lat": 40.544998}}, {"id": 2037643, "name": "Donghe", "country": "CN", "coord": {"lon": 110.019722, "lat": 40.566109}}, {"id": 2038526, "name": "Baita", "country": "CN", "coord": {"lon": 111.800003, "lat": 40.849998}}, {"id": 1514240, "name": "Chekshura", "country": "UZ", "coord": {"lon": 71.716667, "lat": 40.383331}}, {"id": 1512734, "name": "Sultan-Ayaya", "country": "UZ", "coord": {"lon": 72.283333, "lat": 40.73333}}, {"id": 1513642, "name": "Khonobod", "country": "UZ", "coord": {"lon": 69.285004, "lat": 41.223888}}, {"id": 1536836, "name": "Koshkurgan", "country": "UZ", "coord": {"lon": 69.278328, "lat": 41.245831}}, {"id": 1475065, "name": "Bakhoristan", "country": "UZ", "coord": {"lon": 67.327499, "lat": 37.294441}}, {"id": 1216519, "name": "Matrid", "country": "UZ", "coord": {"lon": 66.966667, "lat": 39.700001}}, {"id": 1216683, "name": "Kum-Rabad", "country": "UZ", "coord": {"lon": 64.48333, "lat": 39.799999}}, {"id": 1513255, "name": "Malikrabot", "country": "UZ", "coord": {"lon": 65.182121, "lat": 40.128979}}, {"id": 829930, "name": "Nukus Shahri", "country": "UZ", "coord": {"lon": 59.608459, "lat": 42.466}}, {"id": 7536600, "name": "Elxon", "country": "UZ", "coord": {"lon": 71.56382, "lat": 40.99258}}, {"id": 1538311, "name": "Chkalov", "country": "TJ", "coord": {"lon": 69.694809, "lat": 40.234169}}, {"id": 1222299, "name": "Khalkadzhar", "country": "TJ", "coord": {"lon": 68.835991, "lat": 38.538101}}, {"id": 1219264, "name": "Imeni Molotova", "country": "TM", "coord": {"lon": 63.616669, "lat": 39.066669}}, {"id": 601456, "name": "Tezedurmysh", "country": "TM", "coord": {"lon": 59.789581, "lat": 41.78492}}, {"id": 1219899, "name": "Amansha", "country": "TM", "coord": {"lon": 61.900002, "lat": 37.633331}}, {"id": 161808, "name": "Keshi", "country": "TM", "coord": {"lon": 58.33857, "lat": 37.965511}}, {"id": 625881, "name": "Lubnishche", "country": "BY", "coord": {"lon": 30.104179, "lat": 53.96764}}, {"id": 8019721, "name": "Chirvonyy Luzhok", "country": "BY", "coord": {"lon": 27.9963, "lat": 53.870399}}, {"id": 624265, "name": "Obukhovo", "country": "BY", "coord": {"lon": 24.0814, "lat": 53.605099}}, {"id": 621887, "name": "Skinderovka", "country": "BY", "coord": {"lon": 30.35, "lat": 55.099998}}, {"id": 8178416, "name": "Rzhavets", "country": "BY", "coord": {"lon": 31.0142, "lat": 52.537201}}, {"id": 8021881, "name": "Shebrin", "country": "BY", "coord": {"lon": 23.9007, "lat": 52.101501}}, {"id": 460540, "name": "Cimdenieki", "country": "LV", "coord": {"lon": 21.116671, "lat": 56.533329}}, {"id": 712887, "name": "Balovnoye", "country": "UA", "coord": {"lon": 31.886169, "lat": 47.051109}}, {"id": 693665, "name": "Sknyliv", "country": "UA", "coord": {"lon": 23.950001, "lat": 49.799999}}, {"id": 698459, "name": "Opryshovtse", "country": "UA", "coord": {"lon": 24.712179, "lat": 48.880901}}, {"id": 705844, "name": "Kirilovka", "country": "UA", "coord": {"lon": 32.033329, "lat": 49.383331}}, {"id": 812935, "name": "Molchany", "country": "UA", "coord": {"lon": 36.300282, "lat": 49.9202}}, {"id": 694817, "name": "Sarabuz Russkiy", "country": "UA", "coord": {"lon": 33.98333, "lat": 45.049999}}, {"id": 695579, "name": "Rodionovka", "country": "UA", "coord": {"lon": 33.231941, "lat": 47.996239}}, {"id": 704067, "name": "Krinichnyy", "country": "UA", "coord": {"lon": 35.299999, "lat": 47.866669}}, {"id": 706604, "name": "Kaydaki", "country": "UA", "coord": {"lon": 35.123981, "lat": 48.376781}}, {"id": 693960, "name": "Shmidta", "country": "UA", "coord": {"lon": 39.386108, "lat": 48.399719}}, {"id": 8129116, "name": "Hora", "country": "UA", "coord": {"lon": 30.859909, "lat": 50.371201}}, {"id": 616932, "name": "Arbat", "country": "AM", "coord": {"lon": 44.402, "lat": 40.138111}}, {"id": 616917, "name": "Arevik", "country": "AM", "coord": {"lon": 43.902901, "lat": 40.74226}}, {"id": 611612, "name": "Tofaloglebi", "country": "GE", "coord": {"lon": 41.599998, "lat": 41.599998}}, {"id": 611062, "name": "Zeda-Bashi", "country": "GE", "coord": {"lon": 42.5, "lat": 42.166672}}, {"id": 865851, "name": "Lilo", "country": "GE", "coord": {"lon": 44.9799, "lat": 41.68095}}, {"id": 147192, "name": "Shekyarabad", "country": "AZ", "coord": {"lon": 45.43676, "lat": 39.19228}}, {"id": 585967, "name": "Goygol Rayon", "country": "AZ", "coord": {"lon": 46.333328, "lat": 40.5}}, {"id": 585407, "name": "Nadil", "country": "AZ", "coord": {"lon": 46.288891, "lat": 40.74139}}, {"id": 586968, "name": "Biny Selo", "country": "AZ", "coord": {"lon": 50.08564, "lat": 40.451931}}, {"id": 1526333, "name": "Amangel\u2019dy", "country": "KZ", "coord": {"lon": 63.599998, "lat": 53.183331}}, {"id": 608550, "name": "Rakusha", "country": "KZ", "coord": {"lon": 51.76667, "lat": 47.116669}}, {"id": 608398, "name": "Segendy", "country": "KZ", "coord": {"lon": 51.01667, "lat": 43.849998}}, {"id": 1517081, "name": "Zarya", "country": "KZ", "coord": {"lon": 77.050003, "lat": 52.133331}}, {"id": 1519318, "name": "Shalakaryk", "country": "KZ", "coord": {"lon": 65.633331, "lat": 44.700001}}, {"id": 1518403, "name": "Tasmola", "country": "KZ", "coord": {"lon": 73.333328, "lat": 49.700001}}, {"id": 1523987, "name": "Imeni Kirova", "country": "KZ", "coord": {"lon": 69.466667, "lat": 42.349998}}, {"id": 8139898, "name": "Kyzyl-Mekhnat", "country": "KG", "coord": {"lon": 72.806503, "lat": 40.618111}}, {"id": 8064028, "name": "Mramornoe", "country": "KG", "coord": {"lon": 74.49736, "lat": 43.0494}}, {"id": 1526797, "name": "Akkol", "country": "KZ", "coord": {"lon": 69.601112, "lat": 53.2925}}, {"id": 1525295, "name": "Bishkul", "country": "KZ", "coord": {"lon": 69.103333, "lat": 54.780281}}, {"id": 1539219, "name": "Prigorodnyy", "country": "KZ", "coord": {"lon": 71.443329, "lat": 51.04583}}, {"id": 1524192, "name": "Krasnoye Pole", "country": "KZ", "coord": {"lon": 77.052498, "lat": 43.347778}}, {"id": 7357454, "name": "Manzil ash Shubaykin\u012b", "country": "YE", "coord": {"lon": 44.150822, "lat": 13.688}}, {"id": 6940757, "name": "Sayun", "country": "YE", "coord": {"lon": 48.831501, "lat": 15.9831}}, {"id": 79737, "name": "Al Fujayr", "country": "YE", "coord": {"lon": 48.799999, "lat": 15.96667}}, {"id": 6940758, "name": "Hidaybu", "country": "YE", "coord": {"lon": 54.008202, "lat": 12.5025}}, {"id": 72589, "name": "Mor\u012b", "country": "YE", "coord": {"lon": 53.900002, "lat": 12.63333}}, {"id": 71333, "name": "Mu\u1e29\u0101faz\u0327at \u015ea\u2018dah", "country": "YE", "coord": {"lon": 43.914879, "lat": 17.0634}}, {"id": 6940797, "name": "As Safra", "country": "YE", "coord": {"lon": 43.856602, "lat": 17.0142}}, {"id": 79561, "name": "Al \u1e28amz\u0101t", "country": "YE", "coord": {"lon": 43.73333, "lat": 16.966669}}, {"id": 6940753, "name": "Ghayl Ba Wazir", "country": "YE", "coord": {"lon": 49.024502, "lat": 14.8778}}, {"id": 70600, "name": "Shu\u1e29ayr", "country": "YE", "coord": {"lon": 49.392502, "lat": 14.68417}}, {"id": 79838, "name": "Mu\u1e29\u0101faz\u0327at al Bay\u1e11\u0101\u2019", "country": "YE", "coord": {"lon": 45.394421, "lat": 14.34166}}, {"id": 6940671, "name": "Mukayras", "country": "YE", "coord": {"lon": 45.796398, "lat": 14.032}}, {"id": 78638, "name": "Al Qaryah", "country": "YE", "coord": {"lon": 45.680981, "lat": 13.94067}}, {"id": 72966, "name": "Mu\u1e29\u0101faz\u0327at Ma\u2019rib", "country": "YE", "coord": {"lon": 45.32534, "lat": 15.4591}}, {"id": 72965, "name": "Marib City", "country": "YE", "coord": {"lon": 45.303398, "lat": 15.4156}}, {"id": 72968, "name": "Ma'rib", "country": "YE", "coord": {"lon": 45.325809, "lat": 15.46253}}, {"id": 6940612, "name": "Al Hawak", "country": "YE", "coord": {"lon": 42.997799, "lat": 14.7601}}, {"id": 407317, "name": "As Sal\u2018ah", "country": "YE", "coord": {"lon": 42.996231, "lat": 14.7352}}, {"id": 80425, "name": "Mu\u1e29\u0101faz\u0327at Abyan", "country": "YE", "coord": {"lon": 46.125999, "lat": 13.6291}}, {"id": 6940648, "name": "Al Mahfad", "country": "YE", "coord": {"lon": 46.756001, "lat": 13.9705}}, {"id": 78966, "name": "Al Makdash", "country": "YE", "coord": {"lon": 46.650002, "lat": 14.18333}}, {"id": 70935, "name": "Mu\u1e29\u0101faz\u0327at Shabwah", "country": "YE", "coord": {"lon": 47, "lat": 15}}, {"id": 6940777, "name": "Ataq", "country": "YE", "coord": {"lon": 46.831902, "lat": 14.5634}}, {"id": 77726, "name": "Ataq", "country": "YE", "coord": {"lon": 46.831871, "lat": 14.53766}}, {"id": 6940816, "name": "Khur Maksar", "country": "YE", "coord": {"lon": 45.055199, "lat": 12.8658}}, {"id": 73786, "name": "Khawr Maksar", "country": "YE", "coord": {"lon": 45.033371, "lat": 12.81227}}, {"id": 166940, "name": "Mazra\u2018at Mu\u1e29ammad A\u1e29mad", "country": "SY", "coord": {"lon": 38.316669, "lat": 34.549999}}, {"id": 169492, "name": "\u1e28umaym\u012bm", "country": "SY", "coord": {"lon": 35.940449, "lat": 35.401791}}, {"id": 170031, "name": "\u1e28alk\u016b", "country": "SY", "coord": {"lon": 41.216671, "lat": 37.033329}}, {"id": 164025, "name": "Subaykhan", "country": "SY", "coord": {"lon": 40.60833, "lat": 34.854439}}, {"id": 7632860, "name": "Khas\u0101r\u0101t", "country": "SY", "coord": {"lon": 40.165939, "lat": 35.307098}}, {"id": 170652, "name": "Mu\u1e29\u0101faz\u0327at R\u012bf Dimashq", "country": "SY", "coord": {"lon": 37, "lat": 33.5}}, {"id": 168892, "name": "Judaydat al Kh\u0101\u015f\u015f", "country": "SY", "coord": {"lon": 36.54282, "lat": 33.405418}}, {"id": 92365, "name": "Qaryat B\u0101n\u012b M\u0101lik", "country": "IQ", "coord": {"lon": 47.700001, "lat": 30.566669}}, {"id": 6860697, "name": "\u1e28ayy a\u0163 \u0162ayar\u0101n", "country": "IQ", "coord": {"lon": 43.143951, "lat": 36.32299}}, {"id": 448955, "name": "Tall Raml", "country": "IQ", "coord": {"lon": 44.272221, "lat": 33.258331}}, {"id": 447878, "name": "Tany", "country": "IQ", "coord": {"lon": 43.245869, "lat": 37.098679}}, {"id": 1178285, "name": "Gush Tang", "country": "PK", "coord": {"lon": 63.0308, "lat": 25.9972}}, {"id": 1339510, "name": "Jammun", "country": "PK", "coord": {"lon": 72.617722, "lat": 33.99263}}, {"id": 1164909, "name": "Sialkot", "country": "PK", "coord": {"lon": 74.543129, "lat": 32.510101}}, {"id": 1180283, "name": "Derai B\u0101ba", "country": "PK", "coord": {"lon": 72.353119, "lat": 34.80772}}, {"id": 1164430, "name": "Suj\u0101npur", "country": "PK", "coord": {"lon": 72.656258, "lat": 32.049198}}, {"id": 1403303, "name": "S\u0101d\u0101b\u0101d", "country": "PK", "coord": {"lon": 68.787567, "lat": 27.709869}}, {"id": 1180339, "name": "Dehp\u0101l", "country": "PK", "coord": {"lon": 67.853401, "lat": 29.559299}}, {"id": 7634835, "name": "Bindor", "country": "PK", "coord": {"lon": 70.272301, "lat": 28.378599}}, {"id": 1166231, "name": "Samungli", "country": "PK", "coord": {"lon": 66.934921, "lat": 30.240761}}, {"id": 7041209, "name": "P\u0101oka", "country": "PK", "coord": {"lon": 71.502449, "lat": 33.985619}}, {"id": 7041202, "name": "K\u0101shif\u0101b\u0101d", "country": "PK", "coord": {"lon": 71.510498, "lat": 34}}, {"id": 1337123, "name": "Gondi", "country": "PK", "coord": {"lon": 63.38398, "lat": 25.23547}}, {"id": 1165955, "name": "Sark\u0101or\u0101n", "country": "PK", "coord": {"lon": 64.133331, "lat": 26.98333}}, {"id": 1181959, "name": "Ch\u0101d", "country": "PK", "coord": {"lon": 64.599197, "lat": 25.280399}}, {"id": 7353443, "name": "Jinda Mir\u0101si", "country": "PK", "coord": {"lon": 68.379181, "lat": 26.225201}}, {"id": 1172161, "name": "Langri\u0101l", "country": "PK", "coord": {"lon": 71.411636, "lat": 30.20517}}, {"id": 1333497, "name": "N\u0101md\u0101rw\u0101la", "country": "PK", "coord": {"lon": 71.566673, "lat": 32.566669}}, {"id": 1347925, "name": "Cantonment", "country": "PK", "coord": {"lon": 74.376404, "lat": 31.523899}}, {"id": 7043574, "name": "Iqb\u0101l Camp", "country": "PK", "coord": {"lon": 74.396202, "lat": 31.5151}}, {"id": 1399489, "name": "Zi\u0101rat Sh\u0101h-i-Mard\u0101n", "country": "PK", "coord": {"lon": 66.580559, "lat": 29.03194}}, {"id": 1168399, "name": "Panhwar", "country": "PK", "coord": {"lon": 68.356438, "lat": 25.301809}}, {"id": 1169214, "name": "Goth N\u0101thu Kh\u0101n Khoso", "country": "PK", "coord": {"lon": 67.17379, "lat": 24.89502}}, {"id": 7423527, "name": "Sonikot", "country": "PK", "coord": {"lon": 74.329803, "lat": 35.9193}}, {"id": 1337314, "name": "Gatti", "country": "PK", "coord": {"lon": 62.339539, "lat": 25.20932}}, {"id": 1382461, "name": "Chak Two Hundred Thirty-One RB", "country": "PK", "coord": {"lon": 73.008278, "lat": 31.36447}}, {"id": 1419065, "name": "Sarai", "country": "PK", "coord": {"lon": 70.87957, "lat": 31.91221}}, {"id": 1403126, "name": "Rel\u0101n", "country": "PK", "coord": {"lon": 70.512253, "lat": 29.98748}}, {"id": 1373491, "name": "Balach", "country": "PK", "coord": {"lon": 71.796707, "lat": 35.88615}}, {"id": 1381923, "name": "Chak Twenty-nine", "country": "PK", "coord": {"lon": 71.732941, "lat": 29.354469}}, {"id": 1107346, "name": "Abb\u0101s Kili", "country": "PK", "coord": {"lon": 70.522217, "lat": 32.963329}}, {"id": 286140, "name": "Thamar\u012bt", "country": "OM", "coord": {"lon": 54.033329, "lat": 17.67}}, {"id": 288712, "name": "Bil\u0101d a\u015f \u015e\u016br", "country": "OM", "coord": {"lon": 59.484871, "lat": 22.55283}}, {"id": 7630442, "name": "A\u015f \u015eal\u0101lah al Jad\u012bdah", "country": "OM", "coord": {"lon": 54.099201, "lat": 17.01882}}, {"id": 5861073, "name": "Duck Village", "country": "US", "coord": {"lon": -152.550003, "lat": 58.10833}}, {"id": 288602, "name": "Camp", "country": "OM", "coord": {"lon": 58.883331, "lat": 20.66667}}, {"id": 388692, "name": "\u2018Ashub", "country": "OM", "coord": {"lon": 56.231392, "lat": 26.1675}}, {"id": 7110710, "name": "Mu\u1e29\u0101faz\u0327at al Buraym\u012b", "country": "OM", "coord": {"lon": 56.100269, "lat": 24.10014}}, {"id": 288979, "name": "A\u015f \u015ea\u2018arah", "country": "OM", "coord": {"lon": 55.78389, "lat": 24.25}}, {"id": 292932, "name": "Ajman", "country": "AE", "coord": {"lon": 55.43504, "lat": 25.41111}}, {"id": 6691204, "name": "Muwafjah", "country": "AE", "coord": {"lon": 55.46928, "lat": 25.34852}}, {"id": 291075, "name": "Ra\u2019s al Khaymah", "country": "AE", "coord": {"lon": 56, "lat": 25.66667}}, {"id": 412516, "name": "Al \u1e28amr\u0101n\u012byah", "country": "AE", "coord": {"lon": 55.90028, "lat": 25.611389}}, {"id": 290624, "name": "\u2018\u016ad al Bay\u1e11\u0101\u2019", "country": "AE", "coord": {"lon": 55.45533, "lat": 25.016251}}, {"id": 412578, "name": "A\u0163 \u0162uw\u0101r", "country": "AE", "coord": {"lon": 55.366669, "lat": 25.26667}}, {"id": 292836, "name": "Al Ja\u1e29r", "country": "AE", "coord": {"lon": 55.583328, "lat": 24.25}}, {"id": 8057179, "name": "Min\u0163aqat al Ma\u0163\u0101r", "country": "AE", "coord": {"lon": 54.45343, "lat": 24.437}}, {"id": 388088, "name": "Al \u2018Abb\u0101s\u012byah", "country": "KW", "coord": {"lon": 47.93111, "lat": 29.25028}}, {"id": 250303, "name": "isf\u012br al Ma\u1e29a\u1e6d\u1e6dah", "country": "JO", "coord": {"lon": 35.762859, "lat": 30.179291}}, {"id": 250085, "name": "Az Zubayd\u012byah", "country": "JO", "coord": {"lon": 36.295952, "lat": 32.378719}}, {"id": 443122, "name": "Mu\u1e29\u0101faz\u0327at al \u2018Aqabah", "country": "JO", "coord": {"lon": 35.333328, "lat": 29.75}}, {"id": 7031355, "name": "Tall al Khal\u012bfah", "country": "JO", "coord": {"lon": 35.001839, "lat": 29.557159}}, {"id": 248174, "name": "M\u0101rk\u0101", "country": "JO", "coord": {"lon": 35.98333, "lat": 31.98333}}, {"id": 250639, "name": "Al Jizah", "country": "JO", "coord": {"lon": 35.957211, "lat": 31.69968}}, {"id": 6711051, "name": "\u0100z\u0304ar Bon\u0101b", "country": "IR", "coord": {"lon": 46.123699, "lat": 37.372002}}, {"id": 132548, "name": "G\u016bsheh Sh\u0101hz\u0101deh Q\u0101sem", "country": "IR", "coord": {"lon": 51.549999, "lat": 30.700001}}, {"id": 128137, "name": "Kh\u0101f\u012b", "country": "IR", "coord": {"lon": 53.176998, "lat": 27.361401}}, {"id": 140851, "name": "Ber\u0101k", "country": "IR", "coord": {"lon": 54.3955, "lat": 27.668699}}, {"id": 11754, "name": "B\u0101l\u0101 A\u1e29mad Kol\u0101", "country": "IR", "coord": {"lon": 52.667271, "lat": 36.649059}}, {"id": 7052836, "name": "\u1e28asan\u0101b\u0101d", "country": "IR", "coord": {"lon": 61.054298, "lat": 36.546501}}, {"id": 7034325, "name": "Sa\u2018\u012bd\u0101b\u0101d-e P\u0101\u2018\u012bn", "country": "IR", "coord": {"lon": 56.076302, "lat": 30.257601}}, {"id": 138568, "name": "Cheshmeh Kab\u016bd", "country": "IR", "coord": {"lon": 46.405102, "lat": 33.5732}}, {"id": 125794, "name": "L\u0101v\u0101n", "country": "IR", "coord": {"lon": 53.369999, "lat": 26.809719}}, {"id": 400747, "name": "Ab\u016b M\u016bs\u0101", "country": "IR", "coord": {"lon": 55.023628, "lat": 25.86698}}, {"id": 130216, "name": "Kh\u0101rk", "country": "IR", "coord": {"lon": 50.330559, "lat": 29.261391}}, {"id": 6683626, "name": "Ch\u0101h Gach\u012b", "country": "IR", "coord": {"lon": 52.348999, "lat": 27.8242}}, {"id": 1114776, "name": "Tomp-e R\u012bg\u0101n", "country": "IR", "coord": {"lon": 60.72287, "lat": 27.253941}}, {"id": 359927, "name": "A\u015fl\u0101n", "country": "EG", "coord": {"lon": 31.04417, "lat": 29.48028}}, {"id": 1160915, "name": "Jahl\u012b\u0101r", "country": "IR", "coord": {"lon": 60.361401, "lat": 25.4758}}, {"id": 6651320, "name": "Deh-e Darg\u012b", "country": "IR", "coord": {"lon": 61.546501, "lat": 31.099701}}, {"id": 8029482, "name": "Darv\u0101zeh Qor\u0101n", "country": "IR", "coord": {"lon": 54.296501, "lat": 31.934919}}, {"id": 117067, "name": "S\u0101rems\u0101ql\u016b", "country": "IR", "coord": {"lon": 48.3703, "lat": 36.759701}}, {"id": 35056, "name": "Tabr\u012bz J\u0101n\u012b", "country": "IR", "coord": {"lon": 46.23333, "lat": 38.133331}}, {"id": 18557, "name": "Qar\u0101lar-e M\u012brz\u0101 \u1e28oseynqol\u012b", "country": "IR", "coord": {"lon": 45.067501, "lat": 37.674702}}, {"id": 6689293, "name": "Re\u1e95\u0101\u0101b\u0101d", "country": "IR", "coord": {"lon": 48.396198, "lat": 38.3237}}, {"id": 3245, "name": "Taglag", "country": "IR", "coord": {"lon": 44.98333, "lat": 38.450001}}, {"id": 390237, "name": "Ja\u2018far\u0101b\u0101d-e Now", "country": "IR", "coord": {"lon": 52.590801, "lat": 29.525999}}, {"id": 131965, "name": "H\u0101rom", "country": "IR", "coord": {"lon": 53.714699, "lat": 28.905399}}, {"id": 11263, "name": "Shahr\u012b\u0101r Kandeh", "country": "IR", "coord": {"lon": 53.19902, "lat": 36.631939}}, {"id": 118848, "name": "Ramak", "country": "IR", "coord": {"lon": 50.667931, "lat": 36.898361}}, {"id": 8084, "name": "Behjat\u0101b\u0101d", "country": "IR", "coord": {"lon": 51.461639, "lat": 36.667431}}, {"id": 39161, "name": "M\u0101m\u0101\u2019\u012b", "country": "IR", "coord": {"lon": 54.397739, "lat": 36.892578}}, {"id": 130261, "name": "Jav\u0101d\u012byeh", "country": "IR", "coord": {"lon": 56.855751, "lat": 33.665451}}, {"id": 7264, "name": "Kal\u0101teh-ye Dowlat", "country": "IR", "coord": {"lon": 57.616982, "lat": 36.163841}}, {"id": 40847, "name": "Re\u1e95\u0101\u0101b\u0101d", "country": "IR", "coord": {"lon": 57.31778, "lat": 37.499722}}, {"id": 123600, "name": "Mo\u1e29ammad\u0101b\u0101d", "country": "IR", "coord": {"lon": 59.64278, "lat": 36.255001}}, {"id": 6201374, "name": "Ost\u0101n-e Khor\u0101s\u0101n-e Jon\u016bb\u012b", "country": "IR", "coord": {"lon": 59.5, "lat": 32.5}}, {"id": 129364, "name": "Kal\u0101teh-ye Karbal\u0101\u2019\u012b \u1e28\u0101jj\u012b", "country": "IR", "coord": {"lon": 59.257221, "lat": 32.901669}}, {"id": 6649516, "name": "Dayrest\u0101n", "country": "IR", "coord": {"lon": 55.934898, "lat": 26.7463}}, {"id": 7044034, "name": "Akbar\u0101b\u0101d", "country": "IR", "coord": {"lon": 58.416851, "lat": 29.084021}}, {"id": 7011520, "name": "Shahrak-e Jah\u0101d", "country": "IR", "coord": {"lon": 56.97311, "lat": 30.26409}}, {"id": 117460, "name": "Sang Kan\u012b", "country": "IR", "coord": {"lon": 56.362061, "lat": 27.19796}}, {"id": 6660023, "name": "Nesh\u0101\u0163\u012beh", "country": "IR", "coord": {"lon": 50.0457, "lat": 36.254902}}, {"id": 129945, "name": "J\u016braq\u0101n", "country": "IR", "coord": {"lon": 48.55444, "lat": 34.884899}}, {"id": 29033, "name": "Rokan Sar\u0101", "country": "IR", "coord": {"lon": 49.608101, "lat": 37.32085}}, {"id": 139677, "name": "Ost\u0101n-e Chah\u0101r Ma\u1e29\u0101l va Bakht\u012b\u0101r\u012b", "country": "IR", "coord": {"lon": 50.75, "lat": 32.166672}}, {"id": 144569, "name": "A\u1e29mad\u0101b\u0101d", "country": "IR", "coord": {"lon": 50.849998, "lat": 32.26667}}, {"id": 417560, "name": "Sh\u0101h Karam", "country": "IR", "coord": {"lon": 51.857761, "lat": 32.730171}}, {"id": 133533, "name": "Ger\u012bzeh", "country": "IR", "coord": {"lon": 47.018501, "lat": 35.257999}}, {"id": 32516, "name": "Badr\u0101b\u0101d-e `Oly\u0101", "country": "IR", "coord": {"lon": 48.279442, "lat": 33.42944}}, {"id": 833, "name": "\u1e28e\u015f\u0101r-e Sef\u012bd", "country": "IR", "coord": {"lon": 47.159401, "lat": 34.330502}}, {"id": 141656, "name": "Shen\u0101s", "country": "IR", "coord": {"lon": 54.798069, "lat": 26.52433}}, {"id": 137088, "name": "Deh", "country": "IR", "coord": {"lon": 53.9925, "lat": 26.5625}}, {"id": 8057484, "name": "B\u0101gh-e N\u0101r", "country": "IR", "coord": {"lon": 50.836922, "lat": 28.94874}}, {"id": 6648634, "name": "Barv\u0101r", "country": "IR", "coord": {"lon": 48.7603, "lat": 31.3431}}, {"id": 44992, "name": "Kosht\u0101rg\u0101h", "country": "IR", "coord": {"lon": 49.166672, "lat": 30.549999}}, {"id": 136014, "name": "Do Gonbadan", "country": "IR", "coord": {"lon": 50.7981, "lat": 30.358601}}, {"id": 6663476, "name": "K\u016by-e Em\u0101m \u1e28asan", "country": "IR", "coord": {"lon": 50.8167, "lat": 30.355101}}, {"id": 121859, "name": "Om\u012bd\u012byeh-ye P\u0101\u2019\u012bn", "country": "IR", "coord": {"lon": 49.703331, "lat": 30.759171}}, {"id": 6687934, "name": "K\u016by-e Jomh\u016br\u012b-ye Esl\u0101m\u012b", "country": "IR", "coord": {"lon": 48.359299, "lat": 32.433998}}, {"id": 45013, "name": "Jozf-e Sofl\u00e1", "country": "IR", "coord": {"lon": 48.224098, "lat": 30.365499}}, {"id": 100425, "name": "Yanbu al Bahr", "country": "SA", "coord": {"lon": 38.06374, "lat": 24.089121}}, {"id": 108773, "name": "Al Wajh", "country": "SA", "coord": {"lon": 36.45248, "lat": 26.24551}}, {"id": 101591, "name": "Tamrah", "country": "SA", "coord": {"lon": 45.433941, "lat": 20.40843}}, {"id": 101312, "name": "Turayf", "country": "SA", "coord": {"lon": 38.663738, "lat": 31.67252}}, {"id": 409515, "name": "Al \u2018Aw\u0101j\u012byah", "country": "SA", "coord": {"lon": 40.54842, "lat": 21.447689}}, {"id": 103331, "name": "Q\u0101r\u0101", "country": "SA", "coord": {"lon": 40.22694, "lat": 29.87694}}, {"id": 8019123, "name": "Shar\u016brah", "country": "SA", "coord": {"lon": 47.11488, "lat": 17.48946}}, {"id": 109579, "name": "Min\u0163aqat al \u1e28ud\u016bd ash Sham\u0101l\u012byah", "country": "SA", "coord": {"lon": 42.666672, "lat": 30}}, {"id": 108512, "name": "Arar", "country": "SA", "coord": {"lon": 41.038078, "lat": 30.975309}}, {"id": 107684, "name": "Banb\u0101n", "country": "SA", "coord": {"lon": 46.588058, "lat": 25.001671}}, {"id": 103012, "name": "Raf\u1e29\u0101", "country": "SA", "coord": {"lon": 43.519409, "lat": 29.634251}}, {"id": 108918, "name": "Al Qaysumah", "country": "SA", "coord": {"lon": 46.127289, "lat": 28.311171}}, {"id": 109122, "name": "Al Mikhl\u0101f", "country": "SA", "coord": {"lon": 44.213501, "lat": 17.53957}}, {"id": 101927, "name": "S\u012bd\u012b \u1e28amzah", "country": "SA", "coord": {"lon": 39.615921, "lat": 24.506149}}, {"id": 107392, "name": "Birzayn", "country": "SA", "coord": {"lon": 42.783329, "lat": 18.25}}, {"id": 104270, "name": "Masjid Ibn Rash\u012bd", "country": "SA", "coord": {"lon": 45.400002, "lat": 27.91667}}, {"id": 395014, "name": "Sid\u012bs", "country": "SA", "coord": {"lon": 41.674049, "lat": 27.470261}}, {"id": 109470, "name": "Min\u0163aqat al Jawf", "country": "SA", "coord": {"lon": 38.75, "lat": 29.5}}, {"id": 108648, "name": "Al Qurayyat", "country": "SA", "coord": {"lon": 37.342819, "lat": 31.33176}}, {"id": 109923, "name": "Al Ba\u015far", "country": "SA", "coord": {"lon": 43.869732, "lat": 26.285299}}, {"id": 110325, "name": "Ad Dawadimi", "country": "SA", "coord": {"lon": 44.392368, "lat": 24.507721}}, {"id": 101810, "name": "Sufan", "country": "SA", "coord": {"lon": 42.599998, "lat": 19.98333}}, {"id": 110060, "name": "Al \u2018Aq\u012bq", "country": "SA", "coord": {"lon": 41.664341, "lat": 20.273581}}, {"id": 108384, "name": "Ar Ruqayyiqah", "country": "SA", "coord": {"lon": 49.566669, "lat": 25.35}}, {"id": 106261, "name": "\u1e28ajlah", "country": "SA", "coord": {"lon": 42.633331, "lat": 18.25}}, {"id": 290333, "name": "Muharraq Governorate", "country": "BH", "coord": {"lon": 50.616669, "lat": 26.25}}, {"id": 290123, "name": "Sam\u0101h\u012bj", "country": "BH", "coord": {"lon": 50.634998, "lat": 26.280001}}, {"id": 6616324, "name": "Crucey-Villages", "country": "FR", "coord": {"lon": 1.0781, "lat": 48.6675}}, {"id": 2967881, "name": "Vitray-sous-Br\u00e9zolles", "country": "FR", "coord": {"lon": 1.1233, "lat": 48.689701}}, {"id": 1467993, "name": "Qarah Qishl\u0101q", "country": "AF", "coord": {"lon": 68.892883, "lat": 36.657059}}, {"id": 1129867, "name": "Qala i Naw", "country": "AF", "coord": {"lon": 63.12891, "lat": 34.98735}}, {"id": 1423722, "name": "Khw\u0101jah Payt\u0101gh", "country": "AF", "coord": {"lon": 64.7761, "lat": 35.93589}}, {"id": 1129154, "name": "Kaze Karez", "country": "AF", "coord": {"lon": 65.845009, "lat": 31.537979}}, {"id": 1473022, "name": "Nahr-e Sh\u0101h\u012b", "country": "AF", "coord": {"lon": 70.491814, "lat": 34.414822}}, {"id": 1140605, "name": "Guzarah", "country": "AF", "coord": {"lon": 62.212349, "lat": 34.212231}}, {"id": 1136354, "name": "Deh Khwahan", "country": "AF", "coord": {"lon": 70.21875, "lat": 37.889648}}, {"id": 1438158, "name": "M\u012b\u0101n\u016br Kal\u0101", "country": "AF", "coord": {"lon": 69.252777, "lat": 33.628132}}, {"id": 1447263, "name": "Qal\u2018ah-ye \u2018Abd ul A\u1e29mad Kh\u0101n", "country": "AF", "coord": {"lon": 68.427498, "lat": 33.53722}}, {"id": 1447254, "name": "Kala-Navi-Sarm-Reg", "country": "AF", "coord": {"lon": 68.416389, "lat": 33.53833}}, {"id": 1146727, "name": "B\u0101\u012b M\u0101las\u012b", "country": "AF", "coord": {"lon": 70.512398, "lat": 37.132938}}, {"id": 1428258, "name": "Kalayi-Gulyamsheykhi", "country": "AF", "coord": {"lon": 62.152641, "lat": 32.374889}}, {"id": 1221417, "name": "Kevrun", "country": "TJ", "coord": {"lon": 70.889313, "lat": 38.470821}}, {"id": 1457317, "name": "Sar \u0100sy\u0101b", "country": "AF", "coord": {"lon": 67.821671, "lat": 34.8125}}, {"id": 2083549, "name": "Western Province", "country": "PG", "coord": {"lon": 142, "lat": -7.5}}, {"id": 2094687, "name": "Kapal", "country": "PG", "coord": {"lon": 142.850006, "lat": -8.63333}}, {"id": 6600589, "name": "Shalun", "country": "TW", "coord": {"lon": 120.945, "lat": 24.81361}}, {"id": 3358815, "name": "Academia", "country": "NA", "coord": {"lon": 17.067221, "lat": -22.610279}}, {"id": 3363754, "name": "Narraville", "country": "NA", "coord": {"lon": 14.53722, "lat": -22.95167}}, {"id": 3356386, "name": "Kansukwa", "country": "NA", "coord": {"lon": 19.700001, "lat": -17.933331}}, {"id": 3354716, "name": "Okaukuejo", "country": "NA", "coord": {"lon": 15.9161, "lat": -19.1763}}, {"id": 3352919, "name": "Steinhausen", "country": "NA", "coord": {"lon": 18.23333, "lat": -21.816669}}, {"id": 3354537, "name": "Omashaka", "country": "NA", "coord": {"lon": 15.96667, "lat": -17.883329}}, {"id": 3356024, "name": "Kolmanskop", "country": "NA", "coord": {"lon": 15.23278, "lat": -26.70389}}, {"id": 877153, "name": "Kosheshe", "country": "NA", "coord": {"lon": 24.116671, "lat": -17.683331}}, {"id": 932618, "name": "Machekoaneng", "country": "LS", "coord": {"lon": 27.545, "lat": -29.43532}}, {"id": 924053, "name": "Salima District", "country": "MW", "coord": {"lon": 34.40184, "lat": -13.71959}}, {"id": 926623, "name": "Mikute", "country": "MW", "coord": {"lon": 34.587078, "lat": -13.75277}}, {"id": 7839145, "name": "Songwe", "country": "MW", "coord": {"lon": 34.9282, "lat": -14.08359}}, {"id": 927245, "name": "Mangochi District", "country": "MW", "coord": {"lon": 35.346581, "lat": -14.39296}}, {"id": 927246, "name": "Mangochi", "country": "MW", "coord": {"lon": 35.264481, "lat": -14.47815}}, {"id": 929083, "name": "Kamlembo", "country": "MW", "coord": {"lon": 33.783329, "lat": -13.78333}}, {"id": 928657, "name": "Karonga District", "country": "MW", "coord": {"lon": 33.881512, "lat": -10.11153}}, {"id": 235715, "name": "Karonga", "country": "MW", "coord": {"lon": 33.933331, "lat": -9.93333}}, {"id": 931039, "name": "Chileka", "country": "MW", "coord": {"lon": 34.95232, "lat": -15.67403}}, {"id": 892711, "name": "Dahlia", "country": "ZW", "coord": {"lon": 27.16667, "lat": -18.616671}}, {"id": 886761, "name": "Masvingo Province", "country": "ZW", "coord": {"lon": 31, "lat": -21}}, {"id": 886763, "name": "Masvingo", "country": "ZW", "coord": {"lon": 30.82766, "lat": -20.06373}}, {"id": 894310, "name": "Charara", "country": "ZW", "coord": {"lon": 28.95179, "lat": -16.54977}}, {"id": 1085511, "name": "Dunowen", "country": "ZW", "coord": {"lon": 31.116671, "lat": -17.89139}}, {"id": 1085520, "name": "Arlington", "country": "ZW", "coord": {"lon": 31.094721, "lat": -17.913059}}, {"id": 893485, "name": "Chiredzi", "country": "ZW", "coord": {"lon": 31.66667, "lat": -21.049999}}, {"id": 893549, "name": "Chipinge", "country": "ZW", "coord": {"lon": 32.623638, "lat": -20.18833}}, {"id": 1105960, "name": "Umvutcha A", "country": "ZW", "coord": {"lon": 28.58861, "lat": -20.051941}}, {"id": 7602866, "name": "R\u00e9gion du Borkou", "country": "TD", "coord": {"lon": 18.5, "lat": 18.25}}, {"id": 2432678, "name": "Largeau", "country": "TD", "coord": {"lon": 19.10428, "lat": 17.925699}}, {"id": 7603253, "name": "R\u00e9gion du Mayo-K\u00e9bbi Ouest", "country": "TD", "coord": {"lon": 14.75, "lat": 9.33}}, {"id": 2426240, "name": "Pala", "country": "TD", "coord": {"lon": 14.9046, "lat": 9.3642}}, {"id": 242048, "name": "R\u00e9gion du Salamat", "country": "TD", "coord": {"lon": 20.5, "lat": 11}}, {"id": 245338, "name": "Am Timan", "country": "TD", "coord": {"lon": 20.2827, "lat": 11.0297}}, {"id": 2432193, "name": "Gazira", "country": "TD", "coord": {"lon": 18.67333, "lat": 12.17661}}, {"id": 2429323, "name": "R\u00e9gion du Lac", "country": "TD", "coord": {"lon": 14.5, "lat": 13.5}}, {"id": 2425296, "name": "Tandal", "country": "TD", "coord": {"lon": 14.71667, "lat": 13.45}}, {"id": 7603251, "name": "R\u00e9gion du Hadjer-Lamis", "country": "TD", "coord": {"lon": 16.167, "lat": 12.68}}, {"id": 2434985, "name": "Bokoro", "country": "TD", "coord": {"lon": 17.056801, "lat": 12.3807}}, {"id": 7603254, "name": "R\u00e9gion de la Ville de N'Djam\u00e9na", "country": "TD", "coord": {"lon": 15.06666, "lat": 12.11666}}, {"id": 2428334, "name": "Mardan No\u00fbm", "country": "TD", "coord": {"lon": 15.05, "lat": 12.13333}}, {"id": 2435899, "name": "R\u00e9gion du Batha", "country": "TD", "coord": {"lon": 19, "lat": 14}}, {"id": 2426991, "name": "Ngardiana", "country": "TD", "coord": {"lon": 18.297501, "lat": 13.2341}}, {"id": 2429425, "name": "Koutou-B\u00e9bo", "country": "TD", "coord": {"lon": 16.08563, "lat": 8.62337}}, {"id": 243503, "name": "Kamina", "country": "TD", "coord": {"lon": 20.83333, "lat": 13.83333}}, {"id": 2428132, "name": "R\u00e9gion du Mayo-K\u00e9bbi Est", "country": "TD", "coord": {"lon": 15.83, "lat": 10}}, {"id": 2434910, "name": "Bongor", "country": "TD", "coord": {"lon": 15.37222, "lat": 10.28056}}, {"id": 2427315, "name": "R\u00e9gion du Moyen-Chari", "country": "TD", "coord": {"lon": 18.5, "lat": 9.3333}}, {"id": 2436067, "name": "Banda", "country": "TD", "coord": {"lon": 18.365299, "lat": 9.1561}}, {"id": 2425287, "name": "R\u00e9gion du Tandjil\u00e9", "country": "TD", "coord": {"lon": 16.5, "lat": 9.5}}, {"id": 2429296, "name": "Lai", "country": "TD", "coord": {"lon": 16.298901, "lat": 9.3952}}, {"id": 1100188, "name": "Dami\u00e3o", "country": "MZ", "coord": {"lon": 35.315281, "lat": -22.022779}}, {"id": 1027832, "name": "Rupia", "country": "MZ", "coord": {"lon": 33.645, "lat": -16.101391}}, {"id": 1043298, "name": "Lu\u00edee", "country": "MZ", "coord": {"lon": 33.176392, "lat": -15.90389}}, {"id": 1049896, "name": "Chibobar", "country": "MZ", "coord": {"lon": 40.51667, "lat": -12.98333}}, {"id": 1051823, "name": "Prov\u00edncia de Cabo Delgado", "country": "MZ", "coord": {"lon": 39, "lat": -12.5}}, {"id": 1085237, "name": "Mitamba", "country": "MZ", "coord": {"lon": 40.36972, "lat": -11.35972}}, {"id": 1040649, "name": "Prov\u00edncia de Maputo", "country": "MZ", "coord": {"lon": 32.333328, "lat": -25.5}}, {"id": 1043458, "name": "Luabo", "country": "MZ", "coord": {"lon": 36.105282, "lat": -18.39278}}, {"id": 1103342, "name": "R\u00e9gulo Cassiano", "country": "MZ", "coord": {"lon": 35.40472, "lat": -23.87306}}, {"id": 1040039, "name": "Matararique", "country": "MZ", "coord": {"lon": 33.461941, "lat": -19.14917}}, {"id": 1047660, "name": "Cuamba", "country": "MZ", "coord": {"lon": 36.53722, "lat": -14.80306}}, {"id": 1044159, "name": "Lactic\u012bnia", "country": "MZ", "coord": {"lon": 34.900002, "lat": -19.799999}}, {"id": 1041510, "name": "Malatane", "country": "MZ", "coord": {"lon": 39.93306, "lat": -16.19194}}, {"id": 2410975, "name": "Nazar\u00e9", "country": "ST", "coord": {"lon": 6.71667, "lat": 0.36667}}, {"id": 2410878, "name": "Pr\u00edncipe", "country": "ST", "coord": {"lon": 7.41667, "lat": 1.61667}}, {"id": 2411001, "name": "Montalv\u00e3o", "country": "ST", "coord": {"lon": 7.41667, "lat": 1.66667}}, {"id": 2397141, "name": "Province de la Nyanga", "country": "GA", "coord": {"lon": 11, "lat": -3}}, {"id": 2396253, "name": "Tchibanga", "country": "GA", "coord": {"lon": 11.03333, "lat": -2.85}}, {"id": 2396925, "name": "Province de l\u2019 Ogoou\u00e9-Lolo", "country": "GA", "coord": {"lon": 13, "lat": -1}}, {"id": 2399672, "name": "Limbenga", "country": "GA", "coord": {"lon": 12.74007, "lat": -0.82716}}, {"id": 2401506, "name": "Bongo", "country": "GA", "coord": {"lon": 13.43333, "lat": -1.65}}, {"id": 2396076, "name": "Province du Woleu-Ntem", "country": "GA", "coord": {"lon": 12, "lat": 2}}, {"id": 2398283, "name": "Mitzic", "country": "GA", "coord": {"lon": 11.54904, "lat": 0.78206}}, {"id": 2400682, "name": "Province de l\u2019 Estuaire", "country": "GA", "coord": {"lon": 10, "lat": 0.16667}}, {"id": 2400870, "name": "Edouangani I", "country": "GA", "coord": {"lon": 9.41667, "lat": 0.46667}}, {"id": 2396926, "name": "Province de l\u2019 Ogoou\u00e9-Ivindo", "country": "GA", "coord": {"lon": 13, "lat": 0.5}}, {"id": 2402123, "name": "Avil-Chicago", "country": "GA", "coord": {"lon": 12.88333, "lat": 0.56667}}, {"id": 2400033, "name": "Koko", "country": "GA", "coord": {"lon": 13.96556, "lat": 0.99092}}, {"id": 2401346, "name": "Comilog", "country": "GA", "coord": {"lon": 13.23661, "lat": -1.54154}}, {"id": 2401578, "name": "Bitam", "country": "GA", "coord": {"lon": 11.50065, "lat": 2.07597}}, {"id": 2399075, "name": "Massouka", "country": "GA", "coord": {"lon": 10.25, "lat": -0.7}}, {"id": 2397466, "name": "Province de la Ngouni\u00e9", "country": "GA", "coord": {"lon": 11, "lat": -2}}, {"id": 2398073, "name": "Mouila", "country": "GA", "coord": {"lon": 11.05594, "lat": -1.86846}}, {"id": 7860622, "name": "Aldeia Campo", "country": "AO", "coord": {"lon": 15.11013, "lat": -11.4149}}, {"id": 7789926, "name": "Tchahungo", "country": "AO", "coord": {"lon": 20.45376, "lat": -9.70944}}, {"id": 3346661, "name": "Porto Amboim", "country": "AO", "coord": {"lon": 13.75985, "lat": -10.73142}}, {"id": 2239858, "name": "Malanje Province", "country": "AO", "coord": {"lon": 16.825529, "lat": -9.67548}}, {"id": 2592240, "name": "Vasco", "country": "AO", "coord": {"lon": 16.31361, "lat": -9.53889}}, {"id": 3351640, "name": "Prov\u00edncia do Bi\u00e9", "country": "AO", "coord": {"lon": 17.303101, "lat": -12.34989}}, {"id": 3348078, "name": "Kuito", "country": "AO", "coord": {"lon": 16.933331, "lat": -12.38333}}, {"id": 2238852, "name": "Povo Grande", "country": "AO", "coord": {"lon": 12.2, "lat": -5.6}}, {"id": 3371903, "name": "Docota", "country": "AO", "coord": {"lon": 13.41306, "lat": -12.5975}}, {"id": 1074972, "name": "Andranomena", "country": "MG", "coord": {"lon": 43.73333, "lat": -23.383329}}, {"id": 1058390, "name": "Morombe", "country": "MG", "coord": {"lon": 43.349998, "lat": -21.73333}}, {"id": 1078601, "name": "Ampangalana Avaratra", "country": "MG", "coord": {"lon": 48.366669, "lat": -21.200001}}, {"id": 1065158, "name": "Farafangana", "country": "MG", "coord": {"lon": 47.833328, "lat": -22.816669}}, {"id": 1077503, "name": "Ampopohona", "country": "MG", "coord": {"lon": 47.116669, "lat": -21.450001}}, {"id": 1078317, "name": "Amparihy", "country": "MG", "coord": {"lon": 46.966671, "lat": -25.01667}}, {"id": 1078283, "name": "Ampasibajina", "country": "MG", "coord": {"lon": 49.98333, "lat": -13.36667}}, {"id": 1066702, "name": "Besalampy", "country": "MG", "coord": {"lon": 44.48333, "lat": -16.75}}, {"id": 1065113, "name": "Fasenina-Ampasy", "country": "MG", "coord": {"lon": 48.316669, "lat": -13.3}}, {"id": 1079096, "name": "Amborovy", "country": "MG", "coord": {"lon": 46.333328, "lat": -15.66667}}, {"id": 1082829, "name": "Ambatomanga", "country": "MG", "coord": {"lon": 47.76667, "lat": -14.61667}}, {"id": 1069188, "name": "Antsirabato", "country": "MG", "coord": {"lon": 50.333328, "lat": -15}}, {"id": 1081105, "name": "Ambodipont", "country": "MG", "coord": {"lon": 49.633331, "lat": -14.63333}}, {"id": 1066512, "name": "Betahitra", "country": "MG", "coord": {"lon": 49.299999, "lat": -12.35}}, {"id": 1076152, "name": "Andimaka", "country": "MG", "coord": {"lon": 44.316669, "lat": -20.26667}}, {"id": 1056953, "name": "Salazamay", "country": "MG", "coord": {"lon": 49.400002, "lat": -18.116671}}, {"id": 1060169, "name": "Marofototra", "country": "MG", "coord": {"lon": 49.816669, "lat": -17.08333}}, {"id": 1061912, "name": "Maintirano", "country": "MG", "coord": {"lon": 44.01667, "lat": -18.066669}}, {"id": 1063858, "name": "Ivato", "country": "MG", "coord": {"lon": 47.48333, "lat": -18.799999}}, {"id": 1062347, "name": "Mahatsara", "country": "MG", "coord": {"lon": 48.799999, "lat": -19.85}}, {"id": 1070738, "name": "Antanetikely", "country": "MG", "coord": {"lon": 47.066669, "lat": -19.816669}}, {"id": 935511, "name": "Marepine", "country": "RE", "coord": {"lon": 55.51844, "lat": -20.8885}}, {"id": 921721, "name": "Ouani", "country": "KM", "coord": {"lon": 44.425831, "lat": -12.13222}}, {"id": 1091088, "name": "Barakani", "country": "KM", "coord": {"lon": 44.431671, "lat": -12.13556}}, {"id": 1092003, "name": "Mbal\u00e9ni", "country": "KM", "coord": {"lon": 43.27417, "lat": -11.55}}, {"id": 895953, "name": "Zambezi", "country": "ZM", "coord": {"lon": 23.10466, "lat": -13.54323}}, {"id": 897045, "name": "Solwezi", "country": "ZM", "coord": {"lon": 26.38938, "lat": -12.1688}}, {"id": 898905, "name": "Sesheke", "country": "ZM", "coord": {"lon": 24.296841, "lat": -17.475929}}, {"id": 898947, "name": "Senanga", "country": "ZM", "coord": {"lon": 23.26667, "lat": -16.116671}}, {"id": 908248, "name": "Malabo", "country": "ZM", "coord": {"lon": 28.66667, "lat": -13}}, {"id": 905149, "name": "Mukoko", "country": "ZM", "coord": {"lon": 23.15, "lat": -15.25}}, {"id": 899903, "name": "Panku", "country": "ZM", "coord": {"lon": 31.91715, "lat": -13.26846}}, {"id": 919255, "name": "Chimese", "country": "ZM", "coord": {"lon": 28.866671, "lat": -11.16667}}, {"id": 920928, "name": "Chalimbana", "country": "ZM", "coord": {"lon": 28.433331, "lat": -15.36667}}, {"id": 920106, "name": "Chichili", "country": "ZM", "coord": {"lon": 25.866671, "lat": -17.83333}}, {"id": 916978, "name": "Highlands", "country": "ZM", "coord": {"lon": 25.85, "lat": -17.83333}}, {"id": 896662, "name": "Thornton", "country": "ZM", "coord": {"lon": 31.133329, "lat": -10.21667}}, {"id": 898586, "name": "Shimpanya", "country": "ZM", "coord": {"lon": 24.799999, "lat": -14.81667}}, {"id": 907439, "name": "Masupe", "country": "ZM", "coord": {"lon": 32.566669, "lat": -13.55}}, {"id": 176146, "name": "Mbala", "country": "ZM", "coord": {"lon": 31.36587, "lat": -8.84024}}, {"id": 2223527, "name": "Nsimalen", "country": "CM", "coord": {"lon": 11.55, "lat": 3.73333}}, {"id": 2225712, "name": "Mvan", "country": "CM", "coord": {"lon": 11.51667, "lat": 3.81667}}, {"id": 2231926, "name": "Enongal", "country": "CM", "coord": {"lon": 11.18333, "lat": 2.88333}}, {"id": 2235186, "name": "Bafut", "country": "CM", "coord": {"lon": 10.1, "lat": 6.08333}}, {"id": 2229673, "name": "La\u00efnd\u00e9", "country": "CM", "coord": {"lon": 13.41667, "lat": 9.33333}}, {"id": 2227808, "name": "Mbi Djoro", "country": "CM", "coord": {"lon": 13.56667, "lat": 7.38333}}, {"id": 7110232, "name": "Nkoutaba", "country": "CM", "coord": {"lon": 10.74339, "lat": 5.63075}}, {"id": 2222312, "name": "Salak", "country": "CM", "coord": {"lon": 14.25251, "lat": 10.45935}}, {"id": 2221030, "name": "Yagoua", "country": "CM", "coord": {"lon": 15.23288, "lat": 10.34107}}, {"id": 2223306, "name": "Nzinb\u00e9", "country": "CM", "coord": {"lon": 14.36667, "lat": 4.46667}}, {"id": 2230600, "name": "Kael\u00e9", "country": "CM", "coord": {"lon": 14.44651, "lat": 10.10672}}, {"id": 2234353, "name": "Besongabang", "country": "CM", "coord": {"lon": 9.29875, "lat": 5.70735}}, {"id": 2224922, "name": "New Bell", "country": "CM", "coord": {"lon": 9.7215, "lat": 4.0354}}, {"id": 2594997, "name": "Ndongo", "country": "CM", "coord": {"lon": 9.3483, "lat": 4.0792}}, {"id": 2222518, "name": "Pongo", "country": "CM", "coord": {"lon": 9.98333, "lat": 2.86667}}, {"id": 1547511, "name": "Plaine Corail", "country": "MU", "coord": {"lon": 63.35833, "lat": -19.758329}}, {"id": 934753, "name": "Beau Vallon", "country": "MU", "coord": {"lon": 57.695278, "lat": -20.41889}}, {"id": 3370751, "name": "Ascension, and Tristan da Cunha Saint Helena", "country": "SH", "coord": {"lon": -5.7, "lat": -15.95}}, {"id": 236178, "name": "Pr\u00e9fecture de la Vakaga", "country": "CF", "coord": {"lon": 22.75, "lat": 10.33333}}, {"id": 240210, "name": "Birao", "country": "CF", "coord": {"lon": 22.788179, "lat": 10.28488}}, {"id": 236423, "name": "Sayo", "country": "CF", "coord": {"lon": 22.820601, "lat": 4.76403}}, {"id": 2385666, "name": "Kolongo", "country": "CF", "coord": {"lon": 18.533331, "lat": 4.38333}}, {"id": 934989, "name": "Matsapha", "country": "SZ", "coord": {"lon": 31.316669, "lat": -26.51667}}, {"id": 205706, "name": "Sewe", "country": "CD", "coord": {"lon": 24.533331, "lat": -6.1}}, {"id": 215976, "name": "Ilebo", "country": "CD", "coord": {"lon": 20.58333, "lat": -4.31667}}, {"id": 204498, "name": "Ukungu", "country": "CD", "coord": {"lon": 23.633329, "lat": -3.5}}, {"id": 214139, "name": "Province du Kasa\u00ef-Occidental", "country": "CD", "coord": {"lon": 22, "lat": -4.5}}, {"id": 215601, "name": "Kabasele-Pania", "country": "CD", "coord": {"lon": 22.47694, "lat": -5.89083}}, {"id": 214389, "name": "Kaniama", "country": "CD", "coord": {"lon": 24.183331, "lat": -7.56667}}, {"id": 204891, "name": "Tshilundu", "country": "CD", "coord": {"lon": 22.616671, "lat": -8.4}}, {"id": 388578, "name": "Lumwe", "country": "CD", "coord": {"lon": 25.23667, "lat": -8.6575}}, {"id": 212360, "name": "Kongolo", "country": "CD", "coord": {"lon": 27, "lat": -5.38333}}, {"id": 208705, "name": "Moni", "country": "CD", "coord": {"lon": 29.25, "lat": -5.86667}}, {"id": 212962, "name": "Kimbalata", "country": "CD", "coord": {"lon": 29.716669, "lat": -7.1}}, {"id": 209598, "name": "Manono", "country": "CD", "coord": {"lon": 27.41667, "lat": -7.3}}, {"id": 1105460, "name": "Lumpundu", "country": "CD", "coord": {"lon": 25.512779, "lat": -10.74139}}, {"id": 922262, "name": "Ruashi", "country": "CD", "coord": {"lon": 27.549999, "lat": -11.61667}}, {"id": 2315026, "name": "Kasongo-Lunda", "country": "CD", "coord": {"lon": 16.816669, "lat": -6.46667}}, {"id": 205945, "name": "Salukwango", "country": "CD", "coord": {"lon": 26.73333, "lat": -2.58333}}, {"id": 7605614, "name": "Muhato", "country": "RW", "coord": {"lon": 29.247181, "lat": -1.66557}}, {"id": 213632, "name": "Kavumu", "country": "CD", "coord": {"lon": 28.816111, "lat": -2.30278}}, {"id": 218355, "name": "Boluka", "country": "CD", "coord": {"lon": 20.9, "lat": -0.33333}}, {"id": 211734, "name": "Lisala", "country": "CD", "coord": {"lon": 21.51667, "lat": 2.15}}, {"id": 2316821, "name": "Bokuda", "country": "CD", "coord": {"lon": 19.783331, "lat": 3.21667}}, {"id": 2317285, "name": "Basankusu", "country": "CD", "coord": {"lon": 19.80205, "lat": 1.22095}}, {"id": 8070735, "name": "Ipeko", "country": "CD", "coord": {"lon": 18.27833, "lat": 0.0201}}, {"id": 2591272, "name": "Lukole", "country": "CD", "coord": {"lon": 18.795561, "lat": -5.00917}}, {"id": 2315417, "name": "Inongo", "country": "CD", "coord": {"lon": 18.26667, "lat": -1.95}}, {"id": 2312393, "name": "Muanda", "country": "CD", "coord": {"lon": 12.35, "lat": -5.93333}}, {"id": 2255148, "name": "Tchimbanmba", "country": "CG", "coord": {"lon": 11.87611, "lat": -4.82306}}, {"id": 2256175, "name": "R\u00e9gion du Niari", "country": "CG", "coord": {"lon": 12.5, "lat": -3}}, {"id": 2566971, "name": "Makabandilou", "country": "CG", "coord": {"lon": 12.67, "lat": -4.20694}}, {"id": 2257925, "name": "Makabana", "country": "CG", "coord": {"lon": 12.60556, "lat": -3.46333}}, {"id": 2255329, "name": "R\u00e9gion de la Sangha", "country": "CG", "coord": {"lon": 15.5, "lat": 1.33333}}, {"id": 2255564, "name": "Ouesso", "country": "CG", "coord": {"lon": 16.05167, "lat": 1.61361}}, {"id": 2255244, "name": "Souank\u00e9", "country": "CG", "coord": {"lon": 14.13333, "lat": 2.08333}}, {"id": 2260487, "name": "R\u00e9gion de la Cuvette", "country": "CG", "coord": {"lon": 16, "lat": -0.5}}, {"id": 2567932, "name": "Opaka", "country": "CG", "coord": {"lon": 15.57194, "lat": -0.00944}}, {"id": 2258431, "name": "R\u00e9gion de la Likouala", "country": "CG", "coord": {"lon": 17.5, "lat": 2}}, {"id": 2259918, "name": "Gangania", "country": "CG", "coord": {"lon": 18.05028, "lat": 1.59139}}, {"id": 2259947, "name": "Gamboma", "country": "CG", "coord": {"lon": 15.86444, "lat": -1.87639}}, {"id": 2258534, "name": "R\u00e9gion de la L\u00e9koumou", "country": "CG", "coord": {"lon": 13.5, "lat": -3}}, {"id": 2255285, "name": "Sibiti", "country": "CG", "coord": {"lon": 13.34985, "lat": -3.68192}}, {"id": 2260668, "name": "R\u00e9gion de la Bouenza", "country": "CG", "coord": {"lon": 14, "lat": -4}}, {"id": 2259105, "name": "Kimpongi", "country": "CG", "coord": {"lon": 13.98139, "lat": -4.01139}}, {"id": 2260401, "name": "Djambala", "country": "CG", "coord": {"lon": 14.75333, "lat": -2.54472}}, {"id": 933657, "name": "Kgalagadi District", "country": "BW", "coord": {"lon": 22, "lat": -25}}, {"id": 932987, "name": "Tshabong", "country": "BW", "coord": {"lon": 22.450001, "lat": -26.049999}}, {"id": 933077, "name": "Shakawe", "country": "BW", "coord": {"lon": 21.85, "lat": -18.366671}}, {"id": 933790, "name": "Dukwe", "country": "BW", "coord": {"lon": 26.41667, "lat": -20.58333}}, {"id": 1106211, "name": "Kgaphamadi", "country": "BW", "coord": {"lon": 25.9275, "lat": -24.537781}}, {"id": 933677, "name": "Kasane", "country": "BW", "coord": {"lon": 25.15, "lat": -17.816669}}, {"id": 7908931, "name": "Kgome", "country": "BW", "coord": {"lon": 24.65811, "lat": -24.589211}}, {"id": 933644, "name": "Khemsbok", "country": "BW", "coord": {"lon": 21.633329, "lat": -21.683331}}, {"id": 955487, "name": "Sinoville", "country": "ZA", "coord": {"lon": 28.21987, "lat": -25.676291}}, {"id": 3359736, "name": "Vredendal", "country": "ZA", "coord": {"lon": 18.50119, "lat": -31.668329}}, {"id": 8063447, "name": "Glen Ashley", "country": "ZA", "coord": {"lon": 31.053711, "lat": -29.75946}}, {"id": 995160, "name": "Huhudi", "country": "ZA", "coord": {"lon": 24.74107, "lat": -26.97398}}, {"id": 976539, "name": "Mhlahlane", "country": "ZA", "coord": {"lon": 28.690571, "lat": -31.55892}}, {"id": 945945, "name": "Upington", "country": "ZA", "coord": {"lon": 21.256121, "lat": -28.44776}}, {"id": 946257, "name": "Ulundi", "country": "ZA", "coord": {"lon": 31.41617, "lat": -28.33523}}, {"id": 941225, "name": "Welbeloond", "country": "ZA", "coord": {"lon": 30.383329, "lat": -23.85}}, {"id": 991664, "name": "Kathu", "country": "ZA", "coord": {"lon": 23.04929, "lat": -27.69569}}, {"id": 3361142, "name": "Springbok", "country": "ZA", "coord": {"lon": 17.886499, "lat": -29.664339}}, {"id": 951511, "name": "Suits Me", "country": "ZA", "coord": {"lon": 32.042461, "lat": -28.72192}}, {"id": 944595, "name": "Veldenvlei", "country": "ZA", "coord": {"lon": 32.061619, "lat": -28.739941}}, {"id": 995808, "name": "Home Park", "country": "ZA", "coord": {"lon": 26.89595, "lat": -31.93598}}, {"id": 1005401, "name": "Enkelbosch", "country": "ZA", "coord": {"lon": 29.46512, "lat": -23.85747}}, {"id": 980984, "name": "Mabele-a-podi", "country": "ZA", "coord": {"lon": 27.204651, "lat": -25.280531}}, {"id": 965960, "name": "Pelham", "country": "ZA", "coord": {"lon": 30.3895, "lat": -29.630739}}, {"id": 1014202, "name": "Camerondale", "country": "ZA", "coord": {"lon": 29.5261, "lat": -31.593019}}, {"id": 953975, "name": "Port Elizabeth Airport", "country": "ZA", "coord": {"lon": 25.611361, "lat": -33.984039}}, {"id": 942360, "name": "Vyekraal", "country": "ZA", "coord": {"lon": 23.342501, "lat": -34.10078}}, {"id": 967106, "name": "Oudtshoorn", "country": "ZA", "coord": {"lon": 22.201401, "lat": -33.590672}}, {"id": 940445, "name": "Wesbank", "country": "ZA", "coord": {"lon": 22.19264, "lat": -33.594101}}, {"id": 978352, "name": "Mataffin", "country": "ZA", "coord": {"lon": 30.92782, "lat": -25.47629}}, {"id": 1010511, "name": "Diasstrand", "country": "ZA", "coord": {"lon": 22.10376, "lat": -34.1576}}, {"id": 982393, "name": "Lokaleng", "country": "ZA", "coord": {"lon": 25.570009, "lat": -25.798679}}, {"id": 1004666, "name": "Faerie Glen", "country": "ZA", "coord": {"lon": 30.33333, "lat": -30.85}}, {"id": 961331, "name": "Rietvlei", "country": "ZA", "coord": {"lon": 29.87392, "lat": -23.078739}}, {"id": 7646541, "name": "Lanseria", "country": "ZA", "coord": {"lon": 27.934891, "lat": -25.93981}}, {"id": 3365707, "name": "Kleinsee", "country": "ZA", "coord": {"lon": 17.0709, "lat": -29.677139}}, {"id": 988290, "name": "Komatipoort", "country": "ZA", "coord": {"lon": 31.954781, "lat": -25.433201}}, {"id": 1007195, "name": "Dwaleni", "country": "ZA", "coord": {"lon": 31.100321, "lat": -25.359751}}, {"id": 960812, "name": "Ronald\u2019s Vlei", "country": "ZA", "coord": {"lon": 24.75688, "lat": -28.78916}}, {"id": 7870390, "name": "Alberton North", "country": "ZA", "coord": {"lon": 28.132469, "lat": -26.240999}}, {"id": 7304422, "name": "Herolds Bay", "country": "ZA", "coord": {"lon": 22.397091, "lat": -34.048321}}, {"id": 1105776, "name": "Midrand", "country": "ZA", "coord": {"lon": 28.137779, "lat": -25.96361}}, {"id": 939666, "name": "Willow Park", "country": "ZA", "coord": {"lon": 27.816481, "lat": -33.041382}}, {"id": 1014884, "name": "Bulembu", "country": "ZA", "coord": {"lon": 27.252859, "lat": -32.884361}}, {"id": 3365164, "name": "Kortdoorn", "country": "ZA", "coord": {"lon": 16.54413, "lat": -28.56181}}, {"id": 226234, "name": "Soroti", "country": "UG", "coord": {"lon": 33.61113, "lat": 1.71464}}, {"id": 443351, "name": "Masindi District", "country": "UG", "coord": {"lon": 31.719801, "lat": 1.78849}}, {"id": 8079569, "name": "Palingi", "country": "UG", "coord": {"lon": 31.72566, "lat": 1.75561}}, {"id": 443355, "name": "Mbarara District", "country": "UG", "coord": {"lon": 30.6, "lat": -0.5}}, {"id": 227442, "name": "Nyalubanga", "country": "UG", "coord": {"lon": 30.603609, "lat": -0.5675}}, {"id": 443342, "name": "Kasese District", "country": "UG", "coord": {"lon": 30.007771, "lat": 0.121}}, {"id": 226608, "name": "Rukoki", "country": "UG", "coord": {"lon": 30.1, "lat": 0.2}}, {"id": 443335, "name": "Jinja District", "country": "UG", "coord": {"lon": 33.21106, "lat": 0.56273}}, {"id": 233114, "name": "Jinja", "country": "UG", "coord": {"lon": 33.203171, "lat": 0.43902}}, {"id": 443331, "name": "Gulu District", "country": "UG", "coord": {"lon": 32.430012, "lat": 2.85604}}, {"id": 8197383, "name": "Bungatira", "country": "UG", "coord": {"lon": 32.287811, "lat": 2.83018}}, {"id": 234396, "name": "Bukiberu", "country": "UG", "coord": {"lon": 32.433331, "lat": 0.03333}}, {"id": 443328, "name": "Arua District", "country": "UG", "coord": {"lon": 31.16667, "lat": 2.96667}}, {"id": 448245, "name": "Paraka", "country": "UG", "coord": {"lon": 30.92194, "lat": 3.05278}}, {"id": 148724, "name": "Zanzibar Urban/West Region", "country": "TZ", "coord": {"lon": 39.25, "lat": -6.16667}}, {"id": 150580, "name": "Regeza Mwendo", "country": "TZ", "coord": {"lon": 39.216671, "lat": -6.21667}}, {"id": 154668, "name": "Masiwani", "country": "TZ", "coord": {"lon": 39.066669, "lat": -5.1}}, {"id": 157182, "name": "Kipalapala", "country": "TZ", "coord": {"lon": 32.816669, "lat": -5.1}}, {"id": 149703, "name": "Sumbawanga", "country": "TZ", "coord": {"lon": 31.616671, "lat": -7.96667}}, {"id": 877416, "name": "Ruvuma Region", "country": "TZ", "coord": {"lon": 36, "lat": -11}}, {"id": 877426, "name": "Ruhuwiko", "country": "TZ", "coord": {"lon": 35.599998, "lat": -10.7}}, {"id": 150732, "name": "Pemba South Region", "country": "TZ", "coord": {"lon": 39.75, "lat": -5.33333}}, {"id": 160021, "name": "Foraha", "country": "TZ", "coord": {"lon": 39.816669, "lat": -5.25}}, {"id": 155946, "name": "Lindi Region", "country": "TZ", "coord": {"lon": 38.5, "lat": -9.5}}, {"id": 877702, "name": "Nachingwea", "country": "TZ", "coord": {"lon": 38.76667, "lat": -10.38333}}, {"id": 159369, "name": "Ihale", "country": "TZ", "coord": {"lon": 32.933331, "lat": -2.43333}}, {"id": 877776, "name": "Mtawanya", "country": "TZ", "coord": {"lon": 40.216671, "lat": -10.31667}}, {"id": 161100, "name": "Boma la Ngombe", "country": "TZ", "coord": {"lon": 37.150002, "lat": -3.33333}}, {"id": 157377, "name": "Kilwa Masoko", "country": "TZ", "coord": {"lon": 39.508129, "lat": -8.91998}}, {"id": 149310, "name": "Ujiji", "country": "TZ", "coord": {"lon": 29.676109, "lat": -4.90556}}, {"id": 151785, "name": "Nduli", "country": "TZ", "coord": {"lon": 35.76667, "lat": -7.66667}}, {"id": 8128937, "name": "Banana", "country": "TZ", "coord": {"lon": 39.189411, "lat": -6.87163}}, {"id": 151240, "name": "Nyakato", "country": "TZ", "coord": {"lon": 31.808889, "lat": -1.27583}}, {"id": 154758, "name": "Marombosa", "country": "TZ", "coord": {"lon": 36.666672, "lat": -3.36667}}, {"id": 378389, "name": "Northern State", "country": "SD", "coord": {"lon": 29.5, "lat": 19.299999}}, {"id": 364132, "name": "W\u0101d\u012b \u1e28alf\u0101\u2019", "country": "SD", "coord": {"lon": 31.35, "lat": 21.799999}}, {"id": 6992531, "name": "Nasir", "country": "SD", "coord": {"lon": 32.5634, "lat": 15.5894}}, {"id": 378031, "name": "Ayowangen", "country": "SS", "coord": {"lon": 31.66346, "lat": 9.57326}}, {"id": 6969341, "name": "Siy\u0101mt\u012bt Tisim\u012bt", "country": "SD", "coord": {"lon": 37.123798, "lat": 19.452101}}, {"id": 408667, "name": "Northern Kordofan State", "country": "SD", "coord": {"lon": 29.5, "lat": 14.5}}, {"id": 379003, "name": "El Obeid", "country": "SD", "coord": {"lon": 30.21669, "lat": 13.18421}}, {"id": 408653, "name": "White Nile State", "country": "SD", "coord": {"lon": 32.400002, "lat": 13.5}}, {"id": 7024903, "name": "Tag\u016bg", "country": "SD", "coord": {"lon": 36.364799, "lat": 15.4071}}, {"id": 408649, "name": "Al Qadarif State", "country": "SD", "coord": {"lon": 35.349998, "lat": 14.05}}, {"id": 378020, "name": "\u2018Az\u0101zah", "country": "SD", "coord": {"lon": 35.299999, "lat": 14.13333}}, {"id": 408666, "name": "Northern Darfur State", "country": "SD", "coord": {"lon": 25.5, "lat": 16}}, {"id": 379555, "name": "El Fasher", "country": "SD", "coord": {"lon": 25.34936, "lat": 13.62793}}, {"id": 375831, "name": "El \u2018Urdi", "country": "SD", "coord": {"lon": 30.450001, "lat": 19.16667}}, {"id": 378361, "name": "Ash Shiqlah", "country": "SD", "coord": {"lon": 34.01083, "lat": 17.676109}}, {"id": 7032728, "name": "Kannyogo", "country": "RW", "coord": {"lon": 28.907301, "lat": -2.4661}}, {"id": 7319869, "name": "Musanze", "country": "RW", "coord": {"lon": 29.633301, "lat": -1.49998}}, {"id": 7595671, "name": "Samuduha", "country": "RW", "coord": {"lon": 30.1373, "lat": -1.9751}}, {"id": 7605645, "name": "Bonde", "country": "RW", "coord": {"lon": 29.2593, "lat": -1.6824}}, {"id": 2214432, "name": "Sha\u2018b\u012byat N\u0101l\u016bt", "country": "LY", "coord": {"lon": 10.85, "lat": 30.33333}}, {"id": 2217440, "name": "Ghadamis", "country": "LY", "coord": {"lon": 9.50072, "lat": 30.133659}}, {"id": 2219944, "name": "Sha\u2018b\u012byat al Jufrah", "country": "LY", "coord": {"lon": 17.41667, "lat": 28}}, {"id": 2216645, "name": "Hun", "country": "LY", "coord": {"lon": 15.94772, "lat": 29.126841}}, {"id": 2218587, "name": "Bin Ghash\u012br", "country": "LY", "coord": {"lon": 13.17389, "lat": 32.687778}}, {"id": 2216746, "name": "\u1e28ij\u0101rah", "country": "LY", "coord": {"lon": 14.45642, "lat": 27.023001}}, {"id": 88603, "name": "A\u015f \u015eaf\u015faf", "country": "LY", "coord": {"lon": 21.94923, "lat": 32.777458}}, {"id": 2214234, "name": "Qab\u012blat Awl\u0101d Dhiy\u0101b", "country": "LY", "coord": {"lon": 13.27083, "lat": 32.902222}}, {"id": 85820, "name": "Kamb al \u2018Ajj\u0101j", "country": "LY", "coord": {"lon": 20.25659, "lat": 32.097271}}, {"id": 88962, "name": "Al Jawf", "country": "LY", "coord": {"lon": 23.29093, "lat": 24.1989}}, {"id": 2217350, "name": "Sha\u2018b\u012byat Gh\u0101t", "country": "LY", "coord": {"lon": 10.33333, "lat": 26.1}}, {"id": 2217351, "name": "Ghat", "country": "LY", "coord": {"lon": 10.17278, "lat": 24.96472}}, {"id": 178443, "name": "Wajir", "country": "KE", "coord": {"lon": 40.05732, "lat": 1.7471}}, {"id": 184433, "name": "Nanyuki", "country": "KE", "coord": {"lon": 37.07283, "lat": 0.01667}}, {"id": 184736, "name": "Nairobi South", "country": "KE", "coord": {"lon": 36.833328, "lat": -1.31667}}, {"id": 189773, "name": "Lake View Estate", "country": "KE", "coord": {"lon": 36.083328, "lat": -0.3}}, {"id": 200017, "name": "Burji", "country": "KE", "coord": {"lon": 39.066669, "lat": 3.51667}}, {"id": 190147, "name": "Kwa Jomvu", "country": "KE", "coord": {"lon": 39.604012, "lat": -4.01045}}, {"id": 187585, "name": "Marsabit", "country": "KE", "coord": {"lon": 37.989861, "lat": 2.32839}}, {"id": 187896, "name": "Mandera", "country": "KE", "coord": {"lon": 41.867008, "lat": 3.93663}}, {"id": 189280, "name": "Lodwar", "country": "KE", "coord": {"lon": 35.597271, "lat": 3.11911}}, {"id": 193980, "name": "Kapsuser", "country": "KE", "coord": {"lon": 35.224411, "lat": -0.40394}}, {"id": 181389, "name": "Rambara", "country": "KE", "coord": {"lon": 34.700001, "lat": -0.06667}}, {"id": 198442, "name": "Empakasi", "country": "KE", "coord": {"lon": 36.916672, "lat": -1.3}}, {"id": 186531, "name": "Miti ya Hunter", "country": "KE", "coord": {"lon": 35.183331, "lat": 0.31667}}, {"id": 355005, "name": "Al Jubayl", "country": "EG", "coord": {"lon": 33.631371, "lat": 28.1984}}, {"id": 295189, "name": "\u2018En Netafim", "country": "IL", "coord": {"lon": 34.882801, "lat": 29.584299}}, {"id": 351388, "name": "Naj\u2018 Tinj\u0101r", "country": "EG", "coord": {"lon": 32.866669, "lat": 24}}, {"id": 7280514, "name": "Naama", "country": "EG", "coord": {"lon": 34.329529, "lat": 27.913811}}, {"id": 414338, "name": "\u2018Uqrat \u015eaf\u1e29ah", "country": "EG", "coord": {"lon": 33.87167, "lat": 28.664721}}, {"id": 410366, "name": "Al Man\u0101kh", "country": "EG", "coord": {"lon": 32.27438, "lat": 31.26573}}, {"id": 361133, "name": "Al \u1e28ubayl", "country": "EG", "coord": {"lon": 32.666672, "lat": 25.66667}}, {"id": 361291, "name": "Al Ghardaqah", "country": "EG", "coord": {"lon": 33.812908, "lat": 27.25738}}, {"id": 362041, "name": "Abu Sunbul", "country": "EG", "coord": {"lon": 31.61624, "lat": 22.345699}}, {"id": 358333, "name": "Daww\u0101r Ab\u016b al \u2018\u0100\u015f\u012b", "country": "EG", "coord": {"lon": 29.683331, "lat": 30.9}}, {"id": 415505, "name": "\u2018Izbat N\u0101d\u012b a\u015f \u015eayd", "country": "EG", "coord": {"lon": 29.936859, "lat": 31.17889}}, {"id": 359256, "name": "Ban\u012b Gh\u0101lib", "country": "EG", "coord": {"lon": 31.049351, "lat": 27.198879}}, {"id": 349401, "name": "Mu\u1e29\u0101faz\u0327at Sham\u0101l S\u012bn\u0101\u2019", "country": "EG", "coord": {"lon": 33.700001, "lat": 30.5}}, {"id": 357790, "name": "El-Qushl\u00e2q\u00e2t", "country": "EG", "coord": {"lon": 33.816669, "lat": 31.133329}}, {"id": 223816, "name": "Republic of Djibouti", "country": "DJ", "coord": {"lon": 42.5, "lat": 11.5}}, {"id": 60207, "name": "El Ad", "country": "SO", "coord": {"lon": 49.150002, "lat": 11.28333}}, {"id": 60019, "name": "Eyl", "country": "SO", "coord": {"lon": 49.816399, "lat": 7.9803}}, {"id": 64480, "name": "Behelidle", "country": "SO", "coord": {"lon": 42.316669, "lat": 2.31667}}, {"id": 63081, "name": "Caluula", "country": "SO", "coord": {"lon": 50.756939, "lat": 11.96611}}, {"id": 425306, "name": "Murukaramu", "country": "BI", "coord": {"lon": 29.3361, "lat": -3.3272}}, {"id": 444181, "name": "B\u012bnshangul Gumuz Kilil", "country": "ET", "coord": {"lon": 35.5, "lat": 11}}, {"id": 343292, "name": "Asosa", "country": "ET", "coord": {"lon": 34.533329, "lat": 10.06667}}, {"id": 336231, "name": "Godo", "country": "ET", "coord": {"lon": 39.76667, "lat": 5.28333}}, {"id": 444187, "name": "Tigray Kilil", "country": "ET", "coord": {"lon": 38.833328, "lat": 14.16667}}, {"id": 332351, "name": "Kw\u012bh\u0101", "country": "ET", "coord": {"lon": 39.545502, "lat": 13.47914}}, {"id": 333516, "name": "K\u2019ebr\u012b Dehar", "country": "ET", "coord": {"lon": 44.278061, "lat": 6.74}}, {"id": 335316, "name": "Hadew", "country": "ET", "coord": {"lon": 42.669441, "lat": 9.36361}}, {"id": 335943, "name": "Gore", "country": "ET", "coord": {"lon": 35.533329, "lat": 8.15}}, {"id": 336259, "name": "God\u0113", "country": "ET", "coord": {"lon": 43.597778, "lat": 5.88722}}, {"id": 339258, "name": "Deresg\u0113", "country": "ET", "coord": {"lon": 37.433331, "lat": 12.51667}}, {"id": 336454, "name": "Ginir", "country": "ET", "coord": {"lon": 40.700001, "lat": 7.13333}}, {"id": 329490, "name": "Sab\u012byan", "country": "ET", "coord": {"lon": 41.846668, "lat": 9.6}}, {"id": 339708, "name": "Debre Markos", "country": "ET", "coord": {"lon": 37.73333, "lat": 10.35}}, {"id": 330787, "name": "Met\u2019en\u0113", "country": "ET", "coord": {"lon": 39.700001, "lat": 11.06667}}, {"id": 339540, "name": "Dek\u2019\u0113", "country": "ET", "coord": {"lon": 37.333328, "lat": 11.63333}}, {"id": 342856, "name": "Bako", "country": "ET", "coord": {"lon": 36.566669, "lat": 5.78333}}, {"id": 337146, "name": "Gebre Tela", "country": "ET", "coord": {"lon": 38.75732, "lat": 14.16813}}, {"id": 343143, "name": "\u0100war\u0113", "country": "ET", "coord": {"lon": 44.15667, "lat": 8.25611}}, {"id": 343663, "name": "Arba Minch", "country": "ET", "coord": {"lon": 37.549999, "lat": 6.03333}}, {"id": 344982, "name": "\u0100d\u012bs", "country": "ET", "coord": {"lon": 38.76667, "lat": 8.95}}, {"id": 2364049, "name": "Station M\u00e9t\u00e9o", "country": "TG", "coord": {"lon": 1.25028, "lat": 6.16889}}, {"id": 2365742, "name": "Kouka", "country": "TG", "coord": {"lon": 1.1, "lat": 9.76667}}, {"id": 2473448, "name": "El Guithna", "country": "TN", "coord": {"lon": 8.12663, "lat": 33.925388}}, {"id": 2466698, "name": "Sidi Abid", "country": "TN", "coord": {"lon": 10.69585, "lat": 34.699829}}, {"id": 2473803, "name": "El Borma", "country": "TN", "coord": {"lon": 9.2062, "lat": 31.691719}}, {"id": 2469329, "name": "Mellita", "country": "TN", "coord": {"lon": 10.80154, "lat": 33.863178}}, {"id": 2468369, "name": "Gabes", "country": "TN", "coord": {"lon": 10.0982, "lat": 33.881458}}, {"id": 2473466, "name": "El Ksar", "country": "TN", "coord": {"lon": 8.80399, "lat": 34.3992}}, {"id": 2473427, "name": "El Aouina", "country": "TN", "coord": {"lon": 10.25639, "lat": 36.848061}}, {"id": 2473495, "name": "Gouvernorat de Monastir", "country": "TN", "coord": {"lon": 10.75, "lat": 35.616669}}, {"id": 2473190, "name": "Sahline", "country": "TN", "coord": {"lon": 10.71109, "lat": 35.751659}}, {"id": 2570853, "name": "Souk et Tleta", "country": "TN", "coord": {"lon": 8.90276, "lat": 36.952099}}, {"id": 6728346, "name": "Kach\u00e9-ni", "country": "NE", "coord": {"lon": 8.97338, "lat": 13.78125}}, {"id": 6306035, "name": "Sabon Gari", "country": "NE", "coord": {"lon": 7.99861, "lat": 16.97389}}, {"id": 2439374, "name": "Tahoua", "country": "NE", "coord": {"lon": 5.5, "lat": 16}}, {"id": 2439376, "name": "Tahoua", "country": "NE", "coord": {"lon": 5.2692, "lat": 14.8888}}, {"id": 2569011, "name": "Saga-Aviation", "country": "NE", "coord": {"lon": 2.1837, "lat": 13.4697}}, {"id": 7015634, "name": "Masalata", "country": "NE", "coord": {"lon": 5.2552, "lat": 13.80015}}, {"id": 7019842, "name": "Hanwa", "country": "NG", "coord": {"lon": 7.70193, "lat": 11.11861}}, {"id": 2319080, "name": "Wauro Jabbe", "country": "NG", "coord": {"lon": 12.41667, "lat": 9.26667}}, {"id": 7021662, "name": "Sire", "country": "NG", "coord": {"lon": 5.20428, "lat": 12.9299}}, {"id": 2591074, "name": "Imogwu-Agwa", "country": "NG", "coord": {"lon": 6.94338, "lat": 4.98174}}, {"id": 2333003, "name": "Kuyi", "country": "NG", "coord": {"lon": 6.45, "lat": 9.66667}}, {"id": 2566677, "name": "Shogunle", "country": "NG", "coord": {"lon": 3.33444, "lat": 6.57806}}, {"id": 2320909, "name": "Uga Soja", "country": "NG", "coord": {"lon": 8.6137, "lat": 7.7124}}, {"id": 2346853, "name": "Bolori", "country": "NG", "coord": {"lon": 13.08901, "lat": 11.88259}}, {"id": 2592493, "name": "Takurza", "country": "NG", "coord": {"lon": 8.53179, "lat": 12.06425}}, {"id": 2338883, "name": "Ifira", "country": "NG", "coord": {"lon": 7.29455, "lat": 10.70113}}, {"id": 2339530, "name": "Heipang", "country": "NG", "coord": {"lon": 8.88333, "lat": 9.63333}}, {"id": 2342616, "name": "Fili", "country": "NG", "coord": {"lon": 4.5, "lat": 8.43333}}, {"id": 2336648, "name": "Jagun Elesin", "country": "NG", "coord": {"lon": 3.98333, "lat": 7.35472}}, {"id": 3069843, "name": "Ne\u0159ed\u00edn", "country": "CZ", "coord": {"lon": 17.219009, "lat": 49.59063}}, {"id": 2343356, "name": "Emene", "country": "NG", "coord": {"lon": 7.5851, "lat": 6.4762}}, {"id": 6915258, "name": "Ishie Town", "country": "NG", "coord": {"lon": 8.3372, "lat": 4.9936}}, {"id": 2327124, "name": "Oko", "country": "NG", "coord": {"lon": 5.59383, "lat": 6.2995}}, {"id": 6832960, "name": "Alodifi", "country": "NG", "coord": {"lon": 5.2956, "lat": 7.2452}}, {"id": 2352776, "name": "Abuja Federal Capital Territory", "country": "NG", "coord": {"lon": 7.16667, "lat": 8.83333}}, {"id": 2321429, "name": "Tungan Ali", "country": "NG", "coord": {"lon": 7.22194, "lat": 9.00556}}, {"id": 2287738, "name": "Kablak\u00e9", "country": "CI", "coord": {"lon": -7.3612, "lat": 4.4178}}, {"id": 2280025, "name": "Vodi\u00e9ko", "country": "CI", "coord": {"lon": -6.13333, "lat": 4.91667}}, {"id": 2597328, "name": "R\u00e9gion du Dengu\u00e9l\u00e9", "country": "CI", "coord": {"lon": -7.41667, "lat": 9.5}}, {"id": 2283016, "name": "Odienne", "country": "CI", "coord": {"lon": -7.56917, "lat": 9.51}}, {"id": 2597323, "name": "R\u00e9gion des Dix-Huit Montagnes", "country": "CI", "coord": {"lon": -7.66667, "lat": 7.33333}}, {"id": 2281196, "name": "Soupleu", "country": "CI", "coord": {"lon": -7.58322, "lat": 7.27033}}, {"id": 2291526, "name": "Blabokaha", "country": "CI", "coord": {"lon": -5.56667, "lat": 9.38333}}, {"id": 2288001, "name": "Guessihio", "country": "CI", "coord": {"lon": -6.00722, "lat": 6.10722}}, {"id": 2289049, "name": "Ferkessedougou", "country": "CI", "coord": {"lon": -5.2, "lat": 9.6}}, {"id": 2288628, "name": "Gb\u00e9titap\u00e9a", "country": "CI", "coord": {"lon": -6.45138, "lat": 6.78951}}, {"id": 2281426, "name": "Sokro", "country": "CI", "coord": {"lon": -4.61368, "lat": 6.64881}}, {"id": 2281475, "name": "Soko", "country": "CI", "coord": {"lon": -2.75, "lat": 8}}, {"id": 2286514, "name": "Konankankro", "country": "CI", "coord": {"lon": -5.06679, "lat": 7.72793}}, {"id": 396460, "name": "Khishayb\u012b al \u1e28a\u1e11ar", "country": "SA", "coord": {"lon": 43.283531, "lat": 25.762119}}, {"id": 2298528, "name": "Kwesimintim", "country": "GH", "coord": {"lon": -1.78761, "lat": 4.91452}}, {"id": 2296524, "name": "Odumase", "country": "GH", "coord": {"lon": -2.31819, "lat": 7.37134}}, {"id": 2302417, "name": "Buokrom", "country": "GH", "coord": {"lon": -1.59606, "lat": 6.72488}}, {"id": 2298469, "name": "Langa", "country": "GH", "coord": {"lon": -0.88616, "lat": 9.57081}}, {"id": 2089168, "name": "Old Kamberatoro", "country": "PG", "coord": {"lon": 141.051834, "lat": -3.60986}}, {"id": 2355996, "name": "Samogan", "country": "BF", "coord": {"lon": -4.3427, "lat": 11.13027}}, {"id": 6930714, "name": "Sud-Ouest", "country": "BF", "coord": {"lon": -3.26097, "lat": 10.28866}}, {"id": 2356386, "name": "Province du Poni", "country": "BF", "coord": {"lon": -3.41667, "lat": 10.25}}, {"id": 2577162, "name": "Gaoua", "country": "BF", "coord": {"lon": -3.25083, "lat": 10.29917}}, {"id": 6930713, "name": "Sahel", "country": "BF", "coord": {"lon": -0.04575, "lat": 14.03351}}, {"id": 2355737, "name": "Province du S\u00e9no", "country": "BF", "coord": {"lon": -0.16667, "lat": 13.91667}}, {"id": 2353785, "name": "W\u00e8ndou", "country": "BF", "coord": {"lon": -0.0597, "lat": 14.0366}}, {"id": 6930708, "name": "Centre-Sud", "country": "BF", "coord": {"lon": -1.07374, "lat": 11.67132}}, {"id": 2357548, "name": "Province du Nahouri", "country": "BF", "coord": {"lon": -1.25, "lat": 11.25}}, {"id": 2356454, "name": "Po", "country": "BF", "coord": {"lon": -1.145, "lat": 11.16972}}, {"id": 2353568, "name": "Province du Yatenga", "country": "BF", "coord": {"lon": -2.41667, "lat": 13.58333}}, {"id": 2356948, "name": "Oufr\u00e9", "country": "BF", "coord": {"lon": -2.42126, "lat": 13.54909}}, {"id": 2391893, "name": "Save", "country": "BJ", "coord": {"lon": 2.48599, "lat": 8.04253}}, {"id": 2390973, "name": "Wansirou", "country": "BJ", "coord": {"lon": 2.60672, "lat": 9.36592}}, {"id": 2394893, "name": "Bound\u00e9tingou", "country": "BJ", "coord": {"lon": 1.36171, "lat": 10.38968}}, {"id": 2393923, "name": "Guida", "country": "BJ", "coord": {"lon": 2.93354, "lat": 11.1515}}, {"id": 7874124, "name": "Fidjrosse-Kpota", "country": "BJ", "coord": {"lon": 2.36781, "lat": 6.36106}},