[{"id": 3023375, "name": "Coubron", "country": "FR", "coord": {"lon": 2.58333, "lat": 48.916672}}, {"id": 3023381, "name": "Coublevie", "country": "FR", "coord": {"lon": 5.61759, "lat": 45.356239}}, {"id": 3023389, "name": "Coubert", "country": "FR", "coord": {"lon": 2.69733, "lat": 48.67186}}, {"id": 3023410, "name": "Cotignac", "country": "FR", "coord": {"lon": 6.15, "lat": 43.528412}}, {"id": 3023466, "name": "Cosse-le-Vivien", "country": "FR", "coord": {"lon": -0.91185, "lat": 47.94598}}, {"id": 3023476, "name": "Cosne-Cours-sur-Loire", "country": "FR", "coord": {"lon": 2.92528, "lat": 47.411011}}, {"id": 3023477, "name": "Cosnes-et-Romain", "country": "FR", "coord": {"lon": 5.71765, "lat": 49.519428}}, {"id": 3023484, "name": "Cosnac", "country": "FR", "coord": {"lon": 1.58575, "lat": 45.135159}}, {"id": 3023492, "name": "Corze", "country": "FR", "coord": {"lon": -0.39062, "lat": 47.559559}}, {"id": 3023506, "name": "Corte", "country": "FR", "coord": {"lon": 9.15, "lat": 42.299999}}, {"id": 3023511, "name": "Corseul", "country": "FR", "coord": {"lon": -2.16947, "lat": 48.4818}}, {"id": 3023512, "name": "Corsept", "country": "FR", "coord": {"lon": -2.05904, "lat": 47.277031}}, {"id": 3023534, "name": "Correze", "country": "FR", "coord": {"lon": 1.87465, "lat": 45.372742}}, {"id": 3023543, "name": "Corquilleroy", "country": "FR", "coord": {"lon": 2.70382, "lat": 48.042122}}, {"id": 3023545, "name": "Corps-Nuds", "country": "FR", "coord": {"lon": -1.58409, "lat": 47.979149}}, {"id": 3023550, "name": "Corpeau", "country": "FR", "coord": {"lon": 4.75226, "lat": 46.929169}}, {"id": 3023557, "name": "Coron", "country": "FR", "coord": {"lon": -0.64512, "lat": 47.127258}}, {"id": 3023573, "name": "Cornimont", "country": "FR", "coord": {"lon": 6.83038, "lat": 47.95998}}, {"id": 3023576, "name": "Cornillon-Confoux", "country": "FR", "coord": {"lon": 5.06667, "lat": 43.566669}}, {"id": 3023587, "name": "Cornil", "country": "FR", "coord": {"lon": 1.69204, "lat": 45.211681}}, {"id": 3023589, "name": "Cornier", "country": "FR", "coord": {"lon": 6.29796, "lat": 46.093781}}, {"id": 3023590, "name": "Corneville-sur-Risle", "country": "FR", "coord": {"lon": 0.58628, "lat": 49.341282}}, {"id": 3023599, "name": "Corneilla-la-Riviere", "country": "FR", "coord": {"lon": 2.72962, "lat": 42.696751}}, {"id": 3023600, "name": "Corneilla-del-Vercol", "country": "FR", "coord": {"lon": 2.95216, "lat": 42.623901}}, {"id": 3023602, "name": "Corneilhan", "country": "FR", "coord": {"lon": 3.19147, "lat": 43.39957}}, {"id": 3023606, "name": "Cornebarrieu", "country": "FR", "coord": {"lon": 1.32407, "lat": 43.648949}}, {"id": 3023611, "name": "Corne", "country": "FR", "coord": {"lon": -0.34992, "lat": 47.470901}}, {"id": 3023617, "name": "Cornas", "country": "FR", "coord": {"lon": 4.84806, "lat": 44.964981}}, {"id": 3023628, "name": "Cormontreuil", "country": "FR", "coord": {"lon": 4.05, "lat": 49.216671}}, {"id": 3023631, "name": "Cormicy", "country": "FR", "coord": {"lon": 3.89596, "lat": 49.370708}}, {"id": 3023637, "name": "Cormery", "country": "FR", "coord": {"lon": 0.83583, "lat": 47.26812}}, {"id": 3023638, "name": "Corme-Royal", "country": "FR", "coord": {"lon": -0.8147, "lat": 45.74395}}, {"id": 3023641, "name": "Cormeray", "country": "FR", "coord": {"lon": 1.4061, "lat": 47.491959}}, {"id": 3023643, "name": "Cormelles-le-Royal", "country": "FR", "coord": {"lon": -0.33062, "lat": 49.15398}}, {"id": 3023647, "name": "Cormeilles", "country": "FR", "coord": {"lon": 0.37654, "lat": 49.248032}}, {"id": 3023661, "name": "Corlay", "country": "FR", "coord": {"lon": -3.05733, "lat": 48.317249}}, {"id": 3023682, "name": "Cordon", "country": "FR", "coord": {"lon": 6.61237, "lat": 45.92408}}, {"id": 3023695, "name": "Cordes-sur-Ciel", "country": "FR", "coord": {"lon": 1.95, "lat": 44.066669}}, {"id": 3023697, "name": "Cordemais", "country": "FR", "coord": {"lon": -1.87869, "lat": 47.291069}}, {"id": 3023709, "name": "Corcieux", "country": "FR", "coord": {"lon": 6.88148, "lat": 48.172359}}, {"id": 3023725, "name": "Corbreuse", "country": "FR", "coord": {"lon": 1.95913, "lat": 48.500648}}, {"id": 3023735, "name": "Corbigny", "country": "FR", "coord": {"lon": 3.68285, "lat": 47.256779}}, {"id": 3023742, "name": "Corbie", "country": "FR", "coord": {"lon": 2.50682, "lat": 49.906719}}, {"id": 3023759, "name": "Corbelin", "country": "FR", "coord": {"lon": 5.54448, "lat": 45.608681}}, {"id": 3023762, "name": "Corbeilles", "country": "FR", "coord": {"lon": 2.5503, "lat": 48.07201}}, {"id": 3023767, "name": "Corbehem", "country": "FR", "coord": {"lon": 3.04995, "lat": 50.331409}}, {"id": 3023771, "name": "Corbas", "country": "FR", "coord": {"lon": 4.89627, "lat": 45.6679}}, {"id": 3023772, "name": "Corbarieu", "country": "FR", "coord": {"lon": 1.36882, "lat": 43.944149}}, {"id": 3023777, "name": "Coray", "country": "FR", "coord": {"lon": -3.83056, "lat": 48.059341}}, {"id": 3023787, "name": "Coquelles", "country": "FR", "coord": {"lon": 1.7988, "lat": 50.934608}}, {"id": 3023804, "name": "Conty", "country": "FR", "coord": {"lon": 2.1512, "lat": 49.741001}}, {"id": 3023808, "name": "Contrexeville", "country": "FR", "coord": {"lon": 5.89572, "lat": 48.184238}}, {"id": 3023812, "name": "Contres", "country": "FR", "coord": {"lon": 1.42849, "lat": 47.417542}}, {"id": 3023842, "name": "Contes", "country": "FR", "coord": {"lon": 7.31444, "lat": 43.812778}}, {"id": 3023850, "name": "Contamine-sur-Arve", "country": "FR", "coord": {"lon": 6.33839, "lat": 46.129421}}, {"id": 3023873, "name": "Conques-sur-Orbiel", "country": "FR", "coord": {"lon": 2.41667, "lat": 43.26667}}, {"id": 3023874, "name": "Conquereuil", "country": "FR", "coord": {"lon": -1.75105, "lat": 47.62524}}, {"id": 3023880, "name": "Connerre", "country": "FR", "coord": {"lon": 0.49344, "lat": 48.05698}}, {"id": 3023883, "name": "Connaux", "country": "FR", "coord": {"lon": 4.59387, "lat": 44.089191}}, {"id": 3023884, "name": "Connantre", "country": "FR", "coord": {"lon": 3.92403, "lat": 48.72657}}, {"id": 3023891, "name": "Conlie", "country": "FR", "coord": {"lon": -0.01739, "lat": 48.123341}}, {"id": 3023907, "name": "Congrier", "country": "FR", "coord": {"lon": -1.117, "lat": 47.809891}}, {"id": 3023908, "name": "Congis-sur-Therouanne", "country": "FR", "coord": {"lon": 2.98333, "lat": 49}}, {"id": 3023911, "name": "Congenies", "country": "FR", "coord": {"lon": 4.16667, "lat": 43.76667}}, {"id": 3023919, "name": "Confolens", "country": "FR", "coord": {"lon": 0.66667, "lat": 46.01667}}, {"id": 3023925, "name": "Conflans-en-Jarnisy", "country": "FR", "coord": {"lon": 5.84863, "lat": 49.167679}}, {"id": 3023937, "name": "Condrieu", "country": "FR", "coord": {"lon": 4.76848, "lat": 45.46344}}, {"id": 3023943, "name": "Condom", "country": "FR", "coord": {"lon": 0.37199, "lat": 43.95816}}, {"id": 3023946, "name": "Condette", "country": "FR", "coord": {"lon": 1.63386, "lat": 50.658169}}, {"id": 3023948, "name": "Conde-sur-Vesgre", "country": "FR", "coord": {"lon": 1.66069, "lat": 48.741989}}, {"id": 3023958, "name": "Conde-sur-Huisne", "country": "FR", "coord": {"lon": 0.85093, "lat": 48.381031}}, {"id": 3023960, "name": "Conde-Sainte-Libiaire", "country": "FR", "coord": {"lon": 2.83904, "lat": 48.89695}}, {"id": 3023977, "name": "Condat-sur-Vienne", "country": "FR", "coord": {"lon": 1.28454, "lat": 45.78648}}, {"id": 3023984, "name": "Condat", "country": "FR", "coord": {"lon": 2.75791, "lat": 45.340931}}, {"id": 3024026, "name": "Conches-en-Ouche", "country": "FR", "coord": {"lon": 0.94052, "lat": 48.95768}}, {"id": 3024028, "name": "Conches-sur-Gondoire", "country": "FR", "coord": {"lon": 2.71783, "lat": 48.856239}}, {"id": 3024057, "name": "Comps", "country": "FR", "coord": {"lon": 4.60567, "lat": 43.853039}}, {"id": 3024058, "name": "Compreignac", "country": "FR", "coord": {"lon": 1.27561, "lat": 45.991619}}, {"id": 3024068, "name": "Compertrix", "country": "FR", "coord": {"lon": 4.34631, "lat": 48.941792}}, {"id": 3024074, "name": "Communay", "country": "FR", "coord": {"lon": 4.83988, "lat": 45.606709}}, {"id": 3024087, "name": "Commer", "country": "FR", "coord": {"lon": -0.61667, "lat": 48.23333}}, {"id": 3024088, "name": "Commequiers", "country": "FR", "coord": {"lon": -1.83901, "lat": 46.76049}}, {"id": 3024094, "name": "Commelle-Vernay", "country": "FR", "coord": {"lon": 4.06635, "lat": 45.994389}}, {"id": 3024112, "name": "Combrit", "country": "FR", "coord": {"lon": -4.15817, "lat": 47.887341}}, {"id": 3024126, "name": "Combree", "country": "FR", "coord": {"lon": -1.03003, "lat": 47.70446}}, {"id": 3024131, "name": "Combrand", "country": "FR", "coord": {"lon": -0.68869, "lat": 46.864052}}, {"id": 3024137, "name": "Combourg", "country": "FR", "coord": {"lon": -1.74424, "lat": 48.41267}}, {"id": 3024142, "name": "Combloux", "country": "FR", "coord": {"lon": 6.63444, "lat": 45.89669}}, {"id": 3024200, "name": "Combaillaux", "country": "FR", "coord": {"lon": 3.76767, "lat": 43.671921}}, {"id": 3024210, "name": "Colpo", "country": "FR", "coord": {"lon": -2.81002, "lat": 47.81778}}, {"id": 3024231, "name": "Colombies", "country": "FR", "coord": {"lon": 2.33772, "lat": 44.344139}}, {"id": 3024236, "name": "Colombiers", "country": "FR", "coord": {"lon": 0.42388, "lat": 46.77158}}, {"id": 3024239, "name": "Colombiers", "country": "FR", "coord": {"lon": 3.13947, "lat": 43.31424}}, {"id": 3024243, "name": "Colombier-Fontaine", "country": "FR", "coord": {"lon": 6.6901, "lat": 47.45224}}, {"id": 3024264, "name": "Colombey-les-Belles", "country": "FR", "coord": {"lon": 5.89693, "lat": 48.52766}}, {"id": 3024273, "name": "Colombe", "country": "FR", "coord": {"lon": 5.45109, "lat": 45.39912}}, {"id": 3024276, "name": "Colomars", "country": "FR", "coord": {"lon": 7.2198, "lat": 43.754059}}, {"id": 3024302, "name": "Collonges-sous-Saleve", "country": "FR", "coord": {"lon": 6.15372, "lat": 46.141602}}, {"id": 3024306, "name": "Collonges", "country": "FR", "coord": {"lon": 5.90334, "lat": 46.138939}}, {"id": 3024313, "name": "Collobrieres", "country": "FR", "coord": {"lon": 6.30875, "lat": 43.23735}}, {"id": 3024314, "name": "Collioure", "country": "FR", "coord": {"lon": 3.08235, "lat": 42.52462}}, {"id": 3024328, "name": "Collegien", "country": "FR", "coord": {"lon": 2.67365, "lat": 48.835709}}, {"id": 3024351, "name": "Coligny", "country": "FR", "coord": {"lon": 5.34554, "lat": 46.382519}}, {"id": 3024381, "name": "Coise-Saint-Jean-Pied-Gauthier", "country": "FR", "coord": {"lon": 6.14359, "lat": 45.52578}}, {"id": 3024396, "name": "Coincy", "country": "FR", "coord": {"lon": 3.42202, "lat": 49.160358}}, {"id": 3024406, "name": "Coignieres", "country": "FR", "coord": {"lon": 1.92082, "lat": 48.750099}}, {"id": 3024421, "name": "Cogolin", "country": "FR", "coord": {"lon": 6.53002, "lat": 43.252209}}, {"id": 3024423, "name": "Cogny", "country": "FR", "coord": {"lon": 4.62501, "lat": 45.98732}}, {"id": 3024426, "name": "Cognin", "country": "FR", "coord": {"lon": 5.89435, "lat": 45.56377}}, {"id": 3024438, "name": "Cognac-la-Foret", "country": "FR", "coord": {"lon": 1, "lat": 45.833328}}, {"id": 3024447, "name": "Coex", "country": "FR", "coord": {"lon": -1.75956, "lat": 46.698078}}, {"id": 3024456, "name": "Coetmieux", "country": "FR", "coord": {"lon": -2.60067, "lat": 48.491169}}, {"id": 3024459, "name": "Coesmes", "country": "FR", "coord": {"lon": -1.44074, "lat": 47.883251}}, {"id": 3024463, "name": "Codognan", "country": "FR", "coord": {"lon": 4.2212, "lat": 43.730339}}, {"id": 3024479, "name": "Cocheren", "country": "FR", "coord": {"lon": 6.8558, "lat": 49.146042}}, {"id": 3024525, "name": "Coarraze", "country": "FR", "coord": {"lon": -0.23333, "lat": 43.166672}}, {"id": 3024538, "name": "Cluis", "country": "FR", "coord": {"lon": 1.74933, "lat": 46.544861}}, {"id": 3024543, "name": "Cloyes-sur-le-Loir", "country": "FR", "coord": {"lon": 1.23711, "lat": 47.997261}}, {"id": 3024552, "name": "Clouange", "country": "FR", "coord": {"lon": 6.09723, "lat": 49.262402}}, {"id": 3024569, "name": "Clonas-sur-Vareze", "country": "FR", "coord": {"lon": 4.78996, "lat": 45.413261}}, {"id": 3024572, "name": "Clohars-Fouesnant", "country": "FR", "coord": {"lon": -4.06396, "lat": 47.896568}}, {"id": 3024573, "name": "Clohars-Carnoet", "country": "FR", "coord": {"lon": -3.58502, "lat": 47.796059}}, {"id": 3024578, "name": "Clisson", "country": "FR", "coord": {"lon": -1.28286, "lat": 47.087139}}, {"id": 3024585, "name": "Clion", "country": "FR", "coord": {"lon": 1.23214, "lat": 46.940849}}, {"id": 3024616, "name": "Clery-Saint-Andre", "country": "FR", "coord": {"lon": 1.75091, "lat": 47.822182}}, {"id": 3024624, "name": "Clerval", "country": "FR", "coord": {"lon": 6.49925, "lat": 47.39167}}, {"id": 3024636, "name": "Clermont-en-Argonne", "country": "FR", "coord": {"lon": 5.07002, "lat": 49.107109}}, {"id": 3024641, "name": "Clermont-Creans", "country": "FR", "coord": {"lon": -0.01459, "lat": 47.718311}}, {"id": 3024651, "name": "Clerieux", "country": "FR", "coord": {"lon": 4.95937, "lat": 45.077221}}, {"id": 3024659, "name": "Cleres", "country": "FR", "coord": {"lon": 1.11667, "lat": 49.599998}}, {"id": 3024660, "name": "Clere-les-Pins", "country": "FR", "coord": {"lon": 0.38963, "lat": 47.425499}}, {"id": 3024666, "name": "Clerac", "country": "FR", "coord": {"lon": -0.21667, "lat": 45.183331}}, {"id": 3024669, "name": "Cleon", "country": "FR", "coord": {"lon": 1.0295, "lat": 49.312351}}, {"id": 3024682, "name": "Cleguer", "country": "FR", "coord": {"lon": -3.38219, "lat": 47.854069}}, {"id": 3024691, "name": "Cleder", "country": "FR", "coord": {"lon": -4.102, "lat": 48.662998}}, {"id": 3024692, "name": "Cleden-Poher", "country": "FR", "coord": {"lon": -3.66911, "lat": 48.236439}}, {"id": 3024701, "name": "Claye-Souilly", "country": "FR", "coord": {"lon": 2.68566, "lat": 48.94492}}, {"id": 3024705, "name": "Claville", "country": "FR", "coord": {"lon": 1.01954, "lat": 49.048439}}, {"id": 3024740, "name": "Clary", "country": "FR", "coord": {"lon": 3.39943, "lat": 50.0779}}, {"id": 3024745, "name": "Claret", "country": "FR", "coord": {"lon": 3.90522, "lat": 43.862438}}, {"id": 3024746, "name": "Clarensac", "country": "FR", "coord": {"lon": 4.22047, "lat": 43.825359}}, {"id": 3024759, "name": "Clapiers", "country": "FR", "coord": {"lon": 3.88917, "lat": 43.658329}}, {"id": 3024782, "name": "Clamecy", "country": "FR", "coord": {"lon": 3.51667, "lat": 47.450001}}, {"id": 3024788, "name": "Claix", "country": "FR", "coord": {"lon": 5.67481, "lat": 45.12254}}, {"id": 3024796, "name": "Clairvaux-les-Lacs", "country": "FR", "coord": {"lon": 5.74825, "lat": 46.57473}}, {"id": 3024801, "name": "Clairoix", "country": "FR", "coord": {"lon": 2.84628, "lat": 49.442638}}, {"id": 3024816, "name": "Clairac", "country": "FR", "coord": {"lon": 0.37893, "lat": 44.360111}}, {"id": 3024817, "name": "Claira", "country": "FR", "coord": {"lon": 2.95572, "lat": 42.760361}}, {"id": 3024840, "name": "Civrieux", "country": "FR", "coord": {"lon": 4.88548, "lat": 45.921768}}, {"id": 3024843, "name": "Civray-de-Touraine", "country": "FR", "coord": {"lon": 1.04952, "lat": 47.332531}}, {"id": 3024846, "name": "Civray", "country": "FR", "coord": {"lon": 0.29509, "lat": 46.147099}}, {"id": 3024854, "name": "Civens", "country": "FR", "coord": {"lon": 4.2517, "lat": 45.779869}}, {"id": 3024865, "name": "Varennes-Vauzelles", "country": "FR", "coord": {"lon": 3.14037, "lat": 47.016781}}, {"id": 3024886, "name": "Cisse", "country": "FR", "coord": {"lon": 0.2287, "lat": 46.645828}}, {"id": 3024891, "name": "Ciry-le-Noble", "country": "FR", "coord": {"lon": 4.29869, "lat": 46.606071}}, {"id": 3024906, "name": "Cires-les-Mello", "country": "FR", "coord": {"lon": 2.3584, "lat": 49.272419}}, {"id": 3024926, "name": "Cintre", "country": "FR", "coord": {"lon": -1.87162, "lat": 48.105042}}, {"id": 3024932, "name": "Cintegabelle", "country": "FR", "coord": {"lon": 1.53333, "lat": 43.31316}}, {"id": 3024934, "name": "Cinqueux", "country": "FR", "coord": {"lon": 2.52997, "lat": 49.31739}}, {"id": 3024937, "name": "Cinq-Mars-la-Pile", "country": "FR", "coord": {"lon": 0.45873, "lat": 47.346378}}, {"id": 3024991, "name": "Chuzelles", "country": "FR", "coord": {"lon": 4.87795, "lat": 45.584839}}, {"id": 3025006, "name": "Chouzy-sur-Cisse", "country": "FR", "coord": {"lon": 1.24661, "lat": 47.525761}}, {"id": 3025007, "name": "Chouze-sur-Loire", "country": "FR", "coord": {"lon": 0.12364, "lat": 47.236729}}, {"id": 3025045, "name": "Chomerac", "country": "FR", "coord": {"lon": 4.66164, "lat": 44.70752}}, {"id": 3025057, "name": "Choisy-en-Brie", "country": "FR", "coord": {"lon": 3.21705, "lat": 48.758671}}, {"id": 3025058, "name": "Choisy-au-Bac", "country": "FR", "coord": {"lon": 2.87739, "lat": 49.437771}}, {"id": 3025059, "name": "Choisy", "country": "FR", "coord": {"lon": 6.05535, "lat": 45.99305}}, {"id": 3025062, "name": "Choisey", "country": "FR", "coord": {"lon": 5.45911, "lat": 47.063889}}, {"id": 3025071, "name": "Chocques", "country": "FR", "coord": {"lon": 2.57194, "lat": 50.54084}}, {"id": 3025088, "name": "Chitenay", "country": "FR", "coord": {"lon": 1.37139, "lat": 47.497532}}, {"id": 3025094, "name": "Chissay-en-Touraine", "country": "FR", "coord": {"lon": 1.13362, "lat": 47.337479}}, {"id": 3025098, "name": "Chiry-Ourscamp", "country": "FR", "coord": {"lon": 2.94721, "lat": 49.543781}}, {"id": 3025108, "name": "Chirens", "country": "FR", "coord": {"lon": 5.55707, "lat": 45.4128}}, {"id": 3025119, "name": "Chirac", "country": "FR", "coord": {"lon": 3.26652, "lat": 44.522888}}, {"id": 3025141, "name": "Chimilin", "country": "FR", "coord": {"lon": 5.59819, "lat": 45.577541}}, {"id": 3025149, "name": "Chilly", "country": "FR", "coord": {"lon": 5.95335, "lat": 45.99332}}, {"id": 3025152, "name": "Chilleurs-aux-Bois", "country": "FR", "coord": {"lon": 2.1354, "lat": 48.072201}}, {"id": 3025177, "name": "Chierry", "country": "FR", "coord": {"lon": 3.42976, "lat": 49.039398}}, {"id": 3025197, "name": "Chiche", "country": "FR", "coord": {"lon": -0.3556, "lat": 46.796429}}, {"id": 3025204, "name": "Chezy-sur-Marne", "country": "FR", "coord": {"lon": 3.36786, "lat": 48.988811}}, {"id": 3025270, "name": "Chevry-Cossigny", "country": "FR", "coord": {"lon": 2.66106, "lat": 48.724651}}, {"id": 3025274, "name": "Chevry", "country": "FR", "coord": {"lon": 6.04008, "lat": 46.278549}}, {"id": 3025284, "name": "Chevrieres", "country": "FR", "coord": {"lon": 2.68219, "lat": 49.346451}}, {"id": 3025294, "name": "Chevreuse", "country": "FR", "coord": {"lon": 2.03329, "lat": 48.706619}}, {"id": 3025298, "name": "Chevremont", "country": "FR", "coord": {"lon": 6.92164, "lat": 47.628239}}, {"id": 3025315, "name": "Chevilly", "country": "FR", "coord": {"lon": 1.87402, "lat": 48.029732}}, {"id": 3025316, "name": "Chevillon-sur-Huillard", "country": "FR", "coord": {"lon": 2.62601, "lat": 47.961971}}, {"id": 3025318, "name": "Chevillon", "country": "FR", "coord": {"lon": 5.13086, "lat": 48.52869}}, {"id": 3025324, "name": "Chevigny-Saint-Sauveur", "country": "FR", "coord": {"lon": 5.13367, "lat": 47.29908}}, {"id": 3025344, "name": "Cheverny", "country": "FR", "coord": {"lon": 1.45951, "lat": 47.500801}}, {"id": 3025356, "name": "Chevannes", "country": "FR", "coord": {"lon": 2.44388, "lat": 48.532589}}, {"id": 3025365, "name": "Chevanceaux", "country": "FR", "coord": {"lon": -0.23333, "lat": 45.299999}}, {"id": 3025375, "name": "Cheval-Blanc", "country": "FR", "coord": {"lon": 5.06229, "lat": 43.801891}}, {"id": 3025379, "name": "Chevaigne", "country": "FR", "coord": {"lon": -1.62934, "lat": 48.211529}}, {"id": 3025397, "name": "Chessy", "country": "FR", "coord": {"lon": 2.76667, "lat": 48.883331}}, {"id": 3025398, "name": "Chessy", "country": "FR", "coord": {"lon": 4.62366, "lat": 45.88707}}, {"id": 3025418, "name": "Cherveux", "country": "FR", "coord": {"lon": -0.35706, "lat": 46.415428}}, {"id": 3025428, "name": "Cherrueix", "country": "FR", "coord": {"lon": -1.70404, "lat": 48.606289}}, {"id": 3025430, "name": "Cherre", "country": "FR", "coord": {"lon": 0.65781, "lat": 48.172901}}, {"id": 3025432, "name": "Cheroy", "country": "FR", "coord": {"lon": 3.00011, "lat": 48.20076}}, {"id": 3025439, "name": "Chermignac", "country": "FR", "coord": {"lon": -0.67349, "lat": 45.68578}}, {"id": 3025444, "name": "Cherisy", "country": "FR", "coord": {"lon": 1.43333, "lat": 48.75}}, {"id": 3025458, "name": "Chereng", "country": "FR", "coord": {"lon": 3.20666, "lat": 50.61058}}, {"id": 3025472, "name": "Cheraute", "country": "FR", "coord": {"lon": -0.86832, "lat": 43.230961}}, {"id": 3025478, "name": "Cherac", "country": "FR", "coord": {"lon": -0.43859, "lat": 45.704559}}, {"id": 3025482, "name": "Chepy", "country": "FR", "coord": {"lon": 1.64694, "lat": 50.06361}}, {"id": 3025484, "name": "Cheptainville", "country": "FR", "coord": {"lon": 2.27665, "lat": 48.5509}}, {"id": 3025491, "name": "Cheny", "country": "FR", "coord": {"lon": 3.5334, "lat": 47.95166}}, {"id": 3025493, "name": "Chens-sur-Leman", "country": "FR", "coord": {"lon": 6.26267, "lat": 46.32906}}, {"id": 3025504, "name": "Chenoise", "country": "FR", "coord": {"lon": 3.19459, "lat": 48.61462}}, {"id": 3025519, "name": "Chenimenil", "country": "FR", "coord": {"lon": 6.60346, "lat": 48.138802}}, {"id": 3025551, "name": "Chenehutte-Treves-Cunault", "country": "FR", "coord": {"lon": -0.16042, "lat": 47.310841}}, {"id": 3025609, "name": "Chemere", "country": "FR", "coord": {"lon": -1.91667, "lat": 47.116669}}, {"id": 3025612, "name": "Chemaze", "country": "FR", "coord": {"lon": -0.77523, "lat": 47.7869}}, {"id": 3025614, "name": "Chemaudin", "country": "FR", "coord": {"lon": 5.89419, "lat": 47.223919}}, {"id": 3025635, "name": "Cheille", "country": "FR", "coord": {"lon": 0.40553, "lat": 47.261139}}, {"id": 3025646, "name": "Chef-Boutonne", "country": "FR", "coord": {"lon": -0.07083, "lat": 46.108589}}, {"id": 3025650, "name": "Checy", "country": "FR", "coord": {"lon": 2.02304, "lat": 47.89402}}, {"id": 3025657, "name": "Chazey-sur-Ain", "country": "FR", "coord": {"lon": 5.25352, "lat": 45.893002}}, {"id": 3025673, "name": "Chazelles", "country": "FR", "coord": {"lon": 0.36748, "lat": 45.647141}}, {"id": 3025719, "name": "Chavigny", "country": "FR", "coord": {"lon": 6.12599, "lat": 48.628868}}, {"id": 3025732, "name": "Chavenay", "country": "FR", "coord": {"lon": 1.99163, "lat": 48.85437}}, {"id": 3025734, "name": "Chavelot", "country": "FR", "coord": {"lon": 6.43809, "lat": 48.234581}}, {"id": 3025741, "name": "Chavanoz", "country": "FR", "coord": {"lon": 5.17032, "lat": 45.776428}}, {"id": 3025745, "name": "Chavanod", "country": "FR", "coord": {"lon": 6.04235, "lat": 45.889641}}, {"id": 3025760, "name": "Chavanay", "country": "FR", "coord": {"lon": 4.73157, "lat": 45.414371}}, {"id": 3025772, "name": "Chavagnes-en-Paillers", "country": "FR", "coord": {"lon": -1.25214, "lat": 46.89167}}, {"id": 3025774, "name": "Chavagne", "country": "FR", "coord": {"lon": -1.78571, "lat": 48.054379}}, {"id": 3025826, "name": "Chauve", "country": "FR", "coord": {"lon": -1.98489, "lat": 47.151741}}, {"id": 3025842, "name": "Chaussin", "country": "FR", "coord": {"lon": 5.4079, "lat": 46.966122}}, {"id": 3025854, "name": "Chauray", "country": "FR", "coord": {"lon": -0.37859, "lat": 46.35997}}, {"id": 3025860, "name": "Chauny", "country": "FR", "coord": {"lon": 3.21857, "lat": 49.615139}}, {"id": 3025862, "name": "Chaunay", "country": "FR", "coord": {"lon": 0.16084, "lat": 46.2076}}, {"id": 3025875, "name": "Chaumont-sur-Tharonne", "country": "FR", "coord": {"lon": 1.90514, "lat": 47.610378}}, {"id": 3025876, "name": "Chaumont-sur-Loire", "country": "FR", "coord": {"lon": 1.18929, "lat": 47.481079}}, {"id": 3025881, "name": "Chaumont-en-Vexin", "country": "FR", "coord": {"lon": 1.88597, "lat": 49.265949}}, {"id": 3025882, "name": "Chaumontel", "country": "FR", "coord": {"lon": 2.43237, "lat": 49.124699}}, {"id": 3025910, "name": "Chaumes-en-Brie", "country": "FR", "coord": {"lon": 2.84015, "lat": 48.66853}}, {"id": 3025942, "name": "Chaulnes", "country": "FR", "coord": {"lon": 2.80064, "lat": 49.81699}}, {"id": 3025944, "name": "Chaulgnes", "country": "FR", "coord": {"lon": 3.10348, "lat": 47.128891}}, {"id": 3025965, "name": "Chauffailles", "country": "FR", "coord": {"lon": 4.33932, "lat": 46.20726}}, {"id": 3025972, "name": "Chaudron-en-Mauges", "country": "FR", "coord": {"lon": -0.98548, "lat": 47.28809}}, {"id": 3025976, "name": "Chaudon", "country": "FR", "coord": {"lon": 1.4967, "lat": 48.662762}}, {"id": 3026002, "name": "Chauconin-Neufmontiers", "country": "FR", "coord": {"lon": 2.85, "lat": 48.966671}}, {"id": 3026005, "name": "Chauche", "country": "FR", "coord": {"lon": -1.27178, "lat": 46.829632}}, {"id": 3026013, "name": "Chatte", "country": "FR", "coord": {"lon": 5.28441, "lat": 45.143101}}, {"id": 3026019, "name": "Chatres-sur-Cher", "country": "FR", "coord": {"lon": 1.90591, "lat": 47.265049}}, {"id": 3026039, "name": "Chatonnay", "country": "FR", "coord": {"lon": 5.20368, "lat": 45.486992}}, {"id": 3026044, "name": "Chatillon-sur-Thouet", "country": "FR", "coord": {"lon": -0.23489, "lat": 46.661758}}, {"id": 3026046, "name": "Chatillon-sur-Seine", "country": "FR", "coord": {"lon": 4.57375, "lat": 47.858509}}, {"id": 3026047, "name": "Chatillon-sur-Seiche", "country": "FR", "coord": {"lon": -1.67114, "lat": 48.034481}}, {"id": 3026051, "name": "Chatillon-sur-Marne", "country": "FR", "coord": {"lon": 3.76023, "lat": 49.100479}}, {"id": 3026055, "name": "Chatillon-sur-Cluses", "country": "FR", "coord": {"lon": 6.58689, "lat": 46.09108}}, {"id": 3026056, "name": "Chatillon-sur-Cher", "country": "FR", "coord": {"lon": 1.49424, "lat": 47.275711}}, {"id": 3026057, "name": "Chatillon-sur-Chalaronne", "country": "FR", "coord": {"lon": 4.95817, "lat": 46.12019}}, {"id": 3026065, "name": "Chatillon-le-Duc", "country": "FR", "coord": {"lon": 6.00792, "lat": 47.304859}}, {"id": 3026067, "name": "Chatillon-la-Palud", "country": "FR", "coord": {"lon": 5.24799, "lat": 45.974731}}, {"id": 3026073, "name": "Chatillon-en-Bazois", "country": "FR", "coord": {"lon": 3.65893, "lat": 47.054642}}, {"id": 3026074, "name": "Chatillon-en-Michaille", "country": "FR", "coord": {"lon": 5.7995, "lat": 46.1432}}, {"id": 3026075, "name": "Chatillon", "country": "FR", "coord": {"lon": 4.61667, "lat": 45.883331}}, {"id": 3026076, "name": "Chatillon-Coligny", "country": "FR", "coord": {"lon": 2.84563, "lat": 47.822659}}, {"id": 3026089, "name": "Chatillon", "country": "FR", "coord": {"lon": 5.84352, "lat": 45.800911}}, {"id": 3026094, "name": "Chatenoy-le-Royal", "country": "FR", "coord": {"lon": 4.8119, "lat": 46.79797}}, {"id": 3026098, "name": "Chatenois-les-Forges", "country": "FR", "coord": {"lon": 6.84894, "lat": 47.559799}}, {"id": 3026099, "name": "Chatenois", "country": "FR", "coord": {"lon": 5.83125, "lat": 48.30286}}, {"id": 3026100, "name": "Chatenois", "country": "FR", "coord": {"lon": 7.39927, "lat": 48.271881}}, {"id": 3026107, "name": "Chatenay-sur-Seine", "country": "FR", "coord": {"lon": 3.09474, "lat": 48.418388}}, {"id": 3026130, "name": "Chatel-sur-Moselle", "country": "FR", "coord": {"lon": 6.39403, "lat": 48.314301}}, {"id": 3026131, "name": "Chatel-Saint-Germain", "country": "FR", "coord": {"lon": 6.08001, "lat": 49.122898}}, {"id": 3026172, "name": "Chatelaillon-Plage", "country": "FR", "coord": {"lon": -1.08926, "lat": 46.071899}}, {"id": 3026177, "name": "Chatel", "country": "FR", "coord": {"lon": 6.84229, "lat": 46.266579}}, {"id": 3026183, "name": "Chateauvillain", "country": "FR", "coord": {"lon": 4.91823, "lat": 48.036549}}, {"id": 3026200, "name": "Chateau-Salins", "country": "FR", "coord": {"lon": 6.51455, "lat": 48.818851}}, {"id": 3026211, "name": "Chateaurenard", "country": "FR", "coord": {"lon": 4.85493, "lat": 43.881691}}, {"id": 3026216, "name": "Chateau-Porcien", "country": "FR", "coord": {"lon": 4.24533, "lat": 49.527401}}, {"id": 3026217, "name": "Chateauponsac", "country": "FR", "coord": {"lon": 1.27623, "lat": 46.135361}}, {"id": 3026221, "name": "Chateauneuf-sur-Sarthe", "country": "FR", "coord": {"lon": -0.48652, "lat": 47.68145}}, {"id": 3026223, "name": "Chateauneuf-sur-Cher", "country": "FR", "coord": {"lon": 2.3171, "lat": 46.85778}}, {"id": 3026229, "name": "Chateauneuf-le-Rouge", "country": "FR", "coord": {"lon": 5.56921, "lat": 43.489361}}, {"id": 3026230, "name": "Chateauneuf-la-Foret", "country": "FR", "coord": {"lon": 1.6061, "lat": 45.714359}}, {"id": 3026231, "name": "Chateauneuf-en-Thymerais", "country": "FR", "coord": {"lon": 1.24085, "lat": 48.58112}}, {"id": 3026232, "name": "Chateauneuf-du-Rhone", "country": "FR", "coord": {"lon": 4.71759, "lat": 44.487789}}, {"id": 3026233, "name": "Chateauneuf-du-Pape", "country": "FR", "coord": {"lon": 4.83244, "lat": 44.056381}}, {"id": 3026234, "name": "Chateauneuf-du-Faou", "country": "FR", "coord": {"lon": -3.81789, "lat": 48.18755}}, {"id": 3026236, "name": "Chateauneuf-sur-Isere", "country": "FR", "coord": {"lon": 4.93333, "lat": 45.01667}}, {"id": 3026241, "name": "Chateauneuf-de-Galaure", "country": "FR", "coord": {"lon": 4.9568, "lat": 45.230961}}, {"id": 3026242, "name": "Chateauneuf-de-Gadagne", "country": "FR", "coord": {"lon": 4.94453, "lat": 43.92683}}, {"id": 3026254, "name": "Chateauneuf", "country": "FR", "coord": {"lon": 4.64044, "lat": 45.52457}}, {"id": 3026256, "name": "Chateauneuf-Grasse", "country": "FR", "coord": {"lon": 6.98333, "lat": 43.666672}}, {"id": 3026258, "name": "Chateaumeillant", "country": "FR", "coord": {"lon": 2.19515, "lat": 46.562191}}, {"id": 3026262, "name": "Chateaulin", "country": "FR", "coord": {"lon": -4.08333, "lat": 48.200001}}, {"id": 3026266, "name": "Chateau-la-Valliere", "country": "FR", "coord": {"lon": 0.32458, "lat": 47.54665}}, {"id": 3026271, "name": "Chateau-Guibert", "country": "FR", "coord": {"lon": -1.23656, "lat": 46.5811}}, {"id": 3026273, "name": "Chateau-Gontier", "country": "FR", "coord": {"lon": -0.7, "lat": 47.833328}}, {"id": 3026275, "name": "Chateaugiron", "country": "FR", "coord": {"lon": -1.50438, "lat": 48.046291}}, {"id": 3026280, "name": "Chateau-Gaillard", "country": "FR", "coord": {"lon": 5.30673, "lat": 45.973591}}, {"id": 3026281, "name": "Chateaufort", "country": "FR", "coord": {"lon": 2.09054, "lat": 48.73584}}, {"id": 3026291, "name": "Chateau-dOlonne", "country": "FR", "coord": {"lon": -1.74096, "lat": 46.503819}}, {"id": 3026306, "name": "Chateaubourg", "country": "FR", "coord": {"lon": -1.40019, "lat": 48.111191}}, {"id": 3026352, "name": "Chassors", "country": "FR", "coord": {"lon": -0.21667, "lat": 45.700001}}, {"id": 3026374, "name": "Chassieu", "country": "FR", "coord": {"lon": 4.97088, "lat": 45.745838}}, {"id": 3026384, "name": "Chasse-sur-Rhone", "country": "FR", "coord": {"lon": 4.79823, "lat": 45.583389}}, {"id": 3026391, "name": "Chasseneuil-du-Poitou", "country": "FR", "coord": {"lon": 0.3733, "lat": 46.651119}}, {"id": 3026394, "name": "Chasseneuil-sur-Bonnieure", "country": "FR", "coord": {"lon": 0.45, "lat": 45.816669}}, {"id": 3026400, "name": "Chasselay", "country": "FR", "coord": {"lon": 4.7734, "lat": 45.87524}}, {"id": 3026419, "name": "Chassagny", "country": "FR", "coord": {"lon": 4.73214, "lat": 45.606701}}, {"id": 3026438, "name": "Chasne-sur-Illet", "country": "FR", "coord": {"lon": -1.56138, "lat": 48.24247}}, {"id": 3026451, "name": "Charvieu-Chavagneux", "country": "FR", "coord": {"lon": 5.15, "lat": 45.75}}, {"id": 3026464, "name": "Chartrettes", "country": "FR", "coord": {"lon": 2.70083, "lat": 48.488079}}, {"id": 3026465, "name": "Chartres-de-Bretagne", "country": "FR", "coord": {"lon": -1.70533, "lat": 48.039242}}, {"id": 3026474, "name": "Chars", "country": "FR", "coord": {"lon": 1.93669, "lat": 49.16032}}, {"id": 3026478, "name": "Charroux", "country": "FR", "coord": {"lon": 0.40354, "lat": 46.1441}}, {"id": 3026480, "name": "Charron", "country": "FR", "coord": {"lon": -1.10572, "lat": 46.294331}}, {"id": 3026500, "name": "Charquemont", "country": "FR", "coord": {"lon": 6.8198, "lat": 47.214169}}, {"id": 3026508, "name": "Charost", "country": "FR", "coord": {"lon": 2.11639, "lat": 46.9939}}, {"id": 3026515, "name": "Charolles", "country": "FR", "coord": {"lon": 4.28333, "lat": 46.433331}}, {"id": 3026520, "name": "Charny", "country": "FR", "coord": {"lon": 2.76121, "lat": 48.970982}}, {"id": 3026521, "name": "Charny", "country": "FR", "coord": {"lon": 3.09583, "lat": 47.886608}}, {"id": 3026532, "name": "Charnecles", "country": "FR", "coord": {"lon": 5.52595, "lat": 45.344669}}, {"id": 3026534, "name": "Charnay-les-Macon", "country": "FR", "coord": {"lon": 4.78479, "lat": 46.30751}}, {"id": 3026538, "name": "Charnay", "country": "FR", "coord": {"lon": 4.66801, "lat": 45.891121}}, {"id": 3026574, "name": "Charmes-sur-Rhone", "country": "FR", "coord": {"lon": 4.84039, "lat": 44.86393}}, {"id": 3026587, "name": "Charmes", "country": "FR", "coord": {"lon": 3.37857, "lat": 49.65345}}, {"id": 3026588, "name": "Charmes", "country": "FR", "coord": {"lon": 6.29117, "lat": 48.3722}}, {"id": 3026603, "name": "Charly-sur-Marne", "country": "FR", "coord": {"lon": 3.28464, "lat": 48.977489}}, {"id": 3026606, "name": "Charly", "country": "FR", "coord": {"lon": 4.7961, "lat": 45.65255}}, {"id": 3026610, "name": "Charlieu", "country": "FR", "coord": {"lon": 4.17406, "lat": 46.160141}}, {"id": 3026615, "name": "Charleval", "country": "FR", "coord": {"lon": 1.38369, "lat": 49.372898}}, {"id": 3026616, "name": "Charleval", "country": "FR", "coord": {"lon": 5.24546, "lat": 43.718639}}, {"id": 3026630, "name": "Charge", "country": "FR", "coord": {"lon": 1.03037, "lat": 47.432701}}, {"id": 3026638, "name": "Charenton-du-Cher", "country": "FR", "coord": {"lon": 2.64438, "lat": 46.730068}}, {"id": 3026648, "name": "Charentay", "country": "FR", "coord": {"lon": 4.67923, "lat": 46.089062}}, {"id": 3026691, "name": "Charbuy", "country": "FR", "coord": {"lon": 3.46617, "lat": 47.822819}}, {"id": 3026700, "name": "Charbonnieres-les-Bains", "country": "FR", "coord": {"lon": 4.7463, "lat": 45.784199}}, {"id": 3026720, "name": "Charavines", "country": "FR", "coord": {"lon": 5.51602, "lat": 45.430431}}, {"id": 3026728, "name": "Charantonnay", "country": "FR", "coord": {"lon": 5.11034, "lat": 45.536709}}, {"id": 3026741, "name": "Chaptelat", "country": "FR", "coord": {"lon": 1.26018, "lat": 45.909618}}, {"id": 3026757, "name": "Chaponost", "country": "FR", "coord": {"lon": 4.74441, "lat": 45.705921}}, {"id": 3026758, "name": "Chaponnay", "country": "FR", "coord": {"lon": 4.94299, "lat": 45.63097}}, {"id": 3026765, "name": "Chapet", "country": "FR", "coord": {"lon": 1.93333, "lat": 48.966671}}, {"id": 3026795, "name": "Chapdes-Beaufort", "country": "FR", "coord": {"lon": 2.8638, "lat": 45.89225}}, {"id": 3026797, "name": "Chapareillan", "country": "FR", "coord": {"lon": 5.99171, "lat": 45.46513}}, {"id": 3026804, "name": "Chaource", "country": "FR", "coord": {"lon": 4.13738, "lat": 48.059151}}, {"id": 3026822, "name": "Chantraine", "country": "FR", "coord": {"lon": 6.43538, "lat": 48.171581}}, {"id": 3026823, "name": "Chantonnay", "country": "FR", "coord": {"lon": -1.05024, "lat": 46.687019}}, {"id": 3026824, "name": "Chantome", "country": "FR", "coord": {"lon": 1.5559, "lat": 46.410671}}, {"id": 3026827, "name": "Chantilly", "country": "FR", "coord": {"lon": 2.47124, "lat": 49.194611}}, {"id": 3026842, "name": "Chantepie", "country": "FR", "coord": {"lon": -1.61524, "lat": 48.088848}}, {"id": 3026846, "name": "Chantenay-Saint-Imbert", "country": "FR", "coord": {"lon": 3.18333, "lat": 46.73333}}, {"id": 3026862, "name": "Chanteloup-les-Vignes", "country": "FR", "coord": {"lon": 2.03261, "lat": 48.976139}}, {"id": 3026867, "name": "Chanteloup-en-Brie", "country": "FR", "coord": {"lon": 2.73929, "lat": 48.854778}}, {"id": 3026870, "name": "Chanteloup", "country": "FR", "coord": {"lon": -1.61517, "lat": 47.96574}}, {"id": 3026887, "name": "Chantelle", "country": "FR", "coord": {"lon": 3.15208, "lat": 46.23592}}, {"id": 3026890, "name": "Chanteheux", "country": "FR", "coord": {"lon": 6.5286, "lat": 48.59938}}, {"id": 3026898, "name": "Chanteau", "country": "FR", "coord": {"lon": 1.97129, "lat": 47.966511}}, {"id": 3026911, "name": "Chanos-Curson", "country": "FR", "coord": {"lon": 4.92381, "lat": 45.06057}}, {"id": 3026925, "name": "Chaniers", "country": "FR", "coord": {"lon": -0.55779, "lat": 45.718578}}, {"id": 3026927, "name": "Changy-les-Bois", "country": "FR", "coord": {"lon": 2.68543, "lat": 47.857929}}, {"id": 3026934, "name": "Changis-sur-Marne", "country": "FR", "coord": {"lon": 3.02191, "lat": 48.95816}}, {"id": 3026940, "name": "Change", "country": "FR", "coord": {"lon": -0.79292, "lat": 48.099178}}, {"id": 3026941, "name": "Change", "country": "FR", "coord": {"lon": 0.28328, "lat": 47.984989}}, {"id": 3026953, "name": "Chandon", "country": "FR", "coord": {"lon": 4.21446, "lat": 46.149601}}, {"id": 3026965, "name": "Chancenay", "country": "FR", "coord": {"lon": 4.98716, "lat": 48.67001}}, {"id": 3026971, "name": "Chanceaux-sur-Choisille", "country": "FR", "coord": {"lon": 0.70539, "lat": 47.471451}}, {"id": 3026983, "name": "Chanas", "country": "FR", "coord": {"lon": 4.81849, "lat": 45.31881}}, {"id": 3026987, "name": "Chanac", "country": "FR", "coord": {"lon": 3.34326, "lat": 44.466141}}, {"id": 3026999, "name": "Champvans", "country": "FR", "coord": {"lon": 5.4376, "lat": 47.10466}}, {"id": 3027007, "name": "Champtoce-sur-Loire", "country": "FR", "coord": {"lon": -0.86452, "lat": 47.41238}}, {"id": 3027008, "name": "Champtoceaux", "country": "FR", "coord": {"lon": -1.26131, "lat": 47.334759}}, {"id": 3027011, "name": "Champ-sur-Drac", "country": "FR", "coord": {"lon": 5.73225, "lat": 45.069118}}, {"id": 3027030, "name": "Champs-sur-Yonne", "country": "FR", "coord": {"lon": 3.6, "lat": 47.73333}}, {"id": 3027064, "name": "Champniers", "country": "FR", "coord": {"lon": 0.2, "lat": 45.716671}}, {"id": 3027081, "name": "Champlitte-la-Ville", "country": "FR", "coord": {"lon": 5.53191, "lat": 47.613331}}, {"id": 3027098, "name": "Champlan", "country": "FR", "coord": {"lon": 2.27975, "lat": 48.708229}}, {"id": 3027103, "name": "Champigny", "country": "FR", "coord": {"lon": 3.13333, "lat": 48.316669}}, {"id": 3027126, "name": "Champigneulles", "country": "FR", "coord": {"lon": 6.16417, "lat": 48.7342}}, {"id": 3027129, "name": "Champignelles", "country": "FR", "coord": {"lon": 3.07457, "lat": 47.78009}}, {"id": 3027130, "name": "Champigne", "country": "FR", "coord": {"lon": -0.5716, "lat": 47.663319}}, {"id": 3027131, "name": "Champier", "country": "FR", "coord": {"lon": 5.29223, "lat": 45.456379}}, {"id": 3027134, "name": "Champhol", "country": "FR", "coord": {"lon": 1.50281, "lat": 48.468128}}, {"id": 3027147, "name": "Champforgeuil", "country": "FR", "coord": {"lon": 4.83357, "lat": 46.818569}}, {"id": 3027152, "name": "Champfleur", "country": "FR", "coord": {"lon": 0.12942, "lat": 48.386681}}, {"id": 3027162, "name": "Champenoux", "country": "FR", "coord": {"lon": 6.35032, "lat": 48.741741}}, {"id": 3027194, "name": "Champdieu", "country": "FR", "coord": {"lon": 4.04583, "lat": 45.644779}}, {"id": 3027197, "name": "Champdeniers-Saint-Denis", "country": "FR", "coord": {"lon": -0.4, "lat": 46.48333}}, {"id": 3027236, "name": "Champagnier", "country": "FR", "coord": {"lon": 5.72654, "lat": 45.112942}}, {"id": 3027237, "name": "Champagney", "country": "FR", "coord": {"lon": 6.68173, "lat": 47.70504}}, {"id": 3027242, "name": "Champagne-sur-Seine", "country": "FR", "coord": {"lon": 2.79785, "lat": 48.397942}}, {"id": 3027243, "name": "Champagne-sur-Oise", "country": "FR", "coord": {"lon": 2.24233, "lat": 49.140518}}, {"id": 3027247, "name": "Champagne-Mouton", "country": "FR", "coord": {"lon": 0.41051, "lat": 45.99078}}, {"id": 3027250, "name": "Champagne-les-Marais", "country": "FR", "coord": {"lon": -1.12112, "lat": 46.38081}}, {"id": 3027260, "name": "Champagne", "country": "FR", "coord": {"lon": 0.33096, "lat": 48.021851}}, {"id": 3027301, "name": "Chamonix-Mont-Blanc", "country": "FR", "coord": {"lon": 6.86933, "lat": 45.923752}}, {"id": 3027307, "name": "Chamigny", "country": "FR", "coord": {"lon": 3.15165, "lat": 48.97242}}, {"id": 3027308, "name": "Chameyrat", "country": "FR", "coord": {"lon": 1.69803, "lat": 45.23481}}, {"id": 3027343, "name": "Chambray-les-Tours", "country": "FR", "coord": {"lon": 0.70286, "lat": 47.335369}}, {"id": 3027350, "name": "Chambourg-sur-Indre", "country": "FR", "coord": {"lon": 0.96863, "lat": 47.181591}}, {"id": 3027351, "name": "Chambourcy", "country": "FR", "coord": {"lon": 2.041, "lat": 48.906551}}, {"id": 3027367, "name": "Chambon-sur-Voueize", "country": "FR", "coord": {"lon": 2.42568, "lat": 46.189381}}, {"id": 3027396, "name": "Chamboeuf", "country": "FR", "coord": {"lon": 4.31667, "lat": 45.583328}}, {"id": 3027397, "name": "Chambly", "country": "FR", "coord": {"lon": 2.25, "lat": 49.166672}}, {"id": 3027426, "name": "Chamberet", "country": "FR", "coord": {"lon": 1.72124, "lat": 45.583141}}, {"id": 3027445, "name": "Chamarandes-Choignes", "country": "FR", "coord": {"lon": 5.15, "lat": 48.083328}}, {"id": 3027446, "name": "Chamarande", "country": "FR", "coord": {"lon": 2.2171, "lat": 48.517151}}, {"id": 3027447, "name": "Chamant", "country": "FR", "coord": {"lon": 2.61176, "lat": 49.219898}}, {"id": 3027456, "name": "Chamagnieu", "country": "FR", "coord": {"lon": 5.16392, "lat": 45.681141}}, {"id": 3027470, "name": "Chalus", "country": "FR", "coord": {"lon": 0.98011, "lat": 45.6544}}, {"id": 3027480, "name": "Chalo-Saint-Mars", "country": "FR", "coord": {"lon": 2.06491, "lat": 48.423279}}, {"id": 3027482, "name": "Chalonvillars", "country": "FR", "coord": {"lon": 6.78407, "lat": 47.64056}}, {"id": 3027491, "name": "Chalonnes-sur-Loire", "country": "FR", "coord": {"lon": -0.7631, "lat": 47.351601}}, {"id": 3027501, "name": "Challuy", "country": "FR", "coord": {"lon": 3.14807, "lat": 46.949711}}, {"id": 3027505, "name": "Challex", "country": "FR", "coord": {"lon": 5.97639, "lat": 46.184582}}, {"id": 3027507, "name": "Challes-les-Eaux", "country": "FR", "coord": {"lon": 5.98171, "lat": 45.551949}}, {"id": 3027508, "name": "Challes", "country": "FR", "coord": {"lon": 0.41511, "lat": 47.930328}}, {"id": 3027519, "name": "Chalindrey", "country": "FR", "coord": {"lon": 5.42797, "lat": 47.803082}}, {"id": 3027521, "name": "Chaligny", "country": "FR", "coord": {"lon": 6.08333, "lat": 48.624062}}, {"id": 3027524, "name": "Chalifert", "country": "FR", "coord": {"lon": 2.77339, "lat": 48.889931}}, {"id": 3027531, "name": "Chalette-sur-Loing", "country": "FR", "coord": {"lon": 2.73587, "lat": 48.013371}}, {"id": 3027551, "name": "Chaleins", "country": "FR", "coord": {"lon": 4.80417, "lat": 46.030579}}, {"id": 3027570, "name": "Chalampe", "country": "FR", "coord": {"lon": 7.54098, "lat": 47.819408}}, {"id": 3027572, "name": "Chalamont", "country": "FR", "coord": {"lon": 5.17014, "lat": 45.996651}}, {"id": 3027576, "name": "Chalais", "country": "FR", "coord": {"lon": 0.0388, "lat": 45.27338}}, {"id": 3027582, "name": "Chalabre", "country": "FR", "coord": {"lon": 2.00538, "lat": 42.982479}}, {"id": 3027598, "name": "Chaingy", "country": "FR", "coord": {"lon": 1.77058, "lat": 47.883259}}, {"id": 3027608, "name": "Chailly-en-Brie", "country": "FR", "coord": {"lon": 3.12454, "lat": 48.790058}}, {"id": 3027609, "name": "Chailly-en-Biere", "country": "FR", "coord": {"lon": 2.60785, "lat": 48.46701}}, {"id": 3027621, "name": "Chaillevette", "country": "FR", "coord": {"lon": -1.0581, "lat": 45.730301}}, {"id": 3027625, "name": "Chailles", "country": "FR", "coord": {"lon": 1.3122, "lat": 47.541599}}, {"id": 3027627, "name": "Chaille-les-Marais", "country": "FR", "coord": {"lon": -1.02369, "lat": 46.396278}}, {"id": 3027629, "name": "Chailland", "country": "FR", "coord": {"lon": -0.87387, "lat": 48.225159}}, {"id": 3027632, "name": "Chaillac", "country": "FR", "coord": {"lon": 1.29889, "lat": 46.433819}}, {"id": 3027642, "name": "Chagny", "country": "FR", "coord": {"lon": 4.7519, "lat": 46.909531}}, {"id": 3027670, "name": "Chace", "country": "FR", "coord": {"lon": -0.07179, "lat": 47.214352}}, {"id": 3027673, "name": "Chabris", "country": "FR", "coord": {"lon": 1.65181, "lat": 47.253429}}, {"id": 3027696, "name": "Chabons", "country": "FR", "coord": {"lon": 5.4275, "lat": 45.440929}}, {"id": 3027705, "name": "Chabeuil", "country": "FR", "coord": {"lon": 5.01884, "lat": 44.899632}}, {"id": 3027723, "name": "Chabanais", "country": "FR", "coord": {"lon": 0.71763, "lat": 45.87339}}, {"id": 3027726, "name": "Cezy", "country": "FR", "coord": {"lon": 3.34067, "lat": 47.992661}}, {"id": 3027737, "name": "Cezac", "country": "FR", "coord": {"lon": -0.41963, "lat": 45.090191}}, {"id": 3027740, "name": "Ceyzeriat", "country": "FR", "coord": {"lon": 5.31972, "lat": 46.180099}}, {"id": 3027745, "name": "Ceyreste", "country": "FR", "coord": {"lon": 5.63111, "lat": 43.213299}}, {"id": 3027765, "name": "Cessy", "country": "FR", "coord": {"lon": 6.06915, "lat": 46.31662}}, {"id": 3027768, "name": "Cesson", "country": "FR", "coord": {"lon": 2.60816, "lat": 48.562038}}, {"id": 3027770, "name": "Cessieu", "country": "FR", "coord": {"lon": 5.37704, "lat": 45.565762}}, {"id": 3027783, "name": "Cessenon-sur-Orb", "country": "FR", "coord": {"lon": 3.05154, "lat": 43.450111}}, {"id": 3027804, "name": "Cervione", "country": "FR", "coord": {"lon": 9.49112, "lat": 42.330959}}, {"id": 3027816, "name": "Certines", "country": "FR", "coord": {"lon": 5.26496, "lat": 46.13324}}, {"id": 3027824, "name": "Cers", "country": "FR", "coord": {"lon": 3.3045, "lat": 43.323521}}, {"id": 3027836, "name": "Cerny", "country": "FR", "coord": {"lon": 2.32814, "lat": 48.477959}}, {"id": 3027850, "name": "Cernay-les-Reims", "country": "FR", "coord": {"lon": 4.10216, "lat": 49.263748}}, {"id": 3027852, "name": "Cernay-la-Ville", "country": "FR", "coord": {"lon": 1.97422, "lat": 48.673241}}, {"id": 3027866, "name": "Cerizay", "country": "FR", "coord": {"lon": -0.66726, "lat": 46.821541}}, {"id": 3027888, "name": "Ceret", "country": "FR", "coord": {"lon": 2.74804, "lat": 42.485329}}, {"id": 3027889, "name": "Cereste", "country": "FR", "coord": {"lon": 5.58452, "lat": 43.855671}}, {"id": 3027893, "name": "Cerelles", "country": "FR", "coord": {"lon": 0.68333, "lat": 47.501678}}, {"id": 3027898, "name": "Cerdon", "country": "FR", "coord": {"lon": 2.36276, "lat": 47.635712}}, {"id": 3027900, "name": "Cercy-la-Tour", "country": "FR", "coord": {"lon": 3.64652, "lat": 46.86203}}, {"id": 3027902, "name": "Cercoux", "country": "FR", "coord": {"lon": -0.2, "lat": 45.133331}}, {"id": 3027915, "name": "Cervera de la Marenda", "country": "FR", "coord": {"lon": 3.16518, "lat": 42.440941}}, {"id": 3027918, "name": "Cerans-Foulletourte", "country": "FR", "coord": {"lon": 0.07724, "lat": 47.826511}}, {"id": 3027923, "name": "Cepoy", "country": "FR", "coord": {"lon": 2.73782, "lat": 48.047951}}, {"id": 3027927, "name": "Cepet", "country": "FR", "coord": {"lon": 1.43168, "lat": 43.748852}}, {"id": 3027949, "name": "Cenon-sur-Vienne", "country": "FR", "coord": {"lon": 0.53698, "lat": 46.774261}}, {"id": 3027961, "name": "Cendras", "country": "FR", "coord": {"lon": 4.06667, "lat": 44.150002}}, {"id": 3027967, "name": "Cenac", "country": "FR", "coord": {"lon": -0.45999, "lat": 44.780029}}, {"id": 3027970, "name": "Cely", "country": "FR", "coord": {"lon": 2.53245, "lat": 48.459591}}, {"id": 3027980, "name": "Cellieu", "country": "FR", "coord": {"lon": 4.54076, "lat": 45.522499}}, {"id": 3027984, "name": "Cellettes", "country": "FR", "coord": {"lon": 1.38102, "lat": 47.52758}}, {"id": 3027989, "name": "Celles-sur-Belle", "country": "FR", "coord": {"lon": -0.21274, "lat": 46.26223}}, {"id": 3027999, "name": "Celle-Levescault", "country": "FR", "coord": {"lon": 0.1881, "lat": 46.424061}}, {"id": 3028039, "name": "Cazouls-les-Beziers", "country": "FR", "coord": {"lon": 3.101, "lat": 43.392181}}, {"id": 3028044, "name": "Cazilhac", "country": "FR", "coord": {"lon": 3.70285, "lat": 43.920311}}, {"id": 3028045, "name": "Cazilhac", "country": "FR", "coord": {"lon": 2.36085, "lat": 43.182049}}, {"id": 3028048, "name": "Cazes-Mondenard", "country": "FR", "coord": {"lon": 1.20299, "lat": 44.226891}}, {"id": 3028050, "name": "Cazeres", "country": "FR", "coord": {"lon": 1.08633, "lat": 43.2071}}, {"id": 3028072, "name": "Cazaubon", "country": "FR", "coord": {"lon": -0.06814, "lat": 43.934311}}, {"id": 3028092, "name": "Caylus", "country": "FR", "coord": {"lon": 1.77168, "lat": 44.236069}}, {"id": 3028095, "name": "Cayeux-sur-Mer", "country": "FR", "coord": {"lon": 1.494, "lat": 50.181999}}, {"id": 3028107, "name": "Cavignac", "country": "FR", "coord": {"lon": -0.38976, "lat": 45.10083}}, {"id": 3028110, "name": "Caveirac", "country": "FR", "coord": {"lon": 4.26664, "lat": 43.824371}}, {"id": 3028118, "name": "Cavan", "country": "FR", "coord": {"lon": -3.34606, "lat": 48.672421}}, {"id": 3028129, "name": "Cavalaire-sur-Mer", "country": "FR", "coord": {"lon": 6.52715, "lat": 43.17403}}, {"id": 3028143, "name": "Caux", "country": "FR", "coord": {"lon": 3.3671, "lat": 43.50621}}, {"id": 3028144, "name": "Cauville-sur-Mer", "country": "FR", "coord": {"lon": 0.13333, "lat": 49.599998}}, {"id": 3028146, "name": "Cauvigny", "country": "FR", "coord": {"lon": 2.24844, "lat": 49.3018}}, {"id": 3028152, "name": "Cauterets", "country": "FR", "coord": {"lon": -0.11667, "lat": 42.883331}}, {"id": 3028162, "name": "Caussade", "country": "FR", "coord": {"lon": 1.53913, "lat": 44.160801}}, {"id": 3028169, "name": "Cauro", "country": "FR", "coord": {"lon": 8.91399, "lat": 41.9179}}, {"id": 3028179, "name": "Caunes-Minervois", "country": "FR", "coord": {"lon": 2.52541, "lat": 43.32555}}, {"id": 3028185, "name": "Caumont-sur-Durance", "country": "FR", "coord": {"lon": 4.94745, "lat": 43.893559}}, {"id": 3028190, "name": "Caumont", "country": "FR", "coord": {"lon": 0.89591, "lat": 49.366421}}, {"id": 3028198, "name": "Caulnes", "country": "FR", "coord": {"lon": -2.15518, "lat": 48.28804}}, {"id": 3028204, "name": "Cauffry", "country": "FR", "coord": {"lon": 2.44581, "lat": 49.319778}}, {"id": 3028205, "name": "Caudry", "country": "FR", "coord": {"lon": 3.41186, "lat": 50.124901}}, {"id": 3028214, "name": "Caudebec-les-Elbeuf", "country": "FR", "coord": {"lon": 1.02195, "lat": 49.280819}}, {"id": 3028215, "name": "Caudebec-en-Caux", "country": "FR", "coord": {"lon": 0.72561, "lat": 49.525768}}, {"id": 3028217, "name": "Caudan", "country": "FR", "coord": {"lon": -3.3425, "lat": 47.808769}}, {"id": 3028219, "name": "Cauchy-a-la-Tour", "country": "FR", "coord": {"lon": 2.44606, "lat": 50.503941}}, {"id": 3028236, "name": "Cattenom", "country": "FR", "coord": {"lon": 6.24426, "lat": 49.407551}}, {"id": 3028253, "name": "Catenoy", "country": "FR", "coord": {"lon": 2.51054, "lat": 49.36824}}, {"id": 3028258, "name": "Castries", "country": "FR", "coord": {"lon": 3.98222, "lat": 43.679722}}, {"id": 3028274, "name": "Castillon-du-Gard", "country": "FR", "coord": {"lon": 4.55337, "lat": 43.964561}}, {"id": 3028340, "name": "Castelnau-dEstretefonds", "country": "FR", "coord": {"lon": 1.35904, "lat": 43.783669}}, {"id": 3028341, "name": "Castelnau-Montratier", "country": "FR", "coord": {"lon": 1.36667, "lat": 44.26667}}, {"id": 3028345, "name": "Castelnau-de-Levis", "country": "FR", "coord": {"lon": 2.08491, "lat": 43.939751}}, {"id": 3028346, "name": "Castelnau-de-Guers", "country": "FR", "coord": {"lon": 3.43708, "lat": 43.433979}}, {"id": 3028351, "name": "Castelnaudary", "country": "FR", "coord": {"lon": 1.95449, "lat": 43.318291}}, {"id": 3028388, "name": "Castelginest", "country": "FR", "coord": {"lon": 1.4344, "lat": 43.693821}}, {"id": 3028409, "name": "Castanet-Tolosan", "country": "FR", "coord": {"lon": 1.49864, "lat": 43.515911}}, {"id": 3028418, "name": "Castagniers", "country": "FR", "coord": {"lon": 7.23286, "lat": 43.793209}}, {"id": 3028425, "name": "Cast", "country": "FR", "coord": {"lon": -4.13888, "lat": 48.15712}}, {"id": 3028428, "name": "Casson", "country": "FR", "coord": {"lon": -1.55654, "lat": 47.387611}}, {"id": 3028431, "name": "Cassis", "country": "FR", "coord": {"lon": 5.5451, "lat": 43.21241}}, {"id": 3028448, "name": "Cassagnes-Begonhes", "country": "FR", "coord": {"lon": 2.53084, "lat": 44.168941}}, {"id": 3028460, "name": "Casevecchie", "country": "FR", "coord": {"lon": 9.35, "lat": 42.133331}}, {"id": 3028493, "name": "Cartignies", "country": "FR", "coord": {"lon": 3.84473, "lat": 50.092899}}, {"id": 3028503, "name": "Carspach", "country": "FR", "coord": {"lon": 7.2115, "lat": 47.61628}}, {"id": 3028507, "name": "Carsac-Aillac", "country": "FR", "coord": {"lon": 1.25, "lat": 44.833328}}, {"id": 3028509, "name": "Cars", "country": "FR", "coord": {"lon": -0.61952, "lat": 45.129169}}, {"id": 3028510, "name": "Carry-le-Rouet", "country": "FR", "coord": {"lon": 5.15237, "lat": 43.33139}}, {"id": 3028513, "name": "Carros", "country": "FR", "coord": {"lon": 7.18395, "lat": 43.78941}}, {"id": 3028520, "name": "Carrieres-sur-Seine", "country": "FR", "coord": {"lon": 2.1792, "lat": 48.906872}}, {"id": 3028534, "name": "Carqueiranne", "country": "FR", "coord": {"lon": 6.07297, "lat": 43.09531}}, {"id": 3028551, "name": "Caromb", "country": "FR", "coord": {"lon": 5.1058, "lat": 44.11076}}, {"id": 3028554, "name": "Caro", "country": "FR", "coord": {"lon": -2.31924, "lat": 47.864288}}, {"id": 3028558, "name": "Carnoules", "country": "FR", "coord": {"lon": 6.18804, "lat": 43.301929}}, {"id": 3028590, "name": "Carling", "country": "FR", "coord": {"lon": 6.71596, "lat": 49.16761}}, {"id": 3028591, "name": "Carlepont", "country": "FR", "coord": {"lon": 3.02327, "lat": 49.514381}}, {"id": 3028601, "name": "Carignan-de-Bordeaux", "country": "FR", "coord": {"lon": -0.48333, "lat": 44.799999}}, {"id": 3028603, "name": "Carhaix-Plouguer", "country": "FR", "coord": {"lon": -3.57326, "lat": 48.27594}}, {"id": 3028606, "name": "Cargese", "country": "FR", "coord": {"lon": 8.59586, "lat": 42.136292}}, {"id": 3028610, "name": "Carentan", "country": "FR", "coord": {"lon": -1.24806, "lat": 49.30312}}, {"id": 3028637, "name": "Carces", "country": "FR", "coord": {"lon": 6.18308, "lat": 43.476318}}, {"id": 3028667, "name": "Carantec", "country": "FR", "coord": {"lon": -3.91545, "lat": 48.66811}}, {"id": 3028674, "name": "Caraman", "country": "FR", "coord": {"lon": 1.76002, "lat": 43.532711}}, {"id": 3028680, "name": "Capvern", "country": "FR", "coord": {"lon": 0.31604, "lat": 43.103569}}, {"id": 3028691, "name": "Cappelle-en-Pevele", "country": "FR", "coord": {"lon": 3.17133, "lat": 50.510109}}, {"id": 3028709, "name": "Capinghem", "country": "FR", "coord": {"lon": 2.96193, "lat": 50.645512}}, {"id": 3028720, "name": "Capestang", "country": "FR", "coord": {"lon": 3.04447, "lat": 43.327911}}, {"id": 3028722, "name": "Capendu", "country": "FR", "coord": {"lon": 2.55677, "lat": 43.185959}}, {"id": 3028754, "name": "Cany-Barville", "country": "FR", "coord": {"lon": 0.63704, "lat": 49.788849}}, {"id": 3028767, "name": "Cantin", "country": "FR", "coord": {"lon": 3.12766, "lat": 50.308849}}, {"id": 3028773, "name": "Cantenay-Epinard", "country": "FR", "coord": {"lon": -0.56899, "lat": 47.53503}}, {"id": 3028783, "name": "Cantaron", "country": "FR", "coord": {"lon": 7.31876, "lat": 43.758652}}, {"id": 3028796, "name": "Canon", "country": "FR", "coord": {"lon": -0.09219, "lat": 49.073799}}, {"id": 3028797, "name": "Canohes", "country": "FR", "coord": {"lon": 2.83633, "lat": 42.65461}}, {"id": 3028806, "name": "Cannes-Ecluse", "country": "FR", "coord": {"lon": 2.98748, "lat": 48.363029}}, {"id": 3028824, "name": "Cangey", "country": "FR", "coord": {"lon": 1.06051, "lat": 47.467178}}, {"id": 3028831, "name": "Canet", "country": "FR", "coord": {"lon": 2.848, "lat": 43.22744}}, {"id": 3028832, "name": "Canet-en-Roussillon", "country": "FR", "coord": {"lon": 3.01667, "lat": 42.700001}}, {"id": 3028844, "name": "Candillargues", "country": "FR", "coord": {"lon": 4.06924, "lat": 43.620522}}, {"id": 3028846, "name": "Cande-sur-Beuvron", "country": "FR", "coord": {"lon": 1.25937, "lat": 47.494991}}, {"id": 3028851, "name": "Cande", "country": "FR", "coord": {"lon": -1.03619, "lat": 47.561581}}, {"id": 3028856, "name": "Cancon", "country": "FR", "coord": {"lon": 0.6252, "lat": 44.535431}}, {"id": 3028902, "name": "Camps-la-Source", "country": "FR", "coord": {"lon": 6.08661, "lat": 43.38641}}, {"id": 3028908, "name": "Campsas", "country": "FR", "coord": {"lon": 1.32677, "lat": 43.895908}}, {"id": 3028946, "name": "Camphin-en-Pevele", "country": "FR", "coord": {"lon": 3.26082, "lat": 50.595612}}, {"id": 3028947, "name": "Camphin-en-Carembault", "country": "FR", "coord": {"lon": 2.9871, "lat": 50.511959}}, {"id": 3028954, "name": "Campeneac", "country": "FR", "coord": {"lon": -2.29277, "lat": 47.957329}}, {"id": 3028966, "name": "Campbon", "country": "FR", "coord": {"lon": -1.96857, "lat": 47.413101}}, {"id": 3028976, "name": "Campan", "country": "FR", "coord": {"lon": 0.17846, "lat": 43.015869}}, {"id": 3028983, "name": "Campagne-les-Hesdin", "country": "FR", "coord": {"lon": 1.87494, "lat": 50.39724}}, {"id": 3029002, "name": "Camors", "country": "FR", "coord": {"lon": -2.99981, "lat": 47.847389}}, {"id": 3029003, "name": "Camon", "country": "FR", "coord": {"lon": 2.34486, "lat": 49.887642}}, {"id": 3029023, "name": "Cambronne-les-Ribecourt", "country": "FR", "coord": {"lon": 2.89797, "lat": 49.507111}}, {"id": 3029024, "name": "Cambronne-les-Clermont", "country": "FR", "coord": {"lon": 2.39928, "lat": 49.330219}}, {"id": 3029046, "name": "Camblain-Chatelain", "country": "FR", "coord": {"lon": 2.45521, "lat": 50.483551}}, {"id": 3029052, "name": "Cambes", "country": "FR", "coord": {"lon": -0.46261, "lat": 44.731789}}, {"id": 3029068, "name": "Camaret-sur-Mer", "country": "FR", "coord": {"lon": -4.59615, "lat": 48.274971}}, {"id": 3029069, "name": "Camaret-sur-Aigues", "country": "FR", "coord": {"lon": 4.87424, "lat": 44.164051}}, {"id": 3029071, "name": "Camares", "country": "FR", "coord": {"lon": 2.88005, "lat": 43.822079}}, {"id": 3029080, "name": "Calvisson", "country": "FR", "coord": {"lon": 4.19626, "lat": 43.786961}}, {"id": 3029098, "name": "Calonne-sur-la-Lys", "country": "FR", "coord": {"lon": 2.61664, "lat": 50.622921}}, {"id": 3029099, "name": "Calonne-Ricouart", "country": "FR", "coord": {"lon": 2.47335, "lat": 50.485039}}, {"id": 3029107, "name": "Calmont", "country": "FR", "coord": {"lon": 2.51201, "lat": 44.248829}}, {"id": 3029108, "name": "Calmont", "country": "FR", "coord": {"lon": 1.63031, "lat": 43.287182}}, {"id": 3029118, "name": "Callian", "country": "FR", "coord": {"lon": 6.7519, "lat": 43.6231}}, {"id": 3029125, "name": "Callas", "country": "FR", "coord": {"lon": 6.53738, "lat": 43.592369}}, {"id": 3029126, "name": "Callac", "country": "FR", "coord": {"lon": -3.428, "lat": 48.40292}}, {"id": 3029140, "name": "Calenzana", "country": "FR", "coord": {"lon": 8.85594, "lat": 42.508389}}, {"id": 3029168, "name": "Cajarc", "country": "FR", "coord": {"lon": 1.84261, "lat": 44.485458}}, {"id": 3029174, "name": "Caissargues", "country": "FR", "coord": {"lon": 4.37955, "lat": 43.79509}}, {"id": 3029186, "name": "Cailloux-sur-Fontaines", "country": "FR", "coord": {"lon": 4.87585, "lat": 45.851471}}, {"id": 3029206, "name": "Cahuzac-sur-Vere", "country": "FR", "coord": {"lon": 1.91052, "lat": 43.982681}}, {"id": 3029222, "name": "Cagny", "country": "FR", "coord": {"lon": 2.34266, "lat": 49.862171}}, {"id": 3029229, "name": "Cagnac-les-Mines", "country": "FR", "coord": {"lon": 2.14227, "lat": 43.984451}}, {"id": 3029234, "name": "Caestre", "country": "FR", "coord": {"lon": 2.60274, "lat": 50.758381}}, {"id": 3029248, "name": "Cadolive", "country": "FR", "coord": {"lon": 5.54526, "lat": 43.396938}}, {"id": 3029253, "name": "Cadillac", "country": "FR", "coord": {"lon": -0.31702, "lat": 44.636311}}, {"id": 3029254, "name": "Caderousse", "country": "FR", "coord": {"lon": 4.75679, "lat": 44.10252}}, {"id": 3029256, "name": "Cadenet", "country": "FR", "coord": {"lon": 5.37499, "lat": 43.734451}}, {"id": 3029257, "name": "Caden", "country": "FR", "coord": {"lon": -2.28704, "lat": 47.631241}}, {"id": 3029271, "name": "Cadalen", "country": "FR", "coord": {"lon": 1.98089, "lat": 43.849331}}, {"id": 3029282, "name": "Cabris", "country": "FR", "coord": {"lon": 6.87172, "lat": 43.653172}}, {"id": 3029283, "name": "Cabries", "country": "FR", "coord": {"lon": 5.37884, "lat": 43.441269}}, {"id": 3029286, "name": "Cabrieres", "country": "FR", "coord": {"lon": 4.47094, "lat": 43.9039}}, {"id": 3029297, "name": "Cabourg", "country": "FR", "coord": {"lon": -0.1133, "lat": 49.2911}}, {"id": 3029306, "name": "Cabasse", "country": "FR", "coord": {"lon": 6.22091, "lat": 43.42823}}, {"id": 3029309, "name": "Cabariot", "country": "FR", "coord": {"lon": -0.85741, "lat": 45.926441}}, {"id": 3029312, "name": "Cabannes", "country": "FR", "coord": {"lon": 4.95192, "lat": 43.860149}}, {"id": 3029338, "name": "Buzet-sur-Tarn", "country": "FR", "coord": {"lon": 1.63301, "lat": 43.77977}}, {"id": 3029345, "name": "Buzancais", "country": "FR", "coord": {"lon": 1.4195, "lat": 46.888771}}, {"id": 3029350, "name": "Buxy", "country": "FR", "coord": {"lon": 4.70427, "lat": 46.713692}}, {"id": 3029365, "name": "Buxerolles", "country": "FR", "coord": {"lon": 0.48333, "lat": 46.616669}}, {"id": 3029377, "name": "Butry-sur-Oise", "country": "FR", "coord": {"lon": 2.19916, "lat": 49.08836}}, {"id": 3029392, "name": "Bussy-Saint-Georges", "country": "FR", "coord": {"lon": 2.70165, "lat": 48.840988}}, {"id": 3029428, "name": "Bussieres", "country": "FR", "coord": {"lon": 4.26855, "lat": 45.836208}}, {"id": 3029429, "name": "Bussiere-Poitevine", "country": "FR", "coord": {"lon": 0.9053, "lat": 46.235432}}, {"id": 3029432, "name": "Bussiere-Galant", "country": "FR", "coord": {"lon": 1.0364, "lat": 45.627022}}, {"id": 3029433, "name": "Bussiere-Dunoise", "country": "FR", "coord": {"lon": 1.76216, "lat": 46.25898}}, {"id": 3029465, "name": "Bussac-sur-Charente", "country": "FR", "coord": {"lon": -0.63333, "lat": 45.783329}}, {"id": 3029473, "name": "Busnes", "country": "FR", "coord": {"lon": 2.51827, "lat": 50.587811}}, {"id": 3029477, "name": "Busigny", "country": "FR", "coord": {"lon": 3.46713, "lat": 50.034241}}, {"id": 3029483, "name": "Bury", "country": "FR", "coord": {"lon": 2.34401, "lat": 49.313068}}, {"id": 3029498, "name": "Burnhaupt-le-Haut", "country": "FR", "coord": {"lon": 7.1461, "lat": 47.72945}}, {"id": 3029499, "name": "Burnhaupt-le-Bas", "country": "FR", "coord": {"lon": 7.16149, "lat": 47.717209}}, {"id": 3029503, "name": "Burlats", "country": "FR", "coord": {"lon": 2.31879, "lat": 43.63633}}, {"id": 3029505, "name": "Burie", "country": "FR", "coord": {"lon": -0.42289, "lat": 45.772732}}, {"id": 3029522, "name": "Bures-sur-Yvette", "country": "FR", "coord": {"lon": 2.17064, "lat": 48.69981}}, {"id": 3029548, "name": "Burbure", "country": "FR", "coord": {"lon": 2.46897, "lat": 50.536629}}, {"id": 3029566, "name": "Bully-les-Mines", "country": "FR", "coord": {"lon": 2.72703, "lat": 50.443802}}, {"id": 3029568, "name": "Bully", "country": "FR", "coord": {"lon": -0.40825, "lat": 49.10154}}, {"id": 3029570, "name": "Bully", "country": "FR", "coord": {"lon": 4.58195, "lat": 45.852051}}, {"id": 3029572, "name": "Bullion", "country": "FR", "coord": {"lon": 1.99024, "lat": 48.622849}}, {"id": 3029580, "name": "Bulgneville", "country": "FR", "coord": {"lon": 5.8343, "lat": 48.20694}}, {"id": 3029603, "name": "Buis-les-Baronnies", "country": "FR", "coord": {"lon": 5.2722, "lat": 44.273731}}, {"id": 3029606, "name": "Buironfosse", "country": "FR", "coord": {"lon": 3.83587, "lat": 49.966579}}, {"id": 3029620, "name": "Buhl", "country": "FR", "coord": {"lon": 7.18719, "lat": 47.928059}}, {"id": 3029637, "name": "Bugeat", "country": "FR", "coord": {"lon": 1.92887, "lat": 45.597561}}, {"id": 3029654, "name": "Buellas", "country": "FR", "coord": {"lon": 5.1322, "lat": 46.211102}}, {"id": 3029655, "name": "Bueil", "country": "FR", "coord": {"lon": 1.44257, "lat": 48.9319}}, {"id": 3029670, "name": "Bucy-le-Long", "country": "FR", "coord": {"lon": 3.39582, "lat": 49.39072}}, {"id": 3029673, "name": "Bucquoy", "country": "FR", "coord": {"lon": 2.71036, "lat": 50.139729}}, {"id": 3029677, "name": "Buchy", "country": "FR", "coord": {"lon": 1.35852, "lat": 49.585129}}, {"id": 3029682, "name": "Bucheres", "country": "FR", "coord": {"lon": 4.1131, "lat": 48.235081}}, {"id": 3029684, "name": "Buchelay", "country": "FR", "coord": {"lon": 1.67026, "lat": 48.979259}}, {"id": 3029695, "name": "Buc", "country": "FR", "coord": {"lon": 2.12577, "lat": 48.776272}}, {"id": 3029697, "name": "Bubry", "country": "FR", "coord": {"lon": -3.17108, "lat": 47.96336}}, {"id": 3029705, "name": "Bu", "country": "FR", "coord": {"lon": 1.49702, "lat": 48.79705}}, {"id": 3029713, "name": "Bruz", "country": "FR", "coord": {"lon": -1.74591, "lat": 48.0242}}, {"id": 3029715, "name": "Bruyeres-sur-Oise", "country": "FR", "coord": {"lon": 2.32577, "lat": 49.157558}}, {"id": 3029717, "name": "Bruyeres-le-Chatel", "country": "FR", "coord": {"lon": 2.18991, "lat": 48.58868}}, {"id": 3029718, "name": "Bruyeres-et-Montberault", "country": "FR", "coord": {"lon": 3.66369, "lat": 49.525349}}, {"id": 3029725, "name": "Bruyeres", "country": "FR", "coord": {"lon": 6.71845, "lat": 48.207088}}, {"id": 3029746, "name": "Brunstatt", "country": "FR", "coord": {"lon": 7.31784, "lat": 47.720039}}, {"id": 3029771, "name": "Brumath", "country": "FR", "coord": {"lon": 7.7121, "lat": 48.730141}}, {"id": 3029775, "name": "Brulon", "country": "FR", "coord": {"lon": -0.23333, "lat": 47.966671}}, {"id": 3029790, "name": "Bruille-Saint-Amand", "country": "FR", "coord": {"lon": 3.50013, "lat": 50.466049}}, {"id": 3029791, "name": "Bruille-lez-Marchiennes", "country": "FR", "coord": {"lon": 3.24424, "lat": 50.36068}}, {"id": 3029793, "name": "Bruguieres", "country": "FR", "coord": {"lon": 1.40762, "lat": 43.7272}}, {"id": 3029797, "name": "Brugheas", "country": "FR", "coord": {"lon": 3.36754, "lat": 46.076981}}, {"id": 3029824, "name": "Bruay-sur-lEscaut", "country": "FR", "coord": {"lon": 3.5438, "lat": 50.399181}}, {"id": 3029855, "name": "Brou-sur-Chantereine", "country": "FR", "coord": {"lon": 2.63333, "lat": 48.883331}}, {"id": 3029890, "name": "Brouckerque", "country": "FR", "coord": {"lon": 2.29378, "lat": 50.954762}}, {"id": 3029898, "name": "Brou", "country": "FR", "coord": {"lon": 1.16539, "lat": 48.21719}}, {"id": 3029925, "name": "Broons", "country": "FR", "coord": {"lon": -2.25952, "lat": 48.317478}}, {"id": 3029951, "name": "Broglie", "country": "FR", "coord": {"lon": 0.52915, "lat": 49.009109}}, {"id": 3029984, "name": "Brissac-Quince", "country": "FR", "coord": {"lon": -0.44924, "lat": 47.355751}}, {"id": 3029986, "name": "Brison-Saint-Innocent", "country": "FR", "coord": {"lon": 5.89011, "lat": 45.721859}}, {"id": 3029992, "name": "Brioux-sur-Boutonne", "country": "FR", "coord": {"lon": -0.22182, "lat": 46.141708}}, {"id": 3030007, "name": "Brionne", "country": "FR", "coord": {"lon": 0.7151, "lat": 49.19553}}, {"id": 3030011, "name": "Brion", "country": "FR", "coord": {"lon": -0.15616, "lat": 47.441219}}, {"id": 3030020, "name": "Briollay", "country": "FR", "coord": {"lon": -0.50681, "lat": 47.564781}}, {"id": 3030024, "name": "Brinon-sur-Sauldre", "country": "FR", "coord": {"lon": 2.25647, "lat": 47.566002}}, {"id": 3030029, "name": "Brindas", "country": "FR", "coord": {"lon": 4.68973, "lat": 45.721809}}, {"id": 3030044, "name": "Briis-sous-Forges", "country": "FR", "coord": {"lon": 2.12112, "lat": 48.623989}}, {"id": 3030047, "name": "Brigueuil", "country": "FR", "coord": {"lon": 0.86065, "lat": 45.953369}}, {"id": 3030063, "name": "Brignais", "country": "FR", "coord": {"lon": 4.75484, "lat": 45.67358}}, {"id": 3030071, "name": "Briey", "country": "FR", "coord": {"lon": 5.93333, "lat": 49.25}}, {"id": 3030090, "name": "Brienon-sur-Armancon", "country": "FR", "coord": {"lon": 3.61628, "lat": 47.990101}}, {"id": 3030091, "name": "Briennon", "country": "FR", "coord": {"lon": 4.0872, "lat": 46.150242}}, {"id": 3030093, "name": "Brienne-le-Chateau", "country": "FR", "coord": {"lon": 4.52637, "lat": 48.393188}}, {"id": 3030100, "name": "Brie-et-Angonnes", "country": "FR", "coord": {"lon": 5.78374, "lat": 45.12418}}, {"id": 3030102, "name": "Briec", "country": "FR", "coord": {"lon": -3.99833, "lat": 48.101669}}, {"id": 3030114, "name": "Bricy", "country": "FR", "coord": {"lon": 1.77937, "lat": 47.998459}}, {"id": 3030127, "name": "Briatexte", "country": "FR", "coord": {"lon": 1.90879, "lat": 43.752369}}, {"id": 3030132, "name": "Briare", "country": "FR", "coord": {"lon": 2.7438, "lat": 47.63343}}, {"id": 3030142, "name": "Briancon", "country": "FR", "coord": {"lon": 6.65, "lat": 44.900002}}, {"id": 3030147, "name": "Brezolles", "country": "FR", "coord": {"lon": 1.07404, "lat": 48.690331}}, {"id": 3030148, "name": "Brezins", "country": "FR", "coord": {"lon": 5.30692, "lat": 45.35202}}, {"id": 3030155, "name": "Breze", "country": "FR", "coord": {"lon": -0.06059, "lat": 47.173569}}, {"id": 3030171, "name": "Breviandes", "country": "FR", "coord": {"lon": 4.09531, "lat": 48.256931}}, {"id": 3030180, "name": "Breval", "country": "FR", "coord": {"lon": 1.53309, "lat": 48.94545}}, {"id": 3030191, "name": "Breuschwickersheim", "country": "FR", "coord": {"lon": 7.60159, "lat": 48.58007}}, {"id": 3030195, "name": "Breuilpont", "country": "FR", "coord": {"lon": 1.4292, "lat": 48.963982}}, {"id": 3030197, "name": "Breuil-Magne", "country": "FR", "coord": {"lon": -0.96, "lat": 45.984779}}, {"id": 3030202, "name": "Breuil-le-Vert", "country": "FR", "coord": {"lon": 2.43633, "lat": 49.361759}}, {"id": 3030203, "name": "Breuillet", "country": "FR", "coord": {"lon": 2.17424, "lat": 48.570641}}, {"id": 3030204, "name": "Breuillet", "country": "FR", "coord": {"lon": -1.05175, "lat": 45.691441}}, {"id": 3030205, "name": "Breuil-le-Sec", "country": "FR", "coord": {"lon": 2.45084, "lat": 49.371349}}, {"id": 3030233, "name": "Bretteville-sur-Odon", "country": "FR", "coord": {"lon": -0.41662, "lat": 49.166271}}, {"id": 3030240, "name": "Bretteville-du-Grand-Caux", "country": "FR", "coord": {"lon": 0.4, "lat": 49.666672}}, {"id": 3030242, "name": "Bretteville", "country": "FR", "coord": {"lon": -1.52884, "lat": 49.6544}}, {"id": 3030245, "name": "Brette-les-Pins", "country": "FR", "coord": {"lon": 0.33649, "lat": 47.910622}}, {"id": 3030264, "name": "Bretignolles-sur-Mer", "country": "FR", "coord": {"lon": -1.86667, "lat": 46.633331}}, {"id": 3030275, "name": "Breteuil", "country": "FR", "coord": {"lon": 0.91667, "lat": 48.833328}}, {"id": 3030276, "name": "Breteuil", "country": "FR", "coord": {"lon": 2.29509, "lat": 49.633572}}, {"id": 3030278, "name": "Bretenoux", "country": "FR", "coord": {"lon": 1.84008, "lat": 44.91468}}, {"id": 3030283, "name": "Breteil", "country": "FR", "coord": {"lon": -1.89886, "lat": 48.14534}}, {"id": 3030308, "name": "Bressols", "country": "FR", "coord": {"lon": 1.33839, "lat": 43.96796}}, {"id": 3030323, "name": "Bresles", "country": "FR", "coord": {"lon": 2.25024, "lat": 49.410439}}, {"id": 3030338, "name": "Brens", "country": "FR", "coord": {"lon": 1.90716, "lat": 43.887249}}, {"id": 3030340, "name": "Brenouille", "country": "FR", "coord": {"lon": 2.54437, "lat": 49.305511}}, {"id": 3030374, "name": "Bremes", "country": "FR", "coord": {"lon": 1.97688, "lat": 50.854832}}, {"id": 3030377, "name": "La Creche", "country": "FR", "coord": {"lon": -0.3, "lat": 46.366669}}, {"id": 3030387, "name": "Breil-sur-Roya", "country": "FR", "coord": {"lon": 7.51474, "lat": 43.943409}}, {"id": 3030403, "name": "Brehand", "country": "FR", "coord": {"lon": -2.57412, "lat": 48.403332}}, {"id": 3030440, "name": "Brech", "country": "FR", "coord": {"lon": -2.99862, "lat": 47.72134}}, {"id": 3030444, "name": "Brece", "country": "FR", "coord": {"lon": -1.48086, "lat": 48.108391}}, {"id": 3030446, "name": "Brebieres", "country": "FR", "coord": {"lon": 3.01667, "lat": 50.333328}}, {"id": 3030448, "name": "Breaute", "country": "FR", "coord": {"lon": 0.40005, "lat": 49.628052}}, {"id": 3030456, "name": "Breal-sous-Montfort", "country": "FR", "coord": {"lon": -1.86438, "lat": 48.048759}}, {"id": 3030457, "name": "Brazey-en-Plaine", "country": "FR", "coord": {"lon": 5.21538, "lat": 47.13784}}, {"id": 3030459, "name": "Bray-sur-Somme", "country": "FR", "coord": {"lon": 2.71847, "lat": 49.940849}}, {"id": 3030460, "name": "Bray-sur-Seine", "country": "FR", "coord": {"lon": 3.23852, "lat": 48.413712}}, {"id": 3030468, "name": "Bray-en-Val", "country": "FR", "coord": {"lon": 2.36644, "lat": 47.82856}}, {"id": 3030473, "name": "Bray-Dunes", "country": "FR", "coord": {"lon": 2.51673, "lat": 51.077862}}, {"id": 3030484, "name": "Brax", "country": "FR", "coord": {"lon": 0.55162, "lat": 44.20277}}, {"id": 3030485, "name": "Brax", "country": "FR", "coord": {"lon": 1.23957, "lat": 43.617931}}, {"id": 3030517, "name": "Brassac-les-Mines", "country": "FR", "coord": {"lon": 3.32915, "lat": 45.411049}}, {"id": 3030520, "name": "Brassac", "country": "FR", "coord": {"lon": 2.49763, "lat": 43.629589}}, {"id": 3030522, "name": "Brasparts", "country": "FR", "coord": {"lon": -3.95516, "lat": 48.30167}}, {"id": 3030524, "name": "Brasles", "country": "FR", "coord": {"lon": 3.43, "lat": 49.0481}}, {"id": 3030529, "name": "Bras", "country": "FR", "coord": {"lon": 5.95672, "lat": 43.471828}}, {"id": 3030542, "name": "Branoux-les-Taillades", "country": "FR", "coord": {"lon": 3.99647, "lat": 44.219421}}, {"id": 3030546, "name": "Branne", "country": "FR", "coord": {"lon": -0.18333, "lat": 44.833328}}, {"id": 3030553, "name": "Branges", "country": "FR", "coord": {"lon": 5.18465, "lat": 46.644409}}, {"id": 3030561, "name": "Brando", "country": "FR", "coord": {"lon": 9.45, "lat": 42.76667}}, {"id": 3030565, "name": "Branderion", "country": "FR", "coord": {"lon": -3.19474, "lat": 47.794121}}, {"id": 3030589, "name": "Bram", "country": "FR", "coord": {"lon": 2.11341, "lat": 43.243759}}, {"id": 3030600, "name": "Brain-sur-Allonnes", "country": "FR", "coord": {"lon": 0.06514, "lat": 47.303249}}, {"id": 3030603, "name": "Brains", "country": "FR", "coord": {"lon": -1.7229, "lat": 47.168499}}, {"id": 3030604, "name": "Braine", "country": "FR", "coord": {"lon": 3.53262, "lat": 49.342609}}, {"id": 3030628, "name": "Bracieux", "country": "FR", "coord": {"lon": 1.5412, "lat": 47.54895}}, {"id": 3030640, "name": "Bozouls", "country": "FR", "coord": {"lon": 2.72432, "lat": 44.470501}}, {"id": 3030641, "name": "Bozel", "country": "FR", "coord": {"lon": 6.64896, "lat": 45.442879}}, {"id": 3030645, "name": "Boynes", "country": "FR", "coord": {"lon": 2.36006, "lat": 48.118221}}, {"id": 3030656, "name": "Boyard-Ville", "country": "FR", "coord": {"lon": -1.24289, "lat": 45.967171}}, {"id": 3030659, "name": "Boves", "country": "FR", "coord": {"lon": 2.39605, "lat": 49.846451}}, {"id": 3030663, "name": "Bouzy-la-Foret", "country": "FR", "coord": {"lon": 2.37773, "lat": 47.8512}}, {"id": 3030668, "name": "Bouzonville", "country": "FR", "coord": {"lon": 6.53386, "lat": 49.291882}}, {"id": 3030675, "name": "Bouzille", "country": "FR", "coord": {"lon": -1.11143, "lat": 47.337502}}, {"id": 3030676, "name": "Bouzigues", "country": "FR", "coord": {"lon": 3.6578, "lat": 43.448101}}, {"id": 3030708, "name": "Bouxwiller", "country": "FR", "coord": {"lon": 7.48117, "lat": 48.824951}}, {"id": 3030713, "name": "Bouxieres-aux-Dames", "country": "FR", "coord": {"lon": 6.16918, "lat": 48.751942}}, {"id": 3030714, "name": "Bouxieres-aux-Chenes", "country": "FR", "coord": {"lon": 6.2603, "lat": 48.771149}}, {"id": 3030718, "name": "Bouvron", "country": "FR", "coord": {"lon": -1.84679, "lat": 47.417259}}, {"id": 3030723, "name": "Bouville", "country": "FR", "coord": {"lon": 0.89514, "lat": 49.561932}}, {"id": 3030727, "name": "Bouvigny-Boyeffles", "country": "FR", "coord": {"lon": 2.67209, "lat": 50.421459}}, {"id": 3030728, "name": "Bouvignies", "country": "FR", "coord": {"lon": 3.24361, "lat": 50.436272}}, {"id": 3030732, "name": "Bouvesse-Quirieu", "country": "FR", "coord": {"lon": 5.41574, "lat": 45.795029}}, {"id": 3030742, "name": "Bouttencourt", "country": "FR", "coord": {"lon": 1.63431, "lat": 49.937248}}, {"id": 3030755, "name": "Boutigny-sur-Essonne", "country": "FR", "coord": {"lon": 2.38333, "lat": 48.433331}}, {"id": 3030757, "name": "Boutiers-Saint-Trojan", "country": "FR", "coord": {"lon": -0.3, "lat": 45.716671}}, {"id": 3030772, "name": "Bout-du-Pont-de-Larn", "country": "FR", "coord": {"lon": 2.41642, "lat": 43.497379}}, {"id": 3030780, "name": "Boutavent", "country": "FR", "coord": {"lon": 1.79916, "lat": 49.592812}}, {"id": 3030787, "name": "Boussy-Saint-Antoine", "country": "FR", "coord": {"lon": 2.5306, "lat": 48.69101}}, {"id": 3030803, "name": "Boussieres", "country": "FR", "coord": {"lon": 5.90314, "lat": 47.158661}}, {"id": 3030819, "name": "Bousse", "country": "FR", "coord": {"lon": 6.19525, "lat": 49.279251}}, {"id": 3030822, "name": "Boussay", "country": "FR", "coord": {"lon": -1.18476, "lat": 47.044762}}, {"id": 3030845, "name": "Bousies", "country": "FR", "coord": {"lon": 3.61752, "lat": 50.15097}}, {"id": 3030847, "name": "Bousbecque", "country": "FR", "coord": {"lon": 3.08459, "lat": 50.771229}}, {"id": 3030857, "name": "Bourth", "country": "FR", "coord": {"lon": 0.80911, "lat": 48.768459}}, {"id": 3030876, "name": "Bourron-Marlotte", "country": "FR", "coord": {"lon": 2.70041, "lat": 48.340511}}, {"id": 3030891, "name": "Bourogne", "country": "FR", "coord": {"lon": 6.91613, "lat": 47.56287}}, {"id": 3030895, "name": "Bournoncle-Saint-Pierre", "country": "FR", "coord": {"lon": 3.31837, "lat": 45.34301}}, {"id": 3030919, "name": "Bourlon", "country": "FR", "coord": {"lon": 3.11425, "lat": 50.176922}}, {"id": 3030944, "name": "Bourgueil", "country": "FR", "coord": {"lon": 0.16612, "lat": 47.283329}}, {"id": 3030946, "name": "Bourgtheroulde-Infreville", "country": "FR", "coord": {"lon": 0.88333, "lat": 49.299999}}, {"id": 3030947, "name": "Bourg", "country": "FR", "coord": {"lon": -0.55893, "lat": 45.040619}}, {"id": 3030949, "name": "Bourg-Saint-Maurice", "country": "FR", "coord": {"lon": 6.76902, "lat": 45.617161}}, {"id": 3030953, "name": "Bourg-Saint-Andeol", "country": "FR", "coord": {"lon": 4.64273, "lat": 44.37566}}, {"id": 3030965, "name": "Bourgogne", "country": "FR", "coord": {"lon": 4.07111, "lat": 49.349621}}, {"id": 3030970, "name": "Bourgneuf-en-Retz", "country": "FR", "coord": {"lon": -1.9502, "lat": 47.041222}}, {"id": 3030979, "name": "Bourgneuf", "country": "FR", "coord": {"lon": -1.02141, "lat": 46.16766}}, {"id": 3030983, "name": "la Guingueta dIx", "country": "FR", "coord": {"lon": 1.94391, "lat": 42.434158}}, {"id": 3030994, "name": "Bourghelles", "country": "FR", "coord": {"lon": 3.24448, "lat": 50.56501}}, {"id": 3031017, "name": "Bourg-de-Thizy", "country": "FR", "coord": {"lon": 4.29904, "lat": 46.03371}}, {"id": 3031019, "name": "Bourg-des-Comptes", "country": "FR", "coord": {"lon": -1.74534, "lat": 47.92934}}, {"id": 3031020, "name": "Bourg-de-Peage", "country": "FR", "coord": {"lon": 5.07162, "lat": 45.028252}}, {"id": 3031027, "name": "Bourg-Blanc", "country": "FR", "coord": {"lon": -4.50406, "lat": 48.498669}}, {"id": 3031029, "name": "Bourgbarre", "country": "FR", "coord": {"lon": -1.61419, "lat": 47.995152}}, {"id": 3031030, "name": "Bourg-Argental", "country": "FR", "coord": {"lon": 4.56037, "lat": 45.295898}}, {"id": 3031032, "name": "Bourganeuf", "country": "FR", "coord": {"lon": 1.7552, "lat": 45.952679}}, {"id": 3031035, "name": "Bourg-Achard", "country": "FR", "coord": {"lon": 0.81623, "lat": 49.353222}}, {"id": 3031080, "name": "Bourcefranc-le-Chapus", "country": "FR", "coord": {"lon": -1.15, "lat": 45.849998}}, {"id": 3031081, "name": "Bourbriac", "country": "FR", "coord": {"lon": -3.18758, "lat": 48.473839}}, {"id": 3031085, "name": "Bourbourg", "country": "FR", "coord": {"lon": 2.19576, "lat": 50.94783}}, {"id": 3031086, "name": "Bourbonne-les-Bains", "country": "FR", "coord": {"lon": 5.74801, "lat": 47.953049}}, {"id": 3031090, "name": "Bourbon-Lancy", "country": "FR", "coord": {"lon": 3.76953, "lat": 46.622139}}, {"id": 3031098, "name": "Bouray-sur-Juine", "country": "FR", "coord": {"lon": 2.30001, "lat": 48.51981}}, {"id": 3031115, "name": "Boult-sur-Suippe", "country": "FR", "coord": {"lon": 4.14632, "lat": 49.37149}}, {"id": 3031129, "name": "Bouloire", "country": "FR", "coord": {"lon": 0.55009, "lat": 47.97385}}, {"id": 3031135, "name": "Boulogne-sur-Gesse", "country": "FR", "coord": {"lon": 0.65, "lat": 43.299999}}, {"id": 3031144, "name": "Bouloc", "country": "FR", "coord": {"lon": 1.40522, "lat": 43.781631}}, {"id": 3031146, "name": "Boulleret", "country": "FR", "coord": {"lon": 2.87342, "lat": 47.424191}}, {"id": 3031158, "name": "Bouligny", "country": "FR", "coord": {"lon": 5.74248, "lat": 49.291889}}, {"id": 3031161, "name": "Boulieu-les-Annonay", "country": "FR", "coord": {"lon": 4.66718, "lat": 45.27084}}, {"id": 3031167, "name": "Bouleurs", "country": "FR", "coord": {"lon": 2.90728, "lat": 48.881809}}, {"id": 3031178, "name": "Boulbon", "country": "FR", "coord": {"lon": 4.69391, "lat": 43.86232}}, {"id": 3031182, "name": "Boulay-Moselle", "country": "FR", "coord": {"lon": 6.5, "lat": 49.183331}}, {"id": 3031191, "name": "Boulange", "country": "FR", "coord": {"lon": 5.95231, "lat": 49.380932}}, {"id": 3031205, "name": "Boujan-sur-Libron", "country": "FR", "coord": {"lon": 3.24759, "lat": 43.369961}}, {"id": 3031222, "name": "Bouin", "country": "FR", "coord": {"lon": -1.9983, "lat": 46.973141}}, {"id": 3031238, "name": "Bouille-Loretz", "country": "FR", "coord": {"lon": -0.27178, "lat": 47.079109}}, {"id": 3031240, "name": "Bouillargues", "country": "FR", "coord": {"lon": 4.42853, "lat": 43.797329}}, {"id": 3031277, "name": "Bougival", "country": "FR", "coord": {"lon": 2.14148, "lat": 48.862228}}, {"id": 3031293, "name": "Bouffere", "country": "FR", "coord": {"lon": -1.33965, "lat": 46.961788}}, {"id": 3031294, "name": "Bouffemont", "country": "FR", "coord": {"lon": 2.29796, "lat": 49.04377}}, {"id": 3031315, "name": "Boue", "country": "FR", "coord": {"lon": 3.69608, "lat": 50.01141}}, {"id": 3031368, "name": "Bouchemaine", "country": "FR", "coord": {"lon": -0.60888, "lat": 47.42234}}, {"id": 3031387, "name": "Bouc-Bel-Air", "country": "FR", "coord": {"lon": 5.413, "lat": 43.452171}}, {"id": 3031403, "name": "Bouaye", "country": "FR", "coord": {"lon": -1.69306, "lat": 47.142632}}, {"id": 3031409, "name": "Bouafle", "country": "FR", "coord": {"lon": 1.9012, "lat": 48.96463}}, {"id": 3031462, "name": "Bosmie-lAiguille", "country": "FR", "coord": {"lon": 1.2, "lat": 45.75}}, {"id": 3031479, "name": "Bosc-le-Hard", "country": "FR", "coord": {"lon": 1.17483, "lat": 49.627338}}, {"id": 3031501, "name": "Bort-les-Orgues", "country": "FR", "coord": {"lon": 2.5, "lat": 45.400002}}, {"id": 3031516, "name": "Bornel", "country": "FR", "coord": {"lon": 2.20912, "lat": 49.1982}}, {"id": 3031532, "name": "Bormes-les-Mimosas", "country": "FR", "coord": {"lon": 6.33863, "lat": 43.140732}}, {"id": 3031537, "name": "Borgo", "country": "FR", "coord": {"lon": 9.42636, "lat": 42.554878}}, {"id": 3031552, "name": "Bords", "country": "FR", "coord": {"lon": -0.79528, "lat": 45.897221}}, {"id": 3031567, "name": "Bordes", "country": "FR", "coord": {"lon": -0.28333, "lat": 43.23333}}, {"id": 3031605, "name": "Boran-sur-Oise", "country": "FR", "coord": {"lon": 2.35803, "lat": 49.167149}}, {"id": 3031612, "name": "Boos", "country": "FR", "coord": {"lon": 1.20348, "lat": 49.388481}}, {"id": 3031616, "name": "Boofzheim", "country": "FR", "coord": {"lon": 7.68035, "lat": 48.332119}}, {"id": 3031639, "name": "Bonson", "country": "FR", "coord": {"lon": 4.21659, "lat": 45.524559}}, {"id": 3031644, "name": "Bons-en-Chablais", "country": "FR", "coord": {"lon": 6.38333, "lat": 46.26667}}, {"id": 3031656, "name": "Bonny-sur-Loire", "country": "FR", "coord": {"lon": 2.83933, "lat": 47.561722}}, {"id": 3031665, "name": "Bonnieux", "country": "FR", "coord": {"lon": 5.30739, "lat": 43.82452}}, {"id": 3031679, "name": "Bonneville", "country": "FR", "coord": {"lon": 6.40726, "lat": 46.0802}}, {"id": 3031702, "name": "Bonneval", "country": "FR", "coord": {"lon": 1.38524, "lat": 48.183121}}, {"id": 3031710, "name": "Bonneuil-Matours", "country": "FR", "coord": {"lon": 0.57063, "lat": 46.681549}}, {"id": 3031723, "name": "Bonnetable", "country": "FR", "coord": {"lon": 0.4257, "lat": 48.179081}}, {"id": 3031729, "name": "Bonne-sur-Menoge", "country": "FR", "coord": {"lon": 6.32276, "lat": 46.166}}, {"id": 3031732, "name": "Bonnes", "country": "FR", "coord": {"lon": 0.59791, "lat": 46.603859}}, {"id": 3031743, "name": "Bonnemain", "country": "FR", "coord": {"lon": -1.76774, "lat": 48.466518}}, {"id": 3031744, "name": "Bonnelles", "country": "FR", "coord": {"lon": 2.02922, "lat": 48.61816}}, {"id": 3031769, "name": "Bonnefamille", "country": "FR", "coord": {"lon": 5.13035, "lat": 45.595901}}, {"id": 3031783, "name": "Bonnat", "country": "FR", "coord": {"lon": 1.9, "lat": 46.333328}}, {"id": 3031789, "name": "Bonnac-la-Cote", "country": "FR", "coord": {"lon": 1.28417, "lat": 45.94212}}, {"id": 3031801, "name": "Bonifacio", "country": "FR", "coord": {"lon": 9.15942, "lat": 41.387402}}, {"id": 3031813, "name": "Bon-Encontre", "country": "FR", "coord": {"lon": 0.66759, "lat": 44.185181}}, {"id": 3031817, "name": "Bondues", "country": "FR", "coord": {"lon": 3.09497, "lat": 50.701962}}, {"id": 3031818, "name": "Bondoufle", "country": "FR", "coord": {"lon": 2.37775, "lat": 48.612942}}, {"id": 3031835, "name": "Bonchamp-les-Laval", "country": "FR", "coord": {"lon": -0.7, "lat": 48.07357}}, {"id": 3031848, "name": "Bompas", "country": "FR", "coord": {"lon": 2.93333, "lat": 42.73333}}, {"id": 3031862, "name": "Bologne", "country": "FR", "coord": {"lon": 5.14209, "lat": 48.200039}}, {"id": 3031864, "name": "Bollwiller", "country": "FR", "coord": {"lon": 7.26179, "lat": 47.858318}}, {"id": 3031865, "name": "Bollezeele", "country": "FR", "coord": {"lon": 2.34751, "lat": 50.866871}}, {"id": 3031868, "name": "Bollene", "country": "FR", "coord": {"lon": 4.75303, "lat": 44.28476}}, {"id": 3031871, "name": "Bolbec", "country": "FR", "coord": {"lon": 0.47339, "lat": 49.573212}}, {"id": 3031896, "name": "Boissy-sous-Saint-Yon", "country": "FR", "coord": {"lon": 2.21212, "lat": 48.553791}}, {"id": 3031905, "name": "Boissy-le-Cutte", "country": "FR", "coord": {"lon": 2.28326, "lat": 48.4702}}, {"id": 3031906, "name": "Boissy-le-Chatel", "country": "FR", "coord": {"lon": 3.13651, "lat": 48.820728}}, {"id": 3031917, "name": "Boissise-le-Roi", "country": "FR", "coord": {"lon": 2.56971, "lat": 48.524799}}, {"id": 3031930, "name": "Boisseuil", "country": "FR", "coord": {"lon": 1.33333, "lat": 45.769772}}, {"id": 3031941, "name": "Boisset-et-Gaujac", "country": "FR", "coord": {"lon": 4.00861, "lat": 44.047501}}, {"id": 3031949, "name": "Boisseron", "country": "FR", "coord": {"lon": 4.0797, "lat": 43.75795}}, {"id": 3031998, "name": "Boisme", "country": "FR", "coord": {"lon": -0.43476, "lat": 46.77393}}, {"id": 3032025, "name": "Bois-Guillaume", "country": "FR", "coord": {"lon": 1.12219, "lat": 49.460201}}, {"id": 3032027, "name": "Bois-Grenier", "country": "FR", "coord": {"lon": 2.87409, "lat": 50.649849}}, {"id": 3032033, "name": "Boisgervilly", "country": "FR", "coord": {"lon": -2.06426, "lat": 48.16692}}, {"id": 3032062, "name": "Bois-de-Cene", "country": "FR", "coord": {"lon": -1.88656, "lat": 46.93689}}, {"id": 3032064, "name": "Bois-dArcy", "country": "FR", "coord": {"lon": 2.02325, "lat": 48.79966}}, {"id": 3032069, "name": "Boiscommun", "country": "FR", "coord": {"lon": 2.38333, "lat": 48.035759}}, {"id": 3032118, "name": "Boigny-sur-Bionne", "country": "FR", "coord": {"lon": 2.01667, "lat": 47.933331}}, {"id": 3032125, "name": "Bohars", "country": "FR", "coord": {"lon": -4.51292, "lat": 48.42984}}, {"id": 3032127, "name": "Bohain-en-Vermandois", "country": "FR", "coord": {"lon": 3.453, "lat": 49.987301}}, {"id": 3032146, "name": "Boeschepe", "country": "FR", "coord": {"lon": 2.7, "lat": 50.799999}}, {"id": 3032147, "name": "Boersch", "country": "FR", "coord": {"lon": 7.43998, "lat": 48.476559}}, {"id": 3032151, "name": "Boen-sur-Lignon", "country": "FR", "coord": {"lon": 4.00959, "lat": 45.746181}}, {"id": 3032154, "name": "Boege", "country": "FR", "coord": {"lon": 6.40383, "lat": 46.209541}}, {"id": 3032156, "name": "Boe", "country": "FR", "coord": {"lon": 0.62905, "lat": 44.160061}}, {"id": 3032160, "name": "Bodilis", "country": "FR", "coord": {"lon": -4.11567, "lat": 48.529781}}, {"id": 3032194, "name": "Blotzheim", "country": "FR", "coord": {"lon": 7.4963, "lat": 47.602051}}, {"id": 3032214, "name": "Blodelsheim", "country": "FR", "coord": {"lon": 7.53678, "lat": 47.884109}}, {"id": 3032228, "name": "Bligny-les-Beaune", "country": "FR", "coord": {"lon": 4.8262, "lat": 46.986309}}, {"id": 3032238, "name": "Bliesbruck", "country": "FR", "coord": {"lon": 7.18356, "lat": 49.11517}}, {"id": 3032251, "name": "Bletterans", "country": "FR", "coord": {"lon": 5.45444, "lat": 46.746731}}, {"id": 3032267, "name": "Blere", "country": "FR", "coord": {"lon": 0.99186, "lat": 47.327381}}, {"id": 3032269, "name": "Blerancourt", "country": "FR", "coord": {"lon": 3.15, "lat": 49.51667}}, {"id": 3032274, "name": "Blenod-les-Toul", "country": "FR", "coord": {"lon": 5.83956, "lat": 48.598141}}, {"id": 3032275, "name": "Blenod-les-Pont-a-Mousson", "country": "FR", "coord": {"lon": 6.04844, "lat": 48.884869}}, {"id": 3032278, "name": "Bleneau", "country": "FR", "coord": {"lon": 2.95, "lat": 47.700001}}, {"id": 3032279, "name": "Blendecques", "country": "FR", "coord": {"lon": 2.28601, "lat": 50.71843}}, {"id": 3032292, "name": "Blaye-les-Mines", "country": "FR", "coord": {"lon": 2.13166, "lat": 44.030731}}, {"id": 3032296, "name": "Blavozy", "country": "FR", "coord": {"lon": 3.97993, "lat": 45.057201}}, {"id": 3032306, "name": "Blauzac", "country": "FR", "coord": {"lon": 4.3693, "lat": 43.96151}}, {"id": 3032308, "name": "Blausasc", "country": "FR", "coord": {"lon": 7.36883, "lat": 43.8069}}, {"id": 3032319, "name": "Blaringhem", "country": "FR", "coord": {"lon": 2.40321, "lat": 50.691101}}, {"id": 3032326, "name": "Blanzy", "country": "FR", "coord": {"lon": 4.38833, "lat": 46.700119}}, {"id": 3032349, "name": "Blangy-sur-Bresle", "country": "FR", "coord": {"lon": 1.62514, "lat": 49.93211}}, {"id": 3032403, "name": "Blancafort", "country": "FR", "coord": {"lon": 2.52981, "lat": 47.532188}}, {"id": 3032430, "name": "Blamont", "country": "FR", "coord": {"lon": 6.848, "lat": 47.385132}}, {"id": 3032440, "name": "Blaison-Gohier", "country": "FR", "coord": {"lon": -0.37723, "lat": 47.399509}}, {"id": 3032455, "name": "Blainville-Crevon", "country": "FR", "coord": {"lon": 1.29952, "lat": 49.503948}}, {"id": 3032461, "name": "Blaincourt-les-Precy", "country": "FR", "coord": {"lon": 2.35, "lat": 49.23333}}, {"id": 3032462, "name": "Blain", "country": "FR", "coord": {"lon": -1.76285, "lat": 47.476551}}, {"id": 3032468, "name": "Blagny", "country": "FR", "coord": {"lon": 5.19194, "lat": 49.62167}}, {"id": 3032470, "name": "Blaesheim", "country": "FR", "coord": {"lon": 7.60923, "lat": 48.506481}}, {"id": 3032481, "name": "Blace", "country": "FR", "coord": {"lon": 4.64499, "lat": 46.031849}}, {"id": 3032492, "name": "Bize-Minervois", "country": "FR", "coord": {"lon": 2.87134, "lat": 43.316559}}, {"id": 3032497, "name": "Bizanet", "country": "FR", "coord": {"lon": 2.87034, "lat": 43.164188}}, {"id": 3032505, "name": "Biviers", "country": "FR", "coord": {"lon": 5.8, "lat": 45.23333}}, {"id": 3032509, "name": "Bitschwiller-les-Thann", "country": "FR", "coord": {"lon": 7.08066, "lat": 47.828629}}, {"id": 3032518, "name": "Bitche", "country": "FR", "coord": {"lon": 7.42672, "lat": 49.050091}}, {"id": 3032544, "name": "Bischwiller", "country": "FR", "coord": {"lon": 7.85831, "lat": 48.765881}}, {"id": 3032549, "name": "Bischoffsheim", "country": "FR", "coord": {"lon": 7.48967, "lat": 48.48703}}, {"id": 3032579, "name": "Biot", "country": "FR", "coord": {"lon": 7.09645, "lat": 43.627232}}, {"id": 3032598, "name": "Bining", "country": "FR", "coord": {"lon": 7.2522, "lat": 49.036469}}, {"id": 3032600, "name": "Binic", "country": "FR", "coord": {"lon": -2.82692, "lat": 48.60416}}, {"id": 3032615, "name": "Billy-sur-Aisne", "country": "FR", "coord": {"lon": 3.38357, "lat": 49.356319}}, {"id": 3032618, "name": "Billy-Montigny", "country": "FR", "coord": {"lon": 2.90286, "lat": 50.41711}}, {"id": 3032622, "name": "Billy-Berclau", "country": "FR", "coord": {"lon": 2.86613, "lat": 50.51783}}, {"id": 3032648, "name": "Bilieu", "country": "FR", "coord": {"lon": 5.54624, "lat": 45.444519}}, {"id": 3032662, "name": "Bihorel", "country": "FR", "coord": {"lon": 1.1223, "lat": 49.454681}}, {"id": 3032678, "name": "Bignoux", "country": "FR", "coord": {"lon": 0.46932, "lat": 46.600079}}, {"id": 3032685, "name": "Bignan", "country": "FR", "coord": {"lon": -2.77153, "lat": 47.879349}}, {"id": 3032688, "name": "Biganos", "country": "FR", "coord": {"lon": -0.97367, "lat": 44.645039}}, {"id": 3032695, "name": "Bievres", "country": "FR", "coord": {"lon": 2.21881, "lat": 48.757721}}, {"id": 3032711, "name": "Biesles", "country": "FR", "coord": {"lon": 5.29409, "lat": 48.085972}}, {"id": 3032712, "name": "Biesheim", "country": "FR", "coord": {"lon": 7.54474, "lat": 48.04118}}, {"id": 3032726, "name": "Bierne", "country": "FR", "coord": {"lon": 2.40963, "lat": 50.962318}}, {"id": 3032737, "name": "Bienville", "country": "FR", "coord": {"lon": 5.04579, "lat": 48.575821}}, {"id": 3032791, "name": "Bias", "country": "FR", "coord": {"lon": 0.66977, "lat": 44.41655}}, {"id": 3032794, "name": "Biars-sur-Cere", "country": "FR", "coord": {"lon": 1.85403, "lat": 44.926289}}, {"id": 3032815, "name": "Biache-Saint-Vaast", "country": "FR", "coord": {"lon": 2.94777, "lat": 50.308689}}, {"id": 3032818, "name": "Bezu-Saint-Eloi", "country": "FR", "coord": {"lon": 1.70404, "lat": 49.295238}}, {"id": 3032823, "name": "Bezouce", "country": "FR", "coord": {"lon": 4.49072, "lat": 43.88229}}, {"id": 3032847, "name": "Bezannes", "country": "FR", "coord": {"lon": 3.98892, "lat": 49.223389}}, {"id": 3032869, "name": "Beynost", "country": "FR", "coord": {"lon": 5.00608, "lat": 45.838089}}, {"id": 3032872, "name": "Beynes", "country": "FR", "coord": {"lon": 1.87261, "lat": 48.856258}}, {"id": 3032880, "name": "Beychac-et-Caillau", "country": "FR", "coord": {"lon": -0.40219, "lat": 44.877811}}, {"id": 3032887, "name": "Beville-le-Comte", "country": "FR", "coord": {"lon": 1.71305, "lat": 48.435581}}, {"id": 3032892, "name": "Beuzeville-la-Grenier", "country": "FR", "coord": {"lon": 0.42684, "lat": 49.591572}}, {"id": 3032896, "name": "Beuzeville", "country": "FR", "coord": {"lon": 0.34254, "lat": 49.34483}}, {"id": 3032898, "name": "Beuzec-Cap-Sizun", "country": "FR", "coord": {"lon": -4.512, "lat": 48.075668}}, {"id": 3032903, "name": "Beuvry", "country": "FR", "coord": {"lon": 2.68541, "lat": 50.516739}}, {"id": 3032915, "name": "Beuvrages", "country": "FR", "coord": {"lon": 3.4942, "lat": 50.38414}}, {"id": 3032917, "name": "Beuvillers", "country": "FR", "coord": {"lon": 0.25492, "lat": 49.129608}}, {"id": 3032919, "name": "Beuville", "country": "FR", "coord": {"lon": -0.32585, "lat": 49.243641}}, {"id": 3032939, "name": "Beure", "country": "FR", "coord": {"lon": 6.00548, "lat": 47.206902}}, {"id": 3032957, "name": "Betz", "country": "FR", "coord": {"lon": 2.95584, "lat": 49.155579}}, {"id": 3032965, "name": "Betton", "country": "FR", "coord": {"lon": -1.63829, "lat": 48.180481}}, {"id": 3032981, "name": "Bettancourt-la-Ferree", "country": "FR", "coord": {"lon": 4.96971, "lat": 48.648979}}, {"id": 3033006, "name": "Bethoncourt", "country": "FR", "coord": {"lon": 6.80504, "lat": 47.535118}}, {"id": 3033010, "name": "Bethisy-Saint-Pierre", "country": "FR", "coord": {"lon": 2.79636, "lat": 49.304821}}, {"id": 3033011, "name": "Bethisy-Saint-Martin", "country": "FR", "coord": {"lon": 2.81743, "lat": 49.2948}}, {"id": 3033052, "name": "Bessines-sur-Gartempe", "country": "FR", "coord": {"lon": 1.36865, "lat": 46.10799}}, {"id": 3033053, "name": "Bessines", "country": "FR", "coord": {"lon": -0.51294, "lat": 46.302071}}, {"id": 3033056, "name": "Bessieres", "country": "FR", "coord": {"lon": 1.60624, "lat": 43.798611}}, {"id": 3033065, "name": "Besse-sur-Issole", "country": "FR", "coord": {"lon": 6.17759, "lat": 43.349571}}, {"id": 3033066, "name": "Besse-sur-Braye", "country": "FR", "coord": {"lon": 0.75, "lat": 47.833328}}, {"id": 3033071, "name": "Bessenay", "country": "FR", "coord": {"lon": 4.55376, "lat": 45.77721}}, {"id": 3033073, "name": "Besseges", "country": "FR", "coord": {"lon": 4.0966, "lat": 44.292301}}, {"id": 3033098, "name": "Bessancourt", "country": "FR", "coord": {"lon": 2.20936, "lat": 49.037651}}, {"id": 3033099, "name": "Bessan", "country": "FR", "coord": {"lon": 3.42288, "lat": 43.361961}}, {"id": 3033108, "name": "Besne", "country": "FR", "coord": {"lon": -2.08976, "lat": 47.400002}}, {"id": 3033147, "name": "Beruges", "country": "FR", "coord": {"lon": 0.20741, "lat": 46.567379}}, {"id": 3033149, "name": "Bertry", "country": "FR", "coord": {"lon": 3.44298, "lat": 50.087181}}, {"id": 3033163, "name": "Bertrange", "country": "FR", "coord": {"lon": 6.17893, "lat": 49.30769}}, {"id": 3033200, "name": "Berthecourt", "country": "FR", "coord": {"lon": 2.22471, "lat": 49.350971}}, {"id": 3033202, "name": "Bertheauville", "country": "FR", "coord": {"lon": 0.60194, "lat": 49.75489}}, {"id": 3033208, "name": "Berteaucourt-les-Dames", "country": "FR", "coord": {"lon": 2.1575, "lat": 50.04697}}, {"id": 3033219, "name": "Berstett", "country": "FR", "coord": {"lon": 7.65721, "lat": 48.679001}}, {"id": 3033222, "name": "Bersee", "country": "FR", "coord": {"lon": 3.14765, "lat": 50.479778}}, {"id": 3033232, "name": "Berrwiller", "country": "FR", "coord": {"lon": 7.21978, "lat": 47.84911}}, {"id": 3033236, "name": "Berrien", "country": "FR", "coord": {"lon": -3.75266, "lat": 48.402779}}, {"id": 3033238, "name": "Berric", "country": "FR", "coord": {"lon": -2.5225, "lat": 47.633259}}, {"id": 3033241, "name": "Berre-lEtang", "country": "FR", "coord": {"lon": 5.17044, "lat": 43.478088}}, {"id": 3033242, "name": "Berre-les-Alpes", "country": "FR", "coord": {"lon": 7.33333, "lat": 43.833328}}, {"id": 3033268, "name": "Bernis", "country": "FR", "coord": {"lon": 4.28713, "lat": 43.769131}}, {"id": 3033269, "name": "Bernin", "country": "FR", "coord": {"lon": 5.86516, "lat": 45.2714}}, {"id": 3033285, "name": "Berneval-le-Grand", "country": "FR", "coord": {"lon": 1.18755, "lat": 49.953281}}, {"id": 3033294, "name": "Bernes-sur-Oise", "country": "FR", "coord": {"lon": 2.3, "lat": 49.161282}}, {"id": 3033303, "name": "Berne", "country": "FR", "coord": {"lon": -3.39421, "lat": 47.994701}}, {"id": 3033308, "name": "Bernay", "country": "FR", "coord": {"lon": 0.59858, "lat": 49.088879}}, {"id": 3033312, "name": "Bernaville", "country": "FR", "coord": {"lon": 2.163, "lat": 50.13232}}, {"id": 3033316, "name": "Bernardswiller", "country": "FR", "coord": {"lon": 7.46171, "lat": 48.45208}}, {"id": 3033355, "name": "Berlaimont", "country": "FR", "coord": {"lon": 3.81343, "lat": 50.20155}}, {"id": 3033363, "name": "Bergues", "country": "FR", "coord": {"lon": 2.43242, "lat": 50.968819}}, {"id": 3033380, "name": "Bergholtz", "country": "FR", "coord": {"lon": 7.24612, "lat": 47.915951}}, {"id": 3033382, "name": "Bergheim", "country": "FR", "coord": {"lon": 7.36299, "lat": 48.205399}}, {"id": 3033435, "name": "Berat", "country": "FR", "coord": {"lon": 1.17572, "lat": 43.378571}},