[{"id": 2985461, "name": "Premesques", "country": "FR", "coord": {"lon": 2.95162, "lat": 50.65572}}, {"id": 6535736, "name": "Premia", "country": "IT", "coord": {"lon": 8.32781, "lat": 46.262981}}, {"id": 3112866, "name": "Premia de Mar", "country": "ES", "coord": {"lon": 2.36524, "lat": 41.492062}}, {"id": 6112882, "name": "Premier", "country": "CA", "coord": {"lon": -130.020676, "lat": 56.049599}}, {"id": 3169860, "name": "Premilcuore", "country": "IT", "coord": {"lon": 11.78363, "lat": 43.981861}}, {"id": 2985455, "name": "Premilhat", "country": "FR", "coord": {"lon": 2.53333, "lat": 46.316669}}, {"id": 6356198, "name": "Premi\u00e0 de Mar", "country": "ES", "coord": {"lon": 2.35878, "lat": 41.49408}}, {"id": 2852233, "name": "Premnitz", "country": "DE", "coord": {"lon": 12.33333, "lat": 52.533329}}, {"id": 6534972, "name": "Premolo", "country": "IT", "coord": {"lon": 9.87466, "lat": 45.87019}}, {"id": 4720529, "name": "Premont", "country": "US", "coord": {"lon": -98.123619, "lat": 27.36059}}, {"id": 3169859, "name": "Premosello Chiovenda", "country": "IT", "coord": {"lon": 8.32892, "lat": 46.004181}}, {"id": 2852229, "name": "Premsendorf", "country": "DE", "coord": {"lon": 13.13333, "lat": 51.75}}, {"id": 3067587, "name": "Premyslovice", "country": "CZ", "coord": {"lon": 16.955811, "lat": 49.55637}}, {"id": 3112863, "name": "Prendes", "country": "ES", "coord": {"lon": -5.75, "lat": 43.566669}}, {"id": 4442363, "name": "Prentiss", "country": "US", "coord": {"lon": -89.86702, "lat": 31.598499}}, {"id": 2152563, "name": "Prenzlau", "country": "AU", "coord": {"lon": 152.516663, "lat": -27.533331}}, {"id": 2852218, "name": "Prenzlau", "country": "DE", "coord": {"lon": 13.86667, "lat": 53.316669}}, {"id": 2017658, "name": "Preobrazheniye", "country": "RU", "coord": {"lon": 133.906387, "lat": 42.901939}}, {"id": 505529, "name": "Preobrazhenka", "country": "RU", "coord": {"lon": 48.931667, "lat": 52.063057}}, {"id": 696348, "name": "Preobrazhenka", "country": "UA", "coord": {"lon": 35.816669, "lat": 47.571941}}, {"id": 505494, "name": "Preobrazhenskoye", "country": "RU", "coord": {"lon": 41.834999, "lat": 56.648888}}, {"id": 2152562, "name": "Preolenna", "country": "AU", "coord": {"lon": 145.566666, "lat": -41.099998}}, {"id": 3220127, "name": "Preone", "country": "IT", "coord": {"lon": 12.86472, "lat": 46.397221}}, {"id": 3169855, "name": "Preore", "country": "IT", "coord": {"lon": 10.75727, "lat": 46.047298}}, {"id": 669672, "name": "Preo\u0163e\u015fti", "country": "RO", "coord": {"lon": 26.08333, "lat": 44.616669}}, {"id": 3219957, "name": "Prepotto", "country": "IT", "coord": {"lon": 13.47778, "lat": 46.04694}}, {"id": 3067580, "name": "Prerov", "country": "CZ", "coord": {"lon": 17.450899, "lat": 49.455109}}, {"id": 3067577, "name": "Prerov nad Labem", "country": "CZ", "coord": {"lon": 14.82502, "lat": 50.160271}}, {"id": 7293815, "name": "Prescot", "country": "GB", "coord": {"lon": -2.80553, "lat": 53.424751}}, {"id": 2639928, "name": "Prescot", "country": "GB", "coord": {"lon": -2.80031, "lat": 53.429482}}, {"id": 5309842, "name": "Prescott", "country": "US", "coord": {"lon": -112.468498, "lat": 34.54002}}, {"id": 6113027, "name": "Prescott", "country": "CA", "coord": {"lon": -75.516037, "lat": 44.716808}}, {"id": 4127433, "name": "Prescott", "country": "US", "coord": {"lon": -93.381012, "lat": 33.802608}}, {"id": 5268045, "name": "Prescott", "country": "US", "coord": {"lon": -92.802147, "lat": 44.748859}}, {"id": 5309858, "name": "Prescott Valley", "country": "US", "coord": {"lon": -112.325249, "lat": 34.589409}}, {"id": 2985416, "name": "Preseau", "country": "FR", "coord": {"lon": 3.57434, "lat": 50.311218}}, {"id": 6534744, "name": "Preseglie", "country": "IT", "coord": {"lon": 10.39677, "lat": 45.668289}}, {"id": 2852204, "name": "Presen", "country": "DE", "coord": {"lon": 11.25, "lat": 54.48333}}, {"id": 6356541, "name": "Presencio", "country": "ES", "coord": {"lon": -3.90272, "lat": 42.186562}}, {"id": 3112856, "name": "Presencio", "country": "ES", "coord": {"lon": -3.90135, "lat": 42.186562}}, {"id": 3169846, "name": "Presenzano", "country": "IT", "coord": {"lon": 14.07642, "lat": 41.376621}}, {"id": 786772, "name": "Presevo", "country": "RS", "coord": {"lon": 21.64917, "lat": 42.30917}}, {"id": 6534973, "name": "Presezzo", "country": "IT", "coord": {"lon": 9.57035, "lat": 45.692081}}, {"id": 2523681, "name": "Presicce", "country": "IT", "coord": {"lon": 18.26173, "lat": 39.89912}}, {"id": 3429864, "name": "Presidencia Roca", "country": "AR", "coord": {"lon": -59.595409, "lat": -26.1409}}, {"id": 3840300, "name": "Presidencia Roque Saenz Pena", "country": "AR", "coord": {"lon": -60.438759, "lat": -26.785219}}, {"id": 3429866, "name": "Presidencia de la Plaza", "country": "AR", "coord": {"lon": -59.84243, "lat": -27.001471}}, {"id": 1692784, "name": "President Quirino", "country": "PH", "coord": {"lon": 124.737221, "lat": 6.70389}}, {"id": 1692780, "name": "President Roxas", "country": "PH", "coord": {"lon": 122.927902, "lat": 11.431}}, {"id": 1692781, "name": "President Roxas", "country": "PH", "coord": {"lon": 125.055832, "lat": 7.15444}}, {"id": 3452338, "name": "Presidente Alves", "country": "BR", "coord": {"lon": -49.438061, "lat": -22.1}}, {"id": 3452335, "name": "Presidente Bernardes", "country": "BR", "coord": {"lon": -51.553059, "lat": -22.006109}}, {"id": 3391220, "name": "Presidente Dutra", "country": "BR", "coord": {"lon": -44.490002, "lat": -5.29}}, {"id": 3452331, "name": "Presidente Epitacio", "country": "BR", "coord": {"lon": -52.115559, "lat": -21.76333}}, {"id": 3736812, "name": "Presidente Figueiredo", "country": "BR", "coord": {"lon": -60.025002, "lat": -2.03444}}, {"id": 3437444, "name": "Presidente Franco", "country": "PY", "coord": {"lon": -54.616669, "lat": -25.533331}}, {"id": 3452330, "name": "Presidente Get\u00falio", "country": "BR", "coord": {"lon": -49.62278, "lat": -27.05056}}, {"id": 3924872, "name": "Presidente Medici", "country": "BR", "coord": {"lon": -61.90139, "lat": -11.17528}}, {"id": 3452327, "name": "Presidente Olegario", "country": "BR", "coord": {"lon": -46.41806, "lat": -18.41778}}, {"id": 3452324, "name": "Presidente Prudente", "country": "BR", "coord": {"lon": -51.388889, "lat": -22.125561}}, {"id": 3429861, "name": "Presidente Rivadavia", "country": "AR", "coord": {"lon": -58.433331, "lat": -34.650002}}, {"id": 3452320, "name": "Presidente Venceslau", "country": "BR", "coord": {"lon": -51.843891, "lat": -21.87611}}, {"id": 4503698, "name": "Presidential Lakes Estates", "country": "US", "coord": {"lon": -74.564598, "lat": 39.913731}}, {"id": 5528669, "name": "Presidio", "country": "US", "coord": {"lon": -104.372147, "lat": 29.56074}}, {"id": 5528673, "name": "Presidio County", "country": "US", "coord": {"lon": -104.25103, "lat": 29.91684}}, {"id": 6443800, "name": "Presles-en-Brie", "country": "FR", "coord": {"lon": 2.75, "lat": 48.716671}}, {"id": 2985402, "name": "Presles-en-Brie", "country": "FR", "coord": {"lon": 2.74112, "lat": 48.715271}}, {"id": 542634, "name": "Presnenskiy", "country": "RU", "coord": {"lon": 37.551388, "lat": 55.760834}}, {"id": 1520051, "name": "Presnovka", "country": "KZ", "coord": {"lon": 67.150002, "lat": 54.666672}}, {"id": 723819, "name": "Presov", "country": "SK", "coord": {"lon": 21.233931, "lat": 48.99839}}, {"id": 4975966, "name": "Presque Isle", "country": "US", "coord": {"lon": -68.015862, "lat": 46.681149}}, {"id": 4338040, "name": "Presquille", "country": "US", "coord": {"lon": -90.646202, "lat": 29.563829}}, {"id": 3169841, "name": "Pressana", "country": "IT", "coord": {"lon": 11.4048, "lat": 45.283989}}, {"id": 2852198, "name": "Pressath", "country": "DE", "coord": {"lon": 11.93333, "lat": 49.76667}}, {"id": 7871951, "name": "Pressbaum", "country": "AT", "coord": {"lon": 16.047729, "lat": 48.17598}}, {"id": 2768348, "name": "Pressbaum", "country": "AT", "coord": {"lon": 16.08333, "lat": 48.183331}}, {"id": 2852197, "name": "Presseck", "country": "DE", "coord": {"lon": 11.55, "lat": 50.23333}}, {"id": 2852196, "name": "Pressel", "country": "DE", "coord": {"lon": 12.70466, "lat": 51.579418}}, {"id": 2852193, "name": "Pressen", "country": "DE", "coord": {"lon": 12.53333, "lat": 51.466671}}, {"id": 2852190, "name": "Pressig", "country": "DE", "coord": {"lon": 11.31667, "lat": 50.349998}}, {"id": 6616176, "name": "Pressignac-Vicq", "country": "FR", "coord": {"lon": 0.7226, "lat": 44.895599}}, {"id": 2985388, "name": "Pressignac-Vicq", "country": "FR", "coord": {"lon": 0.71667, "lat": 44.900002}}, {"id": 7294048, "name": "Prestatyn", "country": "GB", "coord": {"lon": -3.40514, "lat": 53.334641}}, {"id": 2639926, "name": "Prestatyn", "country": "GB", "coord": {"lon": -3.40776, "lat": 53.337479}}, {"id": 2639925, "name": "Prestbury", "country": "GB", "coord": {"lon": -2.15, "lat": 53.283329}}, {"id": 2295840, "name": "Prestea", "country": "GH", "coord": {"lon": -2.14284, "lat": 5.43274}}, {"id": 2639924, "name": "Presteigne", "country": "GB", "coord": {"lon": -3, "lat": 52.283329}}, {"id": 2852182, "name": "Prester", "country": "DE", "coord": {"lon": 11.67495, "lat": 52.10281}}, {"id": 3142626, "name": "Prestestranda", "country": "NO", "coord": {"lon": 9.05866, "lat": 59.097729}}, {"id": 2852181, "name": "Prestewitz", "country": "DE", "coord": {"lon": 13.41667, "lat": 51.549999}}, {"id": 3142623, "name": "Prestfoss", "country": "NO", "coord": {"lon": 9.63022, "lat": 60.042229}}, {"id": 3067553, "name": "Prestice", "country": "CZ", "coord": {"lon": 13.3335, "lat": 49.572979}}, {"id": 6534558, "name": "Prestine", "country": "IT", "coord": {"lon": 10.30866, "lat": 45.929588}}, {"id": 6621208, "name": "Presto", "country": "BO", "coord": {"lon": -64.9506, "lat": -18.893221}}, {"id": 6621306, "name": "Presto", "country": "BO", "coord": {"lon": -64.934479, "lat": -18.94154}}, {"id": 3907484, "name": "Presto", "country": "BO", "coord": {"lon": -64.939171, "lat": -18.92944}}, {"id": 5061036, "name": "Preston", "country": "US", "coord": {"lon": -97.218697, "lat": 47.312199}}, {"id": 2639912, "name": "Preston", "country": "GB", "coord": {"lon": -2.71667, "lat": 53.76667}}, {"id": 4872164, "name": "Preston", "country": "US", "coord": {"lon": -90.414017, "lat": 42.050301}}, {"id": 2152558, "name": "Preston", "country": "AU", "coord": {"lon": 145.016663, "lat": -37.75}}, {"id": 6113143, "name": "Preston", "country": "CA", "coord": {"lon": -80.34967, "lat": 43.3834}}, {"id": 2639913, "name": "Preston", "country": "GB", "coord": {"lon": -0.19775, "lat": 53.75663}}, {"id": 2639914, "name": "Preston", "country": "GB", "coord": {"lon": -0.71437, "lat": 52.61264}}, {"id": 4217343, "name": "Preston", "country": "US", "coord": {"lon": -84.537422, "lat": 32.06599}}, {"id": 4720583, "name": "Preston", "country": "US", "coord": {"lon": -96.633049, "lat": 33.88232}}, {"id": 5042330, "name": "Preston", "country": "US", "coord": {"lon": -92.083221, "lat": 43.670238}}, {"id": 5604473, "name": "Preston", "country": "US", "coord": {"lon": -111.876617, "lat": 42.09631}}, {"id": 4841125, "name": "Preston City", "country": "US", "coord": {"lon": -71.973961, "lat": 41.528992}}, {"id": 7290581, "name": "Preston District", "country": "GB", "coord": {"lon": -2.70932, "lat": 53.82188}}, {"id": 4906802, "name": "Preston Heights", "country": "US", "coord": {"lon": -88.081718, "lat": 41.491699}}, {"id": 2639902, "name": "Prestonpans", "country": "GB", "coord": {"lon": -2.98038, "lat": 55.959389}}, {"id": 4305210, "name": "Prestonsburg", "country": "US", "coord": {"lon": -82.771553, "lat": 37.665649}}, {"id": 4305208, "name": "Prestonville", "country": "US", "coord": {"lon": -85.190231, "lat": 38.679779}}, {"id": 2639897, "name": "Prestwich", "country": "GB", "coord": {"lon": -2.28333, "lat": 53.533329}}, {"id": 2639896, "name": "Prestwick", "country": "GB", "coord": {"lon": -4.61667, "lat": 55.48333}}, {"id": 1630651, "name": "Pretana", "country": "ID", "coord": {"lon": 119.644096, "lat": -9.6161}}, {"id": 964137, "name": "Pretoria", "country": "ZA", "coord": {"lon": 28.18783, "lat": -25.74486}}, {"id": 964132, "name": "Pretoria-Wes", "country": "ZA", "coord": {"lon": 28.161249, "lat": -25.754419}}, {"id": 3169830, "name": "Pretoro", "country": "IT", "coord": {"lon": 14.14181, "lat": 42.21764}}, {"id": 2852168, "name": "Prettin", "country": "DE", "coord": {"lon": 12.91667, "lat": 51.666672}}, {"id": 4169302, "name": "Pretty Bayou", "country": "US", "coord": {"lon": -85.696602, "lat": 30.19659}}, {"id": 2852163, "name": "Pretzetze", "country": "DE", "coord": {"lon": 11.30476, "lat": 53.069069}}, {"id": 2852162, "name": "Pretzfeld", "country": "DE", "coord": {"lon": 11.1743, "lat": 49.754539}}, {"id": 2852160, "name": "Pretzien", "country": "DE", "coord": {"lon": 11.83333, "lat": 52.049999}}, {"id": 2852159, "name": "Pretzier", "country": "DE", "coord": {"lon": 11.25, "lat": 52.833328}}, {"id": 2852156, "name": "Pretzsch", "country": "DE", "coord": {"lon": 12.8, "lat": 51.716671}}, {"id": 6548708, "name": "Pretzschendorf", "country": "DE", "coord": {"lon": 13.5333, "lat": 50.866699}}, {"id": 2852154, "name": "Pretzschendorf", "country": "DE", "coord": {"lon": 13.53333, "lat": 50.866669}}, {"id": 6433086, "name": "Preuilly-sur-Claise", "country": "FR", "coord": {"lon": 0.93333, "lat": 46.849998}}, {"id": 2985361, "name": "Preuilly-sur-Claise", "country": "FR", "coord": {"lon": 0.92954, "lat": 46.85424}}, {"id": 2852150, "name": "Preunschen", "country": "DE", "coord": {"lon": 9.185, "lat": 49.587502}}, {"id": 2852147, "name": "Preuschwitz", "country": "DE", "coord": {"lon": 14.41667, "lat": 51.166672}}, {"id": 2852144, "name": "Preussisch Oldendorf", "country": "DE", "coord": {"lon": 8.5, "lat": 52.299999}}, {"id": 669665, "name": "Preutesti", "country": "RO", "coord": {"lon": 26.41667, "lat": 47.450001}}, {"id": 2852140, "name": "Preu\u00dfnitz", "country": "DE", "coord": {"lon": 12.63333, "lat": 52.133331}}, {"id": 3192484, "name": "Prevalje", "country": "SI", "coord": {"lon": 14.92083, "lat": 46.54694}}, {"id": 6534559, "name": "Prevalle", "country": "IT", "coord": {"lon": 10.42207, "lat": 45.55138}}, {"id": 6639664, "name": "Preverenges", "country": "CH", "coord": {"lon": 6.52682, "lat": 46.518539}}, {"id": 254698, "name": "Preveza", "country": "GR", "coord": {"lon": 20.75, "lat": 38.950001}}, {"id": 6113198, "name": "Prevost", "country": "CA", "coord": {"lon": -74.082512, "lat": 45.866779}}, {"id": 1822610, "name": "Prey Veng", "country": "KH", "coord": {"lon": 105.325333, "lat": 11.48682}}, {"id": 3573885, "name": "Preysal", "country": "TT", "coord": {"lon": -61.400002, "lat": 10.41667}}, {"id": 3112848, "name": "Prezanes", "country": "ES", "coord": {"lon": -3.90995, "lat": 43.453732}}, {"id": 6552663, "name": "Prezelle", "country": "DE", "coord": {"lon": 11.4, "lat": 52.966702}}, {"id": 2852135, "name": "Prezelle", "country": "DE", "coord": {"lon": 11.4, "lat": 52.966671}}, {"id": 727970, "name": "Prezhda", "country": "BG", "coord": {"lon": 27.25, "lat": 43.01667}}, {"id": 3169826, "name": "Prezza", "country": "IT", "coord": {"lon": 13.8346, "lat": 42.05933}}, {"id": 6535805, "name": "Prezzo", "country": "IT", "coord": {"lon": 10.63297, "lat": 45.9347}}, {"id": 865085, "name": "Pre\u0161ovsk\u00fd Kraj", "country": "SK", "coord": {"lon": 21.25, "lat": 49.166672}}, {"id": 2017648, "name": "Priamurskiy", "country": "RU", "coord": {"lon": 134.902786, "lat": 48.521671}}, {"id": 3112846, "name": "Priandi", "country": "ES", "coord": {"lon": -5.51667, "lat": 43.349998}}, {"id": 3112845, "name": "Prianes", "country": "ES", "coord": {"lon": -5.96667, "lat": 43.366669}}, {"id": 6358660, "name": "Priaranza del Bierzo", "country": "ES", "coord": {"lon": -6.6725, "lat": 42.484219}}, {"id": 3112843, "name": "Priaranza del Bierzo", "country": "ES", "coord": {"lon": -6.67017, "lat": 42.509781}}, {"id": 2017646, "name": "Priargunsk", "country": "RU", "coord": {"lon": 119.101196, "lat": 50.369099}}, {"id": 6424637, "name": "Priay", "country": "FR", "coord": {"lon": 5.28333, "lat": 46}}, {"id": 2985330, "name": "Priay", "country": "FR", "coord": {"lon": 5.28775, "lat": 46.001881}}, {"id": 3192456, "name": "Pribinic", "country": "BA", "coord": {"lon": 17.690559, "lat": 44.610561}}, {"id": 3192452, "name": "Pribislavec", "country": "HR", "coord": {"lon": 16.4825, "lat": 46.392502}}, {"id": 669654, "name": "Priboieni", "country": "RO", "coord": {"lon": 25.08333, "lat": 44.883331}}, {"id": 3192450, "name": "Priboj", "country": "RS", "coord": {"lon": 19.525829, "lat": 43.583611}}, {"id": 3192449, "name": "Priboj", "country": "BA", "coord": {"lon": 18.931391, "lat": 44.602779}}, {"id": 3067544, "name": "Pribor", "country": "CZ", "coord": {"lon": 18.144991, "lat": 49.640942}}, {"id": 6548087, "name": "Priborn", "country": "DE", "coord": {"lon": 12.6667, "lat": 53.299999}}, {"id": 2852131, "name": "Priborn", "country": "DE", "coord": {"lon": 12.65599, "lat": 53.305649}}, {"id": 3067542, "name": "Pribram", "country": "CZ", "coord": {"lon": 14.01043, "lat": 49.68988}}, {"id": 7117224, "name": "Pribrezhnyy", "country": "RU", "coord": {"lon": 49.85836, "lat": 53.486622}}, {"id": 3058012, "name": "Pribylina", "country": "SK", "coord": {"lon": 19.79427, "lat": 49.099499}}, {"id": 3067535, "name": "Pribyslav", "country": "CZ", "coord": {"lon": 15.73855, "lat": 49.576839}}, {"id": 5545269, "name": "Price", "country": "US", "coord": {"lon": -110.810707, "lat": 39.599411}}, {"id": 5268067, "name": "Price County", "country": "US", "coord": {"lon": -90.350151, "lat": 45.683289}}, {"id": 3345279, "name": "Price Town", "country": "GB", "coord": {"lon": -3.53662, "lat": 51.61832}}, {"id": 4780337, "name": "Prices Fork", "country": "US", "coord": {"lon": -80.490051, "lat": 37.20985}}, {"id": 4084883, "name": "Priceville", "country": "US", "coord": {"lon": -86.89473, "lat": 34.525089}}, {"id": 4084888, "name": "Prichard", "country": "US", "coord": {"lon": -88.078888, "lat": 30.7388}}, {"id": 2852129, "name": "Prichsenstadt", "country": "DE", "coord": {"lon": 10.35, "lat": 49.816669}}, {"id": 505429, "name": "Pridannikovo", "country": "RU", "coord": {"lon": 57.761848, "lat": 56.645618}}, {"id": 4976012, "name": "Prides Corner", "country": "US", "coord": {"lon": -70.333656, "lat": 43.713692}}, {"id": 696317, "name": "Pridneprovsk", "country": "UA", "coord": {"lon": 35.116669, "lat": 48.400002}}, {"id": 505425, "name": "Pridneprov\u2019ye", "country": "RU", "coord": {"lon": 32.049999, "lat": 54.783333}}, {"id": 505421, "name": "Pridonskoy", "country": "RU", "coord": {"lon": 39.072701, "lat": 51.684059}}, {"id": 505419, "name": "Pridorozhnaya", "country": "RU", "coord": {"lon": 38.964443, "lat": 45.991669}}, {"id": 505407, "name": "Pridorozhnyy", "country": "RU", "coord": {"lon": 41.066113, "lat": 56.393055}}, {"id": 3192438, "name": "Pridraga", "country": "HR", "coord": {"lon": 15.56667, "lat": 44.166672}}, {"id": 6357508, "name": "Priego", "country": "ES", "coord": {"lon": -2.32002, "lat": 40.465641}}, {"id": 3112841, "name": "Priego", "country": "ES", "coord": {"lon": -2.31435, "lat": 40.44936}}, {"id": 2512282, "name": "Priego de Cordoba", "country": "ES", "coord": {"lon": -4.19523, "lat": 37.438068}}, {"id": 6357250, "name": "Priego de C\u00f3rdoba", "country": "ES", "coord": {"lon": -4.16465, "lat": 37.478249}}, {"id": 595598, "name": "Priekule", "country": "LT", "coord": {"lon": 21.32667, "lat": 55.553612}}, {"id": 456506, "name": "Priekule", "country": "LV", "coord": {"lon": 21.58968, "lat": 56.446789}}, {"id": 2852117, "name": "Priel", "country": "DE", "coord": {"lon": 11.41667, "lat": 48.433331}}, {"id": 2852111, "name": "Priemen", "country": "DE", "coord": {"lon": 10.12158, "lat": 47.950039}}, {"id": 4338068, "name": "Prien", "country": "US", "coord": {"lon": -93.273773, "lat": 30.18187}}, {"id": 2852101, "name": "Prien am Chiemsee", "country": "DE", "coord": {"lon": 12.33333, "lat": 47.866669}}, {"id": 595596, "name": "Prienai", "country": "LT", "coord": {"lon": 23.950001, "lat": 54.633331}}, {"id": 6548018, "name": "Priepert", "country": "DE", "coord": {"lon": 13.0333, "lat": 53.216702}}, {"id": 2852097, "name": "Priepert", "country": "DE", "coord": {"lon": 13.03333, "lat": 53.216671}}, {"id": 6534298, "name": "Priero", "country": "IT", "coord": {"lon": 8.09334, "lat": 44.376041}}, {"id": 6556744, "name": "Priesendorf", "country": "DE", "coord": {"lon": 10.7167, "lat": 49.900002}}, {"id": 2852082, "name": "Priesendorf", "country": "DE", "coord": {"lon": 10.71667, "lat": 49.900002}}, {"id": 964090, "name": "Prieska", "country": "ZA", "coord": {"lon": 22.747419, "lat": -29.664089}}, {"id": 7262153, "name": "Priest Point", "country": "US", "coord": {"lon": -122.247787, "lat": 48.03109}}, {"id": 5604510, "name": "Priest River", "country": "US", "coord": {"lon": -116.909363, "lat": 48.18074}}, {"id": 2152531, "name": "Priestdale Lagoons", "country": "AU", "coord": {"lon": 153.133331, "lat": -27.6}}, {"id": 6548659, "name": "Priestewitz", "country": "DE", "coord": {"lon": 13.5167, "lat": 51.25}}, {"id": 2852054, "name": "Priestewitz", "country": "DE", "coord": {"lon": 13.51667, "lat": 51.25}}, {"id": 3603267, "name": "Prieta", "country": "HN", "coord": {"lon": -86.183327, "lat": 15.58333}}, {"id": 1692776, "name": "Prieto Diaz", "country": "PH", "coord": {"lon": 124.193893, "lat": 13.04167}}, {"id": 3058000, "name": "Prievidza", "country": "SK", "coord": {"lon": 18.627501, "lat": 48.77446}}, {"id": 2852077, "name": "Prie\u00dfen", "country": "DE", "coord": {"lon": 13.43333, "lat": 51.666672}}, {"id": 505406, "name": "Prigary", "country": "RU", "coord": {"lon": 38.18, "lat": 54.348888}}, {"id": 1630649, "name": "Prigen", "country": "ID", "coord": {"lon": 112.616669, "lat": -7.68333}}, {"id": 7871868, "name": "Prigglitz", "country": "AT", "coord": {"lon": 15.92462, "lat": 47.700531}}, {"id": 2768320, "name": "Prigglitz", "country": "AT", "coord": {"lon": 15.92794, "lat": 47.703178}}, {"id": 3046156, "name": "Priglitanya", "country": "HU", "coord": {"lon": 17.283331, "lat": 47.866669}}, {"id": 3169824, "name": "Prignano Cilento", "country": "IT", "coord": {"lon": 15.06866, "lat": 40.330898}}, {"id": 3169823, "name": "Prignano sulla Secchia", "country": "IT", "coord": {"lon": 10.6919, "lat": 44.438358}}, {"id": 6429491, "name": "Prigonrieux", "country": "FR", "coord": {"lon": 0.4, "lat": 44.849998}}, {"id": 2985318, "name": "Prigonrieux", "country": "FR", "coord": {"lon": 0.40275, "lat": 44.854511}}, {"id": 669647, "name": "Prigor", "country": "RO", "coord": {"lon": 22.113331, "lat": 44.938332}}, {"id": 669643, "name": "Prigoria", "country": "RO", "coord": {"lon": 23.683331, "lat": 45.066669}}, {"id": 505397, "name": "Prigornoye", "country": "RU", "coord": {"lon": 39.866669, "lat": 44.75}}, {"id": 623109, "name": "Prigorod Kolozha", "country": "BY", "coord": {"lon": 23.816669, "lat": 53.683331}}, {"id": 505395, "name": "Prigorodka", "country": "RU", "coord": {"lon": 39.712379, "lat": 52.04472}}, {"id": 505386, "name": "Prigorodnoye", "country": "RU", "coord": {"lon": 45.75808, "lat": 43.25304}}, {"id": 696310, "name": "Prigorodnoye", "country": "UA", "coord": {"lon": 33.599998, "lat": 44.516666}}, {"id": 696309, "name": "Prigorodnoye", "country": "UA", "coord": {"lon": 34.150002, "lat": 44.950001}}, {"id": 826278, "name": "Prigorodnyy", "country": "RU", "coord": {"lon": 20.156944, "lat": 54.92889}}, {"id": 505376, "name": "Prigorodnyy", "country": "RU", "coord": {"lon": 55.266479, "lat": 51.766079}}, {"id": 839711, "name": "Prigorodnyy", "country": "RU", "coord": {"lon": 39.122501, "lat": 44.121944}}, {"id": 1494239, "name": "Prigorodnyy", "country": "RU", "coord": {"lon": 85.243889, "lat": 52.572498}}, {"id": 7458374, "name": "Prigorodnyy", "country": "RU", "coord": {"lon": 78.683098, "lat": 53.001801}}, {"id": 1539219, "name": "Prigorodnyy", "country": "KZ", "coord": {"lon": 71.443329, "lat": 51.04583}}, {"id": 3192420, "name": "Prigrevica", "country": "RS", "coord": {"lon": 19.08667, "lat": 45.678612}}, {"id": 1525223, "name": "Priisk Boko", "country": "KZ", "coord": {"lon": 81.645279, "lat": 49.06028}}, {"id": 2051302, "name": "Priiskovyy", "country": "RU", "coord": {"lon": 132.822495, "lat": 42.819168}}, {"id": 2017632, "name": "Priiskovyy", "country": "RU", "coord": {"lon": 116.633331, "lat": 51.933331}}, {"id": 1494190, "name": "Priiskovyy", "country": "RU", "coord": {"lon": 88.687218, "lat": 54.656109}}, {"id": 3192409, "name": "Prijedor", "country": "BA", "coord": {"lon": 16.71306, "lat": 44.981392}}, {"id": 8080506, "name": "Prijek", "country": "ID", "coord": {"lon": 112.325104, "lat": -6.9723}}, {"id": 3192404, "name": "Prijepolje", "country": "RS", "coord": {"lon": 19.64056, "lat": 43.371941}}, {"id": 3067514, "name": "Prikazy", "country": "CZ", "coord": {"lon": 17.14337, "lat": 49.6436}}, {"id": 696302, "name": "Prikolotnoye", "country": "UA", "coord": {"lon": 37.347439, "lat": 50.160419}}, {"id": 505345, "name": "Prikubanskiy", "country": "RU", "coord": {"lon": 41.179501, "lat": 45.001499}}, {"id": 872143, "name": "Prikubanskiy", "country": "RU", "coord": {"lon": 38.09111, "lat": 45.163891}}, {"id": 866055, "name": "Priladozhskiy", "country": "RU", "coord": {"lon": 31.48333, "lat": 59.849998}}, {"id": 786735, "name": "Prilep", "country": "MK", "coord": {"lon": 21.55444, "lat": 41.34639}}, {"id": 786734, "name": "Prilep", "country": "XK", "coord": {"lon": 20.31778, "lat": 42.5075}}, {"id": 3192393, "name": "Priles", "country": "HR", "coord": {"lon": 16.603609, "lat": 46.277779}}, {"id": 794995, "name": "Prillim\u00e4e", "country": "EE", "coord": {"lon": 24.805, "lat": 59.188332}}, {"id": 2659136, "name": "Prilly", "country": "CH", "coord": {"lon": 6.59266, "lat": 46.539379}}, {"id": 505299, "name": "Priluki", "country": "RU", "coord": {"lon": 37.881248, "lat": 54.851559}}, {"id": 856315, "name": "Prim Decembrie", "country": "RO", "coord": {"lon": 26.05806, "lat": 44.290829}}, {"id": 505279, "name": "Primalkinskoye", "country": "RU", "coord": {"lon": 44.008331, "lat": 43.74667}}, {"id": 6535702, "name": "Primaluna", "country": "IT", "coord": {"lon": 9.43764, "lat": 45.983791}}, {"id": 3391188, "name": "Primavera", "country": "BR", "coord": {"lon": -46.583328, "lat": -7.96667}}, {"id": 3818373, "name": "Primavera", "country": "PE", "coord": {"lon": -80.389717, "lat": -3.5375}}, {"id": 3067499, "name": "Primda", "country": "CZ", "coord": {"lon": 12.67366, "lat": 49.674881}}, {"id": 3452261, "name": "Primeira Alian\u00e7a", "country": "BR", "coord": {"lon": -51.116669, "lat": -21.01667}}, {"id": 8050888, "name": "Primer Ensanche", "country": "ES", "coord": {"lon": -1.64898, "lat": 42.814831}}, {"id": 4720672, "name": "Primera", "country": "US", "coord": {"lon": -97.758049, "lat": 26.22591}}, {"id": 3543498, "name": "Primero de Enero", "country": "CU", "coord": {"lon": -78.428329, "lat": 21.946939}}, {"id": 4872189, "name": "Primghar", "country": "US", "coord": {"lon": -95.627228, "lat": 43.086922}}, {"id": 3979430, "name": "Primo Tapia", "country": "MX", "coord": {"lon": -116.917221, "lat": 32.220001}}, {"id": 505256, "name": "Primorka", "country": "RU", "coord": {"lon": 39.0625, "lat": 47.283611}}, {"id": 505269, "name": "Primorsk", "country": "RU", "coord": {"lon": 28.60737, "lat": 60.365929}}, {"id": 505271, "name": "Primorsk", "country": "RU", "coord": {"lon": 45.028889, "lat": 49.26532}}, {"id": 505270, "name": "Primorsk", "country": "RU", "coord": {"lon": 20.005529, "lat": 54.739052}}, {"id": 2017626, "name": "Primorskiy", "country": "RU", "coord": {"lon": 131.587494, "lat": 43.098331}}, {"id": 2017623, "name": "Primorskiy Kray", "country": "RU", "coord": {"lon": 135, "lat": 45}}, {"id": 727964, "name": "Primorsko", "country": "BG", "coord": {"lon": 27.76667, "lat": 42.26667}}, {"id": 505259, "name": "Primorsko-Akhtarsk", "country": "RU", "coord": {"lon": 38.174702, "lat": 46.049702}}, {"id": 3337524, "name": "Primorsko-Goranska \u017dupanija", "country": "HR", "coord": {"lon": 14.594, "lat": 45.453999}}, {"id": 696280, "name": "Primorskoye", "country": "UA", "coord": {"lon": 37.692661, "lat": 47.174358}}, {"id": 3192383, "name": "Primosten", "country": "HR", "coord": {"lon": 15.92722, "lat": 43.586941}}, {"id": 4046472, "name": "Primrose", "country": "US", "coord": {"lon": -97.43335, "lat": 32.611519}}, {"id": 4720725, "name": "Primrose", "country": "US", "coord": {"lon": -95.604134, "lat": 32.433479}}, {"id": 6113332, "name": "Prince", "country": "CA", "coord": {"lon": -108.384659, "lat": 52.96685}}, {"id": 964078, "name": "Prince Albert", "country": "ZA", "coord": {"lon": 22.02993, "lat": -33.22263}}, {"id": 6113335, "name": "Prince Albert", "country": "CA", "coord": {"lon": -105.767723, "lat": 53.200081}}, {"id": 6113355, "name": "Prince Edward", "country": "CA", "coord": {"lon": -77.249458, "lat": 44.000118}}, {"id": 6113358, "name": "Prince Edward Island", "country": "CA", "coord": {"lon": -62.99868, "lat": 46.500111}}, {"id": 4366159, "name": "Prince Frederick", "country": "US", "coord": {"lon": -76.584396, "lat": 38.540401}}, {"id": 6113365, "name": "Prince George", "country": "CA", "coord": {"lon": -122.753014, "lat": 53.916599}}, {"id": 4780370, "name": "Prince George", "country": "US", "coord": {"lon": -77.288033, "lat": 37.220428}}, {"id": 4366164, "name": "Prince George's County", "country": "US", "coord": {"lon": -76.849693, "lat": 38.83345}}, {"id": 6113406, "name": "Prince Rupert", "country": "CA", "coord": {"lon": -130.320114, "lat": 54.316139}}, {"id": 6113467, "name": "Prince William", "country": "CA", "coord": {"lon": -67.048889, "lat": 45.916809}}, {"id": 4780384, "name": "Prince William County", "country": "US", "coord": {"lon": -77.48304, "lat": 38.700119}}, {"id": 4263391, "name": "Princes Lakes", "country": "US", "coord": {"lon": -86.098053, "lat": 39.353661}}, {"id": 2639888, "name": "Princes Risborough", "country": "GB", "coord": {"lon": -0.83144, "lat": 51.725491}}, {"id": 3573882, "name": "Princes Town", "country": "TT", "coord": {"lon": -61.383331, "lat": 10.26667}}, {"id": 3391172, "name": "Princesa Isabel", "country": "BR", "coord": {"lon": -37.993328, "lat": -7.73667}}, {"id": 4366176, "name": "Princess Anne", "country": "US", "coord": {"lon": -75.692429, "lat": 38.2029}}, {"id": 5056943, "name": "Princeton", "country": "US", "coord": {"lon": -93.580498, "lat": 40.400841}}, {"id": 5672554, "name": "Princeton", "country": "US", "coord": {"lon": -113.165611, "lat": 46.41687}}, {"id": 6113463, "name": "Princeton", "country": "CA", "coord": {"lon": -120.510757, "lat": 49.458019}}, {"id": 4169345, "name": "Princeton", "country": "US", "coord": {"lon": -80.408943, "lat": 25.538441}}, {"id": 4263396, "name": "Princeton", "country": "US", "coord": {"lon": -87.56752, "lat": 38.35532}}, {"id": 4305266, "name": "Princeton", "country": "US", "coord": {"lon": -87.881958, "lat": 37.109219}}, {"id": 4486537, "name": "Princeton", "country": "US", "coord": {"lon": -78.160553, "lat": 35.465988}}, {"id": 4720743, "name": "Princeton", "country": "US", "coord": {"lon": -96.498039, "lat": 33.180119}}, {"id": 4819079, "name": "Princeton", "country": "US", "coord": {"lon": -81.102592, "lat": 37.36623}}, {"id": 4906818, "name": "Princeton", "country": "US", "coord": {"lon": -89.464813, "lat": 41.368092}}, {"id": 4947998, "name": "Princeton", "country": "US", "coord": {"lon": -71.877296, "lat": 42.4487}}, {"id": 5042360, "name": "Princeton", "country": "US", "coord": {"lon": -93.581627, "lat": 45.569962}}, {"id": 5102922, "name": "Princeton", "country": "US", "coord": {"lon": -74.65905, "lat": 40.348721}}, {"id": 5268096, "name": "Princeton", "country": "US", "coord": {"lon": -89.12178, "lat": 43.850811}}, {"id": 5102940, "name": "Princeton Junction", "country": "US", "coord": {"lon": -74.619881, "lat": 40.317329}}, {"id": 5102941, "name": "Princeton Meadows", "country": "US", "coord": {"lon": -74.563766, "lat": 40.331772}}, {"id": 2152512, "name": "Princetown", "country": "AU", "coord": {"lon": 143.149994, "lat": -38.683331}}, {"id": 6113466, "name": "Princeville", "country": "CA", "coord": {"lon": -61.298531, "lat": 45.766842}}, {"id": 4486540, "name": "Princeville", "country": "US", "coord": {"lon": -77.532188, "lat": 35.889599}}, {"id": 4906824, "name": "Princeville", "country": "US", "coord": {"lon": -89.757599, "lat": 40.92976}}, {"id": 5852602, "name": "Princeville", "country": "US", "coord": {"lon": -159.478882, "lat": 22.217581}}, {"id": 3114710, "name": "Principado de Asturias", "country": "ES", "coord": {"lon": -6, "lat": 43.333328}}, {"id": 3041565, "name": "Principality of Andorra", "country": "AD", "coord": {"lon": 1.5, "lat": 42.5}}, {"id": 3042058, "name": "Principality of Liechtenstein", "country": "LI", "coord": {"lon": 9.53333, "lat": 47.166672}}, {"id": 2993457, "name": "Principality of Monaco", "country": "MC", "coord": {"lon": 7.41903, "lat": 43.731411}}, {"id": 5746901, "name": "Prineville", "country": "US", "coord": {"lon": -120.834473, "lat": 44.29985}}, {"id": 3671732, "name": "Pringamosa", "country": "CO", "coord": {"lon": -75.886703, "lat": 8.76566}}, {"id": 7545820, "name": "Pringgabaya", "country": "ID", "coord": {"lon": 116.631897, "lat": -8.557}}, {"id": 8080517, "name": "Pringgoboyo", "country": "ID", "coord": {"lon": 112.296898, "lat": -6.9813}}, {"id": 7350812, "name": "Pringgodani", "country": "ID", "coord": {"lon": 113.898102, "lat": -8.0311}}, {"id": 8080629, "name": "Pringgodanikrajan", "country": "ID", "coord": {"lon": 112.561302, "lat": -8.2744}}, {"id": 7350378, "name": "Pringgowirawan", "country": "ID", "coord": {"lon": 113.412903, "lat": -8.1233}}, {"id": 589336, "name": "Pringi", "country": "EE", "coord": {"lon": 24.79389, "lat": 59.53944}}, {"id": 3362671, "name": "Pringle Bay", "country": "ZA", "coord": {"lon": 18.827061, "lat": -34.348179}}, {"id": 1965592, "name": "Pringo", "country": "ID", "coord": {"lon": 112.684303, "lat": -8.0951}}, {"id": 1630639, "name": "Pringsewu", "country": "ID", "coord": {"lon": 104.974411, "lat": -5.35822}}, {"id": 6443801, "name": "Pringy", "country": "FR", "coord": {"lon": 2.56667, "lat": 48.51667}}, {"id": 2985304, "name": "Pringy", "country": "FR", "coord": {"lon": 2.56333, "lat": 48.51815}}, {"id": 6443026, "name": "Pringy", "country": "FR", "coord": {"lon": 6.11667, "lat": 45.950001}}, {"id": 2985305, "name": "Pringy", "country": "FR", "coord": {"lon": 6.12608, "lat": 45.94622}}, {"id": 6434500, "name": "Prinquiau", "country": "FR", "coord": {"lon": -2, "lat": 47.366669}}, {"id": 2985302, "name": "Prinquiau", "country": "FR", "coord": {"lon": -2.00952, "lat": 47.362148}}, {"id": 1692763, "name": "Prinza", "country": "PH", "coord": {"lon": 121.133331, "lat": 14.2}}, {"id": 1692795, "name": "Prinza", "country": "PH", "coord": {"lon": 120.654091, "lat": 13.99679}}, {"id": 6551904, "name": "Prinzenmoor", "country": "DE", "coord": {"lon": 9.45, "lat": 54.216702}}, {"id": 2852019, "name": "Prinzenmoor", "country": "DE", "coord": {"lon": 9.45, "lat": 54.216671}}, {"id": 2768316, "name": "Prinzersdorf", "country": "AT", "coord": {"lon": 15.51667, "lat": 48.200001}}, {"id": 7873022, "name": "Prinzersdorf", "country": "AT", "coord": {"lon": 15.52163, "lat": 48.19965}}, {"id": 2852013, "name": "Prinzhofte", "country": "DE", "coord": {"lon": 8.56667, "lat": 52.950001}}, {"id": 6552971, "name": "Prinzh\u00f6fte", "country": "DE", "coord": {"lon": 8.56667, "lat": 52.950001}}, {"id": 1536757, "name": "Priobye", "country": "RU", "coord": {"lon": 65.59639, "lat": 62.520561}}, {"id": 6535479, "name": "Priocca", "country": "IT", "coord": {"lon": 8.06424, "lat": 44.78624}}, {"id": 505248, "name": "Priokskiy", "country": "RU", "coord": {"lon": 39.645832, "lat": 54.659168}}, {"id": 3169814, "name": "Priola", "country": "IT", "coord": {"lon": 8.02124, "lat": 44.243629}}, {"id": 6539217, "name": "Priolo Gargallo", "country": "IT", "coord": {"lon": 15.18019, "lat": 37.157249}}, {"id": 2523679, "name": "Priolo Gargallo", "country": "IT", "coord": {"lon": 15.18019, "lat": 37.157249}}, {"id": 5042373, "name": "Prior Lake", "country": "US", "coord": {"lon": -93.422729, "lat": 44.713299}}, {"id": 2852008, "name": "Priorau", "country": "DE", "coord": {"lon": 12.28333, "lat": 51.73333}}, {"id": 2852006, "name": "Priorei", "country": "DE", "coord": {"lon": 7.51667, "lat": 51.283329}}, {"id": 6358661, "name": "Prioro", "country": "ES", "coord": {"lon": -4.97491, "lat": 42.899479}}, {"id": 3112822, "name": "Prioro", "country": "ES", "coord": {"lon": -4.96349, "lat": 42.89481}}, {"id": 7036600, "name": "Prioso Barat", "country": "ID", "coord": {"lon": 112.488503, "lat": -7.0494}}, {"id": 7536148, "name": "Priozersk", "country": "KZ", "coord": {"lon": 73.702469, "lat": 46.031059}}, {"id": 505230, "name": "Priozersk", "country": "RU", "coord": {"lon": 30.12907, "lat": 61.03928}}, {"id": 669630, "name": "Priponesti", "country": "RO", "coord": {"lon": 27.433331, "lat": 46.083328}}, {"id": 6547846, "name": "Pripsleben", "country": "DE", "coord": {"lon": 13.1833, "lat": 53.716702}}, {"id": 2851997, "name": "Pripsleben", "country": "DE", "coord": {"lon": 13.18333, "lat": 53.716671}}, {"id": 608575, "name": "Prirechnoye", "country": "KZ", "coord": {"lon": 52.42083, "lat": 51.064171}}, {"id": 839787, "name": "Prirechnyy", "country": "RU", "coord": {"lon": 40.079445, "lat": 44.572498}}, {"id": 669618, "name": "Prisacani", "country": "RO", "coord": {"lon": 27.883329, "lat": 47.083328}}, {"id": 505209, "name": "Prisady", "country": "RU", "coord": {"lon": 37.581127, "lat": 54.827393}}, {"id": 2851996, "name": "Prisannewitz", "country": "DE", "coord": {"lon": 12.23333, "lat": 53.98333}}, {"id": 6551703, "name": "Prisdorf", "country": "DE", "coord": {"lon": 9.75, "lat": 53.6833}}, {"id": 2851994, "name": "Prisdorf", "country": "DE", "coord": {"lon": 9.75, "lat": 53.683331}}, {"id": 669610, "name": "Priseaca", "country": "RO", "coord": {"lon": 24.450001, "lat": 44.51667}}, {"id": 146862, "name": "Prishibinskoye", "country": "AZ", "coord": {"lon": 48.593609, "lat": 39.119579}}, {"id": 505184, "name": "Priskokovo", "country": "RU", "coord": {"lon": 41.434444, "lat": 57.513611}}, {"id": 6547967, "name": "Prislich", "country": "DE", "coord": {"lon": 11.6167, "lat": 53.266701}}, {"id": 2851992, "name": "Prislich", "country": "DE", "coord": {"lon": 11.61667, "lat": 53.26667}}, {"id": 505182, "name": "Prislon", "country": "RU", "coord": {"lon": 37.266666, "lat": 56.799999}}, {"id": 862740, "name": "Prislonica", "country": "RS", "coord": {"lon": 20.43778, "lat": 43.95306}}, {"id": 786718, "name": "Prisojnica", "country": "MK", "coord": {"lon": 20.610279, "lat": 41.58139}}, {"id": 3067485, "name": "Prisovice", "country": "CZ", "coord": {"lon": 15.0839, "lat": 50.578129}}, {"id": 6460821, "name": "Prisovo", "country": "BG", "coord": {"lon": 25.65, "lat": 43.049999}}, {"id": 727951, "name": "Prisovo", "country": "BG", "coord": {"lon": 25.65, "lat": 43.049999}}, {"id": 2985292, "name": "Prisse", "country": "FR", "coord": {"lon": 4.74469, "lat": 46.321301}}, {"id": 6442368, "name": "Priss\u00e9", "country": "FR", "coord": {"lon": 4.75, "lat": 46.316669}}, {"id": 7601515, "name": "Pristanino", "country": "RU", "coord": {"lon": 36.2388, "lat": 56.068001}}, {"id": 505154, "name": "Pristen", "country": "RU", "coord": {"lon": 36.695938, "lat": 51.235512}}, {"id": 786714, "name": "Pristina", "country": "XK", "coord": {"lon": 21.16688, "lat": 42.672722}}, {"id": 669590, "name": "Pristol", "country": "RO", "coord": {"lon": 22.709169, "lat": 44.22472}}, {"id": 2639883, "name": "Priston", "country": "GB", "coord": {"lon": -2.43917, "lat": 51.34306}}, {"id": 6113535, "name": "Pritchard", "country": "CA", "coord": {"lon": -119.819107, "lat": 50.683102}}, {"id": 7799297, "name": "PrithbinarayanN.P.", "country": "NP", "coord": {"lon": 84.605301, "lat": 27.9804}}, {"id": 1494156, "name": "Pritomskiy", "country": "RU", "coord": {"lon": 87.6082, "lat": 53.7724}}, {"id": 6549251, "name": "Prittitz", "country": "DE", "coord": {"lon": 11.9333, "lat": 51.150002}}, {"id": 2851980, "name": "Prittitz", "country": "DE", "coord": {"lon": 11.93333, "lat": 51.150002}}, {"id": 6556264, "name": "Prittriching", "country": "DE", "coord": {"lon": 10.9167, "lat": 48.200001}}, {"id": 2851977, "name": "Prittriching", "country": "DE", "coord": {"lon": 10.91667, "lat": 48.200001}}, {"id": 6547968, "name": "Pritzier", "country": "DE", "coord": {"lon": 11.07811, "lat": 53.379189}}, {"id": 2851968, "name": "Pritzier", "country": "DE", "coord": {"lon": 11.07812, "lat": 53.379189}}, {"id": 2851962, "name": "Pritzwalk", "country": "DE", "coord": {"lon": 12.17405, "lat": 53.149448}}, {"id": 505129, "name": "Priupskiy", "country": "RU", "coord": {"lon": 37.736, "lat": 53.909599}}, {"id": 6608777, "name": "Privalovo", "country": "RU", "coord": {"lon": 43.599998, "lat": 56.84}}, {"id": 6425763, "name": "Privas", "country": "FR", "coord": {"lon": 4.6, "lat": 44.73333}}, {"id": 2985290, "name": "Privas", "country": "FR", "coord": {"lon": 4.6, "lat": 44.73333}}, {"id": 3581418, "name": "Privassion Camp", "country": "BZ", "coord": {"lon": -88.949997, "lat": 17.033331}}, {"id": 4592073, "name": "Privateer", "country": "US", "coord": {"lon": -80.414253, "lat": 33.83321}}, {"id": 3169811, "name": "Priverno", "country": "IT", "coord": {"lon": 13.1856, "lat": 41.469109}}, {"id": 7669849, "name": "Privilasco", "country": "CH", "coord": {"lon": 10.06018, "lat": 46.340591}}, {"id": 3192345, "name": "Privlaka", "country": "HR", "coord": {"lon": 18.8375, "lat": 45.194721}}, {"id": 3216549, "name": "Privlaka", "country": "HR", "coord": {"lon": 15.11972, "lat": 44.263329}}, {"id": 505112, "name": "Privodino", "country": "RU", "coord": {"lon": 46.504444, "lat": 61.078056}}, {"id": 505111, "name": "Privokzal\u2019nyy", "country": "RU", "coord": {"lon": 35.916668, "lat": 56}}, {"id": 505060, "name": "Privolzhsk", "country": "RU", "coord": {"lon": 41.288612, "lat": 57.380833}}, {"id": 827990, "name": "Privolzhskiy", "country": "RU", "coord": {"lon": 48.415119, "lat": 55.961349}}, {"id": 505055, "name": "Privolzhskiy", "country": "RU", "coord": {"lon": 45.816666, "lat": 56.166668}}, {"id": 505057, "name": "Privolzhskiy", "country": "RU", "coord": {"lon": 46.033333, "lat": 51.400002}}, {"id": 505043, "name": "Privolzh\u2019ye", "country": "RU", "coord": {"lon": 48.592899, "lat": 52.855801}}, {"id": 505109, "name": "Privol\u2019naya", "country": "RU", "coord": {"lon": 38.697498, "lat": 46.138901}}, {"id": 696234, "name": "Privol\u2019noye", "country": "UA", "coord": {"lon": 34.333332, "lat": 44.783333}}, {"id": 505071, "name": "Privol\u2019ye", "country": "RU", "coord": {"lon": 34.456669, "lat": 52.985832}}, {"id": 808926, "name": "Privol\u2019ye", "country": "UA", "coord": {"lon": 36.346939, "lat": 49.107498}}, {"id": 2851960, "name": "Priwall", "country": "DE", "coord": {"lon": 10.88333, "lat": 53.950001}}, {"id": 2985283, "name": "Prix-les-Mezieres", "country": "FR", "coord": {"lon": 4.69113, "lat": 49.755489}}, {"id": 6426058, "name": "Prix-l\u00e8s-M\u00e9zi\u00e8res", "country": "FR", "coord": {"lon": 4.68333, "lat": 49.75}}, {"id": 505019, "name": "Priyutnoye", "country": "RU", "coord": {"lon": 43.507221, "lat": 46.101109}}, {"id": 505014, "name": "Priyutovo", "country": "RU", "coord": {"lon": 53.933331, "lat": 53.900002}}, {"id": 6437351, "name": "Priziac", "country": "FR", "coord": {"lon": -3.41667, "lat": 48.066669}}, {"id": 2985282, "name": "Priziac", "country": "FR", "coord": {"lon": -3.41667, "lat": 48.066669}}, {"id": 786712, "name": "Prizren", "country": "XK", "coord": {"lon": 20.739719, "lat": 42.21389}}, {"id": 2523678, "name": "Prizzi", "country": "IT", "coord": {"lon": 13.43275, "lat": 37.721439}}, {"id": 3192327, "name": "Prnjavor", "country": "BA", "coord": {"lon": 17.662781, "lat": 44.870281}}, {"id": 3192328, "name": "Prnjavor", "country": "RS", "coord": {"lon": 19.388611, "lat": 44.698891}}, {"id": 255750, "name": "Proastion", "country": "GR", "coord": {"lon": 21.9025, "lat": 39.488609}}, {"id": 6359955, "name": "Proaza", "country": "ES", "coord": {"lon": -6.03398, "lat": 43.23547}}, {"id": 3112819, "name": "Proaza", "country": "ES", "coord": {"lon": -6.01633, "lat": 43.251781}}, {"id": 505009, "name": "Proba", "country": "RU", "coord": {"lon": 30.8013, "lat": 60.102219}}, {"id": 2851959, "name": "Probbach", "country": "DE", "coord": {"lon": 8.2, "lat": 50.549999}}, {"id": 786700, "name": "Probishtip", "country": "MK", "coord": {"lon": 22.17861, "lat": 42.003059}}, {"id": 1630634, "name": "Probolinggo", "country": "ID", "coord": {"lon": 113.215897, "lat": -7.7543}}, {"id": 3067461, "name": "Probostov", "country": "CZ", "coord": {"lon": 13.83601, "lat": 50.667728}}, {"id": 669587, "name": "Probota", "country": "RO", "coord": {"lon": 27.5, "lat": 47.383331}}, {"id": 2851949, "name": "Probstdeuben", "country": "DE", "coord": {"lon": 12.38333, "lat": 51.23333}}, {"id": 6551764, "name": "Probsteierhagen", "country": "DE", "coord": {"lon": 10.2833, "lat": 54.366699}}, {"id": 2851946, "name": "Probsteierhagen", "country": "DE", "coord": {"lon": 10.28333, "lat": 54.366669}}, {"id": 2851931, "name": "Probstried", "country": "DE", "coord": {"lon": 10.33333, "lat": 47.816669}}, {"id": 6550330, "name": "Probstzella", "country": "DE", "coord": {"lon": 11.3833, "lat": 50.533298}}, {"id": 2851928, "name": "Probstzella", "country": "DE", "coord": {"lon": 11.38333, "lat": 50.533329}}, {"id": 2639880, "name": "Probus", "country": "GB", "coord": {"lon": -4.95401, "lat": 50.292671}}, {"id": 6611863, "name": "Probuzhdeniye", "country": "RU", "coord": {"lon": 46.151112, "lat": 51.433887}}, {"id": 3169808, "name": "Proceno", "country": "IT", "coord": {"lon": 11.82965, "lat": 42.757229}}, {"id": 504994, "name": "Prochnookopskaya", "country": "RU", "coord": {"lon": 41.1175, "lat": 45.066601}}, {"id": 734455, "name": "Prochoma", "country": "GR", "coord": {"lon": 22.658331, "lat": 40.79694}}, {"id": 3088096, "name": "Prochowice", "country": "PL", "coord": {"lon": 16.36532, "lat": 51.273071}}, {"id": 3169807, "name": "Procida", "country": "IT", "coord": {"lon": 14.01443, "lat": 40.756908}}, {"id": 6113575, "name": "Procter", "country": "CA", "coord": {"lon": -116.952179, "lat": 49.616611}}, {"id": 5042412, "name": "Proctor", "country": "US", "coord": {"lon": -92.225471, "lat": 46.747162}}, {"id": 3067456, "name": "Proda\u0161ice", "country": "CZ", "coord": {"lon": 15.11666, "lat": 50.34996}}, {"id": 1259312, "name": "Proddatur", "country": "IN", "coord": {"lon": 78.550003, "lat": 14.73333}}, {"id": 669576, "name": "Produlesti", "country": "RO", "coord": {"lon": 25.5, "lat": 44.700001}}, {"id": 2264314, "name": "Proenca-a-Nova", "country": "PT", "coord": {"lon": -7.9239, "lat": 39.752201}}, {"id": 669574, "name": "Proeni", "country": "RO", "coord": {"lon": 24.26667, "lat": 45.349998}}, {"id": 8010478, "name": "Proen\u00e7a-A-Nova", "country": "PT", "coord": {"lon": -7.92595, "lat": 39.757}}, {"id": 6459751, "name": "Profesor Ishirkovo", "country": "BG", "coord": {"lon": 27.16667, "lat": 44}}, {"id": 3840259, "name": "Profesor Salvador Mazza", "country": "AR", "coord": {"lon": -63.69128, "lat": -22.05011}}, {"id": 727941, "name": "Profesor-Ishirkovo", "country": "BG", "coord": {"lon": 27.16667, "lat": 44}}, {"id": 254599, "name": "Profitis Ilias", "country": "GR", "coord": {"lon": 25.09985, "lat": 35.205551}}, {"id": 734461, "name": "Profitis Ilias", "country": "GR", "coord": {"lon": 22.15694, "lat": 40.812778}}, {"id": 2788578, "name": "Profondeville", "country": "BE", "coord": {"lon": 4.86694, "lat": 50.376122}}, {"id": 2788577, "name": "Profondeville", "country": "BE", "coord": {"lon": 4.86506, "lat": 50.375809}}, {"id": 786697, "name": "Progar", "country": "RS", "coord": {"lon": 20.16139, "lat": 44.715}}, {"id": 7669850, "name": "Progero", "country": "CH", "coord": {"lon": 8.94115, "lat": 46.175259}}, {"id": 3521108, "name": "Progreso", "country": "MX", "coord": {"lon": -89.666672, "lat": 21.283331}}, {"id": 3440963, "name": "Progreso", "country": "UY", "coord": {"lon": -56.21944, "lat": -34.665001}}, {"id": 3979439, "name": "Progreso", "country": "MX", "coord": {"lon": -115.583893, "lat": 32.580002}}, {"id": 3702509, "name": "Progreso", "country": "PA", "coord": {"lon": -82.833328, "lat": 8.45}}, {"id": 1692754, "name": "Progreso", "country": "PH", "coord": {"lon": 122.085564, "lat": 13.90361}}, {"id": 4720789, "name": "Progreso", "country": "US", "coord": {"lon": -97.957222, "lat": 26.0923}}, {"id": 3521111, "name": "Progreso Industrial", "country": "MX", "coord": {"lon": -99.35611, "lat": 19.628611}}, {"id": 3521103, "name": "Progreso de Obregon", "country": "MX", "coord": {"lon": -99.199997, "lat": 20.25}}, {"id": 504977, "name": "Progress", "country": "RU", "coord": {"lon": 43.923328, "lat": 44.955559}}, {"id": 5207214, "name": "Progress", "country": "US", "coord": {"lon": -76.83136, "lat": 40.285091}}, {"id": 4169378, "name": "Progress Village", "country": "US", "coord": {"lon": -82.36454, "lat": 27.900299}}, {"id": 3840258, "name": "Progresso", "country": "AR", "coord": {"lon": -60.989521, "lat": -31.13773}}, {"id": 3452241, "name": "Progresso", "country": "BR", "coord": {"lon": -52.312222, "lat": -29.244169}}, {"id": 669569, "name": "Progresul", "country": "RO", "coord": {"lon": 26.4, "lat": 47.950001}}, {"id": 6548137, "name": "Prohn", "country": "DE", "coord": {"lon": 13.0333, "lat": 54.366699}}, {"id": 2851916, "name": "Prohn", "country": "DE", "coord": {"lon": 13.02369, "lat": 54.369011}}, {"id": 6429492, "name": "Proissans", "country": "FR", "coord": {"lon": 1.23333, "lat": 44.933331}}, {"id": 2985278, "name": "Proissans", "country": "FR", "coord": {"lon": 1.23333, "lat": 44.933331}}, {"id": 504935, "name": "Prokhladnyy", "country": "RU", "coord": {"lon": 44.029701, "lat": 43.757408}}, {"id": 504915, "name": "Prokhorovka", "country": "RU", "coord": {"lon": 36.732521, "lat": 51.037411}}, {"id": 254584, "name": "Prokopion", "country": "GR", "coord": {"lon": 23.48333, "lat": 38.73333}}, {"id": 1494114, "name": "Prokopyevsk", "country": "RU", "coord": {"lon": 86.719002, "lat": 53.905899}}, {"id": 504872, "name": "Prokshino", "country": "RU", "coord": {"lon": 37.368984, "lat": 54.817745}}, {"id": 1494111, "name": "Prokudskoye", "country": "RU", "coord": {"lon": 82.457397, "lat": 55.0089}}, {"id": 786690, "name": "Prokuplje", "country": "RS", "coord": {"lon": 21.58806, "lat": 43.234169}}, {"id": 504849, "name": "Prokurovka", "country": "RU", "coord": {"lon": 36.133331, "lat": 52.983334}}, {"id": 7873486, "name": "Proleb", "country": "AT", "coord": {"lon": 15.13713, "lat": 47.41758}}, {"id": 2768305, "name": "Proleb", "country": "AT", "coord": {"lon": 15.13333, "lat": 47.400002}}, {"id": 6461599, "name": "Prolesha", "country": "BG", "coord": {"lon": 23.15, "lat": 42.783329}}, {"id": 727932, "name": "Prolesha", "country": "BG", "coord": {"lon": 23.15, "lat": 42.783329}}, {"id": 1514839, "name": "Proletar", "country": "TJ", "coord": {"lon": 69.503983, "lat": 40.167042}}, {"id": 504840, "name": "Proletariy", "country": "RU", "coord": {"lon": 31.70462, "lat": 58.434231}}, {"id": 504836, "name": "Proletarka", "country": "RU", "coord": {"lon": 40.193611, "lat": 47.880001}}, {"id": 504831, "name": "Proletarsk", "country": "RU", "coord": {"lon": 41.719166, "lat": 46.703056}}, {"id": 504806, "name": "Proletarskiy", "country": "RU", "coord": {"lon": 35.77306, "lat": 50.791389}}, {"id": 6198441, "name": "Proletarskiy", "country": "RU", "coord": {"lon": 47.234444, "lat": 56.226665}}, {"id": 504818, "name": "Proletarskiy", "country": "RU", "coord": {"lon": 41.898335, "lat": 44.642776}}, {"id": 840897, "name": "Proletarskiy", "country": "RU", "coord": {"lon": 39.355556, "lat": 45.484165}}, {"id": 504813, "name": "Proletarskiy", "country": "RU", "coord": {"lon": 39.290558, "lat": 45.50222}}, {"id": 504798, "name": "Proletarskiy", "country": "RU", "coord": {"lon": 37.39019, "lat": 55.02219}}, {"id": 504791, "name": "Proletarskiy Gorodok", "country": "RU", "coord": {"lon": 39.083061, "lat": 44.116669}}, {"id": 734454, "name": "Promachoi", "country": "GR", "coord": {"lon": 22, "lat": 41.02528}}, {"id": 3452237, "name": "Promissao", "country": "BR", "coord": {"lon": -49.858059, "lat": -21.536671}}, {"id": 761273, "name": "Promna", "country": "PL", "coord": {"lon": 20.959169, "lat": 51.680061}}, {"id": 2851898, "name": "Promnitz", "country": "DE", "coord": {"lon": 13.32195, "lat": 51.317101}}, {"id": 6440140, "name": "Prompsat", "country": "FR", "coord": {"lon": 3.06667, "lat": 45.950001}}, {"id": 2985272, "name": "Prompsat", "country": "FR", "coord": {"lon": 3.07731, "lat": 45.949032}}, {"id": 1494091, "name": "Promyshlennaya", "country": "RU", "coord": {"lon": 85.638496, "lat": 54.915901}}, {"id": 1494090, "name": "Promyshlennovskiy", "country": "RU", "coord": {"lon": 86.199997, "lat": 55.48333}}, {"id": 1494088, "name": "Promyshlennyy", "country": "RU", "coord": {"lon": 63.916672, "lat": 67.583328}}, {"id": 504734, "name": "Pronina", "country": "RU", "coord": {"lon": 54.671082, "lat": 58.743149}}, {"id": 504737, "name": "Pronino", "country": "RU", "coord": {"lon": 42.186111, "lat": 58.196945}}, {"id": 504727, "name": "Proninskiy", "country": "RU", "coord": {"lon": 42.209438, "lat": 49.21056}}, {"id": 6438901, "name": "Pronleroy", "country": "FR", "coord": {"lon": 2.55, "lat": 49.466671}}, {"id": 2985270, "name": "Pronleroy", "country": "FR", "coord": {"lon": 2.55216, "lat": 49.471699}}, {"id": 6554593, "name": "Pronsfeld", "country": "DE", "coord": {"lon": 6.33333, "lat": 50.166698}}, {"id": 2851894, "name": "Pronsfeld", "country": "DE", "coord": {"lon": 6.33333, "lat": 50.166672}}, {"id": 504717, "name": "Pronsk", "country": "RU", "coord": {"lon": 39.6092, "lat": 54.104801}}, {"id": 6552127, "name": "Pronstorf", "country": "DE", "coord": {"lon": 10.4667, "lat": 53.950001}}, {"id": 2851893, "name": "Pronstorf", "country": "DE", "coord": {"lon": 10.46667, "lat": 53.950001}}, {"id": 3429843, "name": "Pronunciamiento", "country": "AR", "coord": {"lon": -58.432869, "lat": -32.346169}}, {"id": 504705, "name": "Pronyukhlovo", "country": "RU", "coord": {"lon": 38.799999, "lat": 54.783333}}, {"id": 3169798, "name": "Propata", "country": "IT", "coord": {"lon": 9.18566, "lat": 44.565651}}, {"id": 4906868, "name": "Prophetstown", "country": "US", "coord": {"lon": -89.936218, "lat": 41.671421}}, {"id": 3652881, "name": "Propicia", "country": "EC", "coord": {"lon": -79.683327, "lat": 0.93333}}, {"id": 1649147, "name": "Propinsi Bengkulu", "country": "ID", "coord": {"lon": 102.26683, "lat": -3.79965}}, {"id": 1923046, "name": "Propinsi Gorontalo", "country": "ID", "coord": {"lon": 122.470398, "lat": 0.693}}, {"id": 1633792, "name": "Propinsi Nusa Tenggara Barat", "country": "ID", "coord": {"lon": 117.533302, "lat": -8.74}}, {"id": 3452233, "name": "Propria", "country": "BR", "coord": {"lon": -36.840279, "lat": -10.21111}}, {"id": 6431113, "name": "Propriano", "country": "FR", "coord": {"lon": 8.9, "lat": 41.666672}}, {"id": 2985266, "name": "Propriano", "country": "FR", "coord": {"lon": 8.90302, "lat": 41.675251}}, {"id": 2851886, "name": "Prora", "country": "DE", "coord": {"lon": 13.56667, "lat": 54.433331}}, {"id": 2851879, "name": "Proschwitz", "country": "DE", "coord": {"lon": 13.48333, "lat": 51.183331}}, {"id": 3067443, "name": "Prosec", "country": "CZ", "coord": {"lon": 16.116211, "lat": 49.805901}}, {"id": 3067433, "name": "Prosek", "country": "CZ", "coord": {"lon": 14.5, "lat": 50.116669}}, {"id": 2851874, "name": "Proseken", "country": "DE", "coord": {"lon": 11.36667, "lat": 53.916672}}, {"id": 6460193, "name": "Prosena", "country": "BG", "coord": {"lon": 26.16667, "lat": 43.866669}}, {"id": 727926, "name": "Prosena", "country": "BG", "coord": {"lon": 26.16667, "lat": 43.866669}}, {"id": 6460106, "name": "Prosenik", "country": "BG", "coord": {"lon": 27.450001, "lat": 42.799999}}, {"id": 727925, "name": "Prosenik", "country": "BG", "coord": {"lon": 27.450001, "lat": 42.799999}}, {"id": 2152490, "name": "Proserpine", "country": "AU", "coord": {"lon": 148.583328, "lat": -20.41667}}, {"id": 6535132, "name": "Proserpio", "country": "IT", "coord": {"lon": 9.24554, "lat": 45.828281}}, {"id": 3067430, "name": "Prosetice", "country": "CZ", "coord": {"lon": 13.84305, "lat": 50.63308}}, {"id": 6282951, "name": "Proshevo", "country": "RU", "coord": {"lon": 41.180557, "lat": 57.900276}}, {"id": 504675, "name": "Proshutino", "country": "RU", "coord": {"lon": 46.469166, "lat": 61.050835}}, {"id": 734447, "name": "Prosotsani", "country": "GR", "coord": {"lon": 23.966669, "lat": 41.183331}}, {"id": 4521978, "name": "Prospect", "country": "US", "coord": {"lon": -83.563812, "lat": 39.135071}}, {"id": 4976052, "name": "Prospect", "country": "US", "coord": {"lon": -68.864761, "lat": 44.553131}}, {"id": 3313191, "name": "Prospect", "country": "IE", "coord": {"lon": -8.15, "lat": 53.1875}}, {"id": 963961, "name": "Prospect", "country": "ZA", "coord": {"lon": 31.02973, "lat": -29.80006}}, {"id": 3373617, "name": "Prospect", "country": "BB", "coord": {"lon": -59.633331, "lat": 13.13333}}, {"id": 4277773, "name": "Prospect", "country": "US", "coord": {"lon": -97.446991, "lat": 37.63446}}, {"id": 7839454, "name": "Prospect", "country": "AU", "coord": {"lon": 138.600388, "lat": -34.884571}}, {"id": 2062944, "name": "Prospect", "country": "AU", "coord": {"lon": 138.593307, "lat": -34.882408}}, {"id": 4305287, "name": "Prospect", "country": "US", "coord": {"lon": -85.615517, "lat": 38.34507}}, {"id": 4841089, "name": "Prospect", "country": "US", "coord": {"lon": -72.978722, "lat": 41.502319}}, {"id": 5167479, "name": "Prospect", "country": "US", "coord": {"lon": -83.18853, "lat": 40.45034}}, {"id": 5207263, "name": "Prospect", "country": "US", "coord": {"lon": -80.046448, "lat": 40.90451}}, {"id": 4906882, "name": "Prospect Heights", "country": "US", "coord": {"lon": -87.937569, "lat": 42.095299}}, {"id": 2062940, "name": "Prospect Hill", "country": "AU", "coord": {"lon": 138.716675, "lat": -35.23333}}, {"id": 5207247, "name": "Prospect Park", "country": "US", "coord": {"lon": -78.215561, "lat": 41.51701}}, {"id": 4560549, "name": "Prospect Park", "country": "US", "coord": {"lon": -75.308243, "lat": 39.88789}}, {"id": 5102970, "name": "Prospect Park", "country": "US", "coord": {"lon": -74.766273, "lat": 40.240391}}, {"id": 5102973, "name": "Prospect Park", "country": "US", "coord": {"lon": -74.174309, "lat": 40.937038}}, {"id": 4720833, "name": "Prosper", "country": "US", "coord": {"lon": -96.801109, "lat": 33.236229}}, {"id": 1692746, "name": "Prosperidad", "country": "PH", "coord": {"lon": 123.306389, "lat": 10.51611}}, {"id": 4592114, "name": "Prosperity", "country": "US", "coord": {"lon": -81.533157, "lat": 34.209309}}, {"id": 4819121, "name": "Prosperity", "country": "US", "coord": {"lon": -81.201767, "lat": 37.836498}}, {"id": 2961994, "name": "Prosperous", "country": "IE", "coord": {"lon": -6.75389, "lat": 53.290279}}, {"id": 3169793, "name": "Prossedi", "country": "IT", "coord": {"lon": 13.2607, "lat": 41.51622}}, {"id": 6557095, "name": "Prosselsheim", "country": "DE", "coord": {"lon": 10.1333, "lat": 49.866699}}, {"id": 2851863, "name": "Prosselsheim", "country": "DE", "coord": {"lon": 10.13333, "lat": 49.866669}}, {"id": 5807487, "name": "Prosser", "country": "US", "coord": {"lon": -119.768921, "lat": 46.206799}}, {"id": 3067421, "name": "Prostejov", "country": "CZ", "coord": {"lon": 17.111839, "lat": 49.471882}}, {"id": 761262, "name": "Prostki", "country": "PL", "coord": {"lon": 22.431829, "lat": 53.699009}}, {"id": 2152471, "name": "Proston", "country": "AU", "coord": {"lon": 151.600006, "lat": -26.16667}}, {"id": 504651, "name": "Prostory", "country": "RU", "coord": {"lon": 59.324169, "lat": 52.20639}}, {"id": 3067416, "name": "Prostredni Becva", "country": "CZ", "coord": {"lon": 18.252001, "lat": 49.436089}}, {"id": 504644, "name": "Prosveshcheniye", "country": "RU", "coord": {"lon": 29.860542, "lat": 59.897583}}, {"id": 1494071, "name": "Prosvet", "country": "RU", "coord": {"lon": 65.082497, "lat": 55.570278}}, {"id": 3088077, "name": "Proszkow", "country": "PL", "coord": {"lon": 17.871429, "lat": 50.576698}}, {"id": 761258, "name": "Proszowice", "country": "PL", "coord": {"lon": 20.289089, "lat": 50.192749}}, {"id": 504634, "name": "Pros\u2019ye", "country": "RU", "coord": {"lon": 42.400002, "lat": 56}}, {"id": 18918, "name": "Protaras", "country": "CY", "coord": {"lon": 34.058331, "lat": 35.012501}}, {"id": 504612, "name": "Protasovo", "country": "RU", "coord": {"lon": 37.599998, "lat": 56.133331}}, {"id": 504613, "name": "Protasovo", "country": "RU", "coord": {"lon": 38.25, "lat": 56.049999}}, {"id": 504615, "name": "Protasovo", "country": "RU", "coord": {"lon": 38.59222, "lat": 54.795834}}, {"id": 504605, "name": "Protas\u2019yevo", "country": "RU", "coord": {"lon": 41.933334, "lat": 56.616669}}, {"id": 3371350, "name": "Protea", "country": "NA", "coord": {"lon": 17.056391, "lat": -22.572781}}, {"id": 963944, "name": "Protea Ridge", "country": "ZA", "coord": {"lon": 27.75, "lat": -26.033331}}, {"id": 3603256, "name": "Proteccion", "country": "HN", "coord": {"lon": -88.650002, "lat": 15.03333}}, {"id": 963941, "name": "Protem", "country": "ZA", "coord": {"lon": 20.07873, "lat": -34.268242}}, {"id": 734443, "name": "Proti", "country": "GR", "coord": {"lon": 24, "lat": 40.950001}}, {"id": 3067398, "name": "Protivanov", "country": "CZ", "coord": {"lon": 16.835939, "lat": 49.483509}}, {"id": 3067395, "name": "Protivin", "country": "CZ", "coord": {"lon": 14.21717, "lat": 49.19949}}, {"id": 696136, "name": "Protsevka", "country": "UA", "coord": {"lon": 33.471161, "lat": 50.768452}}, {"id": 816763, "name": "Protva", "country": "RU", "coord": {"lon": 37.297222, "lat": 54.842499}}, {"id": 504576, "name": "Protvino", "country": "RU", "coord": {"lon": 37.217781, "lat": 54.86639}}, {"id": 2851850, "name": "Protzel", "country": "DE", "coord": {"lon": 13.98783, "lat": 52.63723}}, {"id": 2851848, "name": "Protzen", "country": "DE", "coord": {"lon": 12.72131, "lat": 52.841141}}, {"id": 6427390, "name": "Proussy", "country": "FR", "coord": {"lon": -0.53333, "lat": 48.883331}}, {"id": 2985255, "name": "Proussy", "country": "FR", "coord": {"lon": -0.53648, "lat": 48.88319}}, {"id": 3373615, "name": "Proutes", "country": "BB", "coord": {"lon": -59.566669, "lat": 13.15}}, {"id": 6438421, "name": "Prouvy", "country": "FR", "coord": {"lon": 3.45, "lat": 50.316669}}, {"id": 2985251, "name": "Prouvy", "country": "FR", "coord": {"lon": 3.45096, "lat": 50.317928}}, {"id": 727921, "name": "Provadiya", "country": "BG", "coord": {"lon": 27.433331, "lat": 43.183331}}, {"id": 6534746, "name": "Provaglio Val Sabbia", "country": "IT", "coord": {"lon": 10.43397, "lat": 45.688789}}, {"id": 6534745, "name": "Provaglio dIseo", "country": "IT", "coord": {"lon": 10.04466, "lat": 45.63538}}, {"id": 734440, "name": "Provatas", "country": "GR", "coord": {"lon": 23.383329, "lat": 41.066669}}, {"id": 7286840, "name": "Provence", "country": "CH", "coord": {"lon": 6.68415, "lat": 46.901241}}, {"id": 2659131, "name": "Provence", "country": "CH", "coord": {"lon": 6.72608, "lat": 46.890518}}, {"id": 2985242, "name": "Provench\u00e8re", "country": "FR", "coord": {"lon": 2.78793, "lat": 45.849739}}, {"id": 6357509, "name": "Provencio (El)", "country": "ES", "coord": {"lon": -2.58071, "lat": 39.386391}}, {"id": 6445969, "name": "Provency", "country": "FR", "coord": {"lon": 3.95, "lat": 47.549999}}, {"id": 2985234, "name": "Provency", "country": "FR", "coord": {"lon": 3.95488, "lat": 47.546551}}, {"id": 6534783, "name": "Proves - Proveis", "country": "IT", "coord": {"lon": 11.02247, "lat": 46.476608}}, {"id": 4263408, "name": "Providence", "country": "US", "coord": {"lon": -86.176659, "lat": 39.490879}}, {"id": 5224151, "name": "Providence", "country": "US", "coord": {"lon": -71.412827, "lat": 41.82399}}, {"id": 934138, "name": "Providence", "country": "MU", "coord": {"lon": 57.612221, "lat": -20.24472}}, {"id": 4305294, "name": "Providence", "country": "US", "coord": {"lon": -85.221069, "lat": 38.574509}}, {"id": 4305295, "name": "Providence", "country": "US", "coord": {"lon": -87.762787, "lat": 37.397541}}, {"id": 5780020, "name": "Providence", "country": "US", "coord": {"lon": -111.817162, "lat": 41.706322}}, {"id": 5224162, "name": "Providence County", "country": "US", "coord": {"lon": -71.59951, "lat": 41.833431}}, {"id": 3875139, "name": "Providencia", "country": "CL", "coord": {"lon": -70.616669, "lat": -33.433331}}, {"id": 3671714, "name": "Providencia", "country": "CO", "coord": {"lon": -77.463997, "lat": 1.56976}}, {"id": 3991622, "name": "Providencia", "country": "MX", "coord": {"lon": -111.583328, "lat": 28.716669}}, {"id": 4021273, "name": "Providencia de Abajo", "country": "MX", "coord": {"lon": -102.32917, "lat": 21.716669}}, {"id": 3670205, "name": "Providencia y Santa Catalina, Departamento de Archipi\u00e9lago de San Andr\u00e9s", "country": "CO", "coord": {"lon": -81.75, "lat": 12.5}}, {"id": 4031574, "name": "Provideniya", "country": "RU", "coord": {"lon": -173.300003, "lat": 64.383331}}, {"id": 6438422, "name": "Proville", "country": "FR", "coord": {"lon": 3.2, "lat": 50.166672}}, {"id": 2985231, "name": "Proville", "country": "FR", "coord": {"lon": 3.20629, "lat": 50.161369}}, {"id": 6438423, "name": "Provin", "country": "FR", "coord": {"lon": 2.91667, "lat": 50.51667}}, {"id": 2985230, "name": "Provin", "country": "FR", "coord": {"lon": 2.90794, "lat": 50.514301}}, {"id": 2140685, "name": "Province Nord", "country": "NC", "coord": {"lon": 164.899994, "lat": -21.049999}}, {"id": 216139, "name": "Province Orientale", "country": "CD", "coord": {"lon": 27, "lat": 2.5}}, {"id": 2140464, "name": "Province Sud", "country": "NC", "coord": {"lon": 165.833328, "lat": -21.75}}, {"id": 2356983, "name": "Province d' Oubritenga", "country": "BF", "coord": {"lon": -1.41667, "lat": 12.58333}}, {"id": 2317396, "name": "Province de Bandundu", "country": "CD", "coord": {"lon": 18, "lat": -4}}, {"id": 2792411, "name": "Province de Li\u00e8ge", "country": "BE", "coord": {"lon": 5.56543, "lat": 50.63427}}, {"id": 434386, "name": "Province de Mwaro", "country": "BI", "coord": {"lon": 29.66667, "lat": -3.5}}, {"id": 2790469, "name": "Province de Namur", "country": "BE", "coord": {"lon": 4.83333, "lat": 50.333328}}, {"id": 2356982, "name": "Province de l' Oudalan", "country": "BF", "coord": {"lon": -0.33333, "lat": 14.66667}}, {"id": 2362047, "name": "Province de la Bougouriba", "country": "BF", "coord": {"lon": -3.41667, "lat": 10.83333}}, {"id": 2359209, "name": "Province de la Como\u00e9", "country": "BF", "coord": {"lon": -4.41667, "lat": 10.33333}}, {"id": 2360516, "name": "Province de la Gnagna", "country": "BF", "coord": {"lon": 0.0392, "lat": 12.9188}}, {"id": 2597259, "name": "Province de la Komandjoari", "country": "BF", "coord": {"lon": 0.66667, "lat": 12.66667}}, {"id": 2597260, "name": "Province de la Kompienga", "country": "BF", "coord": {"lon": 0.91667, "lat": 11.41667}}, {"id": 2359027, "name": "Province de la Kossi", "country": "BF", "coord": {"lon": -3.83333, "lat": 12.91667}}, {"id": 2597263, "name": "Province de la L\u00e9raba", "country": "BF", "coord": {"lon": -5.2, "lat": 10.66667}}, {"id": 2397466, "name": "Province de la Ngouni\u00e9", "country": "GA", "coord": {"lon": 11, "lat": -2}}, {"id": 2397141, "name": "Province de la Nyanga", "country": "GA", "coord": {"lon": 11, "lat": -3}}, {"id": 2355474, "name": "Province de la Sissili", "country": "BF", "coord": {"lon": -2.25, "lat": 11.33333}}, {"id": 2354771, "name": "Province de la Tapoa", "country": "BF", "coord": {"lon": 1.75, "lat": 12}}, {"id": 2400682, "name": "Province de l\u2019 Estuaire", "country": "GA", "coord": {"lon": 10, "lat": 0.16667}}, {"id": 2396926, "name": "Province de l\u2019 Ogoou\u00e9-Ivindo", "country": "GA", "coord": {"lon": 13, "lat": 0.5}}, {"id": 2396925, "name": "Province de l\u2019 Ogoou\u00e9-Lolo", "country": "GA", "coord": {"lon": 13, "lat": -1}}, {"id": 2396924, "name": "Province de l\u2019 Ogoou\u00e9-Maritime", "country": "GA", "coord": {"lon": 9.5, "lat": -2}}, {"id": 216661, "name": "Province de l\u2019 \u00c9quateur", "country": "CD", "coord": {"lon": 20.5, "lat": 1}}, {"id": 2597248, "name": "Province des Bal\u00e9", "country": "BF", "coord": {"lon": -3.16667, "lat": 11.7}}, {"id": 2597250, "name": "Province des Banwa", "country": "BF", "coord": {"lon": -4.16667, "lat": 12.16667}}, {"id": 2362973, "name": "Province du Bam", "country": "BF", "coord": {"lon": -1.66667, "lat": 13.5}}, {"id": 2317277, "name": "Province du Bas-Congo", "country": "CD", "coord": {"lon": 14.5, "lat": -5.5}}, {"id": 2362644, "name": "Province du Baz\u00e8ga", "country": "BF", "coord": {"lon": -1.5, "lat": 11.91667}}, {"id": 2362006, "name": "Province du Boulgou", "country": "BF", "coord": {"lon": -0.5, "lat": 11.5}}, {"id": 2361988, "name": "Province du Boulkiemd\u00e9", "country": "BF", "coord": {"lon": -2.16667, "lat": 12.33333}}, {"id": 3333251, "name": "Province du Brabant Wallon", "country": "BE", "coord": {"lon": 4.58333, "lat": 50.75}}, {"id": 2360627, "name": "Province du Ganzourgou", "country": "BF", "coord": {"lon": -0.75, "lat": 12.33333}}, {"id": 2360223, "name": "Province du Gourma", "country": "BF", "coord": {"lon": 0.5, "lat": 12.08333}}, {"id": 2796741, "name": "Province du Hainaut", "country": "BE", "coord": {"lon": 3.83333, "lat": 50.5}}, {"id": 2400454, "name": "Province du Haut-Ogoou\u00e9", "country": "GA", "coord": {"lon": 14, "lat": -2}}, {"id": 2360075, "name": "Province du Houet", "country": "BF", "coord": {"lon": -4.25, "lat": 11.33333}}, {"id": 2597251, "name": "Province du Ioba", "country": "BF", "coord": {"lon": -3.08333, "lat": 11.08333}}, {"id": 2359923, "name": "Province du Kadiogo", "country": "BF", "coord": {"lon": -1.5, "lat": 12.33333}}, {"id": 214139, "name": "Province du Kasa\u00ef-Occidental", "country": "CD", "coord": {"lon": 22, "lat": -4.5}}, {"id": 214138, "name": "Province du Kasa\u00ef-Oriental", "country": "CD", "coord": {"lon": 24, "lat": -4}}, {"id": 205703, "name": "Province du Katanga", "country": "CD", "coord": {"lon": 26, "lat": -9}}, {"id": 2597261, "name": "Province du Koulp\u00e9logo", "country": "BF", "coord": {"lon": 0.16667, "lat": 11.41667}}, {"id": 2358700, "name": "Province du Kouritenga", "country": "BF", "coord": {"lon": -0.16667, "lat": 12}}, {"id": 2597262, "name": "Province du Kourw\u00e9ogo", "country": "BF", "coord": {"lon": -1.8, "lat": 12.58333}}, {"id": 2359569, "name": "Province du K\u00e9n\u00e9dougou", "country": "BF", "coord": {"lon": -5, "lat": 11.41667}}, {"id": 2597264, "name": "Province du Loroum", "country": "BF", "coord": {"lon": -2.16667, "lat": 13.91667}}, {"id": 2791993, "name": "Province du Luxembourg", "country": "BE", "coord": {"lon": 5.5, "lat": 50}}, {"id": 209610, "name": "Province du Maniema", "country": "CD", "coord": {"lon": 25.91667, "lat": -2.91667}}, {"id": 2357858, "name": "Province du Mouhoun", "country": "BF", "coord": {"lon": -3.41667, "lat": 12.25}}, {"id": 2397842, "name": "Province du Moyen-Ogoou\u00e9", "country": "GA", "coord": {"lon": 10.5, "lat": -0.5}}, {"id": 2357548, "name": "Province du Nahouri", "country": "BF", "coord": {"lon": -1.25, "lat": 11.25}}, {"id": 2357611, "name": "Province du Namentenga", "country": "BF", "coord": {"lon": -0.58333, "lat": 13.25}}, {"id": 2597265, "name": "Province du Nayala", "country": "BF", "coord": {"lon": -3, "lat": 12.66667}}, {"id": 6413339, "name": "Province du Nord", "country": "RW", "coord": {"lon": 29.91667, "lat": -1.58333}}, {"id": 206938, "name": "Province du Nord-Kivu", "country": "CD", "coord": {"lon": 28.75, "lat": -0.66667}}, {"id": 2597266, "name": "Province du Noumbi\u00e8l", "country": "BF", "coord": {"lon": -3, "lat": 9.83333}}, {"id": 2356667, "name": "Province du Passor\u00e9", "country": "BF", "coord": {"lon": -2.16667, "lat": 12.91667}}, {"id": 2356386, "name": "Province du Poni", "country": "BF", "coord": {"lon": -3.41667, "lat": 10.25}}, {"id": 2355930, "name": "Province du Sangui\u00e9", "country": "BF", "coord": {"lon": -2.66667, "lat": 12.16667}}, {"id": 2355914, "name": "Province du Sanmatenga", "country": "BF", "coord": {"lon": -1.08333, "lat": 13.25}}, {"id": 2355248, "name": "Province du Soum", "country": "BF", "coord": {"lon": -1.25, "lat": 14.33333}}, {"id": 2355211, "name": "Province du Sourou", "country": "BF", "coord": {"lon": -3, "lat": 13.25}}, {"id": 6413341, "name": "Province du Sud", "country": "RW", "coord": {"lon": 29.66667, "lat": -2.33333}}, {"id": 205413, "name": "Province du Sud-Kivu", "country": "CD", "coord": {"lon": 28.25, "lat": -3.16667}}, {"id": 2355737, "name": "Province du S\u00e9no", "country": "BF", "coord": {"lon": -0.16667, "lat": 13.91667}}, {"id": 2597267, "name": "Province du Tuy", "country": "BF", "coord": {"lon": -3.41667, "lat": 11.41667}}, {"id": 2396076, "name": "Province du Woleu-Ntem", "country": "GA", "coord": {"lon": 12, "lat": 2}}, {"id": 2597268, "name": "Province du Yagha", "country": "BF", "coord": {"lon": 0.58333, "lat": 13.41667}}, {"id": 2353568, "name": "Province du Yatenga", "country": "BF", "coord": {"lon": -2.41667, "lat": 13.58333}}, {"id": 2597269, "name": "Province du Ziro", "country": "BF", "coord": {"lon": -1.91667, "lat": 11.58333}}, {"id": 2597270, "name": "Province du Zondoma", "country": "BF", "coord": {"lon": -2.16667, "lat": 13.16667}}, {"id": 2353169, "name": "Province du Zoundw\u00e9ogo", "country": "BF", "coord": {"lon": -1, "lat": 11.58333}}, {"id": 1679428, "name": "Province of  Zamboanga del Sur", "country": "PH", "coord": {"lon": 123.319397, "lat": 7.9043}}, {"id": 1731819, "name": "Province of Agusan del Norte", "country": "PH", "coord": {"lon": 125.5, "lat": 9.16667}}, {"id": 1731818, "name": "Province of Agusan del Sur", "country": "PH", "coord": {"lon": 125.833328, "lat": 8.5}}, {"id": 1731758, "name": "Province of Aklan", "country": "PH", "coord": {"lon": 122.333328, "lat": 11.66667}}, {"id": 1731616, "name": "Province of Albay", "country": "PH", "coord": {"lon": 123.550003, "lat": 13.21667}}, {"id": 3182882, "name": "Province of Arezzo", "country": "IT", "coord": {"lon": 11.83333, "lat": 43.533329}}, {"id": 3182748, "name": "Province of Ascoli Piceno", "country": "IT", "coord": {"lon": 13.55306, "lat": 42.88443}}, {"id": 1729926, "name": "Province of Aurora", "country": "PH", "coord": {"lon": 121.75, "lat": 16}}, {"id": 1726404, "name": "Province of Basilan", "country": "PH", "coord": {"lon": 122.03492, "lat": 6.57864}}, {"id": 1726347, "name": "Province of Bataan", "country": "PH", "coord": {"lon": 120.416672, "lat": 14.66667}}, {"id": 1726302, "name": "Province of Batanes", "country": "PH", "coord": {"lon": 121.916672, "lat": 20.66667}}, {"id": 1726279, "name": "Province of Batangas", "country": "PH", "coord": {"lon": 121.083328, "lat": 13.91667}}, {"id": 1725582, "name": "Province of Benguet", "country": "PH", "coord": {"lon": 120.666672, "lat": 16.5}}, {"id": 1724395, "name": "Province of Bohol", "country": "PH", "coord": {"lon": 124.166672, "lat": 9.83333}}, {"id": 1723105, "name": "Province of Bukidnon", "country": "PH", "coord": {"lon": 125, "lat": 8}}, {"id": 1723064, "name": "Province of Bulacan", "country": "PH", "coord": {"lon": 121.083328, "lat": 15}}, {"id": 1721086, "name": "Province of Cagayan", "country": "PH", "coord": {"lon": 121.833328, "lat": 18}}, {"id": 1719846, "name": "Province of Camarines Norte", "country": "PH", "coord": {"lon": 122.75, "lat": 14.16667}}, {"id": 1719845, "name": "Province of Camarines Sur", "country": "PH", "coord": {"lon": 123.333328, "lat": 13.66667}}, {"id": 1719694, "name": "Province of Camiguin", "country": "PH", "coord": {"lon": 124.75, "lat": 9.16667}}, {"id": 1717952, "name": "Province of Catanduanes", "country": "PH", "coord": {"lon": 124.25, "lat": 13.83333}}, {"id": 1717639, "name": "Province of Cavite", "country": "PH", "coord": {"lon": 120.833328, "lat": 14.25}}, {"id": 1717511, "name": "Province of Cebu", "country": "PH", "coord": {"lon": 123.666672, "lat": 9.33333}}, {"id": 2519239, "name": "Province of C\u00f3rdoba", "country": "ES", "coord": {"lon": -4.83333, "lat": 38}}, {"id": 1715342, "name": "Province of Davao Oriental", "country": "PH", "coord": {"lon": 126.333328, "lat": 7.16667}}, {"id": 1715347, "name": "Province of Davao del Norte", "country": "PH", "coord": {"lon": 125.81543, "lat": 7.45099}}, {"id": 1715345, "name": "Province of Davao del Sur", "country": "PH", "coord": {"lon": 125.5, "lat": 6.33333}}, {"id": 1085593, "name": "Province of Eastern Cape", "country": "ZA", "coord": {"lon": 26, "lat": -32}}, {"id": 1713986, "name": "Province of Eastern Samar", "country": "PH", "coord": {"lon": 125.5, "lat": 11.66667}}, {"id": 6955471, "name": "Province of Fermo", "country": "IT", "coord": {"lon": 13.72424, "lat": 43.165371}}, {"id": 3176217, "name": "Province of Genoa", "country": "IT", "coord": {"lon": 9.06667, "lat": 44.5}}, {"id": 1711034, "name": "Province of Ilocos Norte", "country": "PH", "coord": {"lon": 120.75, "lat": 18.16667}}, {"id": 1711032, "name": "Province of Ilocos Sur", "country": "PH", "coord": {"lon": 120.583328, "lat": 17.33333}}, {"id": 1711004, "name": "Province of Iloilo", "country": "PH", "coord": {"lon": 122.666672, "lat": 11}}, {"id": 1710515, "name": "Province of Isabela", "country": "PH", "coord": {"lon": 122, "lat": 17}}, {"id": 972062, "name": "Province of KwaZulu-Natal", "country": "ZA", "coord": {"lon": 30, "lat": -29}}, {"id": 1707052, "name": "Province of La Union", "country": "PH", "coord": {"lon": 120.416672, "lat": 16.5}}, {"id": 1708026, "name": "Province of Laguna", "country": "PH", "coord": {"lon": 121.333328, "lat": 14.16667}}, {"id": 1707668, "name": "Province of Lanao del Norte", "country": "PH", "coord": {"lon": 124, "lat": 8}}, {"id": 1707667, "name": "Province of Lanao del Sur", "country": "PH", "coord": {"lon": 124.333328, "lat": 7.91667}}, {"id": 1706800, "name": "Province of Leyte", "country": "PH", "coord": {"lon": 124.666672, "lat": 10.91667}}, {"id": 1703701, "name": "Province of Maguindanao", "country": "PH", "coord": {"lon": 124.300003, "lat": 7.13333}}, {"id": 1700902, "name": "Province of Marinduque", "country": "PH", "coord": {"lon": 121.949997, "lat": 13.41667}}, {"id": 1700711, "name": "Province of Masbate", "country": "PH", "coord": {"lon": 123.583328, "lat": 12.16667}}, {"id": 3173434, "name": "Province of Milan", "country": "IT", "coord": {"lon": 9.5, "lat": 45.5}}, {"id": 1699586, "name": "Province of Mindoro Occidental", "country": "PH", "coord": {"lon": 120.916672, "lat": 13}}, {"id": 1699585, "name": "Province of Mindoro Oriental", "country": "PH", "coord": {"lon": 121.083328, "lat": 13}}, {"id": 1699492, "name": "Province of Misamis Oriental", "country": "PH", "coord": {"lon": 125, "lat": 8.75}}, {"id": 1697808, "name": "Province of Negros Occidental", "country": "PH", "coord": {"lon": 123, "lat": 10.41667}}, {"id": 1697806, "name": "Province of Negros Oriental", "country": "PH", "coord": {"lon": 123, "lat": 9.75}}, {"id": 1697559, "name": "Province of North Cotabato", "country": "PH", "coord": {"lon": 125.083328, "lat": 7.01667}}, {"id": 1085598, "name": "Province of North-West", "country": "ZA", "coord": {"lon": 26, "lat": -26.5}}, {"id": 1085596, "name": "Province of Northern Cape", "country": "ZA", "coord": {"lon": 22, "lat": -29.5}}, {"id": 1697549, "name": "Province of Northern Samar", "country": "PH", "coord": {"lon": 124.666672, "lat": 12.33333}}, {"id": 1697473, "name": "Province of Nueva Ecija", "country": "PH", "coord": {"lon": 121, "lat": 15.58333}}, {"id": 1697456, "name": "Province of Nueva Vizcaya", "country": "PH", "coord": {"lon": 121.333328, "lat": 16.33333}}, {"id": 1696177, "name": "Province of Palawan", "country": "PH", "coord": {"lon": 118.75, "lat": 10}}, {"id": 1695848, "name": "Province of Pampanga", "country": "PH", "coord": {"lon": 120.666672, "lat": 15.06667}}, {"id": 1695357, "name": "Province of Pangasinan", "country": "PH", "coord": {"lon": 120.333328, "lat": 15.91667}}, {"id": 1692194, "name": "Province of Quezon", "country": "PH", "coord": {"lon": 121.5, "lat": 14.66667}}, {"id": 1691591, "name": "Province of Rizal", "country": "PH", "coord": {"lon": 121.166672, "lat": 14.58333}}, {"id": 1691537, "name": "Province of Romblon", "country": "PH", "coord": {"lon": 122.25, "lat": 12.5}}, {"id": 1228435, "name": "Province of Sabaragamuwa", "country": "LK", "coord": {"lon": 80.5, "lat": 6.75}}, {"id": 1690649, "name": "Province of Samar", "country": "PH", "coord": {"lon": 125, "lat": 11.83333}}, {"id": 7671047, "name": "Province of Sarangani", "country": "PH", "coord": {"lon": 125.275284, "lat": 5.87472}}, {"id": 1685754, "name": "Province of Sorsogon", "country": "PH", "coord": {"lon": 123.916672, "lat": 12.83333}}, {"id": 1685731, "name": "Province of South Cotabato", "country": "PH", "coord": {"lon": 125.000603, "lat": 6.25218}}, {"id": 828987, "name": "Province of Southern Finland", "country": "FI", "coord": {"lon": 26, "lat": 60.833328}}, {"id": 1685725, "name": "Province of Southern Leyte", "country": "PH", "coord": {"lon": 125.083328, "lat": 10.33333}}, {"id": 1685377, "name": "Province of Sultan Kudarat", "country": "PH", "coord": {"lon": 124.283333, "lat": 6.55}}, {"id": 1685370, "name": "Province of Sulu", "country": "PH", "coord": {"lon": 121, "lat": 6}}, {"id": 1685215, "name": "Province of Surigao del Norte", "country": "PH", "coord": {"lon": 125.633331, "lat": 9.66667}}, {"id": 1685214, "name": "Province of Surigao del Sur", "country": "PH", "coord": {"lon": 126, "lat": 8.66667}}, {"id": 1682811, "name": "Province of Tarlac", "country": "PH", "coord": {"lon": 120.5, "lat": 15.5}}, {"id": 1682671, "name": "Province of Tawi-Tawi", "country": "PH", "coord": {"lon": 120.026497, "lat": 5.2057}}, {"id": 3165770, "name": "Province of Terni", "country": "IT", "coord": {"lon": 12.31667, "lat": 42.683331}}, {"id": 1225265, "name": "Province of Uva", "country": "LK", "coord": {"lon": 81.25, "lat": 7}}, {"id": 828989, "name": "Province of Western Finland", "country": "FI", "coord": {"lon": 24, "lat": 62}}, {"id": 1679435, "name": "Province of Zambales", "country": "PH", "coord": {"lon": 120.166672, "lat": 15.33333}}, {"id": 1679429, "name": "Province of Zamboanga del Norte", "country": "PH", "coord": {"lon": 122.666672, "lat": 8}}, {"id": 1085599, "name": "Province of the Western Cape", "country": "ZA", "coord": {"lon": 20, "lat": -34}}, {"id": 4948087, "name": "Provincetown", "country": "US", "coord": {"lon": -70.178642, "lat": 42.058441}}, {"id": 7668824, "name": "Provincia Artemisa", "country": "CU", "coord": {"lon": -82.756058, "lat": 22.813999}}, {"id": 3923437, "name": "Provincia Azurduy", "country": "BO", "coord": {"lon": -64.5, "lat": -20}}, {"id": 3923228, "name": "Provincia Belisario Boeto", "country": "BO", "coord": {"lon": -64.333328, "lat": -18.91667}}, {"id": 3946080, "name": "Provincia Constitucional del Callao", "country": "PE", "coord": {"lon": -77.150002, "lat": -12.06667}}, {"id": 3508718, "name": "Provincia Duarte", "country": "DO", "coord": {"lon": -70.083328, "lat": 19.25}}, {"id": 3505867, "name": "Provincia Espaillat", "country": "DO", "coord": {"lon": -70.449997, "lat": 19.5}}, {"id": 3558052, "name": "Provincia Granma", "country": "CU", "coord": {"lon": -77, "lat": 20.25}}, {"id": 3915235, "name": "Provincia Hernando Siles", "country": "BO", "coord": {"lon": -64.25, "lat": -20.16667}}, {"id": 3911048, "name": "Provincia Luis Calvo", "country": "BO", "coord": {"lon": -63.5, "lat": -20.66667}}, {"id": 3496772, "name": "Provincia Mar\u00eda Trinidad S\u00e1nchez", "country": "DO", "coord": {"lon": -70, "lat": 19.5}}, {"id": 7668827, "name": "Provincia Mayabeque", "country": "CU", "coord": {"lon": -82.147179, "lat": 22.96155}}, {"id": 3909495, "name": "Provincia Nor Cinti", "country": "BO", "coord": {"lon": -65, "lat": -20.33333}}, {"id": 3909247, "name": "Provincia Oropeza", "country": "BO", "coord": {"lon": -65.166672, "lat": -18.66667}}, {"id": 3903977, "name": "Provincia Sud Cinti", "country": "BO", "coord": {"lon": -64.916672, "lat": -20.91667}}, {"id": 3493192, "name": "Provincia S\u00e1nchez Ram\u00edrez", "country": "DO", "coord": {"lon": -70.166672, "lat": 19}}, {"id": 3902667, "name": "Provincia Tomina", "country": "BO", "coord": {"lon": -64.166672, "lat": -19.5}}, {"id": 3164567, "name": "Provincia Verbano-Cusio-Ossola", "country": "IT", "coord": {"lon": 8.55, "lat": 45.933331}}, {"id": 3901146, "name": "Provincia Yampar\u00e1ez", "country": "BO", "coord": {"lon": -64.916672, "lat": -19.16667}}, {"id": 3900772, "name": "Provincia Zud\u00e1\u00f1ez", "country": "BO", "coord": {"lon": -64.833328, "lat": -18.91667}}, {"id": 3119840, "name": "Provincia da Coru\u00f1a", "country": "ES", "coord": {"lon": -8.41667, "lat": 43.166672}}, {"id": 3624953, "name": "Provincia de Alajuela", "country": "CR", "coord": {"lon": -84.5, "lat": 10.5}}, {"id": 2522257, "name": "Provincia de Albacete", "country": "ES", "coord": {"lon": -2, "lat": 38.833328}}, {"id": 2521976, "name": "Provincia de Alicante", "country": "ES", "coord": {"lon": -0.5, "lat": 38.5}}, {"id": 2521883, "name": "Provincia de Almer\u00eda", "country": "ES", "coord": {"lon": -2.33333, "lat": 37.166672}}, {"id": 3899538, "name": "Provincia de Antofagasta", "country": "CL", "coord": {"lon": -69.666672, "lat": -24.33333}}, {"id": 3899358, "name": "Provincia de Arica", "country": "CL", "coord": {"lon": -69.666672, "lat": -18.33333}}, {"id": 6355236, "name": "Provincia de Asturias", "country": "ES", "coord": {"lon": -5.86112, "lat": 43.366619}}, {"id": 3512209, "name": "Provincia de Azua", "country": "DO", "coord": {"lon": -70.666672, "lat": 18.58333}}, {"id": 2521419, "name": "Provincia de Badajoz", "country": "ES", "coord": {"lon": -6.16667, "lat": 38.666672}}, {"id": 3512050, "name": "Provincia de Baoruco", "country": "DO", "coord": {"lon": -71.349998, "lat": 18.5}}, {"id": 3512042, "name": "Provincia de Barahona", "country": "DO", "coord": {"lon": -71.25, "lat": 18.16667}}, {"id": 2566978, "name": "Provincia de Bioko Norte", "country": "GQ", "coord": {"lon": 8.75, "lat": 3.66667}}, {"id": 3713954, "name": "Provincia de Bocas del Toro", "country": "PA", "coord": {"lon": -82.650002, "lat": 9.25}}, {"id": 3660130, "name": "Provincia de Bol\u00edvar", "country": "EC", "coord": {"lon": -79.083328, "lat": -1.58333}}, {"id": 3435907, "name": "Provincia de Buenos Aires", "country": "AR", "coord": {"lon": -60, "lat": -36}}, {"id": 3127460, "name": "Provincia de Burgos", "country": "ES", "coord": {"lon": -3.70789, "lat": 42.33939}}, {"id": 3566062, "name": "Provincia de Camag\u00fcey", "country": "CU", "coord": {"lon": -77.849998, "lat": 21.35}}, {"id": 3109716, "name": "Provincia de Cantabria", "country": "ES", "coord": {"lon": -4, "lat": 43.166672}}, {"id": 3624368, "name": "Provincia de Cartago", "country": "CR", "coord": {"lon": -83.75, "lat": 9.83333}}, {"id": 3862286, "name": "Provincia de Catamarca", "country": "AR", "coord": {"lon": -67, "lat": -27}}, {"id": 3712410, "name": "Provincia de Chiriqu\u00ed", "country": "PA", "coord": {"lon": -82.416672, "lat": 8.5}}, {"id": 3564175, "name": "Provincia de Ciego de \u00c1vila", "country": "CU", "coord": {"lon": -78.599998, "lat": 21.9}}, {"id": 3564120, "name": "Provincia de Cienfuegos", "country": "CU", "coord": {"lon": -80.5, "lat": 22.299999}}, {"id": 2519401, "name": "Provincia de Ciudad Real", "country": "ES", "coord": {"lon": -4, "lat": 39}}, {"id": 3712162, "name": "Provincia de Cocl\u00e9", "country": "PA", "coord": {"lon": -80.416672, "lat": 8.56667}}, {"id": 3712073, "name": "Provincia de Col\u00f3n", "country": "PA", "coord": {"lon": -80, "lat": 9.16667}}, {"id": 3435214, "name": "Provincia de Corrientes", "country": "AR", "coord": {"lon": -58, "lat": -29}}, {"id": 3658766, "name": "Provincia de Cotopaxi", "country": "EC", "coord": {"lon": -78.833328, "lat": -0.83333}}, {"id": 2519034, "name": "Provincia de Cuenca", "country": "ES", "coord": {"lon": -2, "lat": 40}}, {"id": 2520610, "name": "Provincia de C\u00e1ceres", "country": "ES", "coord": {"lon": -6.37482, "lat": 39.522049}}, {"id": 2520597, "name": "Provincia de C\u00e1diz", "country": "ES", "coord": {"lon": -5.75, "lat": 36.5}}, {"id": 3860255, "name": "Provincia de C\u00f3rdoba", "country": "AR", "coord": {"lon": -64, "lat": -32}}, {"id": 3508951, "name": "Provincia de Dajab\u00f3n", "country": "DO", "coord": {"lon": -71.583328, "lat": 19.5}}, {"id": 3658195, "name": "Provincia de El Oro", "country": "EC", "coord": {"lon": -79.833328, "lat": -3.5}}, {"id": 3506189, "name": "Provincia de El Se\u00edbo", "country": "DO", "coord": {"lon": -69.050003, "lat": 18.799999}}, {"id": 3507269, "name": "Provincia de El\u00edas Pi\u00f1a", "country": "DO", "coord": {"lon": -71.583328, "lat": 19}}, {"id": 3434137, "name": "Provincia de Entre R\u00edos", "country": "AR", "coord": {"lon": -59, "lat": -32}}, {"id": 3657986, "name": "Provincia de Esmeraldas", "country": "EC", "coord": {"lon": -79.25, "lat": 0.83333}}, {"id": 3433896, "name": "Provincia de Formosa", "country": "AR", "coord": {"lon": -60, "lat": -25}}, {"id": 3830306, "name": "Provincia de Francisco de Orellana", "country": "EC", "coord": {"lon": -76.416672, "lat": -0.75}}, {"id": 3657879, "name": "Provincia de Gal\u00e1pagos", "country": "EC", "coord": {"lon": -90.873413, "lat": -0.67015}}, {"id": 2517115, "name": "Provincia de Granada", "country": "ES", "coord": {"lon": -3.25, "lat": 37.25}}, {"id": 3121069, "name": "Provincia de Guadalajara", "country": "ES", "coord": {"lon": -2.5, "lat": 40.833328}}, {"id": 3623582, "name": "Provincia de Guanacaste", "country": "CR", "coord": {"lon": -85.25, "lat": 10.5}}, {"id": 3557685, "name": "Provincia de Guant\u00e1namo", "country": "CU", "coord": {"lon": -74.75, "lat": 20.25}}, {"id": 3504766, "name": "Provincia de Hato Mayor", "country": "DO", "coord": {"lon": -69.333328, "lat": 18.83333}}, {"id": 3623484, "name": "Provincia de Heredia", "country": "CR", "coord": {"lon": -84, "lat": 10.33333}}, {"id": 3493282, "name": "Provincia de Hermanas Mirabal", "country": "DO", "coord": {"lon": -70.333328, "lat": 19.41667}}, {"id": 3708710, "name": "Provincia de Herrera", "country": "PA", "coord": {"lon": -80.75, "lat": 7.83333}}, {"id": 3556965, "name": "Provincia de Holgu\u00edn", "country": "CU", "coord": {"lon": -75.75, "lat": 20.799999}}, {"id": 2516547, "name": "Provincia de Huelva", "country": "ES", "coord": {"lon": -7, "lat": 37.666672}}, {"id": 3120513, "name": "Provincia de Huesca", "country": "ES", "coord": {"lon": -0.16667, "lat": 42.166672}}, {"id": 3655635, "name": "Provincia de Imbabura", "country": "EC", "coord": {"lon": -78.416672, "lat": 0.36667}}, {"id": 3504326, "name": "Provincia de Independencia", "country": "DO", "coord": {"lon": -71.5, "lat": 18.25}}, {"id": 2516394, "name": "Provincia de Ja\u00e9n", "country": "ES", "coord": {"lon": -3.5, "lat": 38}}, {"id": 3853404, "name": "Provincia de Jujuy", "country": "AR", "coord": {"lon": -66, "lat": -23}}, {"id": 2566981, "name": "Provincia de Ki\u00e9-Ntem", "country": "GQ", "coord": {"lon": 11, "lat": 2}}, {"id": 3503706, "name": "Provincia de La Altagracia", "country": "DO", "coord": {"lon": -68.633331, "lat": 18.58333}}, {"id": 3564073, "name": "Provincia de La Habana", "country": "CU", "coord": {"lon": -82.300003, "lat": 23.08333}}, {"id": 3849574, "name": "Provincia de La Pampa", "country": "AR", "coord": {"lon": -66, "lat": -37}}, {"id": 3848949, "name": "Provincia de La Rioja", "country": "AR", "coord": {"lon": -67.5, "lat": -30}}, {"id": 6355232, "name": "Provincia de La Rioja", "country": "ES", "coord": {"lon": -2.42455, "lat": 42.463112}}, {"id": 3500955, "name": "Provincia de La Romana", "country": "DO", "coord": {"lon": -68.966667, "lat": 18.5}}, {"id": 3499977, "name": "Provincia de La Vega", "country": "DO", "coord": {"lon": -70.616669, "lat": 19.116671}}, {"id": 2515271, "name": "Provincia de Las Palmas", "country": "ES", "coord": {"lon": -14.01306, "lat": 28.420389}}, {"id": 3118528, "name": "Provincia de Le\u00f3n", "country": "ES", "coord": {"lon": -6, "lat": 42.666672}}, {"id": 3623064, "name": "Provincia de Lim\u00f3n", "country": "CR", "coord": {"lon": -83.216667, "lat": 10}}, {"id": 2566982, "name": "Provincia de Litoral", "country": "GQ", "coord": {"lon": 9.75, "lat": 1.5}}, {"id": 3654665, "name": "Provincia de Loja", "country": "EC", "coord": {"lon": -79.5, "lat": -4.16667}}, {"id": 3654592, "name": "Provincia de Los R\u00edos", "country": "EC", "coord": {"lon": -79.583328, "lat": -1.41667}}, {"id": 3704961, "name": "Provincia de Los Santos", "country": "PA", "coord": {"lon": -80.333328, "lat": 7.58333}}, {"id": 3117813, "name": "Provincia de Lugo", "country": "ES", "coord": {"lon": -7.5, "lat": 43}}, {"id": 6355233, "name": "Provincia de Madrid", "country": "ES", "coord": {"lon": -3.71029, "lat": 40.402248}}, {"id": 3654451, "name": "Provincia de Manab\u00ed", "country": "EC", "coord": {"lon": -80.083328, "lat": -0.66667}}, {"id": 3547394, "name": "Provincia de Matanzas", "country": "CU", "coord": {"lon": -81.166672, "lat": 22.66667}}, {"id": 3844419, "name": "Provincia de Mendoza", "country": "AR", "coord": {"lon": -68.5, "lat": -34.5}}, {"id": 3430657, "name": "Provincia de Misiones", "country": "AR", "coord": {"lon": -55, "lat": -27}}, {"id": 3496274, "name": "Provincia de Monse\u00f1or Nouel", "country": "DO", "coord": {"lon": -70.416672, "lat": 18.91667}}, {"id": 3496200, "name": "Provincia de Monte Cristi", "country": "DO", "coord": {"lon": -71.416672, "lat": 19.66667}}, {"id": 3496132, "name": "Provincia de Monte Plata", "country": "DO", "coord": {"lon": -69.833328, "lat": 18.83333}}, {"id": 3654005, "name": "Provincia de Morona Santiago", "country": "EC", "coord": {"lon": -77.75, "lat": -2.5}}, {"id": 2514254, "name": "Provincia de M\u00e1laga", "country": "ES", "coord": {"lon": -4.75, "lat": 36.799999}}, {"id": 3653890, "name": "Provincia de Napo", "country": "EC", "coord": {"lon": -77.833328, "lat": -0.66667}}, {"id": 6355235, "name": "Provincia de Navarra", "country": "ES", "coord": {"lon": -1.65138, "lat": 42.823299}}, {"id": 3114964, "name": "Provincia de Ourense", "country": "ES", "coord": {"lon": -7.5, "lat": 42.166672}}, {"id": 3114530, "name": "Provincia de Palencia", "country": "ES", "coord": {"lon": -4.5, "lat": 42.416672}}, {"id": 3703433, "name": "Provincia de Panam\u00e1", "country": "PA", "coord": {"lon": -79.25, "lat": 9.18333}}, {"id": 3495136, "name": "Provincia de Pedernales", "country": "DO", "coord": {"lon": -71.495003, "lat": 18.066389}}, {"id": 3495015, "name": "Provincia de Peravia", "country": "DO", "coord": {"lon": -70.366669, "lat": 18.33333}}, {"id": 3653224, "name": "Provincia de Pichincha", "country": "EC", "coord": {"lon": -78.5, "lat": -0.08333}}, {"id": 3544088, "name": "Provincia de Pinar del R\u00edo", "country": "CU", "coord": {"lon": -83.833328, "lat": 22.41667}}, {"id": 3113208, "name": "Provincia de Pontevedra", "country": "ES", "coord": {"lon": -8.5, "lat": 42.5}}, {"id": 3494267, "name": "Provincia de Puerto Plata", "country": "DO", "coord": {"lon": -70.75, "lat": 19.75}}, {"id": 3622226, "name": "Provincia de Puntarenas", "country": "CR", "coord": {"lon": -84, "lat": 9.36667}}, {"id": 3838830, "name": "Provincia de R\u00edo Negro", "country": "AR", "coord": {"lon": -67, "lat": -40}}, {"id": 3111107, "name": "Provincia de Salamanca", "country": "ES", "coord": {"lon": -6, "lat": 40.833328}}, {"id": 3838231, "name": "Provincia de Salta", "country": "AR", "coord": {"lon": -65.43457, "lat": -24.75806}}, {"id": 3493232, "name": "Provincia de Saman\u00e1", "country": "DO", "coord": {"lon": -69.449997, "lat": 19.25}}, {"id": 3493186, "name": "Provincia de San Crist\u00f3bal", "country": "DO", "coord": {"lon": -70.199997, "lat": 18.549999}}, {"id": 3621837, "name": "Provincia de San Jos\u00e9", "country": "CR", "coord": {"lon": -84, "lat": 9.66667}}, {"id": 6201372, "name": "Provincia de San Jos\u00e9 de Ocoa", "country": "DO", "coord": {"lon": -70.508774, "lat": 18.54882}}, {"id": 3837152, "name": "Provincia de San Juan", "country": "AR", "coord": {"lon": -69, "lat": -31}}, {"id": 3493091, "name": "Provincia de San Juan", "country": "DO", "coord": {"lon": -71.25, "lat": 18.83333}}, {"id": 3837029, "name": "Provincia de San Luis", "country": "AR", "coord": {"lon": -66, "lat": -34}}, {"id": 3493031, "name": "Provincia de San Pedro de Macor\u00eds", "country": "DO", "coord": {"lon": -69.333328, "lat": 18.5}}, {"id": 3540665, "name": "Provincia de Sancti Sp\u00edritus", "country": "CU", "coord": {"lon": -79.25, "lat": 22}}, {"id": 3836350, "name": "Provincia de Santa Cruz", "country": "AR", "coord": {"lon": -70, "lat": -49}}, {"id": 2511173, "name": "Provincia de Santa Cruz de Tenerife", "country": "ES", "coord": {"lon": -17.33333, "lat": 28.16667}}, {"id": 7062138, "name": "Provincia de Santa Elena", "country": "EC", "coord": {"lon": -80.583328, "lat": -2.08333}}, {"id": 3492918, "name": "Provincia de Santiago", "country": "DO", "coord": {"lon": -70.916672, "lat": 19.41667}}, {"id": 3871332, "name": "Provincia de Santiago", "country": "CL", "coord": {"lon": -70.666672, "lat": -33.333328}}, {"id": 3492912, "name": "Provincia de Santiago Rodr\u00edguez", "country": "DO", "coord": {"lon": -71.333328, "lat": 19.41667}}, {"id": 3536725, "name": "Provincia de Santiago de Cuba", "country": "CU", "coord": {"lon": -76, "lat": 20.25}}, {"id": 3835868, "name": "Provincia de Santiago del Estero", "country": "AR", "coord": {"lon": -63.5, "lat": -28}}, {"id": 6201373, "name": "Provincia de Santo Domingo", "country": "DO", "coord": {"lon": -69.918709, "lat": 18.480419}}, {"id": 3109254, "name": "Provincia de Segovia", "country": "ES", "coord": {"lon": -4, "lat": 41.166672}}, {"id": 2510910, "name": "Provincia de Sevilla", "country": "ES", "coord": {"lon": -5.5, "lat": 37.5}}, {"id": 3108680, "name": "Provincia de Soria", "country": "ES", "coord": {"lon": -2.66667, "lat": 41.666672}}, {"id": 3830305, "name": "Provincia de Sucumb\u00edos", "country": "EC", "coord": {"lon": -76.866669, "lat": 0.1}}, {"id": 3108125, "name": "Provincia de Teruel", "country": "ES", "coord": {"lon": -0.66667, "lat": 40.666672}}, {"id": 3834450, "name": "Provincia de Tierra del Fuego, Ant\u00e1rtida e Islas del Atl\u00e1ntico Sur", "country": "AR", "coord": {"lon": -67, "lat": -54.5}}, {"id": 2510407, "name": "Provincia de Toledo", "country": "ES", "coord": {"lon": -4, "lat": 39.833328}}, {"id": 3691174, "name": "Provincia de Trujillo", "country": "PE", "coord": {"lon": -78.916672, "lat": -8.08333}}, {"id": 3833578, "name": "Provincia de Tucum\u00e1n", "country": "AR", "coord": {"lon": -65.5, "lat": -27}}, {"id": 3106671, "name": "Provincia de Valladolid", "country": "ES", "coord": {"lon": -4.66667, "lat": 41.583328}}, {"id": 3868623, "name": "Provincia de Valpara\u00edso", "country": "CL", "coord": {"lon": -71.416672, "lat": -33.166672}}, {"id": 3492112, "name": "Provincia de Valverde", "country": "DO", "coord": {"lon": -71, "lat": 19.616671}}, {"id": 3700159, "name": "Provincia de Veraguas", "country": "PA", "coord": {"lon": -81.133331, "lat": 8.25}}, {"id": 3534168, "name": "Provincia de Villa Clara", "country": "CU", "coord": {"lon": -80, "lat": 22.5}}, {"id": 3104469, "name": "Provincia de Vizcaya", "country": "ES", "coord": {"lon": -2.91667, "lat": 43.25}}, {"id": 2566983, "name": "Provincia de Wele-Nzas", "country": "GQ", "coord": {"lon": 11.16667, "lat": 1.5}}, {"id": 3104341, "name": "Provincia de Zamora", "country": "ES", "coord": {"lon": -6, "lat": 41.75}}, {"id": 3649953, "name": "Provincia de Zamora Chinchipe", "country": "EC", "coord": {"lon": -78.833328, "lat": -4.25}}, {"id": 3104323, "name": "Provincia de Zaragoza", "country": "ES", "coord": {"lon": -1, "lat": 41.583328}}, {"id": 3130717, "name": "Provincia de \u00c1lava", "country": "ES", "coord": {"lon": -2.75, "lat": 42.833328}},