[{"id": 3173684, "name": "Mazzano Romano", "country": "IT", "coord": {"lon": 12.39727, "lat": 42.20892}}, {"id": 3173699, "name": "Mattinata", "country": "IT", "coord": {"lon": 16.051559, "lat": 41.71014}}, {"id": 3173709, "name": "Matrice", "country": "IT", "coord": {"lon": 14.71013, "lat": 41.61393}}, {"id": 3173711, "name": "Matino", "country": "IT", "coord": {"lon": 18.13183, "lat": 40.032219}}, {"id": 3173714, "name": "Mathi", "country": "IT", "coord": {"lon": 7.54202, "lat": 45.25515}}, {"id": 3173722, "name": "Matelica", "country": "IT", "coord": {"lon": 13.01057, "lat": 43.254051}}, {"id": 3173734, "name": "Massimeno", "country": "IT", "coord": {"lon": 10.77317, "lat": 46.140701}}, {"id": 3173746, "name": "Masserano", "country": "IT", "coord": {"lon": 8.21672, "lat": 45.596958}}, {"id": 3173751, "name": "Massello", "country": "IT", "coord": {"lon": 7.05671, "lat": 44.95874}}, {"id": 3173752, "name": "Massazza", "country": "IT", "coord": {"lon": 8.16452, "lat": 45.49136}}, {"id": 3173757, "name": "Massa Martana", "country": "IT", "coord": {"lon": 12.52497, "lat": 42.77314}}, {"id": 3173760, "name": "Massalubrense", "country": "IT", "coord": {"lon": 14.36674, "lat": 40.605301}}, {"id": 3173761, "name": "Massa Lombarda", "country": "IT", "coord": {"lon": 11.82602, "lat": 44.446869}}, {"id": 3173763, "name": "Massa Fiscaglia", "country": "IT", "coord": {"lon": 12.02889, "lat": 44.79694}}, {"id": 3173764, "name": "Massa Fermana", "country": "IT", "coord": {"lon": 13.47338, "lat": 43.148048}}, {"id": 3173765, "name": "Massa dAlbe", "country": "IT", "coord": {"lon": 13.39429, "lat": 42.107231}}, {"id": 3173776, "name": "Massa e Cozzile", "country": "IT", "coord": {"lon": 10.74441, "lat": 43.909248}}, {"id": 3173777, "name": "Massa", "country": "IT", "coord": {"lon": 12.93142, "lat": 43.18803}}, {"id": 3173780, "name": "Masone", "country": "IT", "coord": {"lon": 8.71635, "lat": 44.501339}}, {"id": 3173787, "name": "Maslianico", "country": "IT", "coord": {"lon": 9.04754, "lat": 45.84388}}, {"id": 3173789, "name": "Masi Torello", "country": "IT", "coord": {"lon": 11.80182, "lat": 44.794579}}, {"id": 3173800, "name": "Masera di Padova", "country": "IT", "coord": {"lon": 11.86721, "lat": 45.319092}}, {"id": 3173801, "name": "Masera", "country": "IT", "coord": {"lon": 8.32342, "lat": 46.13998}}, {"id": 3173802, "name": "Maser", "country": "IT", "coord": {"lon": 11.975, "lat": 45.8074}}, {"id": 3173805, "name": "Maschito", "country": "IT", "coord": {"lon": 15.82946, "lat": 40.90892}}, {"id": 3173818, "name": "Marzio", "country": "IT", "coord": {"lon": 8.85813, "lat": 45.938179}}, {"id": 3173824, "name": "Marzano di Nola", "country": "IT", "coord": {"lon": 14.58384, "lat": 40.90271}}, {"id": 3173827, "name": "Marzano", "country": "IT", "coord": {"lon": 14.04502, "lat": 41.317719}}, {"id": 3173829, "name": "Marzabotto", "country": "IT", "coord": {"lon": 11.20471, "lat": 44.340858}}, {"id": 3173830, "name": "Maruggio", "country": "IT", "coord": {"lon": 17.572809, "lat": 40.321918}}, {"id": 3173832, "name": "Martis", "country": "IT", "coord": {"lon": 8.80812, "lat": 40.77866}}, {"id": 3173833, "name": "Martinsicuro", "country": "IT", "coord": {"lon": 13.9145, "lat": 42.88105}}, {"id": 3173837, "name": "Martiniana Po", "country": "IT", "coord": {"lon": 7.36282, "lat": 44.627232}}, {"id": 3173839, "name": "Martinengo", "country": "IT", "coord": {"lon": 9.76706, "lat": 45.573078}}, {"id": 3173840, "name": "Urbe", "country": "IT", "coord": {"lon": 8.58615, "lat": 44.487141}}, {"id": 3173844, "name": "Martignano", "country": "IT", "coord": {"lon": 18.25523, "lat": 40.237419}}, {"id": 3173861, "name": "Marta", "country": "IT", "coord": {"lon": 11.92506, "lat": 42.53363}}, {"id": 3173863, "name": "Marsico Vetere", "country": "IT", "coord": {"lon": 15.82527, "lat": 40.378208}}, {"id": 3173864, "name": "Marsico Nuovo", "country": "IT", "coord": {"lon": 15.73487, "lat": 40.423012}}, {"id": 3173868, "name": "Marsia", "country": "IT", "coord": {"lon": 13.47619, "lat": 42.860298}}, {"id": 3173871, "name": "Marsaglia", "country": "IT", "coord": {"lon": 9.38353, "lat": 44.71228}}, {"id": 3173875, "name": "Marradi", "country": "IT", "coord": {"lon": 11.61212, "lat": 44.074558}}, {"id": 3173878, "name": "Marostica", "country": "IT", "coord": {"lon": 11.6579, "lat": 45.746799}}, {"id": 3173880, "name": "Marone", "country": "IT", "coord": {"lon": 10.09376, "lat": 45.736092}}, {"id": 3173888, "name": "Marnate", "country": "IT", "coord": {"lon": 8.91014, "lat": 45.625771}}, {"id": 3173895, "name": "Marmirolo", "country": "IT", "coord": {"lon": 10.75609, "lat": 45.21928}}, {"id": 3173901, "name": "Marliana", "country": "IT", "coord": {"lon": 10.77021, "lat": 43.933849}}, {"id": 3173903, "name": "Marlengo", "country": "IT", "coord": {"lon": 11.14546, "lat": 46.652618}}, {"id": 3173909, "name": "Mariondo Torinese", "country": "IT", "coord": {"lon": 7.94003, "lat": 45.037651}}, {"id": 3173946, "name": "Mariglianella", "country": "IT", "coord": {"lon": 14.43583, "lat": 40.929508}}, {"id": 3173948, "name": "Mariano del Friuli", "country": "IT", "coord": {"lon": 13.46056, "lat": 45.915279}}, {"id": 3173958, "name": "Margherita di Savoia", "country": "IT", "coord": {"lon": 16.150169, "lat": 41.374241}}, {"id": 3173963, "name": "Margarita", "country": "IT", "coord": {"lon": 7.68493, "lat": 44.403431}}, {"id": 3173971, "name": "Marene", "country": "IT", "coord": {"lon": 7.73223, "lat": 44.66164}}, {"id": 3173993, "name": "Marciano", "country": "IT", "coord": {"lon": 11.78644, "lat": 43.304939}}, {"id": 3173996, "name": "Marciana Marina", "country": "IT", "coord": {"lon": 10.19632, "lat": 42.802719}}, {"id": 3173997, "name": "Marciana", "country": "IT", "coord": {"lon": 10.1687, "lat": 42.793011}}, {"id": 3174002, "name": "Marcheno", "country": "IT", "coord": {"lon": 10.21246, "lat": 45.704288}}, {"id": 3174005, "name": "Marcetelli", "country": "IT", "coord": {"lon": 13.04588, "lat": 42.226631}}, {"id": 3174006, "name": "Marcellina", "country": "IT", "coord": {"lon": 12.80578, "lat": 42.02512}}, {"id": 3174008, "name": "Marcaria", "country": "IT", "coord": {"lon": 10.53278, "lat": 45.120579}}, {"id": 3174009, "name": "Marcallo con Casone", "country": "IT", "coord": {"lon": 8.87194, "lat": 45.483269}}, {"id": 3174014, "name": "Marano Vicentino", "country": "IT", "coord": {"lon": 11.42729, "lat": 45.6931}}, {"id": 3174015, "name": "Marano Ticino", "country": "IT", "coord": {"lon": 8.63163, "lat": 45.629871}}, {"id": 3174016, "name": "Marano sul Panaro", "country": "IT", "coord": {"lon": 10.9711, "lat": 44.456459}}, {"id": 3174017, "name": "Marano Lagunare", "country": "IT", "coord": {"lon": 13.16917, "lat": 45.766392}}, {"id": 3174019, "name": "Marano Equo", "country": "IT", "coord": {"lon": 13.01599, "lat": 41.994019}}, {"id": 3174020, "name": "Marano di Valpolicella", "country": "IT", "coord": {"lon": 10.91518, "lat": 45.55579}}, {"id": 3174037, "name": "Mara", "country": "IT", "coord": {"lon": 8.63882, "lat": 40.409561}}, {"id": 3174038, "name": "Mapello", "country": "IT", "coord": {"lon": 9.55505, "lat": 45.714378}}, {"id": 3174043, "name": "Manziana", "country": "IT", "coord": {"lon": 12.12637, "lat": 42.132118}}, {"id": 3174045, "name": "Manzano", "country": "IT", "coord": {"lon": 13.38389, "lat": 45.991669}}, {"id": 3174054, "name": "Manta", "country": "IT", "coord": {"lon": 7.48703, "lat": 44.615841}}, {"id": 3174055, "name": "Mansue", "country": "IT", "coord": {"lon": 12.53417, "lat": 45.824718}}, {"id": 3174056, "name": "Manoppello", "country": "IT", "coord": {"lon": 14.06001, "lat": 42.257641}}, {"id": 3174057, "name": "Manocalzati", "country": "IT", "coord": {"lon": 14.84974, "lat": 40.94162}}, {"id": 3174084, "name": "Maniago", "country": "IT", "coord": {"lon": 12.70778, "lat": 46.170559}}, {"id": 3174086, "name": "Mango", "country": "IT", "coord": {"lon": 8.15024, "lat": 44.68644}}, {"id": 3174093, "name": "Manerbio", "country": "IT", "coord": {"lon": 10.13517, "lat": 45.355782}}, {"id": 3174107, "name": "Mandello del Lario", "country": "IT", "coord": {"lon": 9.31934, "lat": 45.919182}}, {"id": 3174109, "name": "Mandela", "country": "IT", "coord": {"lon": 12.92088, "lat": 42.02652}}, {"id": 3174120, "name": "Mamoiada", "country": "IT", "coord": {"lon": 9.28044, "lat": 40.21566}}, {"id": 3174127, "name": "Malvicino", "country": "IT", "coord": {"lon": 8.41315, "lat": 44.559341}}, {"id": 3174130, "name": "Maltignano", "country": "IT", "coord": {"lon": 13.05, "lat": 42.700001}}, {"id": 3174137, "name": "Malonno", "country": "IT", "coord": {"lon": 10.32066, "lat": 46.1241}}, {"id": 3174139, "name": "Malo", "country": "IT", "coord": {"lon": 11.40749, "lat": 45.660301}}, {"id": 3174144, "name": "Malles Venosta", "country": "IT", "coord": {"lon": 10.54655, "lat": 46.687908}}, {"id": 3174154, "name": "Malgrate", "country": "IT", "coord": {"lon": 9.37704, "lat": 45.847679}}, {"id": 3174182, "name": "Malesco", "country": "IT", "coord": {"lon": 8.49982, "lat": 46.126381}}, {"id": 3174183, "name": "Maleo", "country": "IT", "coord": {"lon": 9.76146, "lat": 45.167469}}, {"id": 3174186, "name": "Male", "country": "IT", "coord": {"lon": 10.91287, "lat": 46.351608}}, {"id": 3174188, "name": "Malcesine", "country": "IT", "coord": {"lon": 10.81088, "lat": 45.763691}}, {"id": 3174190, "name": "Malborghetto Valbruna", "country": "IT", "coord": {"lon": 13.44, "lat": 46.512779}}, {"id": 3174198, "name": "Malalbergo", "country": "IT", "coord": {"lon": 11.53221, "lat": 44.71867}}, {"id": 3174206, "name": "Maissana", "country": "IT", "coord": {"lon": 9.53588, "lat": 44.33675}}, {"id": 3174209, "name": "Mairano", "country": "IT", "coord": {"lon": 10.07957, "lat": 45.449181}}, {"id": 3174214, "name": "Maiori", "country": "IT", "coord": {"lon": 14.6407, "lat": 40.648479}}, {"id": 3174219, "name": "Serra di Maiolo", "country": "IT", "coord": {"lon": 12.31114, "lat": 43.873959}}, {"id": 3174220, "name": "Maiolati Spontini", "country": "IT", "coord": {"lon": 13.12177, "lat": 43.477661}}, {"id": 3174241, "name": "Magomadas", "country": "IT", "coord": {"lon": 8.52272, "lat": 40.264751}}, {"id": 3174245, "name": "Magnano in Riviera", "country": "IT", "coord": {"lon": 13.17861, "lat": 46.23444}}, {"id": 3174250, "name": "Magnago", "country": "IT", "coord": {"lon": 8.80245, "lat": 45.579201}}, {"id": 3174253, "name": "Magnacavallo", "country": "IT", "coord": {"lon": 11.1811, "lat": 45.005581}}, {"id": 3174255, "name": "Magliano Vetere", "country": "IT", "coord": {"lon": 15.23666, "lat": 40.347012}}, {"id": 3174256, "name": "Magliano Sabina", "country": "IT", "coord": {"lon": 12.48047, "lat": 42.361328}}, {"id": 3174257, "name": "Magliano Romano", "country": "IT", "coord": {"lon": 12.43677, "lat": 42.15852}}, {"id": 3174259, "name": "Magliano in Toscana", "country": "IT", "coord": {"lon": 11.29234, "lat": 42.598019}}, {"id": 3174260, "name": "Magliano di Tenna", "country": "IT", "coord": {"lon": 13.58718, "lat": 43.137951}}, {"id": 3174261, "name": "Magliano deMarsi", "country": "IT", "coord": {"lon": 13.36379, "lat": 42.09153}}, {"id": 3174262, "name": "Magliano Alpi", "country": "IT", "coord": {"lon": 7.80534, "lat": 44.459629}}, {"id": 3174273, "name": "Magione", "country": "IT", "coord": {"lon": 12.20685, "lat": 43.14394}}, {"id": 3174297, "name": "Magasa", "country": "IT", "coord": {"lon": 10.61597, "lat": 45.781391}}, {"id": 3174298, "name": "Mafalda", "country": "IT", "coord": {"lon": 14.7161, "lat": 41.943081}}, {"id": 3174309, "name": "Maenza", "country": "IT", "coord": {"lon": 13.1815, "lat": 41.52372}}, {"id": 3174354, "name": "Madignano", "country": "IT", "coord": {"lon": 9.72326, "lat": 45.345669}}, {"id": 3174356, "name": "Madesimo", "country": "IT", "coord": {"lon": 9.35953, "lat": 46.4394}}, {"id": 3174366, "name": "Macugnaga", "country": "IT", "coord": {"lon": 7.96783, "lat": 45.969292}}, {"id": 3174367, "name": "Macomer", "country": "IT", "coord": {"lon": 8.76992, "lat": 40.261951}}, {"id": 3174377, "name": "Macerata Feltria", "country": "IT", "coord": {"lon": 12.44025, "lat": 43.802959}}, {"id": 3174378, "name": "Macerata Campania", "country": "IT", "coord": {"lon": 14.27373, "lat": 41.063309}}, {"id": 3174397, "name": "Macchia Valfortore", "country": "IT", "coord": {"lon": 14.91174, "lat": 41.595032}}, {"id": 3174404, "name": "Macchiagodena", "country": "IT", "coord": {"lon": 14.40782, "lat": 41.55983}}, {"id": 3174406, "name": "Macchia dIsernia", "country": "IT", "coord": {"lon": 14.16712, "lat": 41.561619}}, {"id": 3174411, "name": "Maccagno", "country": "IT", "coord": {"lon": 8.73413, "lat": 46.043571}}, {"id": 3174416, "name": "Luzzara", "country": "IT", "coord": {"lon": 10.69039, "lat": 44.957569}}, {"id": 3174418, "name": "Luzzana", "country": "IT", "coord": {"lon": 9.88316, "lat": 45.716179}}, {"id": 3174423, "name": "Lustra", "country": "IT", "coord": {"lon": 15.06826, "lat": 40.2883}}, {"id": 3174425, "name": "Luson", "country": "IT", "coord": {"lon": 11.76098, "lat": 46.746231}}, {"id": 3174426, "name": "Lusiana", "country": "IT", "coord": {"lon": 11.5756, "lat": 45.784901}}, {"id": 3174427, "name": "Lusia", "country": "IT", "coord": {"lon": 11.66511, "lat": 45.09848}}, {"id": 3174428, "name": "Lusevera", "country": "IT", "coord": {"lon": 13.27139, "lat": 46.276939}}, {"id": 3174429, "name": "Luserna San Giovanni", "country": "IT", "coord": {"lon": 7.25132, "lat": 44.815441}}, {"id": 3174430, "name": "Luserna", "country": "IT", "coord": {"lon": 11.32289, "lat": 45.9226}}, {"id": 3174435, "name": "Lurate Caccivio", "country": "IT", "coord": {"lon": 8.99784, "lat": 45.770679}}, {"id": 3174437, "name": "Luras", "country": "IT", "coord": {"lon": 9.17532, "lat": 40.935268}}, {"id": 3174438, "name": "Lurago Marinone", "country": "IT", "coord": {"lon": 8.98134, "lat": 45.70578}}, {"id": 3174439, "name": "Lurago dErba", "country": "IT", "coord": {"lon": 9.21974, "lat": 45.751781}}, {"id": 3174450, "name": "Lupara", "country": "IT", "coord": {"lon": 14.73543, "lat": 41.760231}}, {"id": 3174451, "name": "Luogo Santo", "country": "IT", "coord": {"lon": 9.20602, "lat": 41.049469}}, {"id": 3174452, "name": "Luogosano", "country": "IT", "coord": {"lon": 14.99084, "lat": 40.987221}}, {"id": 3174472, "name": "Lunano", "country": "IT", "coord": {"lon": 12.44355, "lat": 43.731159}}, {"id": 3174482, "name": "Lula", "country": "IT", "coord": {"lon": 9.48644, "lat": 40.47036}}, {"id": 3174483, "name": "Luino", "country": "IT", "coord": {"lon": 8.74512, "lat": 46.00185}}, {"id": 3174496, "name": "Lugnano in Teverina", "country": "IT", "coord": {"lon": 12.33276, "lat": 42.576031}}, {"id": 3174503, "name": "Lugagnano Val dArda", "country": "IT", "coord": {"lon": 9.82717, "lat": 44.823261}}, {"id": 3174510, "name": "Luco dei Marsi", "country": "IT", "coord": {"lon": 13.4736, "lat": 41.957031}}, {"id": 3174514, "name": "Lucito", "country": "IT", "coord": {"lon": 14.68723, "lat": 41.73193}}, {"id": 3174515, "name": "Montano Lucino", "country": "IT", "coord": {"lon": 9.04244, "lat": 45.783779}}, {"id": 3174517, "name": "Lucinasco", "country": "IT", "coord": {"lon": 7.96005, "lat": 43.966019}}, {"id": 3174520, "name": "Lucignano", "country": "IT", "coord": {"lon": 11.74484, "lat": 43.27364}}, {"id": 3174534, "name": "Lubriano", "country": "IT", "coord": {"lon": 12.10876, "lat": 42.63623}}, {"id": 3174535, "name": "Lu", "country": "IT", "coord": {"lon": 8.48464, "lat": 45.00145}}, {"id": 3174536, "name": "Lozzolo", "country": "IT", "coord": {"lon": 8.32222, "lat": 45.619572}}, {"id": 3174538, "name": "Lozzo Cadore", "country": "IT", "coord": {"lon": 12.44111, "lat": 46.484169}}, {"id": 3174539, "name": "Lozzo Atestino", "country": "IT", "coord": {"lon": 11.6157, "lat": 45.285091}}, {"id": 3174556, "name": "Lorsica", "country": "IT", "coord": {"lon": 9.27677, "lat": 44.434151}}, {"id": 3174557, "name": "Loro Piceno", "country": "IT", "coord": {"lon": 13.41778, "lat": 43.166851}}, {"id": 3174558, "name": "Loro Ciuffenna", "country": "IT", "coord": {"lon": 11.62753, "lat": 43.585651}}, {"id": 3174563, "name": "Loria", "country": "IT", "coord": {"lon": 11.8654, "lat": 45.73}}, {"id": 3174565, "name": "Loreto Aprutino", "country": "IT", "coord": {"lon": 13.9809, "lat": 42.429241}}, {"id": 3174570, "name": "Loreo", "country": "IT", "coord": {"lon": 12.19333, "lat": 45.065281}}, {"id": 3174573, "name": "Lorenzana", "country": "IT", "coord": {"lon": 10.53081, "lat": 43.538738}}, {"id": 3174577, "name": "Loreggia", "country": "IT", "coord": {"lon": 11.94511, "lat": 45.594101}}, {"id": 3174580, "name": "Loranze", "country": "IT", "coord": {"lon": 7.81272, "lat": 45.441662}}, {"id": 3174587, "name": "Lonigo", "country": "IT", "coord": {"lon": 11.389, "lat": 45.387489}}, {"id": 3174589, "name": "Longone Sabino", "country": "IT", "coord": {"lon": 12.96738, "lat": 42.273129}}, {"id": 3174593, "name": "Longiano", "country": "IT", "coord": {"lon": 12.32778, "lat": 44.073059}}, {"id": 3174598, "name": "Longarone", "country": "IT", "coord": {"lon": 12.29992, "lat": 46.265789}}, {"id": 3174599, "name": "Longare", "country": "IT", "coord": {"lon": 11.6112, "lat": 45.473289}}, {"id": 3174602, "name": "Longano", "country": "IT", "coord": {"lon": 14.24562, "lat": 41.521622}}, {"id": 3174605, "name": "Londa", "country": "IT", "coord": {"lon": 11.56913, "lat": 43.861851}}, {"id": 3174607, "name": "Lonato", "country": "IT", "coord": {"lon": 10.47388, "lat": 45.464779}}, {"id": 3174608, "name": "Lonate Pozzolo", "country": "IT", "coord": {"lon": 8.75474, "lat": 45.596771}}, {"id": 3174609, "name": "Lonate Ceppino", "country": "IT", "coord": {"lon": 8.87874, "lat": 45.704769}}, {"id": 3174611, "name": "Lomello", "country": "IT", "coord": {"lon": 8.79624, "lat": 45.121059}}, {"id": 3174615, "name": "Lombardore", "country": "IT", "coord": {"lon": 7.74032, "lat": 45.235451}}, {"id": 3174623, "name": "Lomagna", "country": "IT", "coord": {"lon": 9.37605, "lat": 45.66798}}, {"id": 3174628, "name": "Loiri", "country": "IT", "coord": {"lon": 9.49763, "lat": 40.843971}}, {"id": 3174629, "name": "Loiano", "country": "IT", "coord": {"lon": 11.32842, "lat": 44.268059}}, {"id": 3174632, "name": "Lograto", "country": "IT", "coord": {"lon": 10.05327, "lat": 45.48428}}, {"id": 3174636, "name": "Lodi Vecchio", "country": "IT", "coord": {"lon": 9.41756, "lat": 45.302368}}, {"id": 3174637, "name": "Lodine", "country": "IT", "coord": {"lon": 9.21873, "lat": 40.149261}}, {"id": 3174639, "name": "Lode", "country": "IT", "coord": {"lon": 9.53873, "lat": 40.59137}}, {"id": 3174640, "name": "Loculi", "country": "IT", "coord": {"lon": 9.61134, "lat": 40.406761}}, {"id": 3174644, "name": "Locate Varesino", "country": "IT", "coord": {"lon": 8.93154, "lat": 45.691471}}, {"id": 3174645, "name": "Locate di Triulzi", "country": "IT", "coord": {"lon": 9.22655, "lat": 45.35817}}, {"id": 3174647, "name": "Locana", "country": "IT", "coord": {"lon": 7.45891, "lat": 45.417648}}, {"id": 3174652, "name": "Lizzano in Belvedere", "country": "IT", "coord": {"lon": 10.89401, "lat": 44.161861}}, {"id": 3174653, "name": "Lizzano", "country": "IT", "coord": {"lon": 17.447611, "lat": 40.391022}}, {"id": 3174654, "name": "Lizzanello", "country": "IT", "coord": {"lon": 18.222521, "lat": 40.304131}}, {"id": 3174655, "name": "Livorno Ferraris", "country": "IT", "coord": {"lon": 8.07743, "lat": 45.284061}}, {"id": 3174661, "name": "Livo", "country": "IT", "coord": {"lon": 11.01927, "lat": 46.404709}}, {"id": 3174663, "name": "Livinallongo del Col di Lana", "country": "IT", "coord": {"lon": 11.95399, "lat": 46.481621}}, {"id": 3174664, "name": "Livigno", "country": "IT", "coord": {"lon": 10.13375, "lat": 46.53471}}, {"id": 3174666, "name": "Liveri", "country": "IT", "coord": {"lon": 14.56594, "lat": 40.904709}}, {"id": 3174692, "name": "Liscate", "country": "IT", "coord": {"lon": 9.41255, "lat": 45.480469}}, {"id": 3174697, "name": "Lioni", "country": "IT", "coord": {"lon": 15.18775, "lat": 40.876518}}, {"id": 3174709, "name": "Limosano", "country": "IT", "coord": {"lon": 14.62243, "lat": 41.676331}}, {"id": 3174710, "name": "Limone sul Garda", "country": "IT", "coord": {"lon": 10.79278, "lat": 45.814499}}, {"id": 3174711, "name": "Limone Piemonte", "country": "IT", "coord": {"lon": 7.57634, "lat": 44.202728}}, {"id": 3174718, "name": "Limena", "country": "IT", "coord": {"lon": 11.84371, "lat": 45.472301}}, {"id": 3174721, "name": "Limatola", "country": "IT", "coord": {"lon": 14.39293, "lat": 41.14082}}, {"id": 3174723, "name": "Lillianes", "country": "IT", "coord": {"lon": 7.84082, "lat": 45.63036}}, {"id": 3174727, "name": "Ligosullo", "country": "IT", "coord": {"lon": 13.08028, "lat": 46.542782}}, {"id": 3174728, "name": "Ligonchio", "country": "IT", "coord": {"lon": 10.34139, "lat": 44.31625}}, {"id": 3174729, "name": "Lignano Sabbiadoro", "country": "IT", "coord": {"lon": 13.14806, "lat": 45.692219}}, {"id": 3174732, "name": "Lignana", "country": "IT", "coord": {"lon": 8.34393, "lat": 45.28606}}, {"id": 3174737, "name": "Lierna", "country": "IT", "coord": {"lon": 9.30564, "lat": 45.95948}}, {"id": 3174758, "name": "Licenza", "country": "IT", "coord": {"lon": 12.90008, "lat": 42.07412}}, {"id": 3174760, "name": "Licciana Nardi", "country": "IT", "coord": {"lon": 10.03559, "lat": 44.266048}}, {"id": 3174767, "name": "Liberi", "country": "IT", "coord": {"lon": 14.29003, "lat": 41.227821}}, {"id": 3174776, "name": "Lezzeno", "country": "IT", "coord": {"lon": 9.18894, "lat": 45.945179}}, {"id": 3174784, "name": "Levico Terme", "country": "IT", "coord": {"lon": 11.30718, "lat": 46.012901}}, {"id": 3174786, "name": "Levice", "country": "IT", "coord": {"lon": 8.15504, "lat": 44.538239}}, {"id": 3174789, "name": "Leverano", "country": "IT", "coord": {"lon": 18.000019, "lat": 40.289021}}, {"id": 3174793, "name": "Levanto", "country": "IT", "coord": {"lon": 9.61228, "lat": 44.170139}}, {"id": 3174811, "name": "Lettopalena", "country": "IT", "coord": {"lon": 14.15681, "lat": 42.004028}}, {"id": 3174812, "name": "Lettomanoppello", "country": "IT", "coord": {"lon": 14.03661, "lat": 42.24374}}, {"id": 3174824, "name": "Lestizza", "country": "IT", "coord": {"lon": 13.14111, "lat": 45.956669}}, {"id": 3174826, "name": "Lessona", "country": "IT", "coord": {"lon": 8.19512, "lat": 45.585159}}, {"id": 3174827, "name": "Lessolo", "country": "IT", "coord": {"lon": 7.81472, "lat": 45.47826}}, {"id": 3174833, "name": "Lesina", "country": "IT", "coord": {"lon": 15.35274, "lat": 41.85944}}, {"id": 3174836, "name": "Lesignano deBagni", "country": "IT", "coord": {"lon": 10.30039, "lat": 44.643459}}, {"id": 3174841, "name": "Lesegno", "country": "IT", "coord": {"lon": 7.97084, "lat": 44.402229}}, {"id": 3174847, "name": "Lesa", "country": "IT", "coord": {"lon": 8.55964, "lat": 45.82066}}, {"id": 3174853, "name": "Lerma", "country": "IT", "coord": {"lon": 8.71545, "lat": 44.636051}}, {"id": 3174856, "name": "Lerici", "country": "IT", "coord": {"lon": 9.91121, "lat": 44.075871}}, {"id": 3174859, "name": "Lequile", "country": "IT", "coord": {"lon": 18.140221, "lat": 40.305828}}, {"id": 3174865, "name": "Leporano", "country": "IT", "coord": {"lon": 17.3349, "lat": 40.383919}}, {"id": 3174875, "name": "Leonessa", "country": "IT", "coord": {"lon": 12.96138, "lat": 42.56554}}, {"id": 3174885, "name": "Lentiai", "country": "IT", "coord": {"lon": 12.0225, "lat": 46.047501}}, {"id": 3174886, "name": "Lentella", "country": "IT", "coord": {"lon": 14.67782, "lat": 41.995941}}, {"id": 3174888, "name": "Lentate sul Seveso", "country": "IT", "coord": {"lon": 9.11734, "lat": 45.680679}}, {"id": 3174890, "name": "Lenta", "country": "IT", "coord": {"lon": 8.38413, "lat": 45.557468}}, {"id": 3174891, "name": "Lenola", "country": "IT", "coord": {"lon": 13.45941, "lat": 41.40612}}, {"id": 3174892, "name": "Leno", "country": "IT", "coord": {"lon": 10.21657, "lat": 45.372478}}, {"id": 3174893, "name": "Lenno", "country": "IT", "coord": {"lon": 9.19084, "lat": 45.97298}}, {"id": 3174894, "name": "Lenna", "country": "IT", "coord": {"lon": 9.67675, "lat": 45.94249}}, {"id": 3174905, "name": "Lemie", "country": "IT", "coord": {"lon": 7.29411, "lat": 45.228649}}, {"id": 3174911, "name": "Leini", "country": "IT", "coord": {"lon": 7.71422, "lat": 45.182751}}, {"id": 3174913, "name": "Lei", "country": "IT", "coord": {"lon": 8.91813, "lat": 40.304562}}, {"id": 3174915, "name": "Le Grazie di Ancona", "country": "IT", "coord": {"lon": 13.51529, "lat": 43.600811}}, {"id": 3174920, "name": "Legnaro", "country": "IT", "coord": {"lon": 11.96571, "lat": 45.33979}}, {"id": 3174928, "name": "Leffe", "country": "IT", "coord": {"lon": 9.88546, "lat": 45.80069}}, {"id": 3174950, "name": "Lecce neMarsi", "country": "IT", "coord": {"lon": 13.687, "lat": 41.93383}}, {"id": 3174975, "name": "Lazise", "country": "IT", "coord": {"lon": 10.74078, "lat": 45.499989}}, {"id": 3174984, "name": "Lavis", "country": "IT", "coord": {"lon": 11.11288, "lat": 46.1395}}, {"id": 3174994, "name": "Laviano", "country": "IT", "coord": {"lon": 15.30965, "lat": 40.786018}}, {"id": 3175002, "name": "Lavenone", "country": "IT", "coord": {"lon": 10.43907, "lat": 45.739689}}, {"id": 3175003, "name": "Laveno-Mombello", "country": "IT", "coord": {"lon": 8.62036, "lat": 45.908878}}, {"id": 3175004, "name": "Laveno", "country": "IT", "coord": {"lon": 8.61856, "lat": 45.912762}}, {"id": 3175009, "name": "Lavello", "country": "IT", "coord": {"lon": 15.79076, "lat": 41.04562}}, {"id": 3175024, "name": "Lavagna", "country": "IT", "coord": {"lon": 9.34217, "lat": 44.307941}}, {"id": 3175025, "name": "Lauzacco", "country": "IT", "coord": {"lon": 13.28024, "lat": 45.981339}}, {"id": 3175030, "name": "Lauro", "country": "IT", "coord": {"lon": 14.63224, "lat": 40.878208}}, {"id": 3175031, "name": "Laurito", "country": "IT", "coord": {"lon": 15.40596, "lat": 40.168598}}, {"id": 3175032, "name": "Laurino", "country": "IT", "coord": {"lon": 15.33716, "lat": 40.33651}}, {"id": 3175033, "name": "Lauriano", "country": "IT", "coord": {"lon": 7.99163, "lat": 45.158249}}, {"id": 3175034, "name": "Lauria", "country": "IT", "coord": {"lon": 15.83578, "lat": 40.046501}}, {"id": 3175037, "name": "Laurenzana", "country": "IT", "coord": {"lon": 15.97097, "lat": 40.46051}}, {"id": 3175038, "name": "Lauregno", "country": "IT", "coord": {"lon": 11.06177, "lat": 46.454311}}, {"id": 3175039, "name": "Laureana Cilento", "country": "IT", "coord": {"lon": 15.03876, "lat": 40.301102}}, {"id": 3175041, "name": "Lauco", "country": "IT", "coord": {"lon": 12.9325, "lat": 46.42556}}, {"id": 3175045, "name": "Latronico", "country": "IT", "coord": {"lon": 16.01178, "lat": 40.089809}}, {"id": 3175055, "name": "Latisana", "country": "IT", "coord": {"lon": 13, "lat": 45.779171}}, {"id": 3175064, "name": "Laterza", "country": "IT", "coord": {"lon": 16.79969, "lat": 40.62952}}, {"id": 3175067, "name": "Laterina", "country": "IT", "coord": {"lon": 11.71814, "lat": 43.50835}}, {"id": 3175068, "name": "Latera", "country": "IT", "coord": {"lon": 11.82745, "lat": 42.629028}}, {"id": 3175076, "name": "Lastebasse", "country": "IT", "coord": {"lon": 11.27389, "lat": 45.9151}}, {"id": 3175084, "name": "Lasino", "country": "IT", "coord": {"lon": 10.98308, "lat": 46.025101}}, {"id": 3175093, "name": "La Salle", "country": "IT", "coord": {"lon": 7.074, "lat": 45.746262}}, {"id": 3175096, "name": "Lasa", "country": "IT", "coord": {"lon": 10.70016, "lat": 46.616611}}, {"id": 3175105, "name": "Larino", "country": "IT", "coord": {"lon": 14.91933, "lat": 41.805538}}, {"id": 3175106, "name": "Lariano", "country": "IT", "coord": {"lon": 12.82109, "lat": 41.71912}}, {"id": 3175108, "name": "Lari", "country": "IT", "coord": {"lon": 10.59261, "lat": 43.56794}}, {"id": 3175113, "name": "Lardirago", "country": "IT", "coord": {"lon": 9.23205, "lat": 45.235069}}, {"id": 3175115, "name": "Lardaro", "country": "IT", "coord": {"lon": 10.66117, "lat": 45.9702}}, {"id": 3175128, "name": "Lapio", "country": "IT", "coord": {"lon": 14.94634, "lat": 40.981121}}, {"id": 3175138, "name": "Lapedona", "country": "IT", "coord": {"lon": 13.77259, "lat": 43.109859}}, {"id": 3175150, "name": "Lanzo Torinese", "country": "IT", "coord": {"lon": 7.47961, "lat": 45.273449}}, {"id": 3175152, "name": "Lanzo dIntelvi", "country": "IT", "coord": {"lon": 9.02603, "lat": 45.983879}}, {"id": 3175156, "name": "Lanuvio", "country": "IT", "coord": {"lon": 12.69758, "lat": 41.672821}}, {"id": 3175161, "name": "Langosco", "country": "IT", "coord": {"lon": 8.56284, "lat": 45.214859}}, {"id": 3175168, "name": "Landriano", "country": "IT", "coord": {"lon": 9.26005, "lat": 45.31197}}, {"id": 3175171, "name": "Landiona", "country": "IT", "coord": {"lon": 8.42233, "lat": 45.49646}}, {"id": 3175181, "name": "Lamporo", "country": "IT", "coord": {"lon": 8.10163, "lat": 45.231861}}, {"id": 3175182, "name": "Lamporecchio", "country": "IT", "coord": {"lon": 10.88861, "lat": 43.80875}}, {"id": 3175184, "name": "La Morra", "country": "IT", "coord": {"lon": 7.93254, "lat": 44.638439}}, {"id": 3175189, "name": "Lamon", "country": "IT", "coord": {"lon": 11.75229, "lat": 46.046909}}, {"id": 3175208, "name": "Lama Mocogno", "country": "IT", "coord": {"lon": 10.7306, "lat": 44.307259}}, {"id": 3175210, "name": "La Magdeleine", "country": "IT", "coord": {"lon": 7.61871, "lat": 45.809959}}, {"id": 3175216, "name": "Lama dei Peligni", "country": "IT", "coord": {"lon": 14.18621, "lat": 42.041531}}, {"id": 3175217, "name": "La Maddalena", "country": "IT", "coord": {"lon": 9.40833, "lat": 41.214241}}, {"id": 3175228, "name": "La Loggia", "country": "IT", "coord": {"lon": 7.66732, "lat": 44.957741}}, {"id": 3175230, "name": "Lallio", "country": "IT", "coord": {"lon": 9.63005, "lat": 45.666382}}, {"id": 3175236, "name": "Laion", "country": "IT", "coord": {"lon": 11.56598, "lat": 46.608719}}, {"id": 3175239, "name": "Laigueglia", "country": "IT", "coord": {"lon": 8.15735, "lat": 43.978828}}, {"id": 3175240, "name": "Laiatico", "country": "IT", "coord": {"lon": 10.72872, "lat": 43.47134}}, {"id": 3175243, "name": "Lagundo", "country": "IT", "coord": {"lon": 11.12572, "lat": 46.681129}}, {"id": 3175248, "name": "Lagosanto", "country": "IT", "coord": {"lon": 12.14361, "lat": 44.75861}}, {"id": 3175253, "name": "Lagonegro", "country": "IT", "coord": {"lon": 15.76147, "lat": 40.128311}}, {"id": 3175262, "name": "Laglio", "country": "IT", "coord": {"lon": 9.14144, "lat": 45.88768}}, {"id": 3175293, "name": "Laerru", "country": "IT", "coord": {"lon": 8.83542, "lat": 40.817059}}, {"id": 3175328, "name": "Laces", "country": "IT", "coord": {"lon": 10.85636, "lat": 46.61692}}, {"id": 3175334, "name": "Lacedonia", "country": "IT", "coord": {"lon": 15.42385, "lat": 41.05122}}, {"id": 3175335, "name": "Lacco Ameno", "country": "IT", "coord": {"lon": 13.89032, "lat": 40.750599}}, {"id": 3175337, "name": "Lacchiarella", "country": "IT", "coord": {"lon": 9.13905, "lat": 45.324268}}, {"id": 3175361, "name": "Labro", "country": "IT", "coord": {"lon": 12.80068, "lat": 42.526031}}, {"id": 3175367, "name": "Labico", "country": "IT", "coord": {"lon": 12.88089, "lat": 41.78952}}, {"id": 3175382, "name": "Izano", "country": "IT", "coord": {"lon": 9.75016, "lat": 45.355968}}, {"id": 3175388, "name": "Ittiri", "country": "IT", "coord": {"lon": 8.56842, "lat": 40.592861}}, {"id": 3175389, "name": "Ittireddu", "country": "IT", "coord": {"lon": 8.90232, "lat": 40.543961}}, {"id": 3175392, "name": "Itri", "country": "IT", "coord": {"lon": 13.52641, "lat": 41.289211}}, {"id": 3175398, "name": "Istrana", "country": "IT", "coord": {"lon": 12.09972, "lat": 45.678329}}, {"id": 3175403, "name": "Issogne", "country": "IT", "coord": {"lon": 7.68571, "lat": 45.654961}}, {"id": 3175405, "name": "Issime", "country": "IT", "coord": {"lon": 7.85411, "lat": 45.685459}}, {"id": 3175406, "name": "Ispra", "country": "IT", "coord": {"lon": 8.61294, "lat": 45.8148}}, {"id": 3175408, "name": "Isorella", "country": "IT", "coord": {"lon": 10.32228, "lat": 45.308281}}, {"id": 3175414, "name": "Isola Vicentina", "country": "IT", "coord": {"lon": 11.4467, "lat": 45.630901}}, {"id": 3175415, "name": "Isola SantAntonio", "country": "IT", "coord": {"lon": 8.84995, "lat": 45.030159}}, {"id": 3175424, "name": "Isola Dovarese", "country": "IT", "coord": {"lon": 10.31108, "lat": 45.174271}}, {"id": 3175426, "name": "Isola del Piano", "country": "IT", "coord": {"lon": 12.78406, "lat": 43.737759}}, {"id": 3175427, "name": "Isola del Liri", "country": "IT", "coord": {"lon": 13.5823, "lat": 41.686218}}, {"id": 3175428, "name": "Isola della Scala", "country": "IT", "coord": {"lon": 11.00899, "lat": 45.272179}}, {"id": 3175429, "name": "Isola del Gran Sasso dItalia", "country": "IT", "coord": {"lon": 13.65721, "lat": 42.503239}}, {"id": 3175430, "name": "Isola del Cantone", "country": "IT", "coord": {"lon": 8.95746, "lat": 44.647831}}, {"id": 3175433, "name": "Isolabona", "country": "IT", "coord": {"lon": 7.63974, "lat": 43.87962}}, {"id": 3175447, "name": "Iseo", "country": "IT", "coord": {"lon": 10.05276, "lat": 45.65678}}, {"id": 3175452, "name": "Ischitella", "country": "IT", "coord": {"lon": 15.89945, "lat": 41.904339}}, {"id": 3175454, "name": "Ischia di Castro", "country": "IT", "coord": {"lon": 11.75625, "lat": 42.544029}}, {"id": 3175466, "name": "Irsina", "country": "IT", "coord": {"lon": 16.235781, "lat": 40.749619}}, {"id": 3175474, "name": "Irgoli", "country": "IT", "coord": {"lon": 9.63054, "lat": 40.410461}}, {"id": 3175488, "name": "Iolanda di Savoia", "country": "IT", "coord": {"lon": 11.97682, "lat": 44.88398}}, {"id": 3175491, "name": "Inzago", "country": "IT", "coord": {"lon": 9.48205, "lat": 45.540482}}, {"id": 3175492, "name": "Invorio Inferiore", "country": "IT", "coord": {"lon": 8.48833, "lat": 45.756969}}, {"id": 3175494, "name": "Inveruno", "country": "IT", "coord": {"lon": 8.85074, "lat": 45.510769}}, {"id": 3175497, "name": "Inverigo", "country": "IT", "coord": {"lon": 9.21774, "lat": 45.737179}}, {"id": 3175498, "name": "Introdacqua", "country": "IT", "coord": {"lon": 13.89831, "lat": 42.007431}}, {"id": 3175499, "name": "Introbio", "country": "IT", "coord": {"lon": 9.45164, "lat": 45.973991}}, {"id": 3175507, "name": "Ingria", "country": "IT", "coord": {"lon": 7.57221, "lat": 45.46656}}, {"id": 3175525, "name": "Incisa in Valdarno", "country": "IT", "coord": {"lon": 11.44863, "lat": 43.65575}}, {"id": 3175528, "name": "Impruneta", "country": "IT", "coord": {"lon": 11.25482, "lat": 43.686951}}, {"id": 3175575, "name": "Illorai", "country": "IT", "coord": {"lon": 9.00103, "lat": 40.353859}}, {"id": 3175584, "name": "Illasi", "country": "IT", "coord": {"lon": 11.18239, "lat": 45.46719}}, {"id": 3175636, "name": "Ielsi", "country": "IT", "coord": {"lon": 14.79873, "lat": 41.517929}}, {"id": 3175669, "name": "Gussola", "country": "IT", "coord": {"lon": 10.34638, "lat": 45.013069}}, {"id": 3175670, "name": "Gussago", "country": "IT", "coord": {"lon": 10.15717, "lat": 45.58358}}, {"id": 3175675, "name": "Guilmi", "country": "IT", "coord": {"lon": 14.47842, "lat": 41.99704}}, {"id": 3175676, "name": "Guiglia", "country": "IT", "coord": {"lon": 10.9621, "lat": 44.424061}}, {"id": 3175679, "name": "Guidizzolo", "country": "IT", "coord": {"lon": 10.58048, "lat": 45.320679}}, {"id": 3175680, "name": "Guglionesi", "country": "IT", "coord": {"lon": 14.91723, "lat": 41.91444}}, {"id": 3175688, "name": "Guazzora", "country": "IT", "coord": {"lon": 8.85145, "lat": 45.01366}}, {"id": 3175697, "name": "Guardistallo", "country": "IT", "coord": {"lon": 10.63262, "lat": 43.312729}}, {"id": 3175703, "name": "Guardia Sanframondi", "country": "IT", "coord": {"lon": 14.59763, "lat": 41.257919}}, {"id": 3175704, "name": "Guardiaregia", "country": "IT", "coord": {"lon": 14.54173, "lat": 41.43502}}, {"id": 3175706, "name": "Guardia Perticara", "country": "IT", "coord": {"lon": 16.098881, "lat": 40.360512}}, {"id": 3175707, "name": "Guardia Lombardi", "country": "IT", "coord": {"lon": 15.20885, "lat": 40.95372}}, {"id": 3175708, "name": "Guardialfiera", "country": "IT", "coord": {"lon": 14.79293, "lat": 41.80423}}, {"id": 3175709, "name": "Guardiagrele", "country": "IT", "coord": {"lon": 14.21981, "lat": 42.195438}}, {"id": 3175714, "name": "Guardea", "country": "IT", "coord": {"lon": 12.30046, "lat": 42.623032}}, {"id": 3175715, "name": "Guarda Veneta", "country": "IT", "coord": {"lon": 11.80041, "lat": 44.980579}}, {"id": 3175716, "name": "Guardamiglio", "country": "IT", "coord": {"lon": 9.68136, "lat": 45.107571}}, {"id": 3175718, "name": "Guarcino", "country": "IT", "coord": {"lon": 13.3134, "lat": 41.799019}}, {"id": 3175720, "name": "Gualtieri", "country": "IT", "coord": {"lon": 10.63039, "lat": 44.898972}}, {"id": 3175724, "name": "Gualdo Cattaneo", "country": "IT", "coord": {"lon": 12.55576, "lat": 42.911839}}, {"id": 3175735, "name": "Guagnano", "country": "IT", "coord": {"lon": 17.94902, "lat": 40.40123}}, {"id": 3175745, "name": "Grumolo delle Abbadesse", "country": "IT", "coord": {"lon": 11.6583, "lat": 45.519489}}, {"id": 3175746, "name": "Grumo Appula", "country": "IT", "coord": {"lon": 16.708481, "lat": 41.013531}}, {"id": 3175749, "name": "Grumes", "country": "IT", "coord": {"lon": 11.29428, "lat": 46.22081}}, {"id": 3175750, "name": "Grumento Nova", "country": "IT", "coord": {"lon": 15.88877, "lat": 40.28281}}, {"id": 3175752, "name": "Grumello del Monte", "country": "IT", "coord": {"lon": 9.87676, "lat": 45.63718}}, {"id": 3175753, "name": "Grumello Cremonese", "country": "IT", "coord": {"lon": 9.86587, "lat": 45.193069}}, {"id": 3175756, "name": "Gruaro", "country": "IT", "coord": {"lon": 12.84111, "lat": 45.834721}}, {"id": 3175759, "name": "Grottolella", "country": "IT", "coord": {"lon": 14.78704, "lat": 40.972721}}, {"id": 3175760, "name": "Grottole", "country": "IT", "coord": {"lon": 16.37928, "lat": 40.601021}}, {"id": 3175765, "name": "Grotte di Castro", "country": "IT", "coord": {"lon": 11.87225, "lat": 42.67453}}, {"id": 3175770, "name": "Grottazzolina", "country": "IT", "coord": {"lon": 13.60518, "lat": 43.11705}}, {"id": 3175771, "name": "Grottammare", "country": "IT", "coord": {"lon": 13.86489, "lat": 42.98875}}, {"id": 3175772, "name": "Grottaminarda", "country": "IT", "coord": {"lon": 15.05894, "lat": 41.069721}}, {"id": 3175787, "name": "Grosotto", "country": "IT", "coord": {"lon": 10.25976, "lat": 46.283001}}, {"id": 3175788, "name": "Grosio", "country": "IT", "coord": {"lon": 10.27426, "lat": 46.297901}}, {"id": 3175789, "name": "Groscavallo", "country": "IT", "coord": {"lon": 7.25801, "lat": 45.36805}}, {"id": 3175795, "name": "Gropparello", "country": "IT", "coord": {"lon": 9.72767, "lat": 44.833961}}, {"id": 3175798, "name": "Gropello Cairoli", "country": "IT", "coord": {"lon": 8.99275, "lat": 45.178558}}, {"id": 3175800, "name": "Grontardo", "country": "IT", "coord": {"lon": 10.15077, "lat": 45.20187}}, {"id": 3175803, "name": "Gromo", "country": "IT", "coord": {"lon": 9.92705, "lat": 45.963989}}, {"id": 3175807, "name": "Grizzana Morandi", "country": "IT", "coord": {"lon": 11.15288, "lat": 44.258202}}, {"id": 3175808, "name": "Grisignano di Zocco", "country": "IT", "coord": {"lon": 11.6983, "lat": 45.474991}}, {"id": 3175816, "name": "Grigno", "country": "IT", "coord": {"lon": 11.63689, "lat": 46.01601}}, {"id": 3175818, "name": "Grignasco", "country": "IT", "coord": {"lon": 8.34302, "lat": 45.679771}}, {"id": 3175825, "name": "Gricignano dAversa", "country": "IT", "coord": {"lon": 14.23103, "lat": 40.980209}}, {"id": 3175829, "name": "Griante", "country": "IT", "coord": {"lon": 9.23554, "lat": 45.995281}}, {"id": 3175830, "name": "Grezzana", "country": "IT", "coord": {"lon": 11.01769, "lat": 45.52029}}, {"id": 3175837, "name": "Gressoney-Saint-Jean", "country": "IT", "coord": {"lon": 7.82661, "lat": 45.77507}}, {"id": 3175838, "name": "Gressoney-la-Trinite", "country": "IT", "coord": {"lon": 7.82321, "lat": 45.82967}}, {"id": 3175846, "name": "Greggio", "country": "IT", "coord": {"lon": 8.38303, "lat": 45.450661}}, {"id": 3175849, "name": "Greci", "country": "IT", "coord": {"lon": 15.16914, "lat": 41.25182}}, {"id": 3175855, "name": "Grazzano Badoglio", "country": "IT", "coord": {"lon": 8.31064, "lat": 45.040352}}, {"id": 3175856, "name": "Grazzanise", "country": "IT", "coord": {"lon": 14.10032, "lat": 41.089409}}, {"id": 3175864, "name": "Gravellona Toce", "country": "IT", "coord": {"lon": 8.43209, "lat": 45.928589}}, {"id": 3175865, "name": "Gravellona Lomellina", "country": "IT", "coord": {"lon": 8.76414, "lat": 45.32766}}, {"id": 3175869, "name": "Gravedona", "country": "IT", "coord": {"lon": 9.30094, "lat": 46.146389}}, {"id": 3175871, "name": "Gravagliana", "country": "IT", "coord": {"lon": 8.20182, "lat": 45.84827}}, {"id": 3175873, "name": "Grauno", "country": "IT", "coord": {"lon": 11.29778, "lat": 46.230309}}, {"id": 3175880, "name": "Grassano", "country": "IT", "coord": {"lon": 16.27792, "lat": 40.634571}}, {"id": 3175884, "name": "Granze", "country": "IT", "coord": {"lon": 11.71471, "lat": 45.15649}}, {"id": 3175885, "name": "Grantorto", "country": "IT", "coord": {"lon": 11.7316, "lat": 45.600899}}, {"id": 3175890, "name": "Granozzo con Monticello", "country": "IT", "coord": {"lon": 8.57334, "lat": 45.360161}}, {"id": 3175950, "name": "Gragnano Trebbiense", "country": "IT", "coord": {"lon": 9.56896, "lat": 45.013161}}, {"id": 3175955, "name": "Graglia", "country": "IT", "coord": {"lon": 7.97802, "lat": 45.558559}}, {"id": 3175956, "name": "Graffignano", "country": "IT", "coord": {"lon": 12.20166, "lat": 42.572529}}, {"id": 3175957, "name": "Gradoli", "country": "IT", "coord": {"lon": 11.85485, "lat": 42.643532}}, {"id": 3175961, "name": "Gradisca dIsonzo", "country": "IT", "coord": {"lon": 13.50167, "lat": 45.892502}}, {"id": 3175965, "name": "Gradara", "country": "IT", "coord": {"lon": 12.77125, "lat": 43.938869}}, {"id": 3175968, "name": "Gozzano", "country": "IT", "coord": {"lon": 8.43672, "lat": 45.746471}}, {"id": 3175971, "name": "Gottolengo", "country": "IT", "coord": {"lon": 10.27237, "lat": 45.291882}}, {"id": 3175973, "name": "Gossolengo", "country": "IT", "coord": {"lon": 9.61646, "lat": 45.002258}}, {"id": 3175974, "name": "Gosaldo", "country": "IT", "coord": {"lon": 11.9557, "lat": 46.22142}}, {"id": 3175978, "name": "Gorreto", "country": "IT", "coord": {"lon": 9.29126, "lat": 44.604851}}, {"id": 3175980, "name": "Goro", "country": "IT", "coord": {"lon": 12.30417, "lat": 44.852219}}, {"id": 3175981, "name": "Gorno", "country": "IT", "coord": {"lon": 9.84155, "lat": 45.862492}}, {"id": 3175983, "name": "Gorle", "country": "IT", "coord": {"lon": 9.71275, "lat": 45.70018}}, {"id": 3175984, "name": "Gorla Maggiore", "country": "IT", "coord": {"lon": 8.89204, "lat": 45.665871}}, {"id": 3175988, "name": "Goriano Sicoli", "country": "IT", "coord": {"lon": 13.7748, "lat": 42.08083}}, {"id": 3175994, "name": "Gorgoglione", "country": "IT", "coord": {"lon": 16.144581, "lat": 40.394409}}, {"id": 3175997, "name": "Gorga", "country": "IT", "coord": {"lon": 13.1091, "lat": 41.655022}}, {"id": 3176000, "name": "Gordona", "country": "IT", "coord": {"lon": 9.36534, "lat": 46.29229}}, {"id": 3176002, "name": "Gonzaga", "country": "IT", "coord": {"lon": 10.82089, "lat": 44.949772}}, {"id": 3176003, "name": "Gonars", "country": "IT", "coord": {"lon": 13.23361, "lat": 45.896938}}, {"id": 3176009, "name": "Golfo Arnaci", "country": "IT", "coord": {"lon": 9.63333, "lat": 40.98333}}, {"id": 3176012, "name": "Golasecca", "country": "IT", "coord": {"lon": 8.66613, "lat": 45.69677}}, {"id": 3176014, "name": "Goito", "country": "IT", "coord": {"lon": 10.67208, "lat": 45.254879}}, {"id": 3176019, "name": "Godiasco", "country": "IT", "coord": {"lon": 9.05676, "lat": 44.89756}}, {"id": 3176023, "name": "Godega di SantUrbano", "country": "IT", "coord": {"lon": 12.39722, "lat": 45.931389}}, {"id": 3176031, "name": "Glorenza", "country": "IT", "coord": {"lon": 10.55486, "lat": 46.670212}}, {"id": 3176043, "name": "Giussago", "country": "IT", "coord": {"lon": 9.14075, "lat": 45.284771}}, {"id": 3176044, "name": "Giurdignano", "country": "IT", "coord": {"lon": 18.43273, "lat": 40.121521}}, {"id": 3176046, "name": "Giungano", "country": "IT", "coord": {"lon": 15.10716, "lat": 40.394711}}, {"id": 3176054, "name": "Giuliano Teatino", "country": "IT", "coord": {"lon": 14.27881, "lat": 42.307041}}, {"id": 3176055, "name": "Giuliano di Roma", "country": "IT", "coord": {"lon": 13.2795, "lat": 41.539719}}, {"id": 3176060, "name": "Giuggianello", "country": "IT", "coord": {"lon": 18.368931, "lat": 40.094421}}, {"id": 3176064, "name": "Gissi", "country": "IT", "coord": {"lon": 14.54432, "lat": 42.01664}}, {"id": 3176082, "name": "Giove", "country": "IT", "coord": {"lon": 12.33066, "lat": 42.509331}}, {"id": 3176089, "name": "Gioia Sannitica", "country": "IT", "coord": {"lon": 14.44413, "lat": 41.300121}}, {"id": 3176091, "name": "Gioia dei Marsi", "country": "IT", "coord": {"lon": 13.6899, "lat": 41.957829}}, {"id": 3176092, "name": "Gioi", "country": "IT", "coord": {"lon": 15.21806, "lat": 40.2897}}, {"id": 3176101, "name": "Ginestra degli Schiavoni", "country": "IT", "coord": {"lon": 15.04374, "lat": 41.279919}}, {"id": 3176105, "name": "Ginestra", "country": "IT", "coord": {"lon": 15.73456, "lat": 40.929821}}, {"id": 3176114, "name": "Gildone", "country": "IT", "coord": {"lon": 14.73923, "lat": 41.510132}}, {"id": 3176116, "name": "Gignese", "country": "IT", "coord": {"lon": 8.50992, "lat": 45.860668}}, {"id": 3176125, "name": "Giffoni Valle Piana", "country": "IT", "coord": {"lon": 14.94235, "lat": 40.718109}}, {"id": 3176129, "name": "Giavera del Montello", "country": "IT", "coord": {"lon": 12.16667, "lat": 45.793739}}, {"id": 3176131, "name": "Giave", "country": "IT", "coord": {"lon": 8.75222, "lat": 40.451962}}, {"id": 3176137, "name": "Giarole", "country": "IT", "coord": {"lon": 8.56654, "lat": 45.060558}}, {"id": 3176143, "name": "Giano Vetusto", "country": "IT", "coord": {"lon": 14.19342, "lat": 41.202721}}, {"id": 3176145, "name": "Giano dellUmbria", "country": "IT", "coord": {"lon": 12.57777, "lat": 42.833839}}, {"id": 3176159, "name": "Ghislarengo", "country": "IT", "coord": {"lon": 8.38513, "lat": 45.52906}}, {"id": 3176163, "name": "Ghisalba", "country": "IT", "coord": {"lon": 9.75926, "lat": 45.59478}}, {"id": 3176167, "name": "Ghilarza", "country": "IT", "coord": {"lon": 8.83493, "lat": 40.119652}}, {"id": 3176170, "name": "Ghiffa", "country": "IT", "coord": {"lon": 8.61692, "lat": 45.958179}}, {"id": 3176176, "name": "Ghemme", "country": "IT", "coord": {"lon": 8.42153, "lat": 45.599571}}, {"id": 3176178, "name": "Gesualdo", "country": "IT", "coord": {"lon": 15.07245, "lat": 41.006721}}, {"id": 3176179, "name": "Gessopalena", "country": "IT", "coord": {"lon": 14.27312, "lat": 42.056641}}, {"id": 3176186, "name": "Gerosa", "country": "IT", "coord": {"lon": 9.56955, "lat": 45.849781}}, {"id": 3176188, "name": "Gerola Alta", "country": "IT", "coord": {"lon": 9.55074, "lat": 46.06089}}, {"id": 3176193, "name": "Germagnano", "country": "IT", "coord": {"lon": 7.46951, "lat": 45.263851}}, {"id": 3176196, "name": "Gerenzago", "country": "IT", "coord": {"lon": 9.35966, "lat": 45.20657}}, {"id": 3176198, "name": "Gerano", "country": "IT", "coord": {"lon": 12.99429, "lat": 41.933022}}, {"id": 3176199, "name": "Gera Lario", "country": "IT", "coord": {"lon": 9.36764, "lat": 46.17099}}, {"id": 3176201, "name": "Genzone", "country": "IT", "coord": {"lon": 9.34746, "lat": 45.18066}}, {"id": 3176220, "name": "Genola", "country": "IT", "coord": {"lon": 7.66453, "lat": 44.58894}}, {"id": 3176226, "name": "Genivolta", "country": "IT", "coord": {"lon": 9.87726, "lat": 45.332569}}, {"id": 3176228, "name": "Genga", "country": "IT", "coord": {"lon": 12.93496, "lat": 43.429661}}, {"id": 3176230, "name": "Genazzano", "country": "IT", "coord": {"lon": 12.97079, "lat": 41.825218}}, {"id": 3176233, "name": "Gemonio", "country": "IT", "coord": {"lon": 8.67703, "lat": 45.87698}}, {"id": 3176234, "name": "Gemona del Friuli", "country": "IT", "coord": {"lon": 13.14306, "lat": 46.279442}}, {"id": 3176236, "name": "Gemmano", "country": "IT", "coord": {"lon": 12.58155, "lat": 43.903961}}, {"id": 3176243, "name": "Gazzuolo", "country": "IT", "coord": {"lon": 10.57858, "lat": 45.064171}}, {"id": 3176244, "name": "Gazzo Veronese", "country": "IT", "coord": {"lon": 11.0769, "lat": 45.140179}}, {"id": 3176246, "name": "Gazzo", "country": "IT", "coord": {"lon": 11.7042, "lat": 45.580601}}, {"id": 3176247, "name": "Gazzo", "country": "IT", "coord": {"lon": 10.89706, "lat": 45.17968}}, {"id": 3176254, "name": "Gazzaniga", "country": "IT", "coord": {"lon": 9.82976, "lat": 45.793381}}, {"id": 3176257, "name": "Gazoldo degli Ippoliti", "country": "IT", "coord": {"lon": 10.57938, "lat": 45.200279}}, {"id": 3176260, "name": "Gavoi", "country": "IT", "coord": {"lon": 9.19513, "lat": 40.161758}}, {"id": 3176261, "name": "Gavirate", "country": "IT", "coord": {"lon": 8.71983, "lat": 45.84008}}, {"id": 3176266, "name": "Gavignano", "country": "IT", "coord": {"lon": 13.05179, "lat": 41.69912}}, {"id": 3176269, "name": "Gavi", "country": "IT", "coord": {"lon": 8.80935, "lat": 44.687649}}, {"id": 3176272, "name": "Gavello", "country": "IT", "coord": {"lon": 11.91512, "lat": 45.021679}}, {"id": 3176277, "name": "Gavardo", "country": "IT", "coord": {"lon": 10.44257, "lat": 45.589378}}, {"id": 3176282, "name": "Gattinara", "country": "IT", "coord": {"lon": 8.36743, "lat": 45.61787}}, {"id": 3176285, "name": "Gassino Torinese", "country": "IT", "coord": {"lon": 7.82762, "lat": 45.131649}}, {"id": 3176287, "name": "Garzeno", "country": "IT", "coord": {"lon": 9.24964, "lat": 46.13409}}, {"id": 3176297, "name": "Garlenda", "country": "IT", "coord": {"lon": 8.09546, "lat": 44.033249}}, {"id": 3176304, "name": "Gargnano", "country": "IT", "coord": {"lon": 10.66088, "lat": 45.689091}}, {"id": 3176305, "name": "Gargazzone", "country": "IT", "coord": {"lon": 11.20357, "lat": 46.58482}}, {"id": 3176309, "name": "Garessio", "country": "IT", "coord": {"lon": 8.01924, "lat": 44.20293}}, {"id": 3176311, "name": "Gardone Val Trompia", "country": "IT", "coord": {"lon": 10.18696, "lat": 45.694191}}, {"id": 3176312, "name": "Gardone Riviera", "country": "IT", "coord": {"lon": 10.56528, "lat": 45.624989}}, {"id": 3176320, "name": "Garda", "country": "IT", "coord": {"lon": 10.71238, "lat": 45.577789}}, {"id": 3176324, "name": "Garaguso", "country": "IT", "coord": {"lon": 16.22718, "lat": 40.54842}}, {"id": 3176326, "name": "Garadassi", "country": "IT", "coord": {"lon": 9.15393, "lat": 44.754292}}, {"id": 3176330, "name": "Gandino", "country": "IT", "coord": {"lon": 9.89646, "lat": 45.807892}}, {"id": 3176331, "name": "Martello - Martell", "country": "IT", "coord": {"lon": 10.78276, "lat": 46.56551}}, {"id": 3176334, "name": "Gambettola", "country": "IT", "coord": {"lon": 12.33705, "lat": 44.117481}}, {"id": 3176335, "name": "Gamberale", "country": "IT", "coord": {"lon": 14.20732, "lat": 41.906029}}, {"id": 3176338, "name": "Gambatesa", "country": "IT", "coord": {"lon": 14.91354, "lat": 41.50893}}, {"id": 3176339, "name": "Gambassi", "country": "IT", "coord": {"lon": 10.95232, "lat": 43.536942}}, {"id": 3176340, "name": "Gambasca", "country": "IT", "coord": {"lon": 7.34732, "lat": 44.628731}}, {"id": 3176342, "name": "Gambarana", "country": "IT", "coord": {"lon": 8.76335, "lat": 45.028358}}, {"id": 3176343, "name": "Gambara", "country": "IT", "coord": {"lon": 10.29348, "lat": 45.25528}}, {"id": 3176344, "name": "Gamalero", "country": "IT", "coord": {"lon": 8.54164, "lat": 44.809052}}, {"id": 3176346, "name": "Galzignano", "country": "IT", "coord": {"lon": 11.73421, "lat": 45.306389}}, {"id": 3176349, "name": "Galtelli", "country": "IT", "coord": {"lon": 9.61464, "lat": 40.385262}}, {"id": 3176353, "name": "Galluccio", "country": "IT", "coord": {"lon": 13.95372, "lat": 41.352322}}, {"id": 3176363, "name": "Gallo Matese", "country": "IT", "coord": {"lon": 14.22502, "lat": 41.46452}}, {"id": 3176367, "name": "Gallio", "country": "IT", "coord": {"lon": 11.53679, "lat": 45.8862}}, {"id": 3176369, "name": "Gallinaro", "country": "IT", "coord": {"lon": 13.79781, "lat": 41.653419}}, {"id": 3176373, "name": "Galliera Veneta", "country": "IT", "coord": {"lon": 11.8309, "lat": 45.663502}}, {"id": 3176375, "name": "Galliera", "country": "IT", "coord": {"lon": 11.39371, "lat": 44.749271}}, {"id": 3176376, "name": "Gallicchio", "country": "IT", "coord": {"lon": 16.13908, "lat": 40.289009}}, {"id": 3176377, "name": "Gallicano nel Lazio", "country": "IT", "coord": {"lon": 12.82408, "lat": 41.86882}}, {"id": 3176378, "name": "Gallicano", "country": "IT", "coord": {"lon": 10.4452, "lat": 44.05735}}, {"id": 3176379, "name": "Galliate", "country": "IT", "coord": {"lon": 8.69674, "lat": 45.481571}}, {"id": 3176384, "name": "Gallese", "country": "IT", "coord": {"lon": 12.39897, "lat": 42.37373}}, {"id": 3176400, "name": "Galeata", "country": "IT", "coord": {"lon": 11.91323, "lat": 43.997959}}, {"id": 3176410, "name": "Gais", "country": "IT", "coord": {"lon": 11.94978, "lat": 46.836929}}, {"id": 3176411, "name": "Gaiole in Chianti", "country": "IT", "coord": {"lon": 11.43563, "lat": 43.465439}}, {"id": 3176412, "name": "Gaiola", "country": "IT", "coord": {"lon": 7.40693, "lat": 44.335232}}, {"id": 3176416, "name": "Gaibanella", "country": "IT", "coord": {"lon": 11.65, "lat": 44.76667}}, {"id": 3176418, "name": "Gaiba", "country": "IT", "coord": {"lon": 11.48021, "lat": 44.946178}}, {"id": 3176420, "name": "Gaiarine", "country": "IT", "coord": {"lon": 12.48306, "lat": 45.880562}}, {"id": 3176426, "name": "Gagliole", "country": "IT", "coord": {"lon": 13.06767, "lat": 43.237251}}, {"id": 3176428, "name": "Gagliano Aterno", "country": "IT", "coord": {"lon": 13.7, "lat": 42.12653}}, {"id": 3176432, "name": "Gaglianico", "country": "IT", "coord": {"lon": 8.07502, "lat": 45.537861}}, {"id": 3176433, "name": "Gaggio Montano", "country": "IT", "coord": {"lon": 10.93291, "lat": 44.19696}}, {"id": 3176436, "name": "Gaggiano", "country": "IT", "coord": {"lon": 9.03488, "lat": 45.404839}}, {"id": 3176441, "name": "Gaby", "country": "IT", "coord": {"lon": 7.88281, "lat": 45.712158}}, {"id": 3176444, "name": "Gabicce", "country": "IT", "coord": {"lon": 12.75641, "lat": 43.96471}}, {"id": 3176445, "name": "Gabiano", "country": "IT", "coord": {"lon": 8.19523, "lat": 45.15675}}, {"id": 3176456, "name": "Futani", "country": "IT", "coord": {"lon": 15.32316, "lat": 40.1507}}, {"id": 3176464, "name": "Fusine", "country": "IT", "coord": {"lon": 9.74975, "lat": 46.14949}}, {"id": 3176472, "name": "Furore", "country": "IT", "coord": {"lon": 14.54904, "lat": 40.620609}}, {"id": 3176474, "name": "Furci", "country": "IT", "coord": {"lon": 14.58762, "lat": 42.009441}}, {"id": 3176486, "name": "Fumone", "country": "IT", "coord": {"lon": 13.2725, "lat": 41.72752}}, {"id": 3176489, "name": "Fumane", "country": "IT", "coord": {"lon": 10.88338, "lat": 45.538288}}, {"id": 3176505, "name": "Fubine", "country": "IT", "coord": {"lon": 8.42994, "lat": 44.962749}}, {"id": 3176510, "name": "Frugarolo", "country": "IT", "coord": {"lon": 8.68155, "lat": 44.837151}}, {"id": 3176512, "name": "Frosolone", "country": "IT", "coord": {"lon": 14.44652, "lat": 41.600632}}, {"id": 3176516, "name": "Frontone", "country": "IT", "coord": {"lon": 12.74126, "lat": 43.51606}}, {"id": 3176517, "name": "Frontino", "country": "IT", "coord": {"lon": 12.37675, "lat": 43.764561}}, {"id": 3176521, "name": "Front", "country": "IT", "coord": {"lon": 7.66362, "lat": 45.280849}}, {"id": 3176526, "name": "Frisanco", "country": "IT", "coord": {"lon": 12.73278, "lat": 46.212219}}, {"id": 3176527, "name": "Frisa", "country": "IT", "coord": {"lon": 14.36941, "lat": 42.261238}}, {"id": 3176533, "name": "Frigento", "country": "IT", "coord": {"lon": 15.09975, "lat": 41.011318}}, {"id": 3176538, "name": "Fresagrandinaria", "country": "IT", "coord": {"lon": 14.66352, "lat": 41.979038}}, {"id": 3176543, "name": "Fregona", "country": "IT", "coord": {"lon": 12.33806, "lat": 45.997501}}, {"id": 3176558, "name": "Fratta Todina", "country": "IT", "coord": {"lon": 12.36366, "lat": 42.856838}}, {"id": 3176559, "name": "Fratta Polesine", "country": "IT", "coord": {"lon": 11.64501, "lat": 45.029282}}, {"id": 3176571, "name": "Frasso Telesino", "country": "IT", "coord": {"lon": 14.52783, "lat": 41.156818}}, {"id": 3176573, "name": "Frassinoro", "country": "IT", "coord": {"lon": 10.5702, "lat": 44.295559}}, {"id": 3176575, "name": "Frassino", "country": "IT", "coord": {"lon": 7.27602, "lat": 44.571629}}, {"id": 3176577, "name": "Frassinetto", "country": "IT", "coord": {"lon": 7.60671, "lat": 45.436859}}, {"id": 3176578, "name": "Frassineto Po", "country": "IT", "coord": {"lon": 8.53434, "lat": 45.133659}}, {"id": 3176590, "name": "Frascaro", "country": "IT", "coord": {"lon": 8.53224, "lat": 44.82645}}, {"id": 3176596, "name": "Francolise", "country": "IT", "coord": {"lon": 14.05672, "lat": 41.18502}}, {"id": 3176602, "name": "Francavilla in Sinni", "country": "IT", "coord": {"lon": 16.203279, "lat": 40.079109}}, {"id": 3176604, "name": "Francavilla dEte", "country": "IT", "coord": {"lon": 13.54068, "lat": 43.187359}}, {"id": 3176607, "name": "Framura", "country": "IT", "coord": {"lon": 9.55399, "lat": 44.209461}}, {"id": 3176611, "name": "Fraine", "country": "IT", "coord": {"lon": 14.48642, "lat": 41.90543}}, {"id": 3176614, "name": "Fragneto Monforte", "country": "IT", "coord": {"lon": 14.76314, "lat": 41.246922}}, {"id": 3176615, "name": "Fragneto lAbate", "country": "IT", "coord": {"lon": 14.78234, "lat": 41.253922}}, {"id": 3176616, "name": "Fragagnano", "country": "IT", "coord": {"lon": 17.47221, "lat": 40.431919}}, {"id": 3176627, "name": "Frabosa Soprana", "country": "IT", "coord": {"lon": 7.80694, "lat": 44.28783}}, {"id": 3176628, "name": "Foza", "country": "IT", "coord": {"lon": 11.63079, "lat": 45.896198}}, {"id": 3176630, "name": "Fossombrone", "country": "IT", "coord": {"lon": 12.81266, "lat": 43.690762}}, {"id": 3176635, "name": "Fossato di Vico", "country": "IT", "coord": {"lon": 12.76066, "lat": 43.29805}}, {"id": 3176644, "name": "Fossalto", "country": "IT", "coord": {"lon": 14.54573, "lat": 41.672932}}, {"id": 3176645, "name": "Fossalta di Portogruaro", "country": "IT", "coord": {"lon": 12.89389, "lat": 45.787498}}, {"id": 3176646, "name": "Fossalta di Piave", "country": "IT", "coord": {"lon": 12.51306, "lat": 45.644169}}, {"id": 3176652, "name": "Fossacesia", "country": "IT", "coord": {"lon": 14.47962, "lat": 42.235641}}, {"id": 3176657, "name": "Fossa", "country": "IT", "coord": {"lon": 13.48849, "lat": 42.298229}}, {"id": 3176661, "name": "Fosdinovo", "country": "IT", "coord": {"lon": 10.01649, "lat": 44.13245}}, {"id": 3176666, "name": "Fortunago", "country": "IT", "coord": {"lon": 9.18516, "lat": 44.92226}}, {"id": 3176671, "name": "Fortezza - Franzensfeste", "country": "IT", "coord": {"lon": 11.60998, "lat": 46.789631}}, {"id": 3176674, "name": "Forte dei Marmi", "country": "IT", "coord": {"lon": 10.1724, "lat": 43.96484}}, {"id": 3176680, "name": "Fornovo San Giovanni", "country": "IT", "coord": {"lon": 9.67856, "lat": 45.49778}}, {"id": 3176682, "name": "Fornovo di Taro", "country": "IT", "coord": {"lon": 10.10098, "lat": 44.691959}}, {"id": 3176684, "name": "Forno di Zoldo", "country": "IT", "coord": {"lon": 12.18639, "lat": 46.345558}}, {"id": 3176687, "name": "Forno Canavese", "country": "IT", "coord": {"lon": 7.59102, "lat": 45.345348}}, {"id": 3176696, "name": "Forni di Sotto", "country": "IT", "coord": {"lon": 12.67111, "lat": 46.394169}}, {"id": 3176700, "name": "Forni Avoltri", "country": "IT", "coord": {"lon": 12.77944, "lat": 46.590832}}, {"id": 3176707, "name": "Fornelli", "country": "IT", "coord": {"lon": 14.13942, "lat": 41.604919}}, {"id": 3176731, "name": "Formignana", "country": "IT", "coord": {"lon": 11.86002, "lat": 44.843479}}, {"id": 3176732, "name": "Formigliana", "country": "IT", "coord": {"lon": 8.29193, "lat": 45.42926}}, {"id": 3176734, "name": "Formigara", "country": "IT", "coord": {"lon": 9.76986, "lat": 45.222069}}, {"id": 3176735, "name": "Formicola", "country": "IT", "coord": {"lon": 14.23742, "lat": 41.210018}}, {"id": 3176741, "name": "Formazza", "country": "IT", "coord": {"lon": 8.42571, "lat": 46.376888}}, {"id": 3176743, "name": "Forlimpopoli", "country": "IT", "coord": {"lon": 12.12873, "lat": 44.191071}}, {"id": 3176744, "name": "Forli del Sannio", "country": "IT", "coord": {"lon": 14.17952, "lat": 41.69593}}, {"id": 3176748, "name": "Forio", "country": "IT", "coord": {"lon": 13.86462, "lat": 40.7342}}, {"id": 3176749, "name": "Forino", "country": "IT", "coord": {"lon": 14.73604, "lat": 40.86261}}, {"id": 3176757, "name": "Forenza", "country": "IT", "coord": {"lon": 15.85457, "lat": 40.860409}}, {"id": 3176761, "name": "Forchia", "country": "IT", "coord": {"lon": 14.53633, "lat": 41.030819}}, {"id": 3176774, "name": "Foppolo", "country": "IT", "coord": {"lon": 9.75745, "lat": 46.041889}}, {"id": 3176778, "name": "Fonzaso", "country": "IT", "coord": {"lon": 11.7998, "lat": 46.017208}}, {"id": 3176782, "name": "Fontevivo", "country": "IT", "coord": {"lon": 10.17518, "lat": 44.858761}}, {"id": 3176785, "name": "Fontegreca", "country": "IT", "coord": {"lon": 14.18362, "lat": 41.455521}}, {"id": 3176790, "name": "Fontechiari", "country": "IT", "coord": {"lon": 13.67451, "lat": 41.668221}}, {"id": 3176792, "name": "Fontecchio", "country": "IT", "coord": {"lon": 13.6058, "lat": 42.22963}}, {"id": 3176797, "name": "Fontaniva", "country": "IT", "coord": {"lon": 11.7486, "lat": 45.633999}}, {"id": 3176798, "name": "Fontanile", "country": "IT", "coord": {"lon": 8.42134, "lat": 44.752949}}, {"id": 3176799, "name": "Fontanigorda", "country": "IT", "coord": {"lon": 9.30447, "lat": 44.546051}}, {"id": 3176800, "name": "Fontanetto da Po", "country": "IT", "coord": {"lon": 8.19353, "lat": 45.194962}}, {"id": 3176801, "name": "Fontaneto dAgogna", "country": "IT", "coord": {"lon": 8.48083, "lat": 45.643471}}, {"id": 3176805, "name": "Fontanelle", "country": "IT", "coord": {"lon": 12.44194, "lat": 45.847221}}, {"id": 3176808, "name": "Fontanellato", "country": "IT", "coord": {"lon": 10.17218, "lat": 44.881672}}, {"id": 3176809, "name": "Fontanella", "country": "IT", "coord": {"lon": 9.80196, "lat": 45.469879}}, {"id": 3176812, "name": "Fontanelice", "country": "IT", "coord": {"lon": 11.55922, "lat": 44.259659}}, {"id": 3176821, "name": "Fontana Liri", "country": "IT", "coord": {"lon": 13.5503, "lat": 41.61002}}, {"id": 3176832, "name": "Fonni", "country": "IT", "coord": {"lon": 9.25084, "lat": 40.120659}}, {"id": 3176836, "name": "Fondo", "country": "IT", "coord": {"lon": 11.13747, "lat": 46.43821}}, {"id": 3176846, "name": "Fombio", "country": "IT", "coord": {"lon": 9.68776, "lat": 45.140369}}, {"id": 3176852, "name": "Follina", "country": "IT", "coord": {"lon": 12.11389, "lat": 45.952499}}, {"id": 3176855, "name": "Folignano", "country": "IT", "coord": {"lon": 13.63429, "lat": 42.820251}}, {"id": 3176857, "name": "Folgaria", "country": "IT", "coord": {"lon": 11.17068, "lat": 45.915199}}, {"id": 3176859, "name": "Foiano di Val Fortore", "country": "IT", "coord": {"lon": 14.97734, "lat": 41.351822}}, {"id": 3176860, "name": "Foiano della Chiana", "country": "IT", "coord": {"lon": 11.81534, "lat": 43.255638}}, {"id": 3176869, "name": "Foglizzo", "country": "IT", "coord": {"lon": 7.81982, "lat": 45.27195}}, {"id": 3176871, "name": "Fogliano Redipuglia", "country": "IT", "coord": {"lon": 13.48222, "lat": 45.865559}}, {"id": 3176879, "name": "Foglianise", "country": "IT", "coord": {"lon": 14.66824, "lat": 41.16452}}, {"id": 3176895, "name": "Fobello", "country": "IT", "coord": {"lon": 8.15732, "lat": 45.890171}}, {"id": 3176897, "name": "Flussio", "country": "IT", "coord": {"lon": 8.54022, "lat": 40.267448}}, {"id": 3176901, "name": "Flumeri", "country": "IT", "coord": {"lon": 15.14775, "lat": 41.07782}}, {"id": 3176903, "name": "Florinas", "country": "IT", "coord": {"lon": 8.66512, "lat": 40.649559}}, {"id": 3176907, "name": "Flero", "country": "IT", "coord": {"lon": 10.17347, "lat": 45.482578}}, {"id": 3176911, "name": "Flavon", "country": "IT", "coord": {"lon": 11.02993, "lat": 46.298092}}, {"id": 3176917, "name": "Flaibano", "country": "IT", "coord": {"lon": 12.98556, "lat": 46.059441}}, {"id": 3176927, "name": "Fiume Veneto", "country": "IT", "coord": {"lon": 12.73083, "lat": 45.932781}}, {"id": 3176943, "name": "Fiumalbo", "country": "IT", "coord": {"lon": 10.6472, "lat": 44.179249}}, {"id": 3176946, "name": "Fiuggi", "country": "IT", "coord": {"lon": 13.2203, "lat": 41.798618}}, {"id": 3176949, "name": "Fisciano", "country": "IT", "coord": {"lon": 14.79944, "lat": 40.772812}}, {"id": 3176952, "name": "Firenzuola", "country": "IT", "coord": {"lon": 11.37912, "lat": 44.121059}}, {"id": 3176964, "name": "Fiorenzuola dArda", "country": "IT", "coord": {"lon": 9.90897, "lat": 44.922058}}, {"id": 3176982, "name": "Finale Ligure", "country": "IT", "coord": {"lon": 8.3436, "lat": 44.169521}}, {"id": 3176988, "name": "Filottrano", "country": "IT", "coord": {"lon": 13.35141, "lat": 43.435532}}, {"id": 3176993, "name": "Filignano", "country": "IT", "coord": {"lon": 14.05632, "lat": 41.544922}}, {"id": 3176994, "name": "Filighera", "country": "IT", "coord": {"lon": 9.31596, "lat": 45.177059}}, {"id": 3176996, "name": "Filiano", "country": "IT", "coord": {"lon": 15.70616, "lat": 40.810719}}, {"id": 3177001, "name": "Filetto", "country": "IT", "coord": {"lon": 14.24511, "lat": 42.228241}}, {"id": 3177002, "name": "Filettino", "country": "IT", "coord": {"lon": 13.3275, "lat": 41.891418}}, {"id": 3177004, "name": "Filacciano", "country": "IT", "coord": {"lon": 12.59768, "lat": 42.254829}}, {"id": 3177016, "name": "Fiesso Umbertiano", "country": "IT", "coord": {"lon": 11.60541, "lat": 44.962582}}, {"id": 3177018, "name": "Fiesse", "country": "IT", "coord": {"lon": 10.32418, "lat": 45.23148}}, {"id": 3177021, "name": "Fiera di Primiero", "country": "IT", "coord": {"lon": 11.82879, "lat": 46.176208}}, {"id": 3177028, "name": "Fie allo Sciliar - Voels am Schlern", "country": "IT", "coord": {"lon": 11.50128, "lat": 46.51672}}, {"id": 3177030, "name": "Ficulle", "country": "IT", "coord": {"lon": 12.06776, "lat": 42.833641}}, {"id": 3177032, "name": "Ficarolo", "country": "IT", "coord": {"lon": 11.43481, "lat": 44.95438}}, {"id": 3177036, "name": "Fiave", "country": "IT", "coord": {"lon": 10.84297, "lat": 46.003601}}, {"id": 3177040, "name": "Trebbio", "country": "IT", "coord": {"lon": 13.15558, "lat": 43.035851}}, {"id": 3177046, "name": "Fiano Romano", "country": "IT", "coord": {"lon": 12.59418, "lat": 42.159519}}, {"id": 3177047, "name": "Fiano", "country": "IT", "coord": {"lon": 7.52272, "lat": 45.21685}}, {"id": 3177052, "name": "Fiamignano", "country": "IT", "coord": {"lon": 13.12309, "lat": 42.264832}}, {"id": 3177075, "name": "Ferriere", "country": "IT", "coord": {"lon": 9.49657, "lat": 44.643848}}, {"id": 3177079, "name": "Ferrera Erbognone", "country": "IT", "coord": {"lon": 8.86435, "lat": 45.115059}}, {"id": 3177083, "name": "Ferrazzano", "country": "IT", "coord": {"lon": 14.67223, "lat": 41.530331}}, {"id": 3177087, "name": "Ferrara di Monte Baldo", "country": "IT", "coord": {"lon": 10.86078, "lat": 45.673191}}, {"id": 3177094, "name": "Ferrandina", "country": "IT", "coord": {"lon": 16.454679, "lat": 40.501221}}, {"id": 3177098, "name": "Ferno", "country": "IT", "coord": {"lon": 8.75454, "lat": 45.616169}}, {"id": 3177100, "name": "Fermignano", "country": "IT", "coord": {"lon": 12.64405, "lat": 43.68396}}, {"id": 3177103, "name": "Ferentillo", "country": "IT", "coord": {"lon": 12.78957, "lat": 42.620541}}, {"id": 3177112, "name": "Fenestrelle", "country": "IT", "coord": {"lon": 7.04941, "lat": 45.035938}}, {"id": 3177123, "name": "Felizzano", "country": "IT", "coord": {"lon": 8.43584, "lat": 44.899349}}, {"id": 3177126, "name": "Feletto Umberto", "country": "IT", "coord": {"lon": 13.22196, "lat": 46.103168}}, {"id": 3177127, "name": "Feletto", "country": "IT", "coord": {"lon": 7.74472, "lat": 45.303848}}, {"id": 3177146, "name": "Favale di Malvaro", "country": "IT", "coord": {"lon": 9.25897, "lat": 44.452251}}, {"id": 3177150, "name": "Fauglia", "country": "IT", "coord": {"lon": 10.51441, "lat": 43.570641}}, {"id": 3177170, "name": "Fascia", "country": "IT", "coord": {"lon": 9.22136, "lat": 44.58255}}, {"id": 3177177, "name": "Farra di Soligo", "country": "IT", "coord": {"lon": 12.12444, "lat": 45.905281}}, {"id": 3177178, "name": "Farra dAlpago", "country": "IT", "coord": {"lon": 12.31917, "lat": 46.118328}}, {"id": 3177190, "name": "Farnese", "country": "IT", "coord": {"lon": 11.72565, "lat": 42.549431}}, {"id": 3177194, "name": "Farini", "country": "IT", "coord": {"lon": 9.56887, "lat": 44.712662}}, {"id": 3177195, "name": "Farindola", "country": "IT", "coord": {"lon": 13.8221, "lat": 42.44244}}, {"id": 3177200, "name": "Fardella", "country": "IT", "coord": {"lon": 16.169781, "lat": 40.113811}}, {"id": 3177201, "name": "Fara Vicentino", "country": "IT", "coord": {"lon": 11.5476, "lat": 45.739799}}, {"id": 3177202, "name": "Fara San Martino", "country": "IT", "coord": {"lon": 14.20531, "lat": 42.090038}}, {"id": 3177207, "name": "Fara in Sabina", "country": "IT", "coord": {"lon": 12.72918, "lat": 42.208931}}, {"id": 3177209, "name": "Fara Gera dAdda", "country": "IT", "coord": {"lon": 9.53785, "lat": 45.555679}}, {"id": 3177210, "name": "Fara Filiorum Petri", "country": "IT", "coord": {"lon": 14.18601, "lat": 42.24894}}, {"id": 3177216, "name": "Fano Adriano", "country": "IT", "coord": {"lon": 13.53589, "lat": 42.55304}}, {"id": 3177221, "name": "Fanna", "country": "IT", "coord": {"lon": 12.74861, "lat": 46.18861}}, {"id": 3177225, "name": "Fanano", "country": "IT", "coord": {"lon": 10.7964, "lat": 44.21146}}, {"id": 3177231, "name": "Falzes", "country": "IT", "coord": {"lon": 11.88368, "lat": 46.81443}}, {"id": 3177234, "name": "Falvaterra", "country": "IT", "coord": {"lon": 13.52381, "lat": 41.505119}}, {"id": 3177239, "name": "Falmenta", "country": "IT", "coord": {"lon": 8.58122, "lat": 46.07288}}, {"id": 3177240, "name": "Fallo", "country": "IT", "coord": {"lon": 14.32362, "lat": 41.938332}}, {"id": 3177244, "name": "Falerone", "country": "IT", "coord": {"lon": 13.47168, "lat": 43.107052}}, {"id": 3177245, "name": "Faleria", "country": "IT", "coord": {"lon": 12.44537, "lat": 42.226521}}, {"id": 3177274, "name": "Fai della Paganella", "country": "IT", "coord": {"lon": 11.06908, "lat": 46.17461}}, {"id": 3177276, "name": "Faicchio", "country": "IT", "coord": {"lon": 14.47803, "lat": 41.27792}}, {"id": 3177279, "name": "Fagnano Olona", "country": "IT", "coord": {"lon": 8.85994, "lat": 45.669769}}, {"id": 3177286, "name": "Faggiano", "country": "IT", "coord": {"lon": 17.3866, "lat": 40.419819}}, {"id": 3177292, "name": "Fagagna", "country": "IT", "coord": {"lon": 13.09389, "lat": 46.11417}}, {"id": 3177294, "name": "Faeto", "country": "IT", "coord": {"lon": 15.15984, "lat": 41.325432}}, {"id": 3177304, "name": "Faedo Valtellino", "country": "IT", "coord": {"lon": 9.90605, "lat": 46.153}}, {"id": 3177305, "name": "Faedis", "country": "IT", "coord": {"lon": 13.34306, "lat": 46.153332}}, {"id": 3177313, "name": "Fabro", "country": "IT", "coord": {"lon": 12.01715, "lat": 42.87524}}, {"id": 3177314, "name": "Fabrica di Roma", "country": "IT", "coord": {"lon": 12.29977, "lat": 42.335129}}, {"id": 3177317, "name": "Fabbrico", "country": "IT", "coord": {"lon": 10.81159, "lat": 44.869469}}, {"id": 3177318, "name": "Fabbriche di Vallico", "country": "IT", "coord": {"lon": 10.4279, "lat": 43.99765}}, {"id": 3177326, "name": "Exilles", "country": "IT", "coord": {"lon": 6.9292, "lat": 45.097542}}, {"id": 3177330, "name": "Etroubles", "country": "IT", "coord": {"lon": 7.2293, "lat": 45.82056}}, {"id": 3177342, "name": "Esperia", "country": "IT", "coord": {"lon": 13.68691, "lat": 41.382919}}, {"id": 3177344, "name": "Esino Lario", "country": "IT", "coord": {"lon": 9.33534, "lat": 45.99548}}, {"id": 3177346, "name": "Esine", "country": "IT", "coord": {"lon": 10.25086, "lat": 45.92569}}, {"id": 3177349, "name": "Esanatoglia", "country": "IT", "coord": {"lon": 12.95057, "lat": 43.252548}}, {"id": 3177350, "name": "Erula", "country": "IT", "coord": {"lon": 8.94222, "lat": 40.791168}}, {"id": 3177351, "name": "Erto", "country": "IT", "coord": {"lon": 12.36972, "lat": 46.27639}}, {"id": 3177357, "name": "Erli", "country": "IT", "coord": {"lon": 8.10315, "lat": 44.137531}}, {"id": 3177366, "name": "Erchie", "country": "IT", "coord": {"lon": 17.73061, "lat": 40.43803}}, {"id": 3177369, "name": "Erbezzo", "country": "IT", "coord": {"lon": 11.00068, "lat": 45.640491}}, {"id": 3177370, "name": "Erbe", "country": "IT", "coord": {"lon": 10.96919, "lat": 45.241482}}, {"id": 3177373, "name": "Eraclea", "country": "IT", "coord": {"lon": 12.67556, "lat": 45.580559}}, {"id": 3177377, "name": "Episcopia", "country": "IT", "coord": {"lon": 16.098181, "lat": 40.07481}}, {"id": 3177381, "name": "Envie", "country": "IT", "coord": {"lon": 7.37112, "lat": 44.68224}}, {"id": 3177384, "name": "Entracque", "country": "IT", "coord": {"lon": 7.39933, "lat": 44.241421}}, {"id": 3177392, "name": "Enemonzo", "country": "IT", "coord": {"lon": 12.87944, "lat": 46.408329}}, {"id": 3177393, "name": "Endine Gaiano", "country": "IT", "coord": {"lon": 9.96906, "lat": 45.792488}}, {"id": 3177403, "name": "Emarese", "country": "IT", "coord": {"lon": 7.70181, "lat": 45.72456}}, {"id": 3177410, "name": "Serre", "country": "IT", "coord": {"lon": 7.09032, "lat": 44.540329}}, {"id": 3177419, "name": "Elice", "country": "IT", "coord": {"lon": 13.9693, "lat": 42.520439}}, {"id": 3177431, "name": "Egna", "country": "IT", "coord": {"lon": 11.27258, "lat": 46.31691}}, {"id": 3177435, "name": "Edolo", "country": "IT", "coord": {"lon": 10.32916, "lat": 46.1782}}, {"id": 3177442, "name": "Duronia", "country": "IT", "coord": {"lon": 14.45842, "lat": 41.658932}}, {"id": 3177444, "name": "Durazzano", "country": "IT", "coord": {"lon": 14.45063, "lat": 41.063019}}, {"id": 3177448, "name": "Dumenza", "country": "IT", "coord": {"lon": 8.78753, "lat": 46.018879}}, {"id": 3177453, "name": "Dugenta", "country": "IT", "coord": {"lon": 14.45243, "lat": 41.132221}}, {"id": 3177456, "name": "Dueville", "country": "IT", "coord": {"lon": 11.5502, "lat": 45.633701}}, {"id": 3177466, "name": "Dubino", "country": "IT", "coord": {"lon": 9.43014, "lat": 46.171791}}, {"id": 3177467, "name": "Dualchi", "country": "IT", "coord": {"lon": 8.89643, "lat": 40.228859}}, {"id": 3177469, "name": "Druogno", "country": "IT", "coord": {"lon": 8.43602, "lat": 46.13488}}, {"id": 3177471, "name": "Druento", "country": "IT", "coord": {"lon": 7.57662, "lat": 45.13475}}, {"id": 3177474, "name": "Dronero", "country": "IT", "coord": {"lon": 7.35133, "lat": 44.465729}}, {"id": 3177476, "name": "Dro", "country": "IT", "coord": {"lon": 10.91148, "lat": 45.961601}}, {"id": 3177478, "name": "Drena", "country": "IT", "coord": {"lon": 10.94448, "lat": 45.969299}}, {"id": 3177480, "name": "Dragoni", "country": "IT", "coord": {"lon": 14.30368, "lat": 41.276192}}, {"id": 3177489, "name": "Dozza", "country": "IT", "coord": {"lon": 11.63222, "lat": 44.360271}}, {"id": 3177490, "name": "Dovera", "country": "IT", "coord": {"lon": 9.54136, "lat": 45.365269}}, {"id": 3177493, "name": "Dovadola", "country": "IT", "coord": {"lon": 11.88873, "lat": 44.122662}}, {"id": 3177503, "name": "Dosolo", "country": "IT", "coord": {"lon": 10.63759, "lat": 44.953369}}, {"id": 3177508, "name": "Dorno", "country": "IT", "coord": {"lon": 8.95275, "lat": 45.15596}}, {"id": 3177510, "name": "Dorio", "country": "IT", "coord": {"lon": 9.32004, "lat": 46.101688}}, {"id": 3177513, "name": "Dorgali", "country": "IT", "coord": {"lon": 9.58814, "lat": 40.292561}}, {"id": 3177526, "name": "Dongo", "country": "IT", "coord": {"lon": 9.28084, "lat": 46.131592}}, {"id": 3177537, "name": "Domicella", "country": "IT", "coord": {"lon": 14.58774, "lat": 40.880009}}, {"id": 3177539, "name": "Domegge di Cadore", "country": "IT", "coord": {"lon": 12.41722, "lat": 46.460281}}, {"id": 3177540, "name": "Domaso", "country": "IT", "coord": {"lon": 9.33344, "lat": 46.152889}}, {"id": 3177547, "name": "Dolo", "country": "IT", "coord": {"lon": 12.0725, "lat": 45.428329}}, {"id": 3177550, "name": "Dolcedo", "country": "IT", "coord": {"lon": 7.95015, "lat": 43.905121}}, {"id": 3177551, "name": "Dolceacqua", "country": "IT", "coord": {"lon": 7.62264, "lat": 43.851719}}, {"id": 3177552, "name": "Dolce", "country": "IT", "coord": {"lon": 10.85248, "lat": 45.600689}}, {"id": 3177554, "name": "Dogna", "country": "IT", "coord": {"lon": 13.31502, "lat": 46.447929}}, {"id": 3177555, "name": "Dogliola", "country": "IT", "coord": {"lon": 14.63622, "lat": 41.941841}}, {"id": 3177558, "name": "Dogliani", "country": "IT", "coord": {"lon": 7.94724, "lat": 44.530941}}, {"id": 3177568, "name": "Doberdo del Lago", "country": "IT", "coord": {"lon": 13.5375, "lat": 45.846111}}, {"id": 3177571, "name": "Dobbiaco", "country": "IT", "coord": {"lon": 12.23139, "lat": 46.7425}}, {"id": 3177572, "name": "Dizzasco", "country": "IT", "coord": {"lon": 9.09974, "lat": 45.943779}}, {"id": 3177573, "name": "Divignano", "country": "IT", "coord": {"lon": 8.60163, "lat": 45.662369}}, {"id": 3177582, "name": "Dimaro", "country": "IT", "coord": {"lon": 10.87077, "lat": 46.32621}}, {"id": 3177584, "name": "Dignano", "country": "IT", "coord": {"lon": 12.93889, "lat": 46.084438}}, {"id": 3177588, "name": "Dicomano", "country": "IT", "coord": {"lon": 11.52113, "lat": 43.890949}}, {"id": 3177594, "name": "Diano San Pietro", "country": "IT", "coord": {"lon": 8.07165, "lat": 43.931419}}, {"id": 3177595, "name": "Diano Marina", "country": "IT", "coord": {"lon": 8.07925, "lat": 43.91032}}, {"id": 3177596, "name": "Diano dAlba", "country": "IT", "coord": {"lon": 8.02734, "lat": 44.65004}}, {"id": 3177597, "name": "Diano Castello", "country": "IT", "coord": {"lon": 8.06602, "lat": 43.924229}}, {"id": 3177615, "name": "Desana", "country": "IT", "coord": {"lon": 8.35973, "lat": 45.269661}}, {"id": 3177616, "name": "Dervio", "country": "IT", "coord": {"lon": 9.30464, "lat": 46.075989}}, {"id": 3177623, "name": "Denno", "country": "IT", "coord": {"lon": 11.04907, "lat": 46.275009}}, {"id": 3177626, "name": "Demonte", "country": "IT", "coord": {"lon": 7.29873, "lat": 44.315529}}, {"id": 3177628, "name": "Dello", "country": "IT", "coord": {"lon": 10.07747, "lat": 45.42028}}, {"id": 3177629, "name": "Deliceto", "country": "IT", "coord": {"lon": 15.38585, "lat": 41.22303}}, {"id": 3177630, "name": "Delebio", "country": "IT", "coord": {"lon": 9.46064, "lat": 46.136089}}, {"id": 3177631, "name": "Deiva Marina", "country": "IT", "coord": {"lon": 9.52064, "lat": 44.219311}}, {"id": 3177632, "name": "Dego", "country": "IT", "coord": {"lon": 8.30595, "lat": 44.443039}}, {"id": 3177642, "name": "Dazio", "country": "IT", "coord": {"lon": 9.60064, "lat": 46.161289}}, {"id": 3177646, "name": "Darfo", "country": "IT", "coord": {"lon": 10.18115, "lat": 45.877941}}, {"id": 3177647, "name": "Daone", "country": "IT", "coord": {"lon": 10.62107, "lat": 45.947201}}, {"id": 3177649, "name": "Dambel", "country": "IT", "coord": {"lon": 11.09307, "lat": 46.404709}}, {"id": 3177654, "name": "Cutrofiano", "country": "IT", "coord": {"lon": 18.20163, "lat": 40.12632}}, {"id": 3177655, "name": "Cutigliano", "country": "IT", "coord": {"lon": 10.75541, "lat": 44.099449}}, {"id": 3177657, "name": "Cusio", "country": "IT", "coord": {"lon": 9.60175, "lat": 45.990891}}, {"id": 3177663, "name": "Cusano Mutri", "country": "IT", "coord": {"lon": 14.50883, "lat": 41.337719}}, {"id": 3177666, "name": "Curtarolo", "country": "IT", "coord": {"lon": 11.8358, "lat": 45.522099}}, {"id": 3177669, "name": "Cursi", "country": "IT", "coord": {"lon": 18.314831, "lat": 40.14962}}, {"id": 3177670, "name": "Curon Venosta", "country": "IT", "coord": {"lon": 10.54265, "lat": 46.808319}}, {"id": 3177684, "name": "Cupramontana", "country": "IT", "coord": {"lon": 13.11547, "lat": 43.445862}}, {"id": 3177692, "name": "Cupello", "country": "IT", "coord": {"lon": 14.66922, "lat": 42.068138}}, {"id": 3177695, "name": "Cuorgne", "country": "IT", "coord": {"lon": 7.64992, "lat": 45.389462}}, {"id": 3177698, "name": "Cunico", "country": "IT", "coord": {"lon": 8.09673, "lat": 45.039951}}, {"id": 3177703, "name": "Cumignano sul Naviglio", "country": "IT", "coord": {"lon": 9.83476, "lat": 45.35577}}, {"id": 3177704, "name": "Cumiana", "country": "IT", "coord": {"lon": 7.37672, "lat": 44.97974}}, {"id": 3177712, "name": "Cugnoli", "country": "IT", "coord": {"lon": 13.9327, "lat": 42.30714}}, {"id": 3177719, "name": "Cuglieri", "country": "IT", "coord": {"lon": 8.56642, "lat": 40.18795}}, {"id": 3177720, "name": "Cuggiono", "country": "IT", "coord": {"lon": 8.8155, "lat": 45.506828}}, {"id": 3177726, "name": "Cuceglio", "country": "IT", "coord": {"lon": 7.81742, "lat": 45.359161}}, {"id": 3177737, "name": "Cuccaro Vetere", "country": "IT", "coord": {"lon": 15.30646, "lat": 40.165199}}, {"id": 3177744, "name": "Croviana", "country": "IT", "coord": {"lon": 10.90347, "lat": 46.345211}}, {"id": 3177747, "name": "Crova", "country": "IT", "coord": {"lon": 8.21083, "lat": 45.330662}}, {"id": 3177749, "name": "Crotta dAdda", "country": "IT", "coord": {"lon": 9.85647, "lat": 45.158272}}, {"id": 3177754, "name": "Crosa", "country": "IT", "coord": {"lon": 8.18652, "lat": 45.608761}}, {"id": 3177757, "name": "Crone", "country": "IT", "coord": {"lon": 10.48333, "lat": 45.73333}}, {"id": 3177759, "name": "Crognaleto", "country": "IT", "coord": {"lon": 13.48959, "lat": 42.58794}}, {"id": 3177761, "name": "Crodo", "country": "IT", "coord": {"lon": 8.32061, "lat": 46.210781}}, {"id": 3177773, "name": "Crocetta del Montello", "country": "IT", "coord": {"lon": 12.03361, "lat": 45.83667}}, {"id": 3177781, "name": "Crocefieschi", "country": "IT", "coord": {"lon": 9.02396, "lat": 44.57975}}, {"id": 3177805, "name": "Crissolo", "country": "IT", "coord": {"lon": 7.15602, "lat": 44.699532}}, {"id": 3177814, "name": "Crevalcore", "country": "IT", "coord": {"lon": 11.1498, "lat": 44.72057}}, {"id": 3177815, "name": "Crevacuore", "country": "IT", "coord": {"lon": 8.24672, "lat": 45.686871}}, {"id": 3177822, "name": "Cressa", "country": "IT", "coord": {"lon": 8.50903, "lat": 45.64827}}, {"id": 3177824, "name": "Crespino", "country": "IT", "coord": {"lon": 11.88702, "lat": 44.983879}}, {"id": 3177825, "name": "Crespina", "country": "IT", "coord": {"lon": 10.56431, "lat": 43.57304}}, {"id": 3177826, "name": "Crespiatica", "country": "IT", "coord": {"lon": 9.57516, "lat": 45.35667}}, {"id": 3177827, "name": "Crespellano", "country": "IT", "coord": {"lon": 11.13051, "lat": 44.51046}}, {"id": 3177829, "name": "Crespadoro", "country": "IT", "coord": {"lon": 11.22589, "lat": 45.62019}}, {"id": 3177833, "name": "Crescentino", "country": "IT", "coord": {"lon": 8.09993, "lat": 45.190449}}, {"id": 3177839, "name": "Cremolino", "country": "IT", "coord": {"lon": 8.58525, "lat": 44.635941}}, {"id": 3177840, "name": "Cremeno", "country": "IT", "coord": {"lon": 9.46864, "lat": 45.935478}}, {"id": 3177842, "name": "Credera", "country": "IT", "coord": {"lon": 9.65606, "lat": 45.303268}}, {"id": 3177844, "name": "Crecchio", "country": "IT", "coord": {"lon": 14.32291, "lat": 42.289139}}, {"id": 3177849, "name": "Craveggia", "country": "IT", "coord": {"lon": 8.48822, "lat": 46.141579}}, {"id": 3177850, "name": "Cravanzana", "country": "IT", "coord": {"lon": 8.12604, "lat": 44.574741}}, {"id": 3177858, "name": "Craco", "country": "IT", "coord": {"lon": 16.43708, "lat": 40.379921}}, {"id": 3177862, "name": "Cozzo", "country": "IT", "coord": {"lon": 8.61104, "lat": 45.192661}}, {"id": 3177866, "name": "Covo", "country": "IT", "coord": {"lon": 9.77126, "lat": 45.500278}}, {"id": 3177872, "name": "Courmayeur", "country": "IT", "coord": {"lon": 6.97139, "lat": 45.793861}}, {"id": 3177874, "name": "Cottanello", "country": "IT", "coord": {"lon": 12.68418, "lat": 42.40633}}, {"id": 3177876, "name": "Cotignola", "country": "IT", "coord": {"lon": 11.93943, "lat": 44.387169}}, {"id": 3177880, "name": "Costigliole Saluzzo", "country": "IT", "coord": {"lon": 7.48543, "lat": 44.564529}}, {"id": 3177882, "name": "Costermano", "country": "IT", "coord": {"lon": 10.73718, "lat": 45.586891}}, {"id": 3177885, "name": "Costa Volpino", "country": "IT", "coord": {"lon": 10.09816, "lat": 45.829891}}, {"id": 3177887, "name": "Costa Valle Imagna", "country": "IT", "coord": {"lon": 9.50215, "lat": 45.804878}}, {"id": 3177890, "name": "Costarainera", "country": "IT", "coord": {"lon": 7.94106, "lat": 43.854771}}, {"id": 3177894, "name": "Costanzana", "country": "IT", "coord": {"lon": 8.36813, "lat": 45.238159}}, {"id": 3177905, "name": "Costa di Rovigo", "country": "IT", "coord": {"lon": 11.69461, "lat": 45.04908}}, {"id": 3177906, "name": "Costa di Mezzate", "country": "IT", "coord": {"lon": 9.79396, "lat": 45.66198}}, {"id": 3177909, "name": "Costacciaro", "country": "IT", "coord": {"lon": 12.71216, "lat": 43.360748}}, {"id": 3177912, "name": "Costabissara", "country": "IT", "coord": {"lon": 11.4872, "lat": 45.583591}}, {"id": 3177919, "name": "Cossombrato", "country": "IT", "coord": {"lon": 8.13613, "lat": 44.99295}}, {"id": 3177920, "name": "Cossoine", "country": "IT", "coord": {"lon": 8.71622, "lat": 40.431358}}, {"id": 3177922, "name": "Cossignano", "country": "IT", "coord": {"lon": 13.68999, "lat": 42.984249}}, {"id": 3177927, "name": "Coseano", "country": "IT", "coord": {"lon": 13.01917, "lat": 46.09639}}, {"id": 3177943, "name": "Corvara in Badia", "country": "IT", "coord": {"lon": 11.87019, "lat": 46.55162}}, {"id": 3177945, "name": "Corvara", "country": "IT", "coord": {"lon": 13.873, "lat": 42.27494}}, {"id": 3177960, "name": "Cortiglione", "country": "IT", "coord": {"lon": 8.35844, "lat": 44.82325}}, {"id": 3177972, "name": "Corteolona", "country": "IT", "coord": {"lon": 9.36936, "lat": 45.15786}}, {"id": 3177976, "name": "Cortemilia", "country": "IT", "coord": {"lon": 8.19294, "lat": 44.577942}}, {"id": 3177977, "name": "Cortemaggiore", "country": "IT", "coord": {"lon": 9.93077, "lat": 44.993771}}, {"id": 3177983, "name": "Corte Franca", "country": "IT", "coord": {"lon": 9.98846, "lat": 45.629978}}, {"id": 3177997, "name": "Cortazzone", "country": "IT", "coord": {"lon": 8.06123, "lat": 44.979149}}, {"id": 3177998, "name": "Cortanze", "country": "IT", "coord": {"lon": 8.08803, "lat": 45.014351}}, {"id": 3177999, "name": "Cortandone", "country": "IT", "coord": {"lon": 8.05843, "lat": 44.959148}}, {"id": 3178002, "name": "Cortaccia sulla strada del vino", "country": "IT", "coord": {"lon": 11.22388, "lat": 46.314011}}, {"id": 3178012, "name": "Corropoli", "country": "IT", "coord": {"lon": 13.83199, "lat": 42.829449}}, {"id": 3178014, "name": "Corridonia", "country": "IT", "coord": {"lon": 13.50878, "lat": 43.25106}}, {"id": 3178015, "name": "Correzzola", "country": "IT", "coord": {"lon": 12.06167, "lat": 45.233608}}, {"id": 3178039, "name": "Cornuda", "country": "IT", "coord": {"lon": 12.01639, "lat": 45.823059}}, {"id": 3178045, "name": "Corno Giovine", "country": "IT", "coord": {"lon": 9.75967, "lat": 45.133469}}, {"id": 3178046, "name": "Corno di Rosazzo", "country": "IT", "coord": {"lon": 13.43972, "lat": 45.999439}}, {"id": 3178072, "name": "Cornedo Vicentino", "country": "IT", "coord": {"lon": 11.34059, "lat": 45.613091}}, {"id": 3178073, "name": "Cornate dAdda", "country": "IT", "coord": {"lon": 9.46735, "lat": 45.641682}}, {"id": 3178076, "name": "Cornale", "country": "IT", "coord": {"lon": 8.91305, "lat": 45.042961}}, {"id": 3178077, "name": "Cornalba", "country": "IT", "coord": {"lon": 9.74405, "lat": 45.85149}}, {"id": 3178090, "name": "Corleto Perticara", "country": "IT", "coord": {"lon": 16.04068, "lat": 40.383511}}, {"id": 3178091, "name": "Corleto Monforte", "country": "IT", "coord": {"lon": 15.37956, "lat": 40.43721}}, {"id": 3178093, "name": "Corio", "country": "IT", "coord": {"lon": 7.53221, "lat": 45.313751}}, {"id": 3178094, "name": "Corinaldo", "country": "IT", "coord": {"lon": 13.04816, "lat": 43.64986}}, {"id": 3178095, "name": "Corigliano dOtranto", "country": "IT", "coord": {"lon": 18.25943, "lat": 40.159618}}, {"id": 3178097, "name": "Coriano", "country": "IT", "coord": {"lon": 12.60055, "lat": 43.969059}}, {"id": 3178099, "name": "Cori", "country": "IT", "coord": {"lon": 12.91279, "lat": 41.644421}}, {"id": 3178103, "name": "Corfinio", "country": "IT", "coord": {"lon": 13.8415, "lat": 42.12373}}, {"id": 3178107, "name": "Coreglia Antelminelli", "country": "IT", "coord": {"lon": 10.5255, "lat": 44.063648}}, {"id": 3178108, "name": "Coredo", "country": "IT", "coord": {"lon": 11.09001, "lat": 46.34906}}, {"id": 3178109, "name": "Cordovado", "country": "IT", "coord": {"lon": 12.88028, "lat": 45.846939}}, {"id": 3178110, "name": "Cordignano", "country": "IT", "coord": {"lon": 12.41417, "lat": 45.946941}}, {"id": 3178119, "name": "Corchiano", "country": "IT", "coord": {"lon": 12.35567, "lat": 42.344929}}, {"id": 3178121, "name": "Corbola", "country": "IT", "coord": {"lon": 12.08083, "lat": 45.004169}}, {"id": 3178129, "name": "Corbara", "country": "IT", "coord": {"lon": 14.59454, "lat": 40.72121}}, {"id": 3178132, "name": "Corana", "country": "IT", "coord": {"lon": 8.96835, "lat": 45.061661}}, {"id": 3178140, "name": "Copiano", "country": "IT", "coord": {"lon": 9.32246, "lat": 45.19627}}, {"id": 3178144, "name": "Conza della Campania", "country": "IT", "coord": {"lon": 15.30695, "lat": 40.873219}}, {"id": 3178151, "name": "Contursi Terme", "country": "IT", "coord": {"lon": 15.23936, "lat": 40.649509}}, {"id": 3178152, "name": "Controne", "country": "IT", "coord": {"lon": 15.20556, "lat": 40.509609}}, {"id": 3178153, "name": "Controguerra", "country": "IT", "coord": {"lon": 13.81759, "lat": 42.854549}}, {"id": 3178164, "name": "Contrada", "country": "IT", "coord": {"lon": 14.77894, "lat": 40.86591}}, {"id": 3178180, "name": "Conselve", "country": "IT", "coord": {"lon": 11.87381, "lat": 45.230888}}, {"id": 3178181, "name": "Conselice", "country": "IT", "coord": {"lon": 11.83122, "lat": 44.511871}}, {"id": 3178192, "name": "Configni", "country": "IT", "coord": {"lon": 12.64217, "lat": 42.423531}}, {"id": 3178193, "name": "Confienza", "country": "IT", "coord": {"lon": 8.55634, "lat": 45.332161}}, {"id": 3178198, "name": "Condove", "country": "IT", "coord": {"lon": 7.30761, "lat": 45.11734}}, {"id": 3178199, "name": "Condino", "country": "IT", "coord": {"lon": 10.60027, "lat": 45.88969}}, {"id": 3178201, "name": "Concorezzo", "country": "IT", "coord": {"lon": 9.33595, "lat": 45.58968}}, {"id": 3178202, "name": "Concordia sulla Secchia", "country": "IT", "coord": {"lon": 10.9833, "lat": 44.91317}}, {"id": 3178203, "name": "Concordia Sagittaria", "country": "IT", "coord": {"lon": 12.84056, "lat": 45.759441}}, {"id": 3178205, "name": "Conco", "country": "IT", "coord": {"lon": 11.6071, "lat": 45.799999}}, {"id": 3178206, "name": "Concerviano", "country": "IT", "coord": {"lon": 12.98558, "lat": 42.323029}}, {"id": 3178209, "name": "Conca della Campania", "country": "IT", "coord": {"lon": 13.99162, "lat": 41.330921}}, {"id": 3178210, "name": "Conca dei Marini", "country": "IT", "coord": {"lon": 14.57311, "lat": 40.617538}}, {"id": 3178212, "name": "Conca Casale", "country": "IT", "coord": {"lon": 14.00682, "lat": 41.495121}}, {"id": 3178217, "name": "Cona", "country": "IT", "coord": {"lon": 12.01917, "lat": 45.18528}}, {"id": 3178218, "name": "Comun Nuovo", "country": "IT", "coord": {"lon": 9.65976, "lat": 45.622681}}, {"id": 3178221, "name": "Comunanza", "country": "IT", "coord": {"lon": 13.41228, "lat": 42.957352}}, {"id": 3178225, "name": "Compiano", "country": "IT", "coord": {"lon": 9.66208, "lat": 44.496052}}, {"id": 3178230, "name": "Commessaggio", "country": "IT", "coord": {"lon": 10.54348, "lat": 45.037868}}, {"id": 3178232, "name": "Comiziano", "country": "IT", "coord": {"lon": 14.55144, "lat": 40.95211}}, {"id": 3178237, "name": "Comerio", "country": "IT", "coord": {"lon": 8.74363, "lat": 45.843281}}, {"id": 3178238, "name": "Comeglians", "country": "IT", "coord": {"lon": 12.86, "lat": 46.51667}}, {"id": 3178241, "name": "Comazzo", "country": "IT", "coord": {"lon": 9.46465, "lat": 45.440971}}, {"id": 3178247, "name": "Comabbio", "country": "IT", "coord": {"lon": 8.67623, "lat": 45.770969}}, {"id": 3178253, "name": "Colturano", "country": "IT", "coord": {"lon": 9.33443, "lat": 45.381512}}, {"id": 3178266, "name": "Colonnella", "country": "IT", "coord": {"lon": 13.86829, "lat": 42.87315}}, {"id": 3178269, "name": "Colonna", "country": "IT", "coord": {"lon": 12.75318, "lat": 41.833721}}, {"id": 3178287, "name": "Cologne", "country": "IT", "coord": {"lon": 9.94136, "lat": 45.581379}}, {"id": 3178288, "name": "Cologna Veneta", "country": "IT", "coord": {"lon": 11.3844, "lat": 45.310291}}, {"id": 3178292, "name": "Colobraro", "country": "IT", "coord": {"lon": 16.42499, "lat": 40.187309}}, {"id": 3178293, "name": "Colmurano", "country": "IT", "coord": {"lon": 13.35908, "lat": 43.164848}}, {"id": 3178301, "name": "Collobiano", "country": "IT", "coord": {"lon": 8.34833, "lat": 45.396858}}, {"id": 3178302, "name": "Colli sul Velino", "country": "IT", "coord": {"lon": 12.77868, "lat": 42.49823}}, {"id": 3178305, "name": "Collio", "country": "IT", "coord": {"lon": 10.33427, "lat": 45.809792}}, {"id": 3178309, "name": "Collimento", "country": "IT", "coord": {"lon": 13.33955, "lat": 42.292801}}, {"id": 3178314, "name": "Colli del Tronto", "country": "IT", "coord": {"lon": 13.74939, "lat": 42.876751}}, {"id": 3178320, "name": "Colliano", "country": "IT", "coord": {"lon": 15.29116, "lat": 40.72612}}, {"id": 3178321, "name": "Colli al Volturno", "country": "IT", "coord": {"lon": 14.10492, "lat": 41.598721}}, {"id": 3178329, "name": "Collevecchio", "country": "IT", "coord": {"lon": 12.55267, "lat": 42.33403}}, {"id": 3178335, "name": "Colletorto", "country": "IT", "coord": {"lon": 14.96884, "lat": 41.663631}}, {"id": 3178344, "name": "Colle Santa Lucia", "country": "IT", "coord": {"lon": 12.01399, "lat": 46.448521}}, {"id": 3178346, "name": "Colle Sannita", "country": "IT", "coord": {"lon": 14.83314, "lat": 41.364319}}, {"id": 3178347, "name": "Colle San Magno", "country": "IT", "coord": {"lon": 13.69491, "lat": 41.55122}}, {"id": 3178355, "name": "Collepietro", "country": "IT", "coord": {"lon": 13.7793, "lat": 42.221741}}, {"id": 3178360, "name": "Collepasso", "country": "IT", "coord": {"lon": 18.16403, "lat": 40.071522}}, {"id": 3178361, "name": "Collepardo", "country": "IT", "coord": {"lon": 13.3695, "lat": 41.76432}}, {"id": 3178385, "name": "Collelongo", "country": "IT", "coord": {"lon": 13.5849, "lat": 41.886829}}, {"id": 3178391, "name": "Collegiove", "country": "IT", "coord": {"lon": 13.03899, "lat": 42.175529}}, {"id": 3178403, "name": "Colle di Tora", "country": "IT", "coord": {"lon": 12.94798, "lat": 42.211632}}, {"id": 3178404, "name": "Colledimezzo", "country": "IT", "coord": {"lon": 14.38842, "lat": 41.987438}}, {"id": 3178405, "name": "Colledimacine", "country": "IT", "coord": {"lon": 14.20061, "lat": 42.004429}}, {"id": 3178412, "name": "Colledara", "country": "IT", "coord": {"lon": 13.679, "lat": 42.540741}}, {"id": 3178416, "name": "Collecchio", "country": "IT", "coord": {"lon": 10.21838, "lat": 44.75396}}, {"id": 3178439, "name": "Collazzone", "country": "IT", "coord": {"lon": 12.43526, "lat": 42.900242}}, {"id": 3178441, "name": "Collarmele", "country": "IT", "coord": {"lon": 13.6257, "lat": 42.059029}}, {"id": 3178445, "name": "Collalto Sabino", "country": "IT", "coord": {"lon": 13.04749, "lat": 42.135731}}, {"id": 3178448, "name": "Collagna", "country": "IT", "coord": {"lon": 10.27539, "lat": 44.347549}}, {"id": 3178451, "name": "Colico", "country": "IT", "coord": {"lon": 9.36984, "lat": 46.132389}}, {"id": 3178452, "name": "Coli", "country": "IT", "coord": {"lon": 9.41456, "lat": 44.744759}}, {"id": 3178455, "name": "Colere", "country": "IT", "coord": {"lon": 10.08276, "lat": 45.974289}}, {"id": 3178456, "name": "Coldragone", "country": "IT", "coord": {"lon": 13.60399, "lat": 41.554581}}, {"id": 3178468, "name": "Colbordolo", "country": "IT", "coord": {"lon": 12.72105, "lat": 43.820061}}, {"id": 3178476, "name": "Cogollo del Cengio", "country": "IT", "coord": {"lon": 11.42589, "lat": 45.784698}}, {"id": 3178479, "name": "Cogoleto", "country": "IT", "coord": {"lon": 8.64286, "lat": 44.389339}}, {"id": 3178483, "name": "Cogne", "country": "IT", "coord": {"lon": 7.3588, "lat": 45.60886}}, {"id": 3178489, "name": "Coggiola", "country": "IT", "coord": {"lon": 8.18362, "lat": 45.684368}}, {"id": 3178495, "name": "Codrongianos", "country": "IT", "coord": {"lon": 8.67982, "lat": 40.657261}}, {"id": 3178496, "name": "Codroipo", "country": "IT", "coord": {"lon": 12.97917, "lat": 45.959999}}, {"id": 3178499, "name": "Codogno", "country": "IT", "coord": {"lon": 9.70216, "lat": 45.161869}}, {"id": 3178500, "name": "Codogne", "country": "IT", "coord": {"lon": 12.43083, "lat": 45.870831}}, {"id": 3178505, "name": "Codigoro", "country": "IT", "coord": {"lon": 12.11417, "lat": 44.831108}}, {"id": 3178506, "name": "Codevilla", "country": "IT", "coord": {"lon": 9.05615, "lat": 44.963558}}, {"id": 3178507, "name": "Codevigo", "country": "IT", "coord": {"lon": 12.10111, "lat": 45.268608}}, {"id": 3178520, "name": "Cocullo", "country": "IT", "coord": {"lon": 13.775, "lat": 42.032829}}, {"id": 3178526, "name": "Cocconato", "country": "IT", "coord": {"lon": 8.03943, "lat": 45.088051}}, {"id": 3178534, "name": "Coccaglio", "country": "IT", "coord": {"lon": 9.97426, "lat": 45.564579}}, {"id": 3178536, "name": "Coazze", "country": "IT", "coord": {"lon": 7.30691, "lat": 45.054539}}, {"id": 3178541, "name": "Clusone", "country": "IT", "coord": {"lon": 9.94966, "lat": 45.887089}}, {"id": 3178548, "name": "Cles", "country": "IT", "coord": {"lon": 11.03333, "lat": 46.366669}}, {"id": 3178550, "name": "Claviere", "country": "IT", "coord": {"lon": 6.753, "lat": 44.939739}}, {"id": 3178551, "name": "Clauzetto", "country": "IT", "coord": {"lon": 12.91417, "lat": 46.229172}}, {"id": 3178560, "name": "Cizzago", "country": "IT", "coord": {"lon": 9.95006, "lat": 45.471279}}, {"id": 3178565, "name": "Civitella San Paolo", "country": "IT", "coord": {"lon": 12.57648, "lat": 42.198521}}, {"id": 3178566, "name": "Civitella Roveto", "country": "IT", "coord": {"lon": 13.4269, "lat": 41.916031}}, {"id": 3178568, "name": "Civitella Messer Raimondo", "country": "IT", "coord": {"lon": 14.21701, "lat": 42.08894}}, {"id": 3178569, "name": "Civitella Marittima", "country": "IT", "coord": {"lon": 11.28333, "lat": 43}}, {"id": 3178571, "name": "Civitella in Val di Chiana", "country": "IT", "coord": {"lon": 11.72334, "lat": 43.417641}}, {"id": 3178572, "name": "Civitella di Romagna", "country": "IT", "coord": {"lon": 11.94223, "lat": 44.00766}}, {"id": 3178574, "name": "Civitella del Tronto", "country": "IT", "coord": {"lon": 13.66583, "lat": 42.773861}}, {"id": 3178576, "name": "Civitella dAgliano", "country": "IT", "coord": {"lon": 12.18696, "lat": 42.60323}}, {"id": 3178578, "name": "Civitella Casanova", "country": "IT", "coord": {"lon": 13.8851, "lat": 42.36454}}, {"id": 3178579, "name": "Civitella Alfedena", "country": "IT", "coord": {"lon": 13.94271, "lat": 41.765331}}, {"id": 3178590, "name": "Civitaquana", "country": "IT", "coord": {"lon": 13.9034, "lat": 42.325939}}, {"id": 3178591, "name": "Civitanova del Sannio", "country": "IT", "coord": {"lon": 14.40382, "lat": 41.667931}}, {"id": 3178593, "name": "Civitaluparella", "country": "IT", "coord": {"lon": 14.29902, "lat": 41.946129}}, {"id": 3178594, "name": "Civita dAntino", "country": "IT", "coord": {"lon": 13.4715, "lat": 41.885719}},