[{"id": 1919515, "name": "Zishi", "country": "CN", "coord": {"lon": 115.353783, "lat": 23.935011}}, {"id": 1919522, "name": "Dongshan", "country": "CN", "coord": {"lon": 116.931641, "lat": 23.907761}}, {"id": 1919525, "name": "Tangxi", "country": "CN", "coord": {"lon": 116.864021, "lat": 23.898291}}, {"id": 1919539, "name": "Datian", "country": "CN", "coord": {"lon": 115.446358, "lat": 23.858431}}, {"id": 1919547, "name": "Fubin", "country": "CN", "coord": {"lon": 116.862732, "lat": 23.84697}}, {"id": 1919558, "name": "Chifeng", "country": "CN", "coord": {"lon": 116.53434, "lat": 23.817921}}, {"id": 1919564, "name": "Xinxu", "country": "CN", "coord": {"lon": 116.940697, "lat": 23.80555}}, {"id": 1919565, "name": "Kanghe", "country": "CN", "coord": {"lon": 115.074547, "lat": 23.780581}}, {"id": 1919583, "name": "Guihu", "country": "CN", "coord": {"lon": 116.578148, "lat": 23.762011}}, {"id": 1919584, "name": "Wenci", "country": "CN", "coord": {"lon": 116.6745, "lat": 23.760811}}, {"id": 1919592, "name": "Zhangxi", "country": "CN", "coord": {"lon": 116.88884, "lat": 23.743601}}, {"id": 1919598, "name": "Gaotang", "country": "CN", "coord": {"lon": 116.937569, "lat": 23.71299}}, {"id": 1919602, "name": "Lianrao", "country": "CN", "coord": {"lon": 116.982277, "lat": 23.727249}}, {"id": 1919615, "name": "Dengtang", "country": "CN", "coord": {"lon": 116.527359, "lat": 23.68326}}, {"id": 1919629, "name": "Linxi", "country": "CN", "coord": {"lon": 116.702454, "lat": 23.646179}}, {"id": 1919631, "name": "Jingzi", "country": "CN", "coord": {"lon": 115.407417, "lat": 23.62944}}, {"id": 1919633, "name": "Fengtang", "country": "CN", "coord": {"lon": 116.56649, "lat": 23.62501}}, {"id": 1919637, "name": "Guantang", "country": "CN", "coord": {"lon": 116.726562, "lat": 23.6196}}, {"id": 1919639, "name": "Dacheng", "country": "CN", "coord": {"lon": 117.136429, "lat": 23.609329}}, {"id": 1919641, "name": "Tiepu", "country": "CN", "coord": {"lon": 116.755318, "lat": 23.612379}}, {"id": 1919642, "name": "Suocheng", "country": "CN", "coord": {"lon": 117.109322, "lat": 23.612591}}, {"id": 1919643, "name": "Yanhong", "country": "CN", "coord": {"lon": 116.867538, "lat": 23.608801}}, {"id": 1919656, "name": "Longdu", "country": "CN", "coord": {"lon": 116.725922, "lat": 23.57667}}, {"id": 1919671, "name": "Dongfeng", "country": "CN", "coord": {"lon": 116.671799, "lat": 23.544519}}, {"id": 1919674, "name": "Haishan", "country": "CN", "coord": {"lon": 116.945587, "lat": 23.53414}}, {"id": 1919676, "name": "Jinshi", "country": "CN", "coord": {"lon": 116.616531, "lat": 23.530359}}, {"id": 1919679, "name": "Shaxi", "country": "CN", "coord": {"lon": 116.579781, "lat": 23.524891}}, {"id": 1919688, "name": "Caitang", "country": "CN", "coord": {"lon": 116.649971, "lat": 23.507549}}, {"id": 1919691, "name": "Lianxia", "country": "CN", "coord": {"lon": 116.778061, "lat": 23.497709}}, {"id": 1919692, "name": "Nanxi", "country": "CN", "coord": {"lon": 116.24234, "lat": 23.5044}}, {"id": 1919695, "name": "Tatou", "country": "CN", "coord": {"lon": 116.06337, "lat": 23.490311}}, {"id": 1919701, "name": "Huizhai", "country": "CN", "coord": {"lon": 115.998177, "lat": 23.478939}}, {"id": 1919707, "name": "Shenao", "country": "CN", "coord": {"lon": 117.090736, "lat": 23.460329}}, {"id": 1919708, "name": "Jiushu", "country": "CN", "coord": {"lon": 115.181679, "lat": 23.45616}}, {"id": 1919709, "name": "Jinzao", "country": "CN", "coord": {"lon": 116.390404, "lat": 23.4541}}, {"id": 1919715, "name": "Waisha", "country": "CN", "coord": {"lon": 116.754768, "lat": 23.44165}}, {"id": 1919716, "name": "Jinhe", "country": "CN", "coord": {"lon": 116.045753, "lat": 23.43099}}, {"id": 1919726, "name": "Tuotang", "country": "CN", "coord": {"lon": 116.587486, "lat": 23.419149}}, {"id": 1919728, "name": "Yunao", "country": "CN", "coord": {"lon": 117.101112, "lat": 23.406111}}, {"id": 1919731, "name": "Tuopu", "country": "CN", "coord": {"lon": 116.645554, "lat": 23.413271}}, {"id": 1919732, "name": "Xinxi", "country": "CN", "coord": {"lon": 116.766922, "lat": 23.401279}}, {"id": 1919742, "name": "Xilu", "country": "CN", "coord": {"lon": 116.504539, "lat": 23.38114}}, {"id": 1919743, "name": "Luoxi", "country": "CN", "coord": {"lon": 115.620911, "lat": 23.38253}}, {"id": 1919746, "name": "Qilin", "country": "CN", "coord": {"lon": 116.285004, "lat": 23.422779}}, {"id": 1919748, "name": "Gurao", "country": "CN", "coord": {"lon": 116.409752, "lat": 23.352119}}, {"id": 1919751, "name": "Suqu", "country": "CN", "coord": {"lon": 115.343979, "lat": 23.35829}}, {"id": 1919753, "name": "Nanwan", "country": "CN", "coord": {"lon": 115.514633, "lat": 23.35755}}, {"id": 1919756, "name": "Meitang", "country": "CN", "coord": {"lon": 116.072372, "lat": 23.35191}}, {"id": 1919759, "name": "Nanjing", "country": "CN", "coord": {"lon": 116.291428, "lat": 23.348841}}, {"id": 1919762, "name": "Hexi", "country": "CN", "coord": {"lon": 116.547829, "lat": 23.316071}}, {"id": 1919775, "name": "Tongyu", "country": "CN", "coord": {"lon": 116.425491, "lat": 23.28458}}, {"id": 1919780, "name": "Chendian", "country": "CN", "coord": {"lon": 116.319183, "lat": 23.28549}}, {"id": 1919782, "name": "Majiao", "country": "CN", "coord": {"lon": 116.708893, "lat": 23.270821}}, {"id": 1919784, "name": "Mashan", "country": "CN", "coord": {"lon": 115.238327, "lat": 23.268419}}, {"id": 1919785, "name": "Dananshan", "country": "CN", "coord": {"lon": 116.168518, "lat": 23.26741}}, {"id": 1919788, "name": "Shanghu", "country": "CN", "coord": {"lon": 115.586777, "lat": 23.252131}}, {"id": 1919790, "name": "Jinpu", "country": "CN", "coord": {"lon": 116.547928, "lat": 23.249889}}, {"id": 1919795, "name": "Xiancheng", "country": "CN", "coord": {"lon": 116.314621, "lat": 23.237209}}, {"id": 1919798, "name": "Chuanpu", "country": "CN", "coord": {"lon": 115.8871, "lat": 23.22501}}, {"id": 1919801, "name": "Lugang", "country": "CN", "coord": {"lon": 116.457832, "lat": 23.224779}}, {"id": 1919802, "name": "Baokou", "country": "CN", "coord": {"lon": 115.193069, "lat": 23.218229}}, {"id": 1919803, "name": "Liangying", "country": "CN", "coord": {"lon": 116.359123, "lat": 23.215759}}, {"id": 1919813, "name": "Jingdu", "country": "CN", "coord": {"lon": 116.546547, "lat": 23.185801}}, {"id": 1919816, "name": "Xintian", "country": "CN", "coord": {"lon": 115.548851, "lat": 23.18821}}, {"id": 1919835, "name": "Hongchang", "country": "CN", "coord": {"lon": 116.310699, "lat": 23.115471}}, {"id": 1919836, "name": "Pingdong", "country": "CN", "coord": {"lon": 115.474861, "lat": 23.101021}}, {"id": 1919846, "name": "Leiling", "country": "CN", "coord": {"lon": 116.367203, "lat": 23.080191}}, {"id": 1919852, "name": "Xinan", "country": "CN", "coord": {"lon": 115.546768, "lat": 23.06451}}, {"id": 1919855, "name": "Baipenzhu", "country": "CN", "coord": {"lon": 115.010811, "lat": 23.055059}}, {"id": 1919859, "name": "Bawan", "country": "CN", "coord": {"lon": 115.74749, "lat": 23.04015}}, {"id": 1919860, "name": "Beiyang", "country": "CN", "coord": {"lon": 115.837898, "lat": 23.031919}}, {"id": 1919861, "name": "Huahu", "country": "CN", "coord": {"lon": 116.330833, "lat": 23.029221}}, {"id": 1919866, "name": "Zhoutian", "country": "CN", "coord": {"lon": 116.443466, "lat": 23.010469}}, {"id": 1919869, "name": "Donglong", "country": "CN", "coord": {"lon": 116.273682, "lat": 23.0079}}, {"id": 1920394, "name": "Mingjing", "country": "CN", "coord": {"lon": 112.906662, "lat": 24.201139}}, {"id": 1920396, "name": "Xiashuai", "country": "CN", "coord": {"lon": 112.085411, "lat": 24.21418}}, {"id": 1920412, "name": "Yanbei", "country": "CN", "coord": {"lon": 112.822472, "lat": 24.27392}}, {"id": 1920434, "name": "Qingkeng", "country": "CN", "coord": {"lon": 112.90612, "lat": 24.42}}, {"id": 1920444, "name": "Damaishan", "country": "CN", "coord": {"lon": 112.278938, "lat": 24.503599}}, {"id": 1920446, "name": "Jiangying", "country": "CN", "coord": {"lon": 112.838058, "lat": 24.506941}}, {"id": 1920457, "name": "Woshui", "country": "CN", "coord": {"lon": 112.225601, "lat": 24.56838}}, {"id": 1920461, "name": "Xiangping", "country": "CN", "coord": {"lon": 112.114807, "lat": 24.58943}}, {"id": 1920464, "name": "Xiaojiang", "country": "CN", "coord": {"lon": 112.592667, "lat": 24.616131}}, {"id": 1920470, "name": "Dafu", "country": "CN", "coord": {"lon": 112.055519, "lat": 24.64752}}, {"id": 1920473, "name": "Sanpai", "country": "CN", "coord": {"lon": 112.292824, "lat": 24.663839}}, {"id": 1920474, "name": "Jiubei", "country": "CN", "coord": {"lon": 112.364861, "lat": 24.67042}}, {"id": 1920481, "name": "Huangben", "country": "CN", "coord": {"lon": 112.683868, "lat": 24.691681}}, {"id": 1920490, "name": "Hedong", "country": "CN", "coord": {"lon": 112.0812, "lat": 24.761169}}, {"id": 1920501, "name": "Longping", "country": "CN", "coord": {"lon": 112.483871, "lat": 24.82439}}, {"id": 1920512, "name": "Baoan", "country": "CN", "coord": {"lon": 112.388481, "lat": 24.913719}}, {"id": 1920524, "name": "Yaoan", "country": "CN", "coord": {"lon": 112.405518, "lat": 25.01824}}, {"id": 1920529, "name": "Shantang", "country": "CN", "coord": {"lon": 112.598839, "lat": 25.074921}}, {"id": 1920535, "name": "Sanshui", "country": "CN", "coord": {"lon": 112.21991, "lat": 25.11846}}, {"id": 1920538, "name": "Sanxi", "country": "CN", "coord": {"lon": 112.86911, "lat": 25.285509}}, {"id": 1921037, "name": "Xunzhong", "country": "CN", "coord": {"lon": 118.24366, "lat": 25.47805}}, {"id": 1921142, "name": "Donglin", "country": "CN", "coord": {"lon": 117.615372, "lat": 23.837521}}, {"id": 1921199, "name": "Keren", "country": "CN", "coord": {"lon": 118.663612, "lat": 24.578609}}, {"id": 1921200, "name": "Wubao", "country": "CN", "coord": {"lon": 118.552498, "lat": 24.592779}}, {"id": 1921204, "name": "Tatou", "country": "CN", "coord": {"lon": 118.523697, "lat": 24.61315}}, {"id": 1921211, "name": "Yinglin", "country": "CN", "coord": {"lon": 118.580559, "lat": 24.632219}}, {"id": 1921219, "name": "Maping", "country": "CN", "coord": {"lon": 118.55278, "lat": 24.68722}}, {"id": 1921237, "name": "Neikeng", "country": "CN", "coord": {"lon": 118.460564, "lat": 24.771391}}, {"id": 1921267, "name": "Baiqi", "country": "CN", "coord": {"lon": 118.708687, "lat": 24.882441}}, {"id": 1921281, "name": "Shanxia", "country": "CN", "coord": {"lon": 118.881699, "lat": 24.938021}}, {"id": 1921288, "name": "Xiangyun", "country": "CN", "coord": {"lon": 118.160278, "lat": 24.971109}}, {"id": 1921290, "name": "Jingfeng", "country": "CN", "coord": {"lon": 118.964859, "lat": 24.974409}}, {"id": 1921606, "name": "Anjie", "country": "CN", "coord": {"lon": 116.461899, "lat": 25.95788}}, {"id": 1921609, "name": "Tiechang", "country": "CN", "coord": {"lon": 116.39547, "lat": 25.931761}}, {"id": 1921610, "name": "Dengjia", "country": "CN", "coord": {"lon": 116.83873, "lat": 25.91654}}, {"id": 1921612, "name": "Sibao", "country": "CN", "coord": {"lon": 116.706306, "lat": 25.895189}}, {"id": 1921621, "name": "Datong", "country": "CN", "coord": {"lon": 116.358856, "lat": 25.84231}}, {"id": 1921622, "name": "Lijia", "country": "CN", "coord": {"lon": 116.786461, "lat": 25.827761}}, {"id": 1921627, "name": "Gechuan", "country": "CN", "coord": {"lon": 116.740448, "lat": 25.756889}}, {"id": 1921630, "name": "Jiele", "country": "CN", "coord": {"lon": 116.78299, "lat": 25.728479}}, {"id": 1921645, "name": "Xuanhe", "country": "CN", "coord": {"lon": 116.64093, "lat": 25.61047}}, {"id": 1921646, "name": "Sanzhou", "country": "CN", "coord": {"lon": 116.378677, "lat": 25.592609}}, {"id": 1921659, "name": "Hongshan", "country": "CN", "coord": {"lon": 116.102669, "lat": 25.49506}}, {"id": 1921665, "name": "Xiangdian", "country": "CN", "coord": {"lon": 116.209846, "lat": 25.443621}}, {"id": 1921672, "name": "Yanggu", "country": "CN", "coord": {"lon": 116.316292, "lat": 25.386061}}, {"id": 1921691, "name": "Buyun", "country": "CN", "coord": {"lon": 116.854729, "lat": 25.270309}}, {"id": 1921696, "name": "Shanhu", "country": "CN", "coord": {"lon": 116.327217, "lat": 25.23111}}, {"id": 1921714, "name": "Wudong", "country": "CN", "coord": {"lon": 116.246002, "lat": 25.109301}}, {"id": 1921720, "name": "Qifang", "country": "CN", "coord": {"lon": 116.099449, "lat": 25.10001}}, {"id": 1921721, "name": "Xikou", "country": "CN", "coord": {"lon": 116.675041, "lat": 25.06415}}, {"id": 1921722, "name": "Lincheng", "country": "CN", "coord": {"lon": 116.408081, "lat": 25.05938}}, {"id": 1921728, "name": "Nanyang", "country": "CN", "coord": {"lon": 116.952522, "lat": 25.026541}}, {"id": 1921990, "name": "Liantang", "country": "CN", "coord": {"lon": 118.516113, "lat": 27.923889}}, {"id": 1922253, "name": "Haidao", "country": "CN", "coord": {"lon": 120.048172, "lat": 26.504431}}, {"id": 1922257, "name": "Xibin", "country": "CN", "coord": {"lon": 118.374687, "lat": 26.36832}}, {"id": 1922260, "name": "Xicheng", "country": "CN", "coord": {"lon": 118.14193, "lat": 26.163019}}, {"id": 1922279, "name": "Tianyuan", "country": "CN", "coord": {"lon": 116.845047, "lat": 26.0543}}, {"id": 1922280, "name": "Qitao", "country": "CN", "coord": {"lon": 117.868813, "lat": 26.052401}}, {"id": 1922300, "name": "Yupeng", "country": "CN", "coord": {"lon": 117.041107, "lat": 26.10111}}, {"id": 1922324, "name": "Baziqiao", "country": "CN", "coord": {"lon": 117.850182, "lat": 26.187799}}, {"id": 1922329, "name": "Chengnan", "country": "CN", "coord": {"lon": 116.714088, "lat": 26.215599}}, {"id": 1922337, "name": "Xiaochi", "country": "CN", "coord": {"lon": 117.018082, "lat": 26.233709}}, {"id": 1922338, "name": "Xinshi", "country": "CN", "coord": {"lon": 116.514198, "lat": 26.24859}}, {"id": 1922346, "name": "Nanxia", "country": "CN", "coord": {"lon": 117.874519, "lat": 26.28084}}, {"id": 1922347, "name": "Xubi", "country": "CN", "coord": {"lon": 117.632523, "lat": 26.279751}}, {"id": 1922356, "name": "Chenda", "country": "CN", "coord": {"lon": 117.644699, "lat": 26.314211}}, {"id": 1922364, "name": "Hanxian", "country": "CN", "coord": {"lon": 117.2901, "lat": 26.359739}}, {"id": 1922372, "name": "Langkou", "country": "CN", "coord": {"lon": 117.839668, "lat": 26.3874}}, {"id": 1922387, "name": "Helong", "country": "CN", "coord": {"lon": 116.653671, "lat": 26.446199}}, {"id": 1922425, "name": "Xiafang", "country": "CN", "coord": {"lon": 116.934052, "lat": 26.57247}}, {"id": 1922428, "name": "Lishu", "country": "CN", "coord": {"lon": 117.716232, "lat": 26.593321}}, {"id": 1922443, "name": "Longan", "country": "CN", "coord": {"lon": 117.034889, "lat": 26.63372}}, {"id": 1922458, "name": "Dushang", "country": "CN", "coord": {"lon": 116.754593, "lat": 26.689171}}, {"id": 1922462, "name": "Dabu", "country": "CN", "coord": {"lon": 117.009354, "lat": 26.714069}}, {"id": 1922471, "name": "Huangbu", "country": "CN", "coord": {"lon": 116.653259, "lat": 26.7421}}, {"id": 1922473, "name": "Kaishan", "country": "CN", "coord": {"lon": 117.180138, "lat": 26.753281}}, {"id": 1922483, "name": "Shuinan", "country": "CN", "coord": {"lon": 117.795403, "lat": 26.72464}}, {"id": 1922492, "name": "Hedong", "country": "CN", "coord": {"lon": 116.8479, "lat": 26.835369}}, {"id": 1922523, "name": "Hongdun", "country": "CN", "coord": {"lon": 117.666313, "lat": 26.97827}}, {"id": 1923060, "name": "Wudang", "country": "CN", "coord": {"lon": 114.752159, "lat": 24.639931}}, {"id": 1923099, "name": "Lintang", "country": "CN", "coord": {"lon": 114.796867, "lat": 24.790939}}, {"id": 1923144, "name": "Taojiang", "country": "CN", "coord": {"lon": 114.779732, "lat": 24.91684}}, {"id": 1923210, "name": "Luoshan", "country": "CN", "coord": {"lon": 115.816452, "lat": 25.144751}}, {"id": 1923231, "name": "Changling", "country": "CN", "coord": {"lon": 115.800926, "lat": 25.246349}}, {"id": 1923249, "name": "Dongtou", "country": "CN", "coord": {"lon": 115.910294, "lat": 25.307329}}, {"id": 1923250, "name": "Caifang", "country": "CN", "coord": {"lon": 115.445633, "lat": 25.30039}}, {"id": 1923311, "name": "Shuangyuan", "country": "CN", "coord": {"lon": 115.300323, "lat": 25.49304}}, {"id": 1923383, "name": "Baying", "country": "CN", "coord": {"lon": 115.969429, "lat": 25.647209}}, {"id": 1923403, "name": "Zhuangbu", "country": "CN", "coord": {"lon": 115.593979, "lat": 25.69845}}, {"id": 1923404, "name": "Qilushan", "country": "CN", "coord": {"lon": 115.298447, "lat": 25.695801}}, {"id": 1923418, "name": "Fenghuangdong", "country": "CN", "coord": {"lon": 115.741386, "lat": 25.727501}}, {"id": 1923445, "name": "Hefeng", "country": "CN", "coord": {"lon": 115.488632, "lat": 25.80085}}, {"id": 1923470, "name": "Xinbei", "country": "CN", "coord": {"lon": 115.347572, "lat": 25.873831}}, {"id": 1923473, "name": "Xiaomi", "country": "CN", "coord": {"lon": 115.706398, "lat": 25.876591}}, {"id": 1923474, "name": "Luojiang", "country": "CN", "coord": {"lon": 115.252548, "lat": 25.880011}}, {"id": 1923526, "name": "Shaxin", "country": "CN", "coord": {"lon": 115.766296, "lat": 25.99334}}, {"id": 1923630, "name": "Zhukeng", "country": "CN", "coord": {"lon": 116.361191, "lat": 26.215599}}, {"id": 1923636, "name": "Jiecun", "country": "CN", "coord": {"lon": 115.436394, "lat": 26.218889}}, {"id": 1923671, "name": "Butou", "country": "CN", "coord": {"lon": 115.337502, "lat": 26.290831}}, {"id": 1923699, "name": "Longping", "country": "CN", "coord": {"lon": 115.235222, "lat": 26.355551}}, {"id": 1923733, "name": "Dinglong", "country": "CN", "coord": {"lon": 115.454514, "lat": 26.415449}}, {"id": 1923786, "name": "Shuicha", "country": "CN", "coord": {"lon": 115.066368, "lat": 26.52306}}, {"id": 1923838, "name": "Tangfang", "country": "CN", "coord": {"lon": 116.482887, "lat": 26.62166}}, {"id": 1923922, "name": "Guanxi", "country": "CN", "coord": {"lon": 115.121841, "lat": 26.752871}}, {"id": 1924002, "name": "Sanfang", "country": "CN", "coord": {"lon": 115.414558, "lat": 26.86924}}, {"id": 1924023, "name": "Wanhe", "country": "CN", "coord": {"lon": 115.027313, "lat": 26.89612}}, {"id": 1924048, "name": "Qianshan", "country": "CN", "coord": {"lon": 116.469833, "lat": 26.931179}}, {"id": 1924056, "name": "Wenbei", "country": "CN", "coord": {"lon": 115.114342, "lat": 26.942869}}, {"id": 1924131, "name": "Zhangping", "country": "CN", "coord": {"lon": 117.420822, "lat": 27.99683}}, {"id": 1924132, "name": "Taiyuan", "country": "CN", "coord": {"lon": 117.507782, "lat": 28.009171}}, {"id": 1924156, "name": "Pengwan", "country": "CN", "coord": {"lon": 117.123543, "lat": 28.09564}}, {"id": 1924162, "name": "Gangdong", "country": "CN", "coord": {"lon": 117.662498, "lat": 28.11639}}, {"id": 1924170, "name": "Yingjiang", "country": "CN", "coord": {"lon": 117.91333, "lat": 28.138611}}, {"id": 1924191, "name": "Tieshan", "country": "CN", "coord": {"lon": 118.095039, "lat": 28.215281}}, {"id": 1924194, "name": "Hongqiao", "country": "CN", "coord": {"lon": 117.684441, "lat": 28.24889}}, {"id": 1924204, "name": "Xinanbu", "country": "CN", "coord": {"lon": 117.594299, "lat": 28.26701}}, {"id": 1924207, "name": "Ehu", "country": "CN", "coord": {"lon": 117.794312, "lat": 28.290501}}, {"id": 1924219, "name": "Hengshan", "country": "CN", "coord": {"lon": 118.19706, "lat": 28.31724}}, {"id": 1924230, "name": "Shatian", "country": "CN", "coord": {"lon": 118.280701, "lat": 28.338011}}, {"id": 1924241, "name": "Hongtang", "country": "CN", "coord": {"lon": 117.016609, "lat": 28.35815}}, {"id": 1924248, "name": "Dongtuan", "country": "CN", "coord": {"lon": 117.848633, "lat": 28.39142}}, {"id": 1924252, "name": "Maocun", "country": "CN", "coord": {"lon": 118.364357, "lat": 28.394199}}, {"id": 1924255, "name": "Dashi", "country": "CN", "coord": {"lon": 118.212318, "lat": 28.40247}}, {"id": 1924261, "name": "Huating", "country": "CN", "coord": {"lon": 117.442223, "lat": 28.433889}}, {"id": 1924271, "name": "Gangbian", "country": "CN", "coord": {"lon": 117.689171, "lat": 28.466391}}, {"id": 1924273, "name": "Paishan", "country": "CN", "coord": {"lon": 118.279388, "lat": 28.45956}}, {"id": 1924275, "name": "Puqian", "country": "CN", "coord": {"lon": 117.613609, "lat": 28.47333}}, {"id": 1924280, "name": "Shehou", "country": "CN", "coord": {"lon": 118.367332, "lat": 28.48011}}, {"id": 1924288, "name": "Wucun", "country": "CN", "coord": {"lon": 118.277153, "lat": 28.498911}}, {"id": 1924305, "name": "Huqiao", "country": "CN", "coord": {"lon": 118.157784, "lat": 28.54833}}, {"id": 1924314, "name": "Xianyan", "country": "CN", "coord": {"lon": 118.394173, "lat": 28.57333}}, {"id": 1924318, "name": "Hufeng", "country": "CN", "coord": {"lon": 118.190826, "lat": 28.590281}}, {"id": 1924343, "name": "Liudu", "country": "CN", "coord": {"lon": 118.305183, "lat": 28.64612}}, {"id": 1924348, "name": "Linhu", "country": "CN", "coord": {"lon": 117.937683, "lat": 28.65958}}, {"id": 1924354, "name": "Shangfang", "country": "CN", "coord": {"lon": 117.04583, "lat": 28.678329}}, {"id": 1924365, "name": "Yanrui", "country": "CN", "coord": {"lon": 118.337151, "lat": 28.713989}}, {"id": 1924377, "name": "Siguqiao", "country": "CN", "coord": {"lon": 118.261909, "lat": 28.746771}}, {"id": 1924384, "name": "Baiyun", "country": "CN", "coord": {"lon": 118.325928, "lat": 28.75779}}, {"id": 1924385, "name": "Zhangcun", "country": "CN", "coord": {"lon": 117.560654, "lat": 28.760229}}, {"id": 1924418, "name": "Lilin", "country": "CN", "coord": {"lon": 117.165047, "lat": 28.86338}}, {"id": 1924452, "name": "Wukou", "country": "CN", "coord": {"lon": 117.239159, "lat": 28.980619}}, {"id": 1924460, "name": "Gaojia", "country": "CN", "coord": {"lon": 117.3825, "lat": 29.00111}}, {"id": 1924461, "name": "Tanbuqiao", "country": "CN", "coord": {"lon": 117.629646, "lat": 29.00701}}, {"id": 1924513, "name": "Liyang", "country": "CN", "coord": {"lon": 117.036972, "lat": 29.22064}}, {"id": 1924521, "name": "Zhentou", "country": "CN", "coord": {"lon": 117.468269, "lat": 29.266769}}, {"id": 1924522, "name": "Longshan", "country": "CN", "coord": {"lon": 117.684891, "lat": 29.270611}}, {"id": 1924537, "name": "Jialu", "country": "CN", "coord": {"lon": 117.62056, "lat": 29.353201}}, {"id": 1924657, "name": "Bailu", "country": "CN", "coord": {"lon": 116.19944, "lat": 27.910139}}, {"id": 1924660, "name": "Baimaqiao", "country": "CN", "coord": {"lon": 116.738037, "lat": 28.6401}}, {"id": 1924665, "name": "Baixu", "country": "CN", "coord": {"lon": 116.252487, "lat": 28.26156}}, {"id": 1924668, "name": "Bajiang", "country": "CN", "coord": {"lon": 115.351517, "lat": 27.20363}}, {"id": 1924677, "name": "Beigang", "country": "CN", "coord": {"lon": 115.093407, "lat": 27.92873}}, {"id": 1924692, "name": "Changjun", "country": "CN", "coord": {"lon": 115.714188, "lat": 28.86618}}, {"id": 1924700, "name": "Chenfangji", "country": "CN", "coord": {"lon": 116.553757, "lat": 28.059389}}, {"id": 1924710, "name": "Chonggang", "country": "CN", "coord": {"lon": 116.374237, "lat": 27.911261}}, {"id": 1924728, "name": "Daqiao", "country": "CN", "coord": {"lon": 115.580597, "lat": 28.05452}}, {"id": 1924730, "name": "Datang", "country": "CN", "coord": {"lon": 116.51844, "lat": 28.7796}}, {"id": 1924735, "name": "Dayangzhou", "country": "CN", "coord": {"lon": 115.448982, "lat": 27.900591}}, {"id": 1924739, "name": "Dengdun", "country": "CN", "coord": {"lon": 116.576317, "lat": 28.399599}}, {"id": 1924740, "name": "Dengfang", "country": "CN", "coord": {"lon": 116.524902, "lat": 27.811119}}, {"id": 1924751, "name": "Dinghu", "country": "CN", "coord": {"lon": 115.544937, "lat": 28.837561}}, {"id": 1924769, "name": "Dongxin", "country": "CN", "coord": {"lon": 115.827766, "lat": 28.589319}}, {"id": 1924770, "name": "Dongyuan", "country": "CN", "coord": {"lon": 116.448601, "lat": 28.770491}}, {"id": 1924778, "name": "Ducheng", "country": "CN", "coord": {"lon": 115.491531, "lat": 28.233459}}, {"id": 1924803, "name": "Fubei", "country": "CN", "coord": {"lon": 116.292801, "lat": 28.006531}}, {"id": 1924809, "name": "Gangshang", "country": "CN", "coord": {"lon": 115.863281, "lat": 28.41721}}, {"id": 1924813, "name": "Gaoping", "country": "CN", "coord": {"lon": 116.154869, "lat": 27.927139}}, {"id": 1924835, "name": "Gugang", "country": "CN", "coord": {"lon": 116.00116, "lat": 27.38413}}, {"id": 1924839, "name": "Hangbu", "country": "CN", "coord": {"lon": 116.245781, "lat": 27.8153}}, {"id": 1924845, "name": "Hebu", "country": "CN", "coord": {"lon": 116.39827, "lat": 27.78825}}, {"id": 1924848, "name": "Heling", "country": "CN", "coord": {"lon": 115.41082, "lat": 28.35314}}, {"id": 1924858, "name": "Heshan", "country": "CN", "coord": {"lon": 116.552254, "lat": 28.598169}}, {"id": 1924868, "name": "Hongjiazui", "country": "CN", "coord": {"lon": 116.657639, "lat": 28.6991}}, {"id": 1924880, "name": "Houtian", "country": "CN", "coord": {"lon": 115.790604, "lat": 28.465219}}, {"id": 1924884, "name": "Hualingang", "country": "CN", "coord": {"lon": 116.693069, "lat": 28.706329}}, {"id": 1924887, "name": "Huangcheng", "country": "CN", "coord": {"lon": 115.561562, "lat": 28.360161}}, {"id": 1924892, "name": "Huangma", "country": "CN", "coord": {"lon": 116.011971, "lat": 28.352091}}, {"id": 1924895, "name": "Huangxi", "country": "CN", "coord": {"lon": 116.876701, "lat": 28.33408}}, {"id": 1924901, "name": "Huangzhuang", "country": "CN", "coord": {"lon": 116.951653, "lat": 28.47728}}, {"id": 1924905, "name": "Hutang", "country": "CN", "coord": {"lon": 115.612106, "lat": 28.32362}}, {"id": 1924910, "name": "Huxu", "country": "CN", "coord": {"lon": 116.574478, "lat": 28.177019}}, {"id": 1924922, "name": "Jiaokeng", "country": "CN", "coord": {"lon": 115.816048, "lat": 27.75572}}, {"id": 1924933, "name": "Jingkou", "country": "CN", "coord": {"lon": 116.160568, "lat": 28.65148}}, {"id": 1924937, "name": "Jinqiao", "country": "CN", "coord": {"lon": 115.908508, "lat": 28.96994}}, {"id": 1924939, "name": "Jinshanzui", "country": "CN", "coord": {"lon": 116.560318, "lat": 28.733509}}, {"id": 1924965, "name": "Lehua", "country": "CN", "coord": {"lon": 115.864891, "lat": 28.821051}}, {"id": 1924968, "name": "Liancheng", "country": "CN", "coord": {"lon": 116.307152, "lat": 27.892559}}, {"id": 1924993, "name": "Liugongmiao", "country": "CN", "coord": {"lon": 115.30574, "lat": 28.110531}}, {"id": 1924995, "name": "Liuhu", "country": "CN", "coord": {"lon": 115.721893, "lat": 28.469749}}, {"id": 1925002, "name": "Longhushan", "country": "CN", "coord": {"lon": 116.975922, "lat": 28.123461}}, {"id": 1925003, "name": "Longtan", "country": "CN", "coord": {"lon": 115.237267, "lat": 28.39259}}, {"id": 1925004, "name": "Longxi", "country": "CN", "coord": {"lon": 116.287872, "lat": 27.713989}}, {"id": 1925008, "name": "Lufang", "country": "CN", "coord": {"lon": 116.820549, "lat": 28.010481}}, {"id": 1925026, "name": "Luoshi", "country": "CN", "coord": {"lon": 115.829651, "lat": 27.99225}}, {"id": 1925027, "name": "Luoting", "country": "CN", "coord": {"lon": 115.787071, "lat": 28.89012}}, {"id": 1925029, "name": "Luozhen", "country": "CN", "coord": {"lon": 116.262733, "lat": 28.12048}}, {"id": 1925031, "name": "Lusigang", "country": "CN", "coord": {"lon": 116.649834, "lat": 28.75433}}, {"id": 1925033, "name": "Maan", "country": "CN", "coord": {"lon": 115.904381, "lat": 27.741261}}, {"id": 1925037, "name": "Mahong", "country": "CN", "coord": {"lon": 115.017532, "lat": 27.919069}}, {"id": 1925044, "name": "Maopai", "country": "CN", "coord": {"lon": 116.505173, "lat": 27.624611}}, {"id": 1925046, "name": "Maqiu", "country": "CN", "coord": {"lon": 116.078423, "lat": 28.671089}}, {"id": 1925051, "name": "Meiling", "country": "CN", "coord": {"lon": 115.745018, "lat": 28.79224}}, {"id": 1925076, "name": "Nantai", "country": "CN", "coord": {"lon": 116.40419, "lat": 28.49152}}, {"id": 1925091, "name": "Pengzhou", "country": "CN", "coord": {"lon": 115.724251, "lat": 27.49205}}, {"id": 1925100, "name": "Qiaole", "country": "CN", "coord": {"lon": 115.563751, "lat": 28.64414}}, {"id": 1925107, "name": "Qidu", "country": "CN", "coord": {"lon": 115.55632, "lat": 27.2756}}, {"id": 1925110, "name": "Qiligang", "country": "CN", "coord": {"lon": 116.424156, "lat": 28.009701}}, {"id": 1925117, "name": "Qingyun", "country": "CN", "coord": {"lon": 116.924721, "lat": 28.662081}}, {"id": 1925122, "name": "Quanling", "country": "CN", "coord": {"lon": 116.072021, "lat": 28.377991}}, {"id": 1925127, "name": "Raobu", "country": "CN", "coord": {"lon": 116.947281, "lat": 28.87859}}, {"id": 1925128, "name": "Raofeng", "country": "CN", "coord": {"lon": 116.819443, "lat": 28.95639}}, {"id": 1925131, "name": "Rongtang", "country": "CN", "coord": {"lon": 115.715157, "lat": 28.10862}}, {"id": 1925134, "name": "Sangtian", "country": "CN", "coord": {"lon": 116.566658, "lat": 27.12578}}, {"id": 1925139, "name": "Sanshan", "country": "CN", "coord": {"lon": 115.987709, "lat": 27.84198}}, {"id": 1925155, "name": "Shanghu", "country": "CN", "coord": {"lon": 115.327423, "lat": 28.34659}}, {"id": 1925204, "name": "Shuangcun", "country": "CN", "coord": {"lon": 115.21814, "lat": 27.39386}}, {"id": 1925221, "name": "Songhu", "country": "CN", "coord": {"lon": 116.474213, "lat": 27.908051}}, {"id": 1925229, "name": "Sundu", "country": "CN", "coord": {"lon": 115.764954, "lat": 28.1395}}, {"id": 1925231, "name": "Tacheng", "country": "CN", "coord": {"lon": 116.093727, "lat": 28.506729}}, {"id": 1925240, "name": "Tangang", "country": "CN", "coord": {"lon": 115.753036, "lat": 27.417139}}, {"id": 1925252, "name": "Taobei", "country": "CN", "coord": {"lon": 116.270401, "lat": 27.63188}}, {"id": 1925253, "name": "Taohua", "country": "CN", "coord": {"lon": 115.873062, "lat": 28.653379}}, {"id": 1925254, "name": "Taoxi", "country": "CN", "coord": {"lon": 115.581718, "lat": 27.782301}}, {"id": 1925256, "name": "Taoyuan", "country": "CN", "coord": {"lon": 116.04055, "lat": 27.637581}}, {"id": 1925260, "name": "Tiannan", "country": "CN", "coord": {"lon": 115.109848, "lat": 28.123541}}, {"id": 1925261, "name": "Tiannan", "country": "CN", "coord": {"lon": 115.107269, "lat": 28.10676}}, {"id": 1925269, "name": "Tonglin", "country": "CN", "coord": {"lon": 115.4188, "lat": 27.512289}}, {"id": 1925274, "name": "Wanchong", "country": "CN", "coord": {"lon": 115.701752, "lat": 27.2127}}, {"id": 1925277, "name": "Wangcheng", "country": "CN", "coord": {"lon": 115.78138, "lat": 28.673349}}, {"id": 1925279, "name": "Wangjia", "country": "CN", "coord": {"lon": 116.938599, "lat": 28.70907}}, {"id": 1925299, "name": "Wuyang", "country": "CN", "coord": {"lon": 116.010452, "lat": 28.51878}}, {"id": 1925311, "name": "Xiangshan", "country": "CN", "coord": {"lon": 115.980972, "lat": 28.95348}}, {"id": 1925312, "name": "Xiangshan", "country": "CN", "coord": {"lon": 116.030113, "lat": 27.557079}}, {"id": 1925320, "name": "Xiaohuang", "country": "CN", "coord": {"lon": 116.709717, "lat": 28.31222}}, {"id": 1925325, "name": "Xiaotang", "country": "CN", "coord": {"lon": 115.912018, "lat": 28.208521}}, {"id": 1925363, "name": "Xixia", "country": "CN", "coord": {"lon": 115.843262, "lat": 28.858549}}, {"id": 1925367, "name": "Xufang", "country": "CN", "coord": {"lon": 116.218719, "lat": 27.65317}}, {"id": 1925368, "name": "Xushangqiao", "country": "CN", "coord": {"lon": 116.546387, "lat": 28.22879}}, {"id": 1925370, "name": "Yanbei", "country": "CN", "coord": {"lon": 115.532341, "lat": 27.36974}}, {"id": 1925380, "name": "Yangqiaodian", "country": "CN", "coord": {"lon": 116.54184, "lat": 28.37162}}, {"id": 1925381, "name": "Yangshan", "country": "CN", "coord": {"lon": 115.028702, "lat": 28.761471}}, {"id": 1925382, "name": "Yangsi", "country": "CN", "coord": {"lon": 115.755508, "lat": 28.99378}}, {"id": 1925393, "name": "Tianjingyuan", "country": "CN", "coord": {"lon": 116.647301, "lat": 27.53171}}, {"id": 1925398, "name": "Yaotian", "country": "CN", "coord": {"lon": 115.620789, "lat": 27.129641}}, {"id": 1925399, "name": "Yaoxu", "country": "CN", "coord": {"lon": 116.793114, "lat": 28.1096}}, {"id": 1925413, "name": "Yonghe", "country": "CN", "coord": {"lon": 115.014687, "lat": 27.031111}}, {"id": 1925418, "name": "Yuandu", "country": "CN", "coord": {"lon": 116.047241, "lat": 28.263639}}, {"id": 1925446, "name": "Zhangxiang", "country": "CN", "coord": {"lon": 115.913078, "lat": 28.149611}}, {"id": 1925449, "name": "Zhangshan", "country": "CN", "coord": {"lon": 115.044083, "lat": 27.18495}}, {"id": 1925456, "name": "Zhanxu", "country": "CN", "coord": {"lon": 116.423622, "lat": 28.22011}}, {"id": 1925457, "name": "Zhaobu", "country": "CN", "coord": {"lon": 116.262482, "lat": 28.56996}}, {"id": 1925460, "name": "Zhenkou", "country": "CN", "coord": {"lon": 116.342857, "lat": 27.398781}}, {"id": 1925493, "name": "Zuofang", "country": "CN", "coord": {"lon": 116.750908, "lat": 27.82328}}, {"id": 1927332, "name": "Xingsha", "country": "CN", "coord": {"lon": 113.087784, "lat": 28.239719}}, {"id": 1927408, "name": "Daweishan", "country": "CN", "coord": {"lon": 114.007851, "lat": 28.461861}}, {"id": 1927466, "name": "Guantouzui", "country": "CN", "coord": {"lon": 112.001839, "lat": 29.052679}}, {"id": 1927478, "name": "Heishanzui", "country": "CN", "coord": {"lon": 112.008728, "lat": 29.111891}}, {"id": 1927514, "name": "Huangzhuzhou", "country": "CN", "coord": {"lon": 112.084663, "lat": 29.11739}}, {"id": 1927584, "name": "Longmen", "country": "CN", "coord": {"lon": 114.052757, "lat": 28.80909}}, {"id": 1927717, "name": "Shimeitang", "country": "CN", "coord": {"lon": 112.070168, "lat": 29.19363}}, {"id": 1927890, "name": "Zhonghekou", "country": "CN", "coord": {"lon": 111.987587, "lat": 29.32181}}, {"id": 1927896, "name": "Zhouwenmiao", "country": "CN", "coord": {"lon": 112.051697, "lat": 28.9121}}, {"id": 1927920, "name": "Maoerzhai", "country": "CN", "coord": {"lon": 109.499649, "lat": 29.561319}}, {"id": 1927922, "name": "Yanwukou", "country": "CN", "coord": {"lon": 109.916458, "lat": 29.501381}}, {"id": 1927925, "name": "Shigaoshan", "country": "CN", "coord": {"lon": 109.465317, "lat": 29.51358}}, {"id": 1927926, "name": "Xincheng", "country": "CN", "coord": {"lon": 109.45826, "lat": 29.46207}}, {"id": 1927927, "name": "Xinchangao", "country": "CN", "coord": {"lon": 109.647476, "lat": 29.44541}}, {"id": 1927930, "name": "Bixidong", "country": "CN", "coord": {"lon": 109.68811, "lat": 29.38414}}, {"id": 1927931, "name": "Xiluo", "country": "CN", "coord": {"lon": 109.466469, "lat": 29.408661}}, {"id": 1927932, "name": "Cengjiawan", "country": "CN", "coord": {"lon": 109.375069, "lat": 29.42049}}, {"id": 1927933, "name": "Longzui", "country": "CN", "coord": {"lon": 109.367218, "lat": 29.334249}}, {"id": 1927935, "name": "Xinzhaipo", "country": "CN", "coord": {"lon": 109.422447, "lat": 29.284781}}, {"id": 1927938, "name": "Shangdongjie", "country": "CN", "coord": {"lon": 109.987381, "lat": 29.32972}}, {"id": 1927940, "name": "Xinchang", "country": "CN", "coord": {"lon": 109.730453, "lat": 29.258101}}, {"id": 1927942, "name": "Chenzhouzhai", "country": "CN", "coord": {"lon": 109.463203, "lat": 29.27342}}, {"id": 1927945, "name": "Luotache", "country": "CN", "coord": {"lon": 109.522659, "lat": 29.208679}}, {"id": 1927947, "name": "Laoxingchang", "country": "CN", "coord": {"lon": 109.343109, "lat": 29.15584}}, {"id": 1927948, "name": "Guitangba", "country": "CN", "coord": {"lon": 109.25927, "lat": 29.109221}}, {"id": 1927949, "name": "Fengxizhai", "country": "CN", "coord": {"lon": 109.445541, "lat": 29.006901}}, {"id": 1927950, "name": "Mengxihu", "country": "CN", "coord": {"lon": 109.477577, "lat": 29.12196}}, {"id": 1927951, "name": "Xishaping", "country": "CN", "coord": {"lon": 109.528297, "lat": 29.14257}}, {"id": 1927954, "name": "Liandonggang", "country": "CN", "coord": {"lon": 109.882271, "lat": 29.007509}}, {"id": 1927956, "name": "Wujiazhai", "country": "CN", "coord": {"lon": 109.710487, "lat": 29.10165}}, {"id": 1927960, "name": "Guancangping", "country": "CN", "coord": {"lon": 109.91864, "lat": 29.182159}}, {"id": 1927962, "name": "Yanbanpu", "country": "CN", "coord": {"lon": 109.832733, "lat": 29.091459}}, {"id": 1927964, "name": "Cheping", "country": "CN", "coord": {"lon": 110.002502, "lat": 29.15444}}, {"id": 1927972, "name": "Yanchi", "country": "CN", "coord": {"lon": 110.929878, "lat": 29.799219}}, {"id": 1927982, "name": "Baishi", "country": "CN", "coord": {"lon": 110.585197, "lat": 29.703581}}, {"id": 1927984, "name": "Zhenjiatai", "country": "CN", "coord": {"lon": 110.475327, "lat": 29.692881}}, {"id": 1927987, "name": "Linxihe", "country": "CN", "coord": {"lon": 110.371338, "lat": 29.63242}}, {"id": 1927990, "name": "Bamaoxi", "country": "CN", "coord": {"lon": 110.024872, "lat": 29.67384}}, {"id": 1927992, "name": "Sifangxi", "country": "CN", "coord": {"lon": 110.168762, "lat": 29.65954}}, {"id": 1927996, "name": "Zhangjiaqiao", "country": "CN", "coord": {"lon": 110.142021, "lat": 29.506849}}, {"id": 1928000, "name": "Xianchiyu", "country": "CN", "coord": {"lon": 110.471397, "lat": 29.463921}}, {"id": 1928005, "name": "Qiaotou", "country": "CN", "coord": {"lon": 110.283249, "lat": 29.346991}}, {"id": 1928011, "name": "Shanmuqiao", "country": "CN", "coord": {"lon": 110.932152, "lat": 29.538111}}, {"id": 1928012, "name": "Gaofeng", "country": "CN", "coord": {"lon": 110.917084, "lat": 29.43684}}, {"id": 1928020, "name": "Xujiafang", "country": "CN", "coord": {"lon": 110.654678, "lat": 29.24369}}, {"id": 1928037, "name": "Qinganping", "country": "CN", "coord": {"lon": 110.155037, "lat": 29.28083}}, {"id": 1928040, "name": "Daming", "country": "CN", "coord": {"lon": 110.051147, "lat": 29.10783}}, {"id": 1928043, "name": "Chexi", "country": "CN", "coord": {"lon": 110.167183, "lat": 29.115259}}, {"id": 1928049, "name": "Shuangxiqiao", "country": "CN", "coord": {"lon": 110.639374, "lat": 29.025631}}, {"id": 1928053, "name": "Sigangtou", "country": "CN", "coord": {"lon": 110.675003, "lat": 29.17672}}, {"id": 1928056, "name": "Wangjiaping", "country": "CN", "coord": {"lon": 110.815163, "lat": 29.04439}}, {"id": 1928065, "name": "Nanshanping", "country": "CN", "coord": {"lon": 110.894112, "lat": 29.317459}}, {"id": 1928075, "name": "Huolianpo", "country": "CN", "coord": {"lon": 111.453232, "lat": 29.883711}}, {"id": 1928081, "name": "Fuxingchang", "country": "CN", "coord": {"lon": 111.845596, "lat": 29.834379}}, {"id": 1928082, "name": "Shuanglong", "country": "CN", "coord": {"lon": 111.898682, "lat": 29.81938}}, {"id": 1928084, "name": "Leigongta", "country": "CN", "coord": {"lon": 111.769272, "lat": 29.79269}}, {"id": 1928086, "name": "Cennan", "country": "CN", "coord": {"lon": 111.768768, "lat": 29.749929}}, {"id": 1928087, "name": "Zhongwu", "country": "CN", "coord": {"lon": 111.672501, "lat": 29.774719}}, {"id": 1928088, "name": "Jinluo", "country": "CN", "coord": {"lon": 111.598122, "lat": 29.8097}}, {"id": 1928095, "name": "Sansheng", "country": "CN", "coord": {"lon": 111.247566, "lat": 29.807091}}, {"id": 1928100, "name": "Yangjiafang", "country": "CN", "coord": {"lon": 111.357529, "lat": 29.755699}}, {"id": 1928105, "name": "Jiuli", "country": "CN", "coord": {"lon": 111.585701, "lat": 29.694679}}, {"id": 1928106, "name": "Daping", "country": "CN", "coord": {"lon": 111.643608, "lat": 29.66111}}, {"id": 1928109, "name": "Yongfeng", "country": "CN", "coord": {"lon": 111.938248, "lat": 29.68413}}, {"id": 1928110, "name": "Xiaodukou", "country": "CN", "coord": {"lon": 111.912216, "lat": 29.62833}}, {"id": 1928111, "name": "Jiuyuan", "country": "CN", "coord": {"lon": 111.920464, "lat": 29.56613}}, {"id": 1928112, "name": "Lijiapu", "country": "CN", "coord": {"lon": 111.919296, "lat": 29.497009}}, {"id": 1928114, "name": "Baohedi", "country": "CN", "coord": {"lon": 111.990601, "lat": 29.404961}}, {"id": 1928116, "name": "Lingquan", "country": "CN", "coord": {"lon": 111.823608, "lat": 29.528061}}, {"id": 1928118, "name": "Linan", "country": "CN", "coord": {"lon": 111.756111, "lat": 29.617491}}, {"id": 1928119, "name": "Zhanggongmiao", "country": "CN", "coord": {"lon": 111.655281, "lat": 29.60611}}, {"id": 1928120, "name": "Yangban", "country": "CN", "coord": {"lon": 111.69075, "lat": 29.529961}}, {"id": 1928122, "name": "Fenghuo", "country": "CN", "coord": {"lon": 111.747726, "lat": 29.458759}}, {"id": 1928125, "name": "Sixingang", "country": "CN", "coord": {"lon": 111.63591, "lat": 29.35964}}, {"id": 1928131, "name": "Leigongmiao", "country": "CN", "coord": {"lon": 111.617828, "lat": 29.25647}}, {"id": 1928132, "name": "Changlinggang", "country": "CN", "coord": {"lon": 111.69294, "lat": 29.2332}}, {"id": 1928134, "name": "Taifu", "country": "CN", "coord": {"lon": 111.585617, "lat": 29.28912}}, {"id": 1928137, "name": "Wenjia", "country": "CN", "coord": {"lon": 111.544693, "lat": 29.380541}}, {"id": 1928141, "name": "Shanban", "country": "CN", "coord": {"lon": 111.526321, "lat": 29.55707}}, {"id": 1928145, "name": "Xinguan", "country": "CN", "coord": {"lon": 111.307327, "lat": 29.61969}}, {"id": 1928163, "name": "Reshi", "country": "CN", "coord": {"lon": 111.322479, "lat": 29.32136}}, {"id": 1928167, "name": "Mazongling", "country": "CN", "coord": {"lon": 111.45562, "lat": 29.24065}}, {"id": 1928170, "name": "Haoping", "country": "CN", "coord": {"lon": 111.271317, "lat": 29.275049}}, {"id": 1928171, "name": "Erfangping", "country": "CN", "coord": {"lon": 111.193893, "lat": 29.28833}}, {"id": 1928182, "name": "Wuxihe", "country": "CN", "coord": {"lon": 111.414398, "lat": 29.022829}}, {"id": 1928183, "name": "Fengshu", "country": "CN", "coord": {"lon": 111.489021, "lat": 29.015829}}, {"id": 1928184, "name": "Mutangyuan", "country": "CN", "coord": {"lon": 111.549507, "lat": 29.01573}}, {"id": 1928187, "name": "Huangjiapu", "country": "CN", "coord": {"lon": 111.287567, "lat": 29.11326}}, {"id": 1928193, "name": "Guanxi", "country": "CN", "coord": {"lon": 111.61647, "lat": 29.11215}}, {"id": 1928195, "name": "Caijiagang", "country": "CN", "coord": {"lon": 111.61821, "lat": 29.188829}}, {"id": 1928202, "name": "Baiheshan", "country": "CN", "coord": {"lon": 111.808891, "lat": 29.11278}}, {"id": 1928211, "name": "Fangshiping", "country": "CN", "coord": {"lon": 111.437653, "lat": 29.801041}}, {"id": 1928212, "name": "Fuzhiping", "country": "CN", "coord": {"lon": 109.923332, "lat": 28.895559}}, {"id": 1928316, "name": "Canmang", "country": "CN", "coord": {"lon": 110.891991, "lat": 28.91925}}, {"id": 1928317, "name": "Nanmu", "country": "CN", "coord": {"lon": 110.909622, "lat": 28.880899}}, {"id": 1928352, "name": "Siduping", "country": "CN", "coord": {"lon": 110.430099, "lat": 28.9305}}, {"id": 1928358, "name": "Shiziqiao", "country": "CN", "coord": {"lon": 110.068558, "lat": 28.97958}}, {"id": 1928359, "name": "Huilongan", "country": "CN", "coord": {"lon": 110.18219, "lat": 28.889299}}, {"id": 1928393, "name": "Baisha", "country": "CN", "coord": {"lon": 110.199997, "lat": 28.205561}}, {"id": 1928450, "name": "Guanyinsi", "country": "CN", "coord": {"lon": 111.085449, "lat": 28.91617}}, {"id": 1928454, "name": "Qinglin", "country": "CN", "coord": {"lon": 111.468903, "lat": 28.95426}}, {"id": 1928456, "name": "Shenshuigang", "country": "CN", "coord": {"lon": 111.397911, "lat": 28.915899}}, {"id": 1928458, "name": "Xujiaqiao", "country": "CN", "coord": {"lon": 111.584763, "lat": 28.913651}}, {"id": 1928510, "name": "Xinxing", "country": "CN", "coord": {"lon": 111.823318, "lat": 28.95722}}, {"id": 1928516, "name": "Weidihu", "country": "CN", "coord": {"lon": 111.962151, "lat": 28.976351}}, {"id": 1928621, "name": "Maidiping", "country": "CN", "coord": {"lon": 110.358589, "lat": 29.49155}}, {"id": 1928622, "name": "Wuyahe", "country": "CN", "coord": {"lon": 109.712418, "lat": 29.576521}}, {"id": 1928623, "name": "Zanguoping", "country": "CN", "coord": {"lon": 109.34877, "lat": 29.02623}}, {"id": 1928708, "name": "Dashuitian", "country": "CN", "coord": {"lon": 110.815277, "lat": 27.413059}}, {"id": 1928780, "name": "Huxingshan", "country": "CN", "coord": {"lon": 110.696671, "lat": 27.548889}}, {"id": 1928889, "name": "Nanyuemiao", "country": "CN", "coord": {"lon": 110.826942, "lat": 27.126671}}, {"id": 1928932, "name": "Sangesi", "country": "CN", "coord": {"lon": 110.954437, "lat": 27.06694}}, {"id": 1929499, "name": "Qidi", "country": "CN", "coord": {"lon": 113.668892, "lat": 26.93528}}, {"id": 1929576, "name": "Lingfang", "country": "CN", "coord": {"lon": 113.624443, "lat": 26.71583}}, {"id": 1929746, "name": "Huanxi", "country": "CN", "coord": {"lon": 113.595284, "lat": 26.56333}}, {"id": 1929757, "name": "Huju", "country": "CN", "coord": {"lon": 113.389999, "lat": 26.916389}}, {"id": 1929780, "name": "Jiangkou", "country": "CN", "coord": {"lon": 113.80056, "lat": 26.65694}}, {"id": 1929865, "name": "Yatian", "country": "CN", "coord": {"lon": 111.014442, "lat": 27.59194}}, {"id": 1929987, "name": "Beishan", "country": "CN", "coord": {"lon": 111.090279, "lat": 27.08194}}, {"id": 1930001, "name": "Zhitang", "country": "CN", "coord": {"lon": 113.859169, "lat": 26.945829}}, {"id": 1930141, "name": "Shimen", "country": "CN", "coord": {"lon": 111.029999, "lat": 27.22694}}, {"id": 1930342, "name": "Xiaotian", "country": "CN", "coord": {"lon": 113.836937, "lat": 26.85972}}, {"id": 1930396, "name": "Batuan", "country": "CN", "coord": {"lon": 113.721672, "lat": 27.037781}}, {"id": 1930423, "name": "Yaoshui", "country": "CN", "coord": {"lon": 113.689171, "lat": 26.826941}}, {"id": 1930467, "name": "Yushanpu", "country": "CN", "coord": {"lon": 111.11306, "lat": 27.15056}}, {"id": 1936379, "name": "Sidu", "country": "CN", "coord": {"lon": 115.264999, "lat": 24.216391}}, {"id": 1936413, "name": "Wushi", "country": "CN", "coord": {"lon": 115.192711, "lat": 23.633051}}, {"id": 1936425, "name": "Shuikou", "country": "CN", "coord": {"lon": 114.521393, "lat": 23.154119}}, {"id": 1936427, "name": "Songkeng", "country": "CN", "coord": {"lon": 114.91375, "lat": 23.18251}}, {"id": 1936431, "name": "Mabei", "country": "CN", "coord": {"lon": 114.528259, "lat": 23.491501}}, {"id": 1936433, "name": "Zengguang", "country": "CN", "coord": {"lon": 114.872147, "lat": 23.018021}}, {"id": 1936444, "name": "Daba", "country": "CN", "coord": {"lon": 116.177208, "lat": 23.369841}}, {"id": 1940868, "name": "Tiandian", "country": "CN", "coord": {"lon": 113.44841, "lat": 31.029449}}, {"id": 1940872, "name": "Hujindian", "country": "CN", "coord": {"lon": 113.658119, "lat": 31.07222}}, {"id": 1940883, "name": "Muzi", "country": "CN", "coord": {"lon": 113.546944, "lat": 31.229441}}, {"id": 1940889, "name": "Jidian", "country": "CN", "coord": {"lon": 113.90303, "lat": 31.287319}}, {"id": 1940895, "name": "Wangyizhendian", "country": "CN", "coord": {"lon": 113.379639, "lat": 31.330549}}, {"id": 1940915, "name": "Jieguan", "country": "CN", "coord": {"lon": 113.754303, "lat": 31.434771}}, {"id": 1940924, "name": "Lidian", "country": "CN", "coord": {"lon": 113.950058, "lat": 31.5168}}, {"id": 1940926, "name": "Baolin", "country": "CN", "coord": {"lon": 113.870323, "lat": 31.67382}}, {"id": 1940928, "name": "Shili", "country": "CN", "coord": {"lon": 113.880127, "lat": 31.614161}}, {"id": 1940930, "name": "Guanmiao", "country": "CN", "coord": {"lon": 113.704872, "lat": 31.70507}}, {"id": 1940937, "name": "Yudian", "country": "CN", "coord": {"lon": 113.634697, "lat": 31.78364}}, {"id": 1940981, "name": "Zhichanghe", "country": "CN", "coord": {"lon": 111.844719, "lat": 30.028061}}, {"id": 1940989, "name": "Zishi", "country": "CN", "coord": {"lon": 112.408783, "lat": 30.18248}}, {"id": 1940997, "name": "Libu", "country": "CN", "coord": {"lon": 112.066673, "lat": 30.322229}}, {"id": 1941002, "name": "Moshi", "country": "CN", "coord": {"lon": 111.238663, "lat": 30.414869}}, {"id": 1941077, "name": "Luotaping", "country": "CN", "coord": {"lon": 110.125153, "lat": 29.18713}}, {"id": 1941078, "name": "Gaoqiao", "country": "CN", "coord": {"lon": 110.987343, "lat": 29.17454}}, {"id": 1941079, "name": "Luoshui", "country": "CN", "coord": {"lon": 110.253662, "lat": 29.26829}}, {"id": 1941080, "name": "Maoba", "country": "CN", "coord": {"lon": 109.887383, "lat": 29.272011}}, {"id": 1941081, "name": "Liangchahe", "country": "CN", "coord": {"lon": 109.718399, "lat": 29.175739}}, {"id": 1941082, "name": "Guanba", "country": "CN", "coord": {"lon": 109.965721, "lat": 29.29542}}, {"id": 1941083, "name": "Taozixi", "country": "CN", "coord": {"lon": 110.054443, "lat": 29.308331}}, {"id": 1941086, "name": "Lianghekou", "country": "CN", "coord": {"lon": 110.025833, "lat": 29.452221}}, {"id": 1941088, "name": "Xinglongjie", "country": "CN", "coord": {"lon": 109.530167, "lat": 29.454981}}, {"id": 1941091, "name": "Sanhekou", "country": "CN", "coord": {"lon": 110.824158, "lat": 29.62674}}, {"id": 1941094, "name": "Zhujiatai", "country": "CN", "coord": {"lon": 110.502724, "lat": 29.740021}}, {"id": 1941099, "name": "Yongmao", "country": "CN", "coord": {"lon": 110.27533, "lat": 29.014879}}, {"id": 1941100, "name": "Macha", "country": "CN", "coord": {"lon": 110.046692, "lat": 29.042641}}, {"id": 1941101, "name": "Tasha", "country": "CN", "coord": {"lon": 109.566971, "lat": 29.05806}}, {"id": 1941102, "name": "Xinzhaiping", "country": "CN", "coord": {"lon": 109.8918, "lat": 29.1343}}, {"id": 1941103, "name": "Sanjiaguan", "country": "CN", "coord": {"lon": 110.289703, "lat": 29.16305}}, {"id": 1941105, "name": "Jianxin", "country": "CN", "coord": {"lon": 110.550903, "lat": 29.14513}}, {"id": 1941108, "name": "Matizhai", "country": "CN", "coord": {"lon": 109.628693, "lat": 29.172911}}, {"id": 1941109, "name": "Shanmu", "country": "CN", "coord": {"lon": 109.846062, "lat": 29.266741}}, {"id": 1941110, "name": "Zhonghuping", "country": "CN", "coord": {"lon": 110.382568, "lat": 29.364059}}, {"id": 1941111, "name": "Ruchihe", "country": "CN", "coord": {"lon": 109.713989, "lat": 29.296379}}, {"id": 1941112, "name": "Bishagou", "country": "CN", "coord": {"lon": 109.591393, "lat": 29.34264}}, {"id": 1941113, "name": "Shuishaping", "country": "CN", "coord": {"lon": 109.555054, "lat": 29.37779}}, {"id": 1941115, "name": "Tongche", "country": "CN", "coord": {"lon": 109.567177, "lat": 29.50605}}, {"id": 1941116, "name": "Tianzishan", "country": "CN", "coord": {"lon": 110.436432, "lat": 29.409719}}, {"id": 1941117, "name": "Zhaojiagang", "country": "CN", "coord": {"lon": 110.676979, "lat": 29.49622}}, {"id": 1941119, "name": "Furongqiao", "country": "CN", "coord": {"lon": 110.300011, "lat": 29.514351}}, {"id": 1941121, "name": "Jianjiapo", "country": "CN", "coord": {"lon": 109.955688, "lat": 29.55271}}, {"id": 1941133, "name": "Nanzhen", "country": "CN", "coord": {"lon": 110.548477, "lat": 29.87188}}, {"id": 1941534, "name": "Dengying", "country": "CN", "coord": {"lon": 120.574173, "lat": 36.138889}}, {"id": 1941535, "name": "Kutao", "country": "CN", "coord": {"lon": 120.487778, "lat": 36.145}}, {"id": 1941563, "name": "Beizhai", "country": "CN", "coord": {"lon": 120.528893, "lat": 36.219719}}, {"id": 1941584, "name": "Qingshan", "country": "CN", "coord": {"lon": 120.683327, "lat": 36.15472}}, {"id": 1941693, "name": "Xinzhuang", "country": "CN", "coord": {"lon": 117.323891, "lat": 39.020279}}, {"id": 1941694, "name": "Weiwangzhuang", "country": "CN", "coord": {"lon": 117.440826, "lat": 39.025002}}, {"id": 1941718, "name": "Goutou", "country": "CN", "coord": {"lon": 117.199173, "lat": 39.805}}, {"id": 1941768, "name": "Meipu", "country": "CN", "coord": {"lon": 118.896667, "lat": 26.211941}}, {"id": 1941783, "name": "Rongan", "country": "CN", "coord": {"lon": 119.121391, "lat": 26.12472}}, {"id": 1941784, "name": "Shangjie", "country": "CN", "coord": {"lon": 119.184723, "lat": 26.08639}}, {"id": 1941816, "name": "Kuaian", "country": "CN", "coord": {"lon": 119.416389, "lat": 26.03417}}, {"id": 1941817, "name": "Chengmen", "country": "CN", "coord": {"lon": 119.349167, "lat": 26.005831}}, {"id": 1941818, "name": "Hongtang", "country": "CN", "coord": {"lon": 119.230827, "lat": 26.07056}}, {"id": 1941819, "name": "Huaian", "country": "CN", "coord": {"lon": 119.222504, "lat": 26.101391}}, {"id": 1941830, "name": "Donghu", "country": "CN", "coord": {"lon": 119.513611, "lat": 26.233061}}, {"id": 1941833, "name": "Houyu", "country": "CN", "coord": {"lon": 119.535828, "lat": 26.06139}}, {"id": 1941847, "name": "Jitou", "country": "CN", "coord": {"lon": 119.615829, "lat": 26.46917}}, {"id": 1941848, "name": "Beishan", "country": "CN", "coord": {"lon": 119.636108, "lat": 26.434719}}, {"id": 1941861, "name": "Huangtian", "country": "CN", "coord": {"lon": 118.623978, "lat": 26.438511}}, {"id": 1941924, "name": "Dingtou", "country": "CN", "coord": {"lon": 119.660561, "lat": 26.845831}}, {"id": 1942261, "name": "Daxi", "country": "CN", "coord": {"lon": 109.147972, "lat": 29.09404}}, {"id": 1950020, "name": "Ouyang", "country": "CN", "coord": {"lon": 109.229439, "lat": 26.42528}}, {"id": 1950548, "name": "Dengyuantai", "country": "CN", "coord": {"lon": 110.542221, "lat": 26.688061}}, {"id": 1980603, "name": "Shenqiao", "country": "CN", "coord": {"lon": 117.140503, "lat": 23.730021}}, {"id": 1983170, "name": "Yangguao", "country": "CN", "coord": {"lon": 110.943893, "lat": 27.48667}}, {"id": 1983190, "name": "Hetian", "country": "CN", "coord": {"lon": 110.971672, "lat": 27.346939}}, {"id": 1983204, "name": "Matangshan", "country": "CN", "coord": {"lon": 110.69278, "lat": 27.38806}}, {"id": 1983231, "name": "Xiyangjiang", "country": "CN", "coord": {"lon": 110.828888, "lat": 27.190281}}, {"id": 1983329, "name": "Qijiang", "country": "CN", "coord": {"lon": 110.973061, "lat": 27.44944}}, {"id": 1987164, "name": "Shanjie", "country": "CN", "coord": {"lon": 111.01944, "lat": 27.077499}}, {"id": 1996859, "name": "Jiangdong", "country": "CN", "coord": {"lon": 116.651451, "lat": 23.58746}}, {"id": 1998143, "name": "Xinan", "country": "CN", "coord": {"lon": 116.810669, "lat": 23.550529}}, {"id": 1998290, "name": "Wutun", "country": "CN", "coord": {"lon": 109.29512, "lat": 34.63768}}, {"id": 1998291, "name": "Beitun", "country": "CN", "coord": {"lon": 109.231209, "lat": 34.617699}}, {"id": 1998292, "name": "Xinxing", "country": "CN", "coord": {"lon": 109.274361, "lat": 34.666882}}, {"id": 1998293, "name": "Zhenxing", "country": "CN", "coord": {"lon": 109.192841, "lat": 34.66853}}, {"id": 1998300, "name": "Renliu", "country": "CN", "coord": {"lon": 109.227371, "lat": 34.49017}}, {"id": 1998305, "name": "Zhangbu", "country": "CN", "coord": {"lon": 109.117317, "lat": 34.483582}}, {"id": 1998308, "name": "Xiaojin", "country": "CN", "coord": {"lon": 109.41349, "lat": 34.339512}}, {"id": 1998309, "name": "Muzhai", "country": "CN", "coord": {"lon": 109.367706, "lat": 34.366058}}, {"id": 1998310, "name": "Tuqiao", "country": "CN", "coord": {"lon": 109.318779, "lat": 34.351662}}, {"id": 1998312, "name": "Xiquan", "country": "CN", "coord": {"lon": 109.13858, "lat": 34.407539}}, {"id": 1998313, "name": "Xinhe", "country": "CN", "coord": {"lon": 109.099739, "lat": 34.419041}}, {"id": 1998318, "name": "Yuchu", "country": "CN", "coord": {"lon": 109.057877, "lat": 34.50272}}, {"id": 1998321, "name": "Dongda", "country": "CN", "coord": {"lon": 108.768181, "lat": 34.044071}}, {"id": 1998326, "name": "Xinglong", "country": "CN", "coord": {"lon": 108.816803, "lat": 34.12468}}, {"id": 1998335, "name": "Qujiang", "country": "CN", "coord": {"lon": 108.988251, "lat": 34.193161}}, {"id": 1998336, "name": "Dengjiapo", "country": "CN", "coord": {"lon": 109.025131, "lat": 34.22723}}, {"id": 1998337, "name": "Daminggong", "country": "CN", "coord": {"lon": 108.963287, "lat": 34.30455}}, {"id": 1998338, "name": "Hancheng", "country": "CN", "coord": {"lon": 108.907784, "lat": 34.334999}}, {"id": 1998339, "name": "Tanjia", "country": "CN", "coord": {"lon": 108.967781, "lat": 34.332218}}, {"id": 1998356, "name": "Baoli", "country": "CN", "coord": {"lon": 109.136513, "lat": 34.170952}}, {"id": 1998357, "name": "Huaxu", "country": "CN", "coord": {"lon": 109.182289, "lat": 34.224949}}, {"id": 1998358, "name": "Shijiazhai", "country": "CN", "coord": {"lon": 109.149323, "lat": 34.078049}}, {"id": 1998359, "name": "Yangzhuang", "country": "CN", "coord": {"lon": 109.140327, "lat": 34.041248}}, {"id": 1998361, "name": "Wangmang", "country": "CN", "coord": {"lon": 109.055519, "lat": 34.057861}}, {"id": 1998363, "name": "Wutai", "country": "CN", "coord": {"lon": 108.971207, "lat": 34.034012}}, {"id": 1998374, "name": "Gaoqiao", "country": "CN", "coord": {"lon": 108.705559, "lat": 34.243328}}, {"id": 1998376, "name": "Weifeng", "country": "CN", "coord": {"lon": 108.613426, "lat": 34.19508}}, {"id": 1998377, "name": "Cangyou", "country": "CN", "coord": {"lon": 108.654442, "lat": 34.163239}}, {"id": 1998381, "name": "Tianqiao", "country": "CN", "coord": {"lon": 108.5625, "lat": 34.051941}}, {"id": 1998383, "name": "Jiufeng", "country": "CN", "coord": {"lon": 108.427032, "lat": 34.10149}}, {"id": 1998386, "name": "Wuzhu", "country": "CN", "coord": {"lon": 108.657997, "lat": 34.113022}}, {"id": 1998388, "name": "Shijing", "country": "CN", "coord": {"lon": 108.588608, "lat": 34.028332}}, {"id": 1998393, "name": "Houjia", "country": "CN", "coord": {"lon": 108.180817, "lat": 34.165138}}, {"id": 1998417, "name": "Xinyang", "country": "CN", "coord": {"lon": 108.140518, "lat": 34.482941}}, {"id": 1998418, "name": "Moxi", "country": "CN", "coord": {"lon": 108.188889, "lat": 34.514999}}, {"id": 1998434, "name": "Fengyang", "country": "CN", "coord": {"lon": 108.277222, "lat": 34.68314}}, {"id": 1998473, "name": "Zhuganzhen", "country": "CN", "coord": {"lon": 108.308609, "lat": 34.624168}}, {"id": 1998509, "name": "Liangshan", "country": "CN", "coord": {"lon": 108.192711, "lat": 34.62085}}, {"id": 1998538, "name": "Dayang", "country": "CN", "coord": {"lon": 108.317223, "lat": 34.47361}}, {"id": 1998565, "name": "Shiniu", "country": "CN", "coord": {"lon": 108.072723, "lat": 34.50758}}, {"id": 1998706, "name": "Yanxia", "country": "CN", "coord": {"lon": 108.54306, "lat": 34.575562}}, {"id": 1998727, "name": "Jianling", "country": "CN", "coord": {"lon": 108.415001, "lat": 34.639721}}, {"id": 1998750, "name": "Zhaoling", "country": "CN", "coord": {"lon": 108.447502, "lat": 34.563061}}, {"id": 1998768, "name": "Xinshi", "country": "CN", "coord": {"lon": 108.422218, "lat": 34.43972}}, {"id": 1999104, "name": "Sangzhen", "country": "CN", "coord": {"lon": 108.346107, "lat": 34.256111}}, {"id": 1999164, "name": "Fengyi", "country": "CN", "coord": {"lon": 108.411392, "lat": 34.249168}}, {"id": 1999297, "name": "Tianfu", "country": "CN", "coord": {"lon": 108.59417, "lat": 34.264439}}, {"id": 1999301, "name": "Fuzhai", "country": "CN", "coord": {"lon": 108.522217, "lat": 34.253891}}, {"id": 1999581, "name": "Baiwang", "country": "CN", "coord": {"lon": 108.646111, "lat": 34.673328}}, {"id": 1999687, "name": "Zhongzhang", "country": "CN", "coord": {"lon": 108.766838, "lat": 34.554451}}, {"id": 1999689, "name": "Taiping", "country": "CN", "coord": {"lon": 108.736107, "lat": 34.505829}}, {"id": 1999718, "name": "Yanwang", "country": "CN", "coord": {"lon": 108.801941, "lat": 34.571671}}, {"id": 1999733, "name": "Longquan", "country": "CN", "coord": {"lon": 108.868057, "lat": 34.684719}}, {"id": 1999829, "name": "Chongwen", "country": "CN", "coord": {"lon": 108.933167, "lat": 34.494301}}, {"id": 1999938, "name": "Cuoe", "country": "CN", "coord": {"lon": 108.878891, "lat": 34.73917}}, {"id": 2000018, "name": "Xumu", "country": "CN", "coord": {"lon": 109.115601, "lat": 34.694141}}, {"id": 2000026, "name": "Beixi", "country": "CN", "coord": {"lon": 109.10894, "lat": 34.620121}}, {"id": 2000546, "name": "Duma", "country": "CN", "coord": {"lon": 108.135002, "lat": 34.765282}}, {"id": 2000568, "name": "Yujiagong", "country": "CN", "coord": {"lon": 108.187752, "lat": 34.729321}}, {"id": 2000597, "name": "Shangyi", "country": "CN", "coord": {"lon": 108.264664, "lat": 34.83477}}, {"id": 2000700, "name": "Bojia", "country": "CN", "coord": {"lon": 108.512497, "lat": 34.92667}}, {"id": 2000711, "name": "Tiewang", "country": "CN", "coord": {"lon": 108.572502, "lat": 34.916672}}, {"id": 2000712, "name": "Qinhe", "country": "CN", "coord": {"lon": 108.592781, "lat": 34.92028}}, {"id": 2000820, "name": "Meijiaping", "country": "CN", "coord": {"lon": 108.992943, "lat": 34.866051}}, {"id": 2000863, "name": "Huazhu", "country": "CN", "coord": {"lon": 109.195648, "lat": 34.786011}}, {"id": 2000872, "name": "Xiaohui", "country": "CN", "coord": {"lon": 109.270638, "lat": 34.90926}}, {"id": 2000889, "name": "Gongli", "country": "CN", "coord": {"lon": 109.144142, "lat": 34.831139}}, {"id": 2000890, "name": "Qicun", "country": "CN", "coord": {"lon": 109.109444, "lat": 34.822708}}, {"id": 2000954, "name": "Laomiao", "country": "CN", "coord": {"lon": 109.412804, "lat": 34.999222}}, {"id": 2001001, "name": "Mizi", "country": "CN", "coord": {"lon": 109.015411, "lat": 34.81242}}, {"id": 2001045, "name": "Maquan", "country": "CN", "coord": {"lon": 108.603607, "lat": 34.323608}}, {"id": 2001056, "name": "Weibin", "country": "CN", "coord": {"lon": 108.645828, "lat": 34.31583}}, {"id": 2001062, "name": "Diaotai", "country": "CN", "coord": {"lon": 108.686394, "lat": 34.285561}}, {"id": 2001071, "name": "Wujiabao", "country": "CN", "coord": {"lon": 108.699257, "lat": 34.347542}}, {"id": 2001077, "name": "Fengdong", "country": "CN", "coord": {"lon": 108.758331, "lat": 34.324718}}, {"id": 2001088, "name": "Weicheng", "country": "CN", "coord": {"lon": 108.778061, "lat": 34.384171}}, {"id": 2001123, "name": "Zhengyang", "country": "CN", "coord": {"lon": 108.921387, "lat": 34.423611}}, {"id": 2001380, "name": "Yanta", "country": "CN", "coord": {"lon": 108.9524, "lat": 34.20636}}, {"id": 2001434, "name": "Zhangbagou", "country": "CN", "coord": {"lon": 108.88028, "lat": 34.21291}}, {"id": 2001532, "name": "Youfeng", "country": "CN", "coord": {"lon": 108.043777, "lat": 34.390911}}, {"id": 2001540, "name": "Sufang", "country": "CN", "coord": {"lon": 108.084618, "lat": 34.396141}}, {"id": 2001585, "name": "Daijia", "country": "CN", "coord": {"lon": 108.150429, "lat": 34.33514}}, {"id": 2001694, "name": "Changning", "country": "CN", "coord": {"lon": 108.291252, "lat": 34.301521}}, {"id": 2001711, "name": "Hedao", "country": "CN", "coord": {"lon": 108.282967, "lat": 34.335918}}, {"id": 2001738, "name": "Xingzhe", "country": "CN", "coord": {"lon": 109.19693, "lat": 34.405231}}, {"id": 2001854, "name": "Hexi", "country": "CN", "coord": {"lon": 109.525101, "lat": 34.41119}}, {"id": 2001855, "name": "Yancun", "country": "CN", "coord": {"lon": 109.494957, "lat": 34.418968}}, {"id": 2033054, "name": "Yunxing", "country": "CN", "coord": {"lon": 112.697868, "lat": 39.9991}}, {"id": 2033067, "name": "Zhuozishan", "country": "CN", "coord": {"lon": 112.56028, "lat": 40.89917}}, {"id": 2033089, "name": "Zhoushizhuang", "country": "CN", "coord": {"lon": 113.46611, "lat": 40.113892}}, {"id": 2033091, "name": "Zhoujia", "country": "CN", "coord": {"lon": 122.744583, "lat": 40.544071}}, {"id": 2033110, "name": "Zhongan", "country": "CN", "coord": {"lon": 121.979042, "lat": 41.60524}}, {"id": 2033112, "name": "Dalazi", "country": "CN", "coord": {"lon": 129.561584, "lat": 42.639351}}, {"id": 2033137, "name": "Zhengan", "country": "CN", "coord": {"lon": 121.930443, "lat": 41.704231}}, {"id": 2033145, "name": "Zhazi", "country": "CN", "coord": {"lon": 126.557716, "lat": 42.003231}}, {"id": 2033157, "name": "Zhaotun", "country": "CN", "coord": {"lon": 121.87542, "lat": 41.4062}}, {"id": 2033199, "name": "Zhangjiachang", "country": "CN", "coord": {"lon": 112.831711, "lat": 40.083599}}, {"id": 2033209, "name": "Zhangdang", "country": "CN", "coord": {"lon": 124.074402, "lat": 41.907501}}, {"id": 2033241, "name": "Yushuchuan", "country": "CN", "coord": {"lon": 127.203499, "lat": 42.329449}}, {"id": 2033244, "name": "Yushu", "country": "CN", "coord": {"lon": 124.816437, "lat": 41.6436}}, {"id": 2033245, "name": "Yuquan", "country": "CN", "coord": {"lon": 127.159019, "lat": 45.410011}}, {"id": 2033263, "name": "Yulin", "country": "CN", "coord": {"lon": 125.937561, "lat": 40.992512}}, {"id": 2033315, "name": "Yongling", "country": "CN", "coord": {"lon": 124.821053, "lat": 41.708038}}, {"id": 2033346, "name": "Yitong", "country": "CN", "coord": {"lon": 125.297256, "lat": 43.326279}}, {"id": 2033362, "name": "Yingshouyingzi", "country": "CN", "coord": {"lon": 117.661552, "lat": 40.551472}}, {"id": 2033366, "name": "Yingluo", "country": "CN", "coord": {"lon": 122.69841, "lat": 40.642719}}, {"id": 2033377, "name": "Yingebu", "country": "CN", "coord": {"lon": 125.556389, "lat": 41.730282}}, {"id": 2033483, "name": "Yangshufang", "country": "CN", "coord": {"lon": 122.4328, "lat": 40.242538}}, {"id": 2033489, "name": "Yangmulinzi", "country": "CN", "coord": {"lon": 130.496384, "lat": 42.902222}}, {"id": 2033501, "name": "Maoqitun", "country": "CN", "coord": {"lon": 120.544746, "lat": 40.805641}}, {"id": 2033510, "name": "Longquan", "country": "CN", "coord": {"lon": 113.666161, "lat": 40.3638}}, {"id": 2033540, "name": "Yahe", "country": "CN", "coord": {"lon": 123.276947, "lat": 40.227852}}, {"id": 2033541, "name": "Yagou", "country": "CN", "coord": {"lon": 127.078911, "lat": 45.48061}}, {"id": 2033548, "name": "Xutun", "country": "CN", "coord": {"lon": 122.38858, "lat": 40.3438}}, {"id": 2033557, "name": "Xutun", "country": "CN", "coord": {"lon": 122.077187, "lat": 40.037739}}, {"id": 2033570, "name": "Xubu", "country": "CN", "coord": {"lon": 113.744728, "lat": 40.02792}}, {"id": 2033595, "name": "Xiwanzi", "country": "CN", "coord": {"lon": 115.272499, "lat": 40.97139}}, {"id": 2033614, "name": "Xisi", "country": "CN", "coord": {"lon": 122.449089, "lat": 40.966282}}, {"id": 2033618, "name": "Xishanzui", "country": "CN", "coord": {"lon": 108.64389, "lat": 40.7075}}, {"id": 2033627, "name": "Xipingpo", "country": "CN", "coord": {"lon": 120.171494, "lat": 40.448212}}, {"id": 2033630, "name": "Xiongyue", "country": "CN", "coord": {"lon": 122.122841, "lat": 40.177368}}, {"id": 2033661, "name": "Xintaimen", "country": "CN", "coord": {"lon": 120.417809, "lat": 40.834641}}, {"id": 2033665, "name": "Xinrong", "country": "CN", "coord": {"lon": 113.150002, "lat": 40.26667}}, {"id": 2033707, "name": "Xinhui", "country": "CN", "coord": {"lon": 119.898331, "lat": 42.28389}}, {"id": 2033724, "name": "Xingcan", "country": "CN", "coord": {"lon": 127.220451, "lat": 42.477951}}, {"id": 2033747, "name": "Xinglong", "country": "CN", "coord": {"lon": 126.900002, "lat": 45.299999}}, {"id": 2033757, "name": "Dahuanggou", "country": "CN", "coord": {"lon": 126.126549, "lat": 42.050838}}, {"id": 2033759, "name": "Xinghe Chengguanzhen", "country": "CN", "coord": {"lon": 113.883888, "lat": 40.875561}}, {"id": 2033781, "name": "Xindian", "country": "CN", "coord": {"lon": 127.825981, "lat": 45.917961}}, {"id": 2033782, "name": "Xindian", "country": "CN", "coord": {"lon": 123.123688, "lat": 40.092979}}, {"id": 2033791, "name": "Xin Bulag", "country": "CN", "coord": {"lon": 113.836388, "lat": 42.237499}}, {"id": 2033808, "name": "Ximu", "country": "CN", "coord": {"lon": 122.907433, "lat": 40.699699}}, {"id": 2033819, "name": "Xiliu", "country": "CN", "coord": {"lon": 122.624168, "lat": 40.848579}}, {"id": 2033826, "name": "Xilinhe", "country": "CN", "coord": {"lon": 129.158051, "lat": 42.836472}}, {"id": 2033853, "name": "Xihanling", "country": "CN", "coord": {"lon": 113.239967, "lat": 40.01469}}, {"id": 2033854, "name": "Xihai", "country": "CN", "coord": {"lon": 122.31321, "lat": 40.43396}}, {"id": 2033894, "name": "Xiayingzi", "country": "CN", "coord": {"lon": 124.552139, "lat": 41.723179}}, {"id": 2033909, "name": "Xiaozhuangzi", "country": "CN", "coord": {"lon": 120.42997, "lat": 40.270779}}, {"id": 2033915, "name": "Xiaoyangqi", "country": "CN", "coord": {"lon": 124.283333, "lat": 50.799999}}, {"id": 2033916, "name": "Yanghe", "country": "CN", "coord": {"lon": 123.40889, "lat": 40.058331}}, {"id": 2033952, "name": "Xiaoling", "country": "CN", "coord": {"lon": 127.305389, "lat": 45.336369}}, {"id": 2033988, "name": "Xiaochengzi", "country": "CN", "coord": {"lon": 123.204521, "lat": 42.889992}}, {"id": 2033998, "name": "Xianrenqiao", "country": "CN", "coord": {"lon": 127.231598, "lat": 42.172001}}, {"id": 2034062, "name": "Xamba", "country": "CN", "coord": {"lon": 107.139999, "lat": 40.88472}}, {"id": 2034111, "name": "Wujimi", "country": "CN", "coord": {"lon": 127.8358, "lat": 45.218529}}, {"id": 2034135, "name": "Wudan", "country": "CN", "coord": {"lon": 119.023888, "lat": 42.934441}}, {"id": 2034151, "name": "Wolongquan", "country": "CN", "coord": {"lon": 122.7351, "lat": 40.25816}}, {"id": 2034161, "name": "Dalian", "country": "CN", "coord": {"lon": 122.598511, "lat": 41.069592}}, {"id": 2034170, "name": "Weiziyu", "country": "CN", "coord": {"lon": 124.504921, "lat": 41.436218}}, {"id": 2034209, "name": "Wanliang", "country": "CN", "coord": {"lon": 127.289169, "lat": 42.43222}}, {"id": 2034212, "name": "Wanghai", "country": "CN", "coord": {"lon": 122.168861, "lat": 40.341301}}, {"id": 2034218, "name": "Wangshi", "country": "CN", "coord": {"lon": 122.816254, "lat": 40.859859}}, {"id": 2034255, "name": "Wangbao", "country": "CN", "coord": {"lon": 120.131561, "lat": 40.154419}}, {"id": 2034257, "name": "Wanfu", "country": "CN", "coord": {"lon": 122.546768, "lat": 40.138962}}, {"id": 2034268, "name": "Dadianzi", "country": "CN", "coord": {"lon": 128.324432, "lat": 42.873058}}, {"id": 2034292, "name": "Uliastai", "country": "CN", "coord": {"lon": 116.833328, "lat": 45.549999}}, {"id": 2034310, "name": "Ulan Hua", "country": "CN", "coord": {"lon": 111.696388, "lat": 41.513062}}, {"id": 2034321, "name": "Tushan", "country": "CN", "coord": {"lon": 129.034058, "lat": 42.62822}}, {"id": 2034323, "name": "Tuquan", "country": "CN", "coord": {"lon": 121.683327, "lat": 45.366669}}, {"id": 2034387, "name": "Beixinjie", "country": "CN", "coord": {"lon": 129.198975, "lat": 42.748402}}, {"id": 2034389, "name": "Toudao", "country": "CN", "coord": {"lon": 125.872124, "lat": 41.51244}}, {"id": 2034393, "name": "Tongyuanpu", "country": "CN", "coord": {"lon": 123.915833, "lat": 40.792221}}, {"id": 2034430, "name": "Togrog Ul", "country": "CN", "coord": {"lon": 113.203613, "lat": 40.777222}}, {"id": 2034447, "name": "Tianzhuangtai", "country": "CN", "coord": {"lon": 122.138023, "lat": 40.839142}}, {"id": 2034451, "name": "Yuquan", "country": "CN", "coord": {"lon": 113.974419, "lat": 40.442589}}, {"id": 2034452, "name": "Tianyi", "country": "CN", "coord": {"lon": 119.333328, "lat": 41.566669}}, {"id": 2034457, "name": "Tianshifu", "country": "CN", "coord": {"lon": 124.353127, "lat": 41.25563}}, {"id": 2034460, "name": "Tianshan", "country": "CN", "coord": {"lon": 120.093361, "lat": 43.88736}}, {"id": 2034461, "name": "Tianqiaoling", "country": "CN", "coord": {"lon": 129.629745, "lat": 43.590069}}, {"id": 2034479, "name": "Fuan", "country": "CN", "coord": {"lon": 122.830559, "lat": 41.075001}}, {"id": 2034486, "name": "Tashantun", "country": "CN", "coord": {"lon": 120.395493, "lat": 40.25494}}, {"id": 2034487, "name": "Yingta", "country": "CN", "coord": {"lon": 120.93602, "lat": 40.845699}}, {"id": 2034518, "name": "Tangtu", "country": "CN", "coord": {"lon": 124.336952, "lat": 41.827229}}, {"id": 2034535, "name": "Tangchi", "country": "CN", "coord": {"lon": 122.623169, "lat": 40.530338}}, {"id": 2034555, "name": "Taishang", "country": "CN", "coord": {"lon": 125.842163, "lat": 41.298679}}, {"id": 2034562, "name": "Taipingzhuang", "country": "CN", "coord": {"lon": 122.808151, "lat": 40.16914}}, {"id": 2034602, "name": "Taijitun", "country": "CN", "coord": {"lon": 120.87204, "lat": 41.057369}}, {"id": 2034623, "name": "Suzigou", "country": "CN", "coord": {"lon": 123.408539, "lat": 40.400581}}, {"id": 2034633, "name": "Sunjiapuzi", "country": "CN", "coord": {"lon": 126.585121, "lat": 42.017059}}, {"id": 2034647, "name": "Suizhong", "country": "CN", "coord": {"lon": 120.336533, "lat": 40.329159}}, {"id": 2034675, "name": "Songshu", "country": "CN", "coord": {"lon": 127.107224, "lat": 42.04361}}, {"id": 2034694, "name": "Songjiang", "country": "CN", "coord": {"lon": 128.334167, "lat": 42.577499}}, {"id": 2034695, "name": "Songjiang", "country": "CN", "coord": {"lon": 127.35611, "lat": 42.22583}}, {"id": 2034715, "name": "Sipeng", "country": "CN", "coord": {"lon": 125.57222, "lat": 41.862221}}, {"id": 2034717, "name": "Simenzi", "country": "CN", "coord": {"lon": 123.816673, "lat": 40.73333}}, {"id": 2034725, "name": "Beisijiazi", "country": "CN", "coord": {"lon": 123.485863, "lat": 42.84856}}, {"id": 2034744, "name": "Sierbao", "country": "CN", "coord": {"lon": 120.73819, "lat": 40.796612}}, {"id": 2034747, "name": "Sidaogou", "country": "CN", "coord": {"lon": 127.051643, "lat": 41.744678}}, {"id": 2034758, "name": "Shulinzhao", "country": "CN", "coord": {"lon": 110.026939, "lat": 40.39278}}, {"id": 2034763, "name": "Shuiyuan", "country": "CN", "coord": {"lon": 122.148087, "lat": 40.80587}}, {"id": 2034797, "name": "Shuangtai", "country": "CN", "coord": {"lon": 122.274048, "lat": 40.217739}}, {"id": 2034843, "name": "Shizijie", "country": "CN", "coord": {"lon": 122.488953, "lat": 40.061901}}, {"id": 2034852, "name": "Shixian", "country": "CN", "coord": {"lon": 129.766663, "lat": 43.083328}}, {"id": 2034881, "name": "Shiren", "country": "CN", "coord": {"lon": 126.565941, "lat": 41.962978}}, {"id": 2034883, "name": "Shiqi", "country": "CN", "coord": {"lon": 128.527222, "lat": 42.956108}}, {"id": 2034887, "name": "Shimiaozi", "country": "CN", "coord": {"lon": 123.514183, "lat": 40.656921}}, {"id": 2034893, "name": "Shimen", "country": "CN", "coord": {"lon": 129.016663, "lat": 43.033329}}, {"id": 2034912, "name": "Shihuiyao", "country": "CN", "coord": {"lon": 123.105629, "lat": 40.31263}}, {"id": 2034914, "name": "Gongyi", "country": "CN", "coord": {"lon": 126.280258, "lat": 41.509121}}, {"id": 2034923, "name": "Shierdaogou", "country": "CN", "coord": {"lon": 127.544441, "lat": 41.464439}}, {"id": 2034954, "name": "Shengli", "country": "CN", "coord": {"lon": 128.050003, "lat": 45.799999}}, {"id": 2035014, "name": "Shangmatun", "country": "CN", "coord": {"lon": 123.362839, "lat": 40.943062}}, {"id": 2035019, "name": "Shangjiahe", "country": "CN", "coord": {"lon": 124.484291, "lat": 41.850052}}, {"id": 2035032, "name": "Qitai", "country": "CN", "coord": {"lon": 113.53389, "lat": 41.549438}}, {"id": 2035043, "name": "Shalizhai", "country": "CN", "coord": {"lon": 123.688171, "lat": 40.18132}}, {"id": 2035061, "name": "Shahe", "country": "CN", "coord": {"lon": 120.246269, "lat": 40.273911}}, {"id": 2035062, "name": "Shaheying", "country": "CN", "coord": {"lon": 120.763313, "lat": 40.82526}}, {"id": 2035070, "name": "Shaguotun", "country": "CN", "coord": {"lon": 120.691307, "lat": 41.131302}}, {"id": 2035071, "name": "Shagang", "country": "CN", "coord": {"lon": 122.257019, "lat": 40.349419}}, {"id": 2035090, "name": "Santun", "country": "CN", "coord": {"lon": 112.716667, "lat": 40.099998}}, {"id": 2035092, "name": "Sandaowan", "country": "CN", "coord": {"lon": 129.174438, "lat": 43.165562}}, {"id": 2035119, "name": "Sankeyushu", "country": "CN", "coord": {"lon": 125.389442, "lat": 41.74194}}, {"id": 2035130, "name": "Sanjiazi", "country": "CN", "coord": {"lon": 123.33139, "lat": 40.66806}}, {"id": 2035142, "name": "Sanhe", "country": "CN", "coord": {"lon": 129.735855, "lat": 42.475319}}, {"id": 2035164, "name": "Jinjiadian", "country": "CN", "coord": {"lon": 126.889168, "lat": 42.343609}}, {"id": 2035180, "name": "Sandao", "country": "CN", "coord": {"lon": 128.449432, "lat": 42.527779}}, {"id": 2035189, "name": "Sanchahe", "country": "CN", "coord": {"lon": 126.01532, "lat": 44.963058}}, {"id": 2035202, "name": "Saihan Tal", "country": "CN", "coord": {"lon": 112.65139, "lat": 42.735828}}, {"id": 2035212, "name": "Rongxing", "country": "CN", "coord": {"lon": 122.084511, "lat": 40.778381}}, {"id": 2035231, "name": "Qujiadian", "country": "CN", "coord": {"lon": 123.929237, "lat": 43.22226}}, {"id": 2035234, "name": "Quanyang", "country": "CN", "coord": {"lon": 127.54528, "lat": 42.351669}}, {"id": 2035237, "name": "Quantou", "country": "CN", "coord": {"lon": 124.170319, "lat": 42.865372}}, {"id": 2035287, "name": "Qingshiling", "country": "CN", "coord": {"lon": 122.413986, "lat": 40.475311}}, {"id": 2035289, "name": "Qingshi", "country": "CN", "coord": {"lon": 126.512962, "lat": 41.359379}}, {"id": 2035297, "name": "Qingshan", "country": "CN", "coord": {"lon": 126.89946, "lat": 45.089149}}, {"id": 2035311, "name": "Qinghecheng", "country": "CN", "coord": {"lon": 124.225212, "lat": 41.454601}}, {"id": 2035319, "name": "Qinghe", "country": "CN", "coord": {"lon": 125.92865, "lat": 41.43874}}, {"id": 2035322, "name": "Qinggis Han", "country": "CN", "coord": {"lon": 122.833328, "lat": 47.75}}, {"id": 2035328, "name": "Qingduizi", "country": "CN", "coord": {"lon": 121.908478, "lat": 41.44561}}, {"id": 2035332, "name": "Qingchengzi", "country": "CN", "coord": {"lon": 123.605003, "lat": 40.730282}}, {"id": 2035344, "name": "Qikou", "country": "CN", "coord": {"lon": 122.423363, "lat": 40.854919}}, {"id": 2035368, "name": "Qidaogou", "country": "CN", "coord": {"lon": 126.303062, "lat": 41.547131}}, {"id": 2035379, "name": "Guta", "country": "CN", "coord": {"lon": 120.098343, "lat": 40.190842}}, {"id": 2035381, "name": "Qiansuo", "country": "CN", "coord": {"lon": 119.947762, "lat": 40.09486}}, {"id": 2035410, "name": "Qianan", "country": "CN", "coord": {"lon": 124.058113, "lat": 44.99324}}, {"id": 2035416, "name": "Qasq", "country": "CN", "coord": {"lon": 111.128891, "lat": 40.712219}}, {"id": 2035434, "name": "Mingantu", "country": "CN", "coord": {"lon": 114.993332, "lat": 42.30278}}, {"id": 2035463, "name": "Pingshan", "country": "CN", "coord": {"lon": 127.397583, "lat": 45.32291}}, {"id": 2035476, "name": "Pingdingshan", "country": "CN", "coord": {"lon": 124.762268, "lat": 41.41296}}, {"id": 2035493, "name": "Pingan", "country": "CN", "coord": {"lon": 122.158577, "lat": 40.882381}}, {"id": 2035559, "name": "Nuanchitang", "country": "CN", "coord": {"lon": 120.663857, "lat": 41.02803}}, {"id": 2035565, "name": "Nongan", "country": "CN", "coord": {"lon": 125.168472, "lat": 44.381981}}, {"id": 2035566, "name": "Lubei", "country": "CN", "coord": {"lon": 122.527481, "lat": 40.948009}}, {"id": 2035572, "name": "Niuxinbao", "country": "CN", "coord": {"lon": 112.522881, "lat": 40.0522}}, {"id": 2035583, "name": "Nirji", "country": "CN", "coord": {"lon": 124.48333, "lat": 48.48333}}, {"id": 2035595, "name": "Nianpan", "country": "CN", "coord": {"lon": 124.037628, "lat": 41.821339}}, {"id": 2035613, "name": "Naerhong", "country": "CN", "coord": {"lon": 126.991531, "lat": 42.691391}}, {"id": 2035617, "name": "Naozhi", "country": "CN", "coord": {"lon": 127.024338, "lat": 41.926182}}, {"id": 2035622, "name": "Nanzamu", "country": "CN", "coord": {"lon": 124.411011, "lat": 41.969269}}, {"id": 2035643, "name": "Nanping", "country": "CN", "coord": {"lon": 129.204437, "lat": 42.26292}}, {"id": 2035649, "name": "Nankouqian", "country": "CN", "coord": {"lon": 124.600822, "lat": 41.986591}}, {"id": 2035666, "name": "Nandianzi", "country": "CN", "coord": {"lon": 124.370239, "lat": 41.281769}}, {"id": 2035687, "name": "Muyuzi", "country": "CN", "coord": {"lon": 124.955032, "lat": 41.381748}}, {"id": 2035697, "name": "Muqi", "country": "CN", "coord": {"lon": 124.620209, "lat": 41.771809}}, {"id": 2035698, "name": "Muniu", "country": "CN", "coord": {"lon": 123.225533, "lat": 40.658218}}, {"id": 2035705, "name": "Mulan", "country": "CN", "coord": {"lon": 128.037064, "lat": 45.947151}}, {"id": 2035749, "name": "Minyi", "country": "CN", "coord": {"lon": 127.296982, "lat": 44.925541}}, {"id": 2035759, "name": "Mingshui", "country": "CN", "coord": {"lon": 119.88781, "lat": 40.36166}}, {"id": 2035764, "name": "Mijiang", "country": "CN", "coord": {"lon": 130.140823, "lat": 42.996109}}, {"id": 2035805, "name": "Mazhonghe", "country": "CN", "coord": {"lon": 124.023323, "lat": 42.71452}}, {"id": 2035812, "name": "Mayihe", "country": "CN", "coord": {"lon": 127.114166, "lat": 41.81583}}, {"id": 2035831, "name": "Maoershan", "country": "CN", "coord": {"lon": 127.502853, "lat": 45.275551}}, {"id": 2035840, "name": "Manjiang", "country": "CN", "coord": {"lon": 127.590843, "lat": 41.947559}}, {"id": 2035850, "name": "Mandalt", "country": "CN", "coord": {"lon": 113.715561, "lat": 43.840279}}, {"id": 2035866, "name": "Majunying", "country": "CN", "coord": {"lon": 113.224716, "lat": 40.090832}}, {"id": 2035867, "name": "Majuanzi", "country": "CN", "coord": {"lon": 124.369766, "lat": 41.525459}}, {"id": 2035880, "name": "Mafeng", "country": "CN", "coord": {"lon": 122.9095, "lat": 40.808949}}, {"id": 2035884, "name": "Tongshanjie", "country": "CN", "coord": {"lon": 125.850029, "lat": 41.840038}}, {"id": 2035896, "name": "Luyang", "country": "CN", "coord": {"lon": 121.666321, "lat": 41.38192}}, {"id": 2035897, "name": "Luwang", "country": "CN", "coord": {"lon": 122.872917, "lat": 40.399712}}, {"id": 2035899, "name": "Lushuihe", "country": "CN", "coord": {"lon": 127.782578, "lat": 42.519001}}, {"id": 2035900, "name": "Luozigou", "country": "CN", "coord": {"lon": 130.340424, "lat": 43.729321}}, {"id": 2035911, "name": "Luoluopu", "country": "CN", "coord": {"lon": 121.714203, "lat": 41.55291}}, {"id": 2035930, "name": "Lubei", "country": "CN", "coord": {"lon": 120.966667, "lat": 44.616669}}, {"id": 2035999, "name": "Liushutun", "country": "CN", "coord": {"lon": 122.967758, "lat": 42.626789}}, {"id": 2036019, "name": "Liujiahe", "country": "CN", "coord": {"lon": 123.979286, "lat": 40.669609}}, {"id": 2036030, "name": "Liuhe", "country": "CN", "coord": {"lon": 127.71875, "lat": 46.01162}}, {"id": 2036045, "name": "Liudaogou", "country": "CN", "coord": {"lon": 127.18795, "lat": 41.60479}}, {"id": 2036046, "name": "Liudaogou", "country": "CN", "coord": {"lon": 126.252274, "lat": 41.608101}}, {"id": 2036062, "name": "Linxi", "country": "CN", "coord": {"lon": 118.033333, "lat": 43.51667}}, {"id": 2036082, "name": "Lindong", "country": "CN", "coord": {"lon": 119.183327, "lat": 43.98333}}, {"id": 2036102, "name": "Lidong", "country": "CN", "coord": {"lon": 127.891121, "lat": 46.078892}}, {"id": 2036103, "name": "Lidayao", "country": "CN", "coord": {"lon": 112.453667, "lat": 40.237148}}, {"id": 2036114, "name": "Liaotun", "country": "CN", "coord": {"lon": 121.767891, "lat": 41.485142}}, {"id": 2036122, "name": "Liaodian", "country": "CN", "coord": {"lon": 127.05394, "lat": 45.63261}}, {"id": 2036142, "name": "Yongfeng", "country": "CN", "coord": {"lon": 123.849579, "lat": 42.740528}}, {"id": 2036143, "name": "Liangtun", "country": "CN", "coord": {"lon": 122.518982, "lat": 40.211391}}, {"id": 2036149, "name": "Liangshui", "country": "CN", "coord": {"lon": 125.853081, "lat": 40.92852}}, {"id": 2036156, "name": "Dongjiang", "country": "CN", "coord": {"lon": 128.100281, "lat": 42.648891}}, {"id": 2036167, "name": "Daihai", "country": "CN", "coord": {"lon": 112.493057, "lat": 40.521111}}, {"id": 2036168, "name": "Liangbing", "country": "CN", "coord": {"lon": 128.783325, "lat": 43.183331}}, {"id": 2036196, "name": "Quangou", "country": "CN", "coord": {"lon": 124.261208, "lat": 43.18198}}, {"id": 2036206, "name": "Laojinchang", "country": "CN", "coord": {"lon": 127.353607, "lat": 42.907501}}, {"id": 2036207, "name": "Laojieji", "country": "CN", "coord": {"lon": 127.965302, "lat": 44.970119}}, {"id": 2036209, "name": "Laoheishan", "country": "CN", "coord": {"lon": 130.880127, "lat": 43.711761}}, {"id": 2036220, "name": "Laocheng", "country": "CN", "coord": {"lon": 123.994003, "lat": 42.783482}}, {"id": 2036223, "name": "Biancheng", "country": "CN", "coord": {"lon": 122.362328, "lat": 40.67852}}, {"id": 2036281, "name": "Kuangdonggou", "country": "CN", "coord": {"lon": 122.70417, "lat": 40.173611}}, {"id": 2036286, "name": "Kuanbang", "country": "CN", "coord": {"lon": 120.121391, "lat": 40.507278}}, {"id": 2036289, "name": "Kouquan", "country": "CN", "coord": {"lon": 113.126389, "lat": 40.002499}}, {"id": 2036290, "name": "Kouqian", "country": "CN", "coord": {"lon": 126.45784, "lat": 43.639141}}, {"id": 2036325, "name": "Kangping", "country": "CN", "coord": {"lon": 123.349442, "lat": 42.73917}}, {"id": 2036339, "name": "Kaishantun", "country": "CN", "coord": {"lon": 129.757385, "lat": 42.701771}}, {"id": 2036341, "name": "Kailu", "country": "CN", "coord": {"lon": 121.199997, "lat": 43.583328}}, {"id": 2036346, "name": "Juyuan", "country": "CN", "coord": {"lon": 126.971458, "lat": 45.941818}}, {"id": 2036368, "name": "Jule", "country": "CN", "coord": {"lon": 113.574722, "lat": 40.165001}}, {"id": 2036396, "name": "Jiuzhai", "country": "CN", "coord": {"lon": 122.104088, "lat": 40.091148}}, {"id": 2036415, "name": "Jiubing", "country": "CN", "coord": {"lon": 124.109932, "lat": 41.64225}}, {"id": 2036443, "name": "Jinshan", "country": "CN", "coord": {"lon": 118.666672, "lat": 41.916672}}, {"id": 2036451, "name": "Jinjia", "country": "CN", "coord": {"lon": 123.704659, "lat": 42.800732}}, {"id": 2036463, "name": "Jingyu", "country": "CN", "coord": {"lon": 126.801147, "lat": 42.372669}}, {"id": 2036472, "name": "Jingpeng", "country": "CN", "coord": {"lon": 117.51667, "lat": 43.25}}, {"id": 2036481, "name": "Jingjian", "country": "CN", "coord": {"lon": 127.622078, "lat": 45.816891}}, {"id": 2036507, "name": "Jiguanshan", "country": "CN", "coord": {"lon": 123.914513, "lat": 40.520168}}, {"id": 2036508, "name": "Jiguan", "country": "CN", "coord": {"lon": 129.86084, "lat": 43.47406}}, {"id": 2036510, "name": "Jiewen", "country": "CN", "coord": {"lon": 123.00782, "lat": 40.709469}}, {"id": 2036526, "name": "Erdaocha", "country": "CN", "coord": {"lon": 127.487938, "lat": 42.867378}}, {"id": 2036538, "name": "Jianyi", "country": "CN", "coord": {"lon": 122.864212, "lat": 40.48241}}, {"id": 2036574, "name": "Jianchang", "country": "CN", "coord": {"lon": 124.47113, "lat": 41.250832}}, {"id": 2036579, "name": "Jian", "country": "CN", "coord": {"lon": 126.176308, "lat": 41.123482}}, {"id": 2036583, "name": "Jiajiaying", "country": "CN", "coord": {"lon": 127.189499, "lat": 41.789261}}, {"id": 2036602, "name": "Inder", "country": "CN", "coord": {"lon": 122.933327, "lat": 46.700001}}, {"id": 2036611, "name": "Huzhuang", "country": "CN", "coord": {"lon": 122.540283, "lat": 40.716389}}, {"id": 2036628, "name": "Kulun", "country": "CN", "coord": {"lon": 121.775558, "lat": 42.73056}}, {"id": 2036662, "name": "Huludao", "country": "CN", "coord": {"lon": 120.835518, "lat": 40.752419}}, {"id": 2036696, "name": "Huayuankou", "country": "CN", "coord": {"lon": 127.063332, "lat": 42.286678}}, {"id": 2036702, "name": "Huashu", "country": "CN", "coord": {"lon": 127.217468, "lat": 41.990822}}, {"id": 2036704, "name": "Huashan", "country": "CN", "coord": {"lon": 126.866112, "lat": 41.884441}}, {"id": 2036720, "name": "Huangtuling", "country": "CN", "coord": {"lon": 122.791443, "lat": 40.413219}}, {"id": 2036747, "name": "Huangdi", "country": "CN", "coord": {"lon": 120.266212, "lat": 40.23476}}, {"id": 2036750, "name": "Huangbai", "country": "CN", "coord": {"lon": 126.351227, "lat": 41.269291}}, {"id": 2036774, "name": "Huadian", "country": "CN", "coord": {"lon": 125.777237, "lat": 41.299431}}, {"id": 2036779, "name": "Changshun", "country": "CN", "coord": {"lon": 113.992218, "lat": 41.891392}}, {"id": 2036823, "name": "Hongtoushan", "country": "CN", "coord": {"lon": 124.50518, "lat": 41.995232}}, {"id": 2036835, "name": "Hongshi", "country": "CN", "coord": {"lon": 127.101082, "lat": 42.956348}}, {"id": 2036847, "name": "Hongqiyingzi", "country": "CN", "coord": {"lon": 123.437218, "lat": 40.334438}}, {"id": 2036861, "name": "Hongqi", "country": "CN", "coord": {"lon": 123.875671, "lat": 40.141319}}, {"id": 2036897, "name": "Hobor", "country": "CN", "coord": {"lon": 112.627502, "lat": 41.262501}}, {"id": 2036966, "name": "Heilonggong", "country": "CN", "coord": {"lon": 127.897263, "lat": 45.431141}}, {"id": 2037020, "name": "Haoguantun", "country": "CN", "coord": {"lon": 123.486908, "lat": 42.674438}}, {"id": 2037032, "name": "Hanghuadian", "country": "CN", "coord": {"lon": 123.469391, "lat": 40.556519}}, {"id": 2037042, "name": "Hamatang", "country": "CN", "coord": {"lon": 129.499191, "lat": 43.42305}}, {"id": 2037045, "name": "Haliut", "country": "CN", "coord": {"lon": 108.519722, "lat": 41.55611}}, {"id": 2037096, "name": "Zhongxin", "country": "CN", "coord": {"lon": 130.486389, "lat": 42.93}}, {"id": 2037098, "name": "Hadabei", "country": "CN", "coord": {"lon": 123.154243, "lat": 40.34211}}, {"id": 2037099, "name": "Hada", "country": "CN", "coord": {"lon": 124.141563, "lat": 41.971859}}, {"id": 2037103, "name": "Guzhuyingzi", "country": "CN", "coord": {"lon": 120.267189, "lat": 40.938049}}, {"id": 2037117, "name": "Gushan", "country": "CN", "coord": {"lon": 122.96524, "lat": 40.585651}}, {"id": 2037174, "name": "Guayuan", "country": "CN", "coord": {"lon": 113.652428, "lat": 40.020809}}, {"id": 2037178, "name": "Guantun", "country": "CN", "coord": {"lon": 122.559639, "lat": 40.686359}}, {"id": 2037193, "name": "Guanjiabao", "country": "CN", "coord": {"lon": 112.88662, "lat": 40.17984}}, {"id": 2037203, "name": "Guanghua", "country": "CN", "coord": {"lon": 125.985779, "lat": 41.945969}}, {"id": 2037218, "name": "Goubangzi", "country": "CN", "coord": {"lon": 121.77327, "lat": 41.36797}}, {"id": 2037239, "name": "Gonghe", "country": "CN", "coord": {"lon": 130.204834, "lat": 44.11108}}, {"id": 2037253, "name": "Gengzhuang", "country": "CN", "coord": {"lon": 122.701782, "lat": 40.985229}}, {"id": 2037265, "name": "Gaotun", "country": "CN", "coord": {"lon": 122.602882, "lat": 40.434052}}, {"id": 2037269, "name": "Gaotai", "country": "CN", "coord": {"lon": 120.23317, "lat": 40.37907}}, {"id": 2037272, "name": "Gaoshanzi", "country": "CN", "coord": {"lon": 122.049477, "lat": 41.547878}}, {"id": 2037275, "name": "Gaoqiao", "country": "CN", "coord": {"lon": 120.996857, "lat": 40.898769}}, {"id": 2037284, "name": "Gaoling", "country": "CN", "coord": {"lon": 120.008141, "lat": 40.145679}}, {"id": 2037290, "name": "Gaokan", "country": "CN", "coord": {"lon": 122.374153, "lat": 40.77322}}, {"id": 2037306, "name": "Ganwang", "country": "CN", "coord": {"lon": 122.551651, "lat": 40.813061}}, {"id": 2037307, "name": "Ganquan", "country": "CN", "coord": {"lon": 122.854179, "lat": 40.96426}}, {"id": 2037320, "name": "Gangtun", "country": "CN", "coord": {"lon": 120.616982, "lat": 40.919788}}, {"id": 2037322, "name": "Gangou", "country": "CN", "coord": {"lon": 125.714439, "lat": 41.863331}}, {"id": 2037325, "name": "Gaizhou", "country": "CN", "coord": {"lon": 122.368607, "lat": 40.394169}}, {"id": 2037342, "name": "Jincang", "country": "CN", "coord": {"lon": 130.479721, "lat": 43.363079}}, {"id": 2037351, "name": "Fusong", "country": "CN", "coord": {"lon": 127.272652, "lat": 42.32505}}, {"id": 2037377, "name": "Fujia", "country": "CN", "coord": {"lon": 123.811256, "lat": 43.283741}}, {"id": 2037378, "name": "Jianchanggou", "country": "CN", "coord": {"lon": 125.3312, "lat": 41.773769}}, {"id": 2037383, "name": "Fudong", "country": "CN", "coord": {"lon": 129.147812, "lat": 42.574162}}, {"id": 2037424, "name": "Fangtai", "country": "CN", "coord": {"lon": 126.933311, "lat": 46.08918}}, {"id": 2037460, "name": "Erniusuokou", "country": "CN", "coord": {"lon": 123.154861, "lat": 42.766178}}, {"id": 2037461, "name": "Ermi", "country": "CN", "coord": {"lon": 125.82972, "lat": 41.788059}}, {"id": 2037475, "name": "Erhe", "country": "CN", "coord": {"lon": 127.310829, "lat": 45.080959}}, {"id": 2037508, "name": "Erdao", "country": "CN", "coord": {"lon": 122.267189, "lat": 40.595821}}, {"id": 2037509, "name": "Erdaodianzi", "country": "CN", "coord": {"lon": 127.14257, "lat": 43.142319}}, {"id": 2037511, "name": "Erdaobaihe", "country": "CN", "coord": {"lon": 128.110474, "lat": 42.424561}}, {"id": 2037530, "name": "Duolun", "country": "CN", "coord": {"lon": 116.48909, "lat": 42.187119}}, {"id": 2037595, "name": "Dongshengyong", "country": "CN", "coord": {"lon": 129.500107, "lat": 42.808899}}, {"id": 2037603, "name": "Dongshangen", "country": "CN", "coord": {"lon": 119.771828, "lat": 40.37553}}, {"id": 2037647, "name": "Dongguang", "country": "CN", "coord": {"lon": 129.807404, "lat": 43.291229}}, {"id": 2037649, "name": "Donggang", "country": "CN", "coord": {"lon": 127.485893, "lat": 42.16156}}, {"id": 2037662, "name": "Pucheng", "country": "CN", "coord": {"lon": 129.324783, "lat": 42.743698}}, {"id": 2037669, "name": "Dongbeicha", "country": "CN", "coord": {"lon": 127.287781, "lat": 41.737499}}, {"id": 2037736, "name": "Dayingzi", "country": "CN", "coord": {"lon": 123.607498, "lat": 40.314171}}, {"id": 2037748, "name": "Daxing", "country": "CN", "coord": {"lon": 120.941978, "lat": 40.96558}}, {"id": 2037749, "name": "Daxinggou", "country": "CN", "coord": {"lon": 129.661194, "lat": 43.407341}}, {"id": 2037776, "name": "Dawa", "country": "CN", "coord": {"lon": 122.068039, "lat": 40.993729}}, {"id": 2037809, "name": "Dasuhe", "country": "CN", "coord": {"lon": 124.956238, "lat": 41.918171}}, {"id": 2037811, "name": "Dasiping", "country": "CN", "coord": {"lon": 124.713432, "lat": 41.31686}}, {"id": 2037827, "name": "Dashi", "country": "CN", "coord": {"lon": 121.770149, "lat": 41.773628}}, {"id": 2037835, "name": "Dashahe", "country": "CN", "coord": {"lon": 128.254425, "lat": 42.72266}}, {"id": 2037842, "name": "Daquanyuan", "country": "CN", "coord": {"lon": 125.604012, "lat": 41.554062}}, {"id": 2037844, "name": "Daqin Tal", "country": "CN", "coord": {"lon": 120.666672, "lat": 42.883331}}, {"id": 2037863, "name": "Dapuchaihe", "country": "CN", "coord": {"lon": 128.030487, "lat": 42.87973}}, {"id": 2037874, "name": "Daohe", "country": "CN", "coord": {"lon": 130.828568, "lat": 44.033211}}, {"id": 2037903, "name": "Dalu", "country": "CN", "coord": {"lon": 125.77121, "lat": 40.995468}}, {"id": 2037906, "name": "Dalizi", "country": "CN", "coord": {"lon": 126.833328, "lat": 41.730282}}, {"id": 2037927, "name": "Dalain Hob", "country": "CN", "coord": {"lon": 101.063889, "lat": 41.965279}}, {"id": 2037937, "name": "Dajinggou", "country": "CN", "coord": {"lon": 126.52375, "lat": 41.862431}}, {"id": 2037998, "name": "Daduling", "country": "CN", "coord": {"lon": 125.690826, "lat": 41.6175}}, {"id": 2037999, "name": "Daduchuan", "country": "CN", "coord": {"lon": 131.067719, "lat": 43.94532}}, {"id": 2038025, "name": "Daban", "country": "CN", "coord": {"lon": 118.666672, "lat": 43.533329}}, {"id": 2038036, "name": "Daan", "country": "CN", "coord": {"lon": 126.12722, "lat": 41.83556}}, {"id": 2038052, "name": "Chunyang", "country": "CN", "coord": {"lon": 129.432617, "lat": 43.711761}}, {"id": 2038054, "name": "Xitumenzi", "country": "CN", "coord": {"lon": 131.072571, "lat": 43.195141}}, {"id": 2038059, "name": "Choushui", "country": "CN", "coord": {"lon": 127.076271, "lat": 42.39463}}, {"id": 2038060, "name": "Chongshan", "country": "CN", "coord": {"lon": 128.999466, "lat": 42.093391}}, {"id": 2038106, "name": "Chaoyangchuan", "country": "CN", "coord": {"lon": 129.361465, "lat": 42.879711}}, {"id": 2038117, "name": "Qiujia", "country": "CN", "coord": {"lon": 124.072617, "lat": 43.117359}}, {"id": 2038133, "name": "Changxingdian", "country": "CN", "coord": {"lon": 121.725082, "lat": 41.449509}}, {"id": 2038134, "name": "Changxing", "country": "CN", "coord": {"lon": 128.937866, "lat": 43.181332}}, {"id": 2038185, "name": "Changbai", "country": "CN", "coord": {"lon": 128.190536, "lat": 41.416729}}, {"id": 2038204, "name": "Chagou", "country": "CN", "coord": {"lon": 122.860909, "lat": 40.616798}}, {"id": 2038215, "name": "Caohekou", "country": "CN", "coord": {"lon": 123.903816, "lat": 40.87896}}, {"id": 2038227, "name": "Caiyuan", "country": "CN", "coord": {"lon": 125.712967, "lat": 41.337509}}, {"id": 2038258, "name": "Budayuan", "country": "CN", "coord": {"lon": 125.333298, "lat": 40.93396}}, {"id": 2038267, "name": "Boluopu", "country": "CN", "coord": {"lon": 122.459343, "lat": 40.528999}}, {"id": 2038285, "name": "Binxi", "country": "CN", "coord": {"lon": 127.156281, "lat": 45.748699}}, {"id": 2038288, "name": "Binan", "country": "CN", "coord": {"lon": 127.760818, "lat": 45.84156}}, {"id": 2038311, "name": "Beiyinhe", "country": "CN", "coord": {"lon": 127, "lat": 45.166672}}, {"id": 2038350, "name": "Beijiazao", "country": "CN", "coord": {"lon": 113.46917, "lat": 40.053329}}, {"id": 2038356, "name": "Beigang", "country": "CN", "coord": {"lon": 127.534439, "lat": 42.41972}}, {"id": 2038377, "name": "Bayantuohai", "country": "CN", "coord": {"lon": 119.73333, "lat": 49.133331}}, {"id": 2038395, "name": "Bayan Huxu", "country": "CN", "coord": {"lon": 121.400002, "lat": 45.150002}}, {"id": 2038397, "name": "Bayan Hure", "country": "CN", "coord": {"lon": 119.51667, "lat": 49.5}}, {"id": 2038411, "name": "Bayan Gol", "country": "CN", "coord": {"lon": 106.98333, "lat": 40.299999}}, {"id": 2038413, "name": "Bayangang", "country": "CN", "coord": {"lon": 127.541443, "lat": 46.043091}}, {"id": 2038440, "name": "Baoshan", "country": "CN", "coord": {"lon": 123.861504, "lat": 40.363838}}, {"id": 2038452, "name": "Baokang", "country": "CN", "coord": {"lon": 123.304718, "lat": 44.11972}}, {"id": 2038461, "name": "Baochang", "country": "CN", "coord": {"lon": 115.278893, "lat": 41.884441}}, {"id": 2038468, "name": "Banshi", "country": "CN", "coord": {"lon": 130.338333, "lat": 42.778332}}, {"id": 2038484, "name": "Bamiancheng", "country": "CN", "coord": {"lon": 124.04924, "lat": 43.197269}}, {"id": 2038490, "name": "Balidianzi", "country": "CN", "coord": {"lon": 124.890259, "lat": 41.239681}}, {"id": 2038493, "name": "Bali", "country": "CN", "coord": {"lon": 122.754509, "lat": 40.78857}}, {"id": 2038502, "name": "Bajiazi", "country": "CN", "coord": {"lon": 129.113892, "lat": 42.665951}}, {"id": 2038527, "name": "Baishuitan", "country": "CN", "coord": {"lon": 127.800598, "lat": 42.75946}}, {"id": 2038542, "name": "Baiquan", "country": "CN", "coord": {"lon": 124.958267, "lat": 42.88538}}, {"id": 2038552, "name": "Bailingmiao", "country": "CN", "coord": {"lon": 110.435562, "lat": 41.69194}}, {"id": 2038572, "name": "Baicaogou", "country": "CN", "coord": {"lon": 129.602722, "lat": 43.26543}}, {"id": 2038577, "name": "Xiqu", "country": "CN", "coord": {"lon": 101.598282, "lat": 26.605659}}, {"id": 2038595, "name": "Badaogou", "country": "CN", "coord": {"lon": 127.264664, "lat": 41.517262}}, {"id": 2038621, "name": "Aojiabao", "country": "CN", "coord": {"lon": 124.777328, "lat": 41.91106}}, {"id": 2038643, "name": "Anjia", "country": "CN", "coord": {"lon": 127.06752, "lat": 45.05109}}, {"id": 2038656, "name": "Amgalang", "country": "CN", "coord": {"lon": 118.199997, "lat": 48.25}}, {"id": 2038661, "name": "Altan Emel", "country": "CN", "coord": {"lon": 116.833328, "lat": 48.666672}}, {"id": 2045478, "name": "Shisidaogou", "country": "CN", "coord": {"lon": 127.921669, "lat": 41.451672}}, {"id": 2045898, "name": "Shisandaogou", "country": "CN", "coord": {"lon": 127.77861, "lat": 41.429169}}, {"id": 2046561, "name": "Xiaoshahe", "country": "CN", "coord": {"lon": 128.29361, "lat": 42.639439}}, {"id": 2047368, "name": "Donglai", "country": "CN", "coord": {"lon": 126.144493, "lat": 41.65234}}, {"id": 2050964, "name": "Bayinbaolige", "country": "CN", "coord": {"lon": 107.066391, "lat": 41.091389}}, {"id": 2050968, "name": "Ulashan", "country": "CN", "coord": {"lon": 108.74472, "lat": 40.665001}}, {"id": 2051050, "name": "Tongfosi", "country": "CN", "coord": {"lon": 129.242569, "lat": 42.887371}}, {"id": 2051052, "name": "Erdao", "country": "CN", "coord": {"lon": 129.093155, "lat": 42.697559}}, {"id": 2051067, "name": "Yingan", "country": "CN", "coord": {"lon": 130.285828, "lat": 42.889999}},