[{"id": 2810110, "name": "Westhofen", "country": "DE", "coord": {"lon": 8.24806, "lat": 49.704441}}, {"id": 2930722, "name": "Elsheim", "country": "DE", "coord": {"lon": 8.12222, "lat": 49.916939}}, {"id": 6556970, "name": "Wartmannsroth", "country": "DE", "coord": {"lon": 9.78333, "lat": 50.166698}}, {"id": 2813888, "name": "Wartmannsroth", "country": "DE", "coord": {"lon": 9.78333, "lat": 50.166672}}, {"id": 2881152, "name": "Langenbieber", "country": "DE", "coord": {"lon": 9.83577, "lat": 50.572281}}, {"id": 2958631, "name": "Albisheim", "country": "DE", "coord": {"lon": 8.09667, "lat": 49.649441}}, {"id": 6554995, "name": "Weitersweiler", "country": "DE", "coord": {"lon": 8, "lat": 49.616699}}, {"id": 2811643, "name": "Weitersweiler", "country": "DE", "coord": {"lon": 8, "lat": 49.616669}}, {"id": 2858441, "name": "Oberzeuzheim", "country": "DE", "coord": {"lon": 8.06667, "lat": 50.466671}}, {"id": 6554259, "name": "Oberro\u00dfbach", "country": "DE", "coord": {"lon": 8.03333, "lat": 50.650002}}, {"id": 2859239, "name": "Oberrossbach", "country": "DE", "coord": {"lon": 8.03333, "lat": 50.650002}}, {"id": 6553387, "name": "Fluterschen", "country": "DE", "coord": {"lon": 7.61667, "lat": 50.666698}}, {"id": 2926030, "name": "Fluterschen", "country": "DE", "coord": {"lon": 7.61667, "lat": 50.666672}}, {"id": 6553442, "name": "Scheuerfeld", "country": "DE", "coord": {"lon": 7.83333, "lat": 50.783298}}, {"id": 2839581, "name": "Scheuerfeld", "country": "DE", "coord": {"lon": 7.83333, "lat": 50.783329}}, {"id": 2851898, "name": "Promnitz", "country": "DE", "coord": {"lon": 13.32195, "lat": 51.317101}}, {"id": 2902480, "name": "H\u00f6flein", "country": "DE", "coord": {"lon": 14.21667, "lat": 51.25}}, {"id": 2933721, "name": "Eckartsberg", "country": "DE", "coord": {"lon": 14.8, "lat": 50.916672}}, {"id": 2865863, "name": "Neueibau", "country": "DE", "coord": {"lon": 14.65, "lat": 50.966671}}, {"id": 6550453, "name": "Mittelp\u00f6llnitz", "country": "DE", "coord": {"lon": 11.9167, "lat": 50.75}}, {"id": 2870618, "name": "Mittelpollnitz", "country": "DE", "coord": {"lon": 11.91667, "lat": 50.75}}, {"id": 2862643, "name": "Niemberg", "country": "DE", "coord": {"lon": 12.08333, "lat": 51.549999}}, {"id": 2939841, "name": "Cosa", "country": "DE", "coord": {"lon": 12.08333, "lat": 51.700001}}, {"id": 2827461, "name": "Stendorf", "country": "DE", "coord": {"lon": 11.7, "lat": 51.116669}}, {"id": 2857654, "name": "\u00d6chlitz", "country": "DE", "coord": {"lon": 11.76667, "lat": 51.333328}}, {"id": 2959783, "name": "Abteroda", "country": "DE", "coord": {"lon": 10.07652, "lat": 50.902168}}, {"id": 6550230, "name": "Berlstedt", "country": "DE", "coord": {"lon": 11.25, "lat": 51.0667}}, {"id": 2950132, "name": "Berlstedt", "country": "DE", "coord": {"lon": 11.25, "lat": 51.066669}}, {"id": 6550159, "name": "Walschleben", "country": "DE", "coord": {"lon": 10.9333, "lat": 51.0667}}, {"id": 2814479, "name": "Walschleben", "country": "DE", "coord": {"lon": 10.93333, "lat": 51.066669}}, {"id": 2869962, "name": "Molsdorf", "country": "DE", "coord": {"lon": 10.95912, "lat": 50.907421}}, {"id": 2871838, "name": "Merbelsrod", "country": "DE", "coord": {"lon": 10.85, "lat": 50.48333}}, {"id": 2831502, "name": "Sollstedt", "country": "DE", "coord": {"lon": 10.5, "lat": 51.316669}}, {"id": 2837665, "name": "Schmogrow", "country": "DE", "coord": {"lon": 14.21667, "lat": 51.849998}}, {"id": 6552436, "name": "Barver", "country": "DE", "coord": {"lon": 8.6, "lat": 52.616699}}, {"id": 2952330, "name": "Barver", "country": "DE", "coord": {"lon": 8.59251, "lat": 52.620659}}, {"id": 6552453, "name": "Mellinghausen", "country": "DE", "coord": {"lon": 8.9, "lat": 52.700001}}, {"id": 2872056, "name": "Mellinghausen", "country": "DE", "coord": {"lon": 8.89704, "lat": 52.70697}}, {"id": 6552607, "name": "Odisheim", "country": "DE", "coord": {"lon": 8.93333, "lat": 53.6833}}, {"id": 2858013, "name": "Odisheim", "country": "DE", "coord": {"lon": 8.93333, "lat": 53.683331}}, {"id": 6556350, "name": "M\u00fcnchsm\u00fcnster", "country": "DE", "coord": {"lon": 11.6833, "lat": 48.766701}}, {"id": 2867637, "name": "Munchsmunster", "country": "DE", "coord": {"lon": 11.68333, "lat": 48.76667}}, {"id": 6551903, "name": "Padenstedt", "country": "DE", "coord": {"lon": 9.91667, "lat": 54.049999}}, {"id": 2855747, "name": "Padenstedt", "country": "DE", "coord": {"lon": 9.91667, "lat": 54.049999}}, {"id": 6551917, "name": "Sch\u00fclldorf", "country": "DE", "coord": {"lon": 9.73333, "lat": 54.299999}}, {"id": 2835953, "name": "Schulldorf", "country": "DE", "coord": {"lon": 9.73333, "lat": 54.299999}}, {"id": 2816688, "name": "V\u00f6lkenroth", "country": "DE", "coord": {"lon": 7.4, "lat": 50.033329}}, {"id": 6553941, "name": "Niedersohren", "country": "DE", "coord": {"lon": 7.33333, "lat": 49.9333}}, {"id": 2862862, "name": "Niedersohren", "country": "DE", "coord": {"lon": 7.33333, "lat": 49.933331}}, {"id": 2899373, "name": "Hoengen", "country": "DE", "coord": {"lon": 6.21667, "lat": 50.866669}}, {"id": 6554901, "name": "Friedelsheim", "country": "DE", "coord": {"lon": 8.22306, "lat": 49.446899}}, {"id": 2924774, "name": "Friedelsheim", "country": "DE", "coord": {"lon": 8.22306, "lat": 49.446941}}, {"id": 2928414, "name": "Eulsbach", "country": "DE", "coord": {"lon": 8.76667, "lat": 49.683331}}, {"id": 2804133, "name": "Zinhain", "country": "DE", "coord": {"lon": 7.92775, "lat": 50.643848}}, {"id": 2865968, "name": "Neudorf", "country": "DE", "coord": {"lon": 14.33333, "lat": 51.26667}}, {"id": 2957865, "name": "Altenbeichlingen", "country": "DE", "coord": {"lon": 11.23333, "lat": 51.216671}}, {"id": 2870092, "name": "M\u00f6lbis", "country": "DE", "coord": {"lon": 12.5, "lat": 51.200001}}, {"id": 2803624, "name": "Zweenfurth", "country": "DE", "coord": {"lon": 12.55, "lat": 51.333328}}, {"id": 2842009, "name": "Sandbeiendorf", "country": "DE", "coord": {"lon": 11.71932, "lat": 52.39592}}, {"id": 2936298, "name": "Domersleben", "country": "DE", "coord": {"lon": 11.43333, "lat": 52.083328}}, {"id": 2941422, "name": "Burgberg", "country": "DE", "coord": {"lon": 10.28333, "lat": 47.533329}}, {"id": 2813700, "name": "Wassertrudingen", "country": "DE", "coord": {"lon": 10.6, "lat": 49.049999}}, {"id": 6557081, "name": "Gauk\u00f6nigshofen", "country": "DE", "coord": {"lon": 10, "lat": 49.633301}}, {"id": 2922271, "name": "Gaukonigshofen", "country": "DE", "coord": {"lon": 10, "lat": 49.633331}}, {"id": 6555356, "name": "Spirkelbach", "country": "DE", "coord": {"lon": 7.88333, "lat": 49.200001}}, {"id": 2830409, "name": "Spirkelbach", "country": "DE", "coord": {"lon": 7.88333, "lat": 49.200001}}, {"id": 6553694, "name": "Kaifenheim", "country": "DE", "coord": {"lon": 7.2254, "lat": 50.24424}}, {"id": 2894085, "name": "Kaifenheim", "country": "DE", "coord": {"lon": 7.22643, "lat": 50.24501}}, {"id": 3220836, "name": "Landkreis M\u00fchldorf am Inn", "country": "DE", "coord": {"lon": 12.41278, "lat": 48.230282}}, {"id": 6556301, "name": "Reichertsheim", "country": "DE", "coord": {"lon": 12.2833, "lat": 48.200001}}, {"id": 2849019, "name": "Reichertsheim", "country": "DE", "coord": {"lon": 12.28333, "lat": 48.200001}}, {"id": 2947910, "name": "Blaumh\u00f6fen", "country": "DE", "coord": {"lon": 7.83333, "lat": 50.533329}}, {"id": 2841488, "name": "Sankt Peter", "country": "DE", "coord": {"lon": 8.03333, "lat": 48.01667}}, {"id": 2918351, "name": "Grafenberg", "country": "DE", "coord": {"lon": 11.27644, "lat": 49.019859}}, {"id": 2941062, "name": "Burgwedel", "country": "DE", "coord": {"lon": 9.9, "lat": 53.650002}}, {"id": 2837343, "name": "Schnelsen", "country": "DE", "coord": {"lon": 9.91667, "lat": 53.633331}}, {"id": 6557004, "name": "Stettfeld", "country": "DE", "coord": {"lon": 10.7167, "lat": 49.966702}}, {"id": 2827197, "name": "Stettfeld", "country": "DE", "coord": {"lon": 10.72386, "lat": 49.97187}}, {"id": 2940409, "name": "Caldern", "country": "DE", "coord": {"lon": 8.66014, "lat": 50.844051}}, {"id": 6553448, "name": "Steineroth", "country": "DE", "coord": {"lon": 7.85, "lat": 50.75}}, {"id": 2828165, "name": "Steineroth", "country": "DE", "coord": {"lon": 7.85, "lat": 50.75}}, {"id": 2872590, "name": "Meckelstedt", "country": "DE", "coord": {"lon": 8.93333, "lat": 53.599998}}, {"id": 6550049, "name": "Unterweid", "country": "DE", "coord": {"lon": 10.0667, "lat": 50.616699}}, {"id": 2818448, "name": "Unterweid", "country": "DE", "coord": {"lon": 10.06667, "lat": 50.616669}}, {"id": 6549824, "name": "Vollenborn", "country": "DE", "coord": {"lon": 10.5, "lat": 51.349998}}, {"id": 2816583, "name": "Vollenborn", "country": "DE", "coord": {"lon": 10.5, "lat": 51.349998}}, {"id": 6554969, "name": "M\u00fcnsterappel", "country": "DE", "coord": {"lon": 7.88333, "lat": 49.733299}}, {"id": 2867536, "name": "Munsterappel", "country": "DE", "coord": {"lon": 7.88333, "lat": 49.73333}}, {"id": 6553776, "name": "Pillig", "country": "DE", "coord": {"lon": 7.31089, "lat": 50.23798}}, {"id": 2853722, "name": "Pillig", "country": "DE", "coord": {"lon": 7.31157, "lat": 50.239189}}, {"id": 6548691, "name": "Dohma", "country": "DE", "coord": {"lon": 13.9333, "lat": 50.916698}}, {"id": 2936473, "name": "Dohma", "country": "DE", "coord": {"lon": 13.93333, "lat": 50.916672}}, {"id": 2813727, "name": "Wasserloh", "country": "DE", "coord": {"lon": 12.13333, "lat": 50.349998}}, {"id": 2860598, "name": "Obergolzaberg", "country": "DE", "coord": {"lon": 11.88333, "lat": 48.599998}}, {"id": 2840500, "name": "Schammelsdorf", "country": "DE", "coord": {"lon": 11, "lat": 49.916672}}, {"id": 6556755, "name": "Eckersdorf", "country": "DE", "coord": {"lon": 11.50167, "lat": 49.932949}}, {"id": 2933608, "name": "Eckersdorf", "country": "DE", "coord": {"lon": 11.49621, "lat": 49.934799}}, {"id": 3207527, "name": "Ischert", "country": "DE", "coord": {"lon": 6.86667, "lat": 49.683331}}, {"id": 6554798, "name": "Temmels", "country": "DE", "coord": {"lon": 6.46667, "lat": 49.6833}}, {"id": 2823561, "name": "Temmels", "country": "DE", "coord": {"lon": 6.46667, "lat": 49.683331}}, {"id": 2890536, "name": "Kirchensall", "country": "DE", "coord": {"lon": 9.60059, "lat": 49.239849}}, {"id": 6552315, "name": "Oslo\u00df", "country": "DE", "coord": {"lon": 10.68013, "lat": 52.469212}}, {"id": 2856888, "name": "Osloss", "country": "DE", "coord": {"lon": 10.68011, "lat": 52.46925}}, {"id": 6552623, "name": "Brackel", "country": "DE", "coord": {"lon": 10.0333, "lat": 53.299999}}, {"id": 2945600, "name": "Brackel", "country": "DE", "coord": {"lon": 10.03333, "lat": 53.299999}}, {"id": 6555230, "name": "Wernersberg", "country": "DE", "coord": {"lon": 7.93333, "lat": 49.1833}}, {"id": 2810828, "name": "Wernersberg", "country": "DE", "coord": {"lon": 7.93333, "lat": 49.183331}}, {"id": 2909033, "name": "Hauptenberg", "country": "DE", "coord": {"lon": 12.55, "lat": 49.01667}}, {"id": 6556202, "name": "Gammelsdorf", "country": "DE", "coord": {"lon": 11.95, "lat": 48.549999}}, {"id": 2922754, "name": "Gammelsdorf", "country": "DE", "coord": {"lon": 11.95, "lat": 48.549999}}, {"id": 2929874, "name": "Epfach", "country": "DE", "coord": {"lon": 10.91667, "lat": 47.916672}}, {"id": 2827187, "name": "Steudten", "country": "DE", "coord": {"lon": 12.81667, "lat": 51.033329}}, {"id": 2922513, "name": "Garnsdorf", "country": "DE", "coord": {"lon": 12.91667, "lat": 50.916672}}, {"id": 2829734, "name": "Stadt Wehlen", "country": "DE", "coord": {"lon": 14.03091, "lat": 50.95821}}, {"id": 7530852, "name": "Powiat zgorzelecki", "country": "PL", "coord": {"lon": 15.07863, "lat": 51.162971}}, {"id": 7533031, "name": "Bogatynia", "country": "PL", "coord": {"lon": 14.9386, "lat": 50.922298}}, {"id": 3094480, "name": "Krzewina", "country": "PL", "coord": {"lon": 14.95042, "lat": 51.02034}}, {"id": 6555837, "name": "D\u00fcrbheim", "country": "DE", "coord": {"lon": 8.78333, "lat": 48.049999}}, {"id": 2934499, "name": "Durbheim", "country": "DE", "coord": {"lon": 8.78333, "lat": 48.049999}}, {"id": 2947355, "name": "Bockenheim", "country": "DE", "coord": {"lon": 8.18194, "lat": 49.606392}}, {"id": 6552319, "name": "R\u00fchen", "country": "DE", "coord": {"lon": 10.8833, "lat": 52.483299}}, {"id": 2843272, "name": "Ruhen", "country": "DE", "coord": {"lon": 10.88642, "lat": 52.4856}}, {"id": 2868152, "name": "M\u00fchlenholz", "country": "DE", "coord": {"lon": 9.66667, "lat": 54.700001}}, {"id": 6553689, "name": "Hambuch", "country": "DE", "coord": {"lon": 7.18333, "lat": 50.233299}}, {"id": 2911306, "name": "Hambuch", "country": "DE", "coord": {"lon": 7.18333, "lat": 50.23333}}, {"id": 2880938, "name": "Langenrieth", "country": "DE", "coord": {"lon": 13.26667, "lat": 51.466671}}, {"id": 2849349, "name": "Rehfeld", "country": "DE", "coord": {"lon": 13.1745, "lat": 51.58432}}, {"id": 6552477, "name": "Eberholzen", "country": "DE", "coord": {"lon": 9.85, "lat": 52.049999}}, {"id": 2933994, "name": "Eberholzen", "country": "DE", "coord": {"lon": 9.85, "lat": 52.049999}}, {"id": 6549999, "name": "Benshausen", "country": "DE", "coord": {"lon": 10.6, "lat": 50.650002}}, {"id": 2950979, "name": "Benshausen", "country": "DE", "coord": {"lon": 10.6, "lat": 50.650002}}, {"id": 2838827, "name": "Schlechtsart", "country": "DE", "coord": {"lon": 10.61667, "lat": 50.333328}}, {"id": 6555137, "name": "Ohmbach", "country": "DE", "coord": {"lon": 7.35, "lat": 49.450001}}, {"id": 2857643, "name": "Ohmbach", "country": "DE", "coord": {"lon": 7.35, "lat": 49.450001}}, {"id": 2857804, "name": "Offenbach am Glan", "country": "DE", "coord": {"lon": 7.55, "lat": 49.616669}}, {"id": 6553468, "name": "Becherbach", "country": "DE", "coord": {"lon": 7.68333, "lat": 49.650002}}, {"id": 2951780, "name": "Becherbach", "country": "DE", "coord": {"lon": 7.68333, "lat": 49.650002}}, {"id": 6554952, "name": "H\u00f6ringen", "country": "DE", "coord": {"lon": 7.8, "lat": 49.549999}}, {"id": 2899016, "name": "Horingen", "country": "DE", "coord": {"lon": 7.8, "lat": 49.549999}}, {"id": 2866086, "name": "Neubulach", "country": "DE", "coord": {"lon": 8.69611, "lat": 48.660919}}, {"id": 2810104, "name": "Westhoven", "country": "DE", "coord": {"lon": 7.02456, "lat": 50.899891}}, {"id": 6551742, "name": "Klein Barkau", "country": "DE", "coord": {"lon": 10.1333, "lat": 54.233299}}, {"id": 2889766, "name": "Klein Barkau", "country": "DE", "coord": {"lon": 10.13333, "lat": 54.23333}}, {"id": 6551381, "name": "S\u00fcderhastedt", "country": "DE", "coord": {"lon": 9.21667, "lat": 54.049999}}, {"id": 2825142, "name": "Suderhastedt", "country": "DE", "coord": {"lon": 9.21667, "lat": 54.049999}}, {"id": 2917425, "name": "Griesenb\u00f6tel", "country": "DE", "coord": {"lon": 10.13333, "lat": 54.066669}}, {"id": 2857478, "name": "\u00d6lb\u00f6m", "country": "DE", "coord": {"lon": 10.51667, "lat": 54.316669}}, {"id": 2887515, "name": "Klosterdorf", "country": "DE", "coord": {"lon": 13.95, "lat": 52.583328}}, {"id": 6554749, "name": "Kasel", "country": "DE", "coord": {"lon": 6.73333, "lat": 49.766701}}, {"id": 2892571, "name": "Kasel", "country": "DE", "coord": {"lon": 6.73222, "lat": 49.7617}}, {"id": 2818218, "name": "Urdorf", "country": "DE", "coord": {"lon": 7.98333, "lat": 50.616669}}, {"id": 2870543, "name": "Mittelstetten", "country": "DE", "coord": {"lon": 10.83333, "lat": 48.01667}}, {"id": 2881039, "name": "Langenhaslach", "country": "DE", "coord": {"lon": 10.37659, "lat": 48.315048}}, {"id": 6554587, "name": "Orenhofen", "country": "DE", "coord": {"lon": 6.65, "lat": 49.900002}}, {"id": 2857098, "name": "Orenhofen", "country": "DE", "coord": {"lon": 6.65, "lat": 49.900002}}, {"id": 2849297, "name": "Rehlingen", "country": "DE", "coord": {"lon": 6.43333, "lat": 49.616669}}, {"id": 2845852, "name": "Roggenstede", "country": "DE", "coord": {"lon": 7.48333, "lat": 53.633331}}, {"id": 2959164, "name": "Ahmsen", "country": "DE", "coord": {"lon": 7.63333, "lat": 52.783329}}, {"id": 2805708, "name": "W\u00fcrges", "country": "DE", "coord": {"lon": 8.28333, "lat": 50.283329}}, {"id": 6556139, "name": "Petershausen", "country": "DE", "coord": {"lon": 11.4684, "lat": 48.408401}}, {"id": 2854646, "name": "Petershausen", "country": "DE", "coord": {"lon": 11.46667, "lat": 48.400002}}, {"id": 6548597, "name": "Fraureuth", "country": "DE", "coord": {"lon": 12.35, "lat": 50.700001}}, {"id": 2925267, "name": "Fraureuth", "country": "DE", "coord": {"lon": 12.35, "lat": 50.700001}}, {"id": 2889977, "name": "Klausen", "country": "DE", "coord": {"lon": 11, "lat": 47.799999}}, {"id": 2834580, "name": "Schweigen", "country": "DE", "coord": {"lon": 7.95354, "lat": 49.050549}}, {"id": 6554811, "name": "Z\u00fcsch", "country": "DE", "coord": {"lon": 7, "lat": 49.650002}}, {"id": 2803664, "name": "Zusch", "country": "DE", "coord": {"lon": 7, "lat": 49.650002}}, {"id": 2819305, "name": "Unterhub", "country": "DE", "coord": {"lon": 7.71667, "lat": 49.900002}}, {"id": 6553453, "name": "Weitefeld", "country": "DE", "coord": {"lon": 7.93333, "lat": 50.716702}}, {"id": 2811685, "name": "Weitefeld", "country": "DE", "coord": {"lon": 7.93333, "lat": 50.716671}}, {"id": 2853974, "name": "Pf\u00f6rring", "country": "DE", "coord": {"lon": 11.68333, "lat": 48.816669}}, {"id": 6550331, "name": "Reichmannsdorf", "country": "DE", "coord": {"lon": 11.2333, "lat": 50.549999}}, {"id": 2848994, "name": "Reichmannsdorf", "country": "DE", "coord": {"lon": 11.23333, "lat": 50.549999}}, {"id": 2848586, "name": "Reisen", "country": "DE", "coord": {"lon": 11.88333, "lat": 48.333328}}, {"id": 2830625, "name": "Sperberslohe", "country": "DE", "coord": {"lon": 11.15, "lat": 48.933331}}, {"id": 6554011, "name": "Dausenau", "country": "DE", "coord": {"lon": 7.76667, "lat": 50.333302}}, {"id": 2938711, "name": "Dausenau", "country": "DE", "coord": {"lon": 7.76667, "lat": 50.333328}}, {"id": 6551916, "name": "Sch\u00f6nbek", "country": "DE", "coord": {"lon": 9.96667, "lat": 54.166698}}, {"id": 2837009, "name": "Schonbek", "country": "DE", "coord": {"lon": 9.96667, "lat": 54.166672}}, {"id": 6549970, "name": "Heygendorf", "country": "DE", "coord": {"lon": 11.3667, "lat": 51.349998}}, {"id": 2904904, "name": "Heygendorf", "country": "DE", "coord": {"lon": 11.36667, "lat": 51.349998}}, {"id": 6548647, "name": "Rietschen", "country": "DE", "coord": {"lon": 14.7908, "lat": 51.406101}}, {"id": 2846806, "name": "Rietschen", "country": "DE", "coord": {"lon": 14.78333, "lat": 51.400002}}, {"id": 6556181, "name": "Finsing", "country": "DE", "coord": {"lon": 11.8044, "lat": 48.223}}, {"id": 2926703, "name": "Finsing", "country": "DE", "coord": {"lon": 11.82412, "lat": 48.216148}}, {"id": 2934797, "name": "D\u00fcbbekold", "country": "DE", "coord": {"lon": 10.88333, "lat": 53.150002}}, {"id": 2815045, "name": "Waldesch", "country": "DE", "coord": {"lon": 7.15, "lat": 50.366669}}, {"id": 6556060, "name": "Bodnegg", "country": "DE", "coord": {"lon": 9.68333, "lat": 47.716702}}, {"id": 2947069, "name": "Bodnegg", "country": "DE", "coord": {"lon": 9.68333, "lat": 47.716671}}, {"id": 6551828, "name": "Ellerdorf", "country": "DE", "coord": {"lon": 9.85, "lat": 54.200001}}, {"id": 2931008, "name": "Ellerdorf", "country": "DE", "coord": {"lon": 9.85, "lat": 54.200001}}, {"id": 6555483, "name": "Kirchheim am Neckar", "country": "DE", "coord": {"lon": 9.14222, "lat": 49.044998}}, {"id": 2890482, "name": "Kirchheim am Neckar", "country": "DE", "coord": {"lon": 9.14222, "lat": 49.044998}}, {"id": 2853059, "name": "P\u00f6deldorf", "country": "DE", "coord": {"lon": 10.99148, "lat": 49.910221}}, {"id": 6549979, "name": "Oldisleben", "country": "DE", "coord": {"lon": 11.1667, "lat": 51.299999}}, {"id": 2857388, "name": "Oldisleben", "country": "DE", "coord": {"lon": 11.16667, "lat": 51.299999}}, {"id": 2952527, "name": "Barnau", "country": "DE", "coord": {"lon": 12.43318, "lat": 49.810791}}, {"id": 2845392, "name": "Rollsdorf", "country": "DE", "coord": {"lon": 11.73333, "lat": 51.5}}, {"id": 2956081, "name": "Angersdorf", "country": "DE", "coord": {"lon": 11.91667, "lat": 51.466671}}, {"id": 2855345, "name": "Paschwitz", "country": "DE", "coord": {"lon": 12.72217, "lat": 51.46524}}, {"id": 6552295, "name": "Zarpen", "country": "DE", "coord": {"lon": 10.5167, "lat": 53.866699}}, {"id": 2805198, "name": "Zarpen", "country": "DE", "coord": {"lon": 10.51667, "lat": 53.866669}}, {"id": 2881676, "name": "Lampoding", "country": "DE", "coord": {"lon": 12.80122, "lat": 47.943081}}, {"id": 2815399, "name": "Wahlsdorf", "country": "DE", "coord": {"lon": 13.33333, "lat": 51.950001}}, {"id": 6548018, "name": "Priepert", "country": "DE", "coord": {"lon": 13.0333, "lat": 53.216702}}, {"id": 2852097, "name": "Priepert", "country": "DE", "coord": {"lon": 13.03333, "lat": 53.216671}}, {"id": 2852544, "name": "Posendorf", "country": "DE", "coord": {"lon": 11.96667, "lat": 51.25}}, {"id": 2938972, "name": "Dannheim", "country": "DE", "coord": {"lon": 10.98333, "lat": 50.799999}}, {"id": 6550526, "name": "Wildetaube", "country": "DE", "coord": {"lon": 12.1167, "lat": 50.716702}}, {"id": 2808878, "name": "Wildetaube", "country": "DE", "coord": {"lon": 12.11667, "lat": 50.716671}}, {"id": 2819452, "name": "Unterhain", "country": "DE", "coord": {"lon": 11.13333, "lat": 50.633331}}, {"id": 2807090, "name": "Wohlbach", "country": "DE", "coord": {"lon": 12.31667, "lat": 50.349998}}, {"id": 6553995, "name": "Becheln", "country": "DE", "coord": {"lon": 7.71667, "lat": 50.299999}}, {"id": 2951788, "name": "Becheln", "country": "DE", "coord": {"lon": 7.71667, "lat": 50.299999}}, {"id": 2946595, "name": "B\u00f6llstein", "country": "DE", "coord": {"lon": 8.92111, "lat": 49.740559}}, {"id": 6556655, "name": "Flossenb\u00fcrg", "country": "DE", "coord": {"lon": 12.35, "lat": 49.733299}}, {"id": 2926107, "name": "Flossenburg", "country": "DE", "coord": {"lon": 12.35, "lat": 49.73333}}, {"id": 6556845, "name": "Mitteleschenbach", "country": "DE", "coord": {"lon": 10.7833, "lat": 49.216702}}, {"id": 2870743, "name": "Mitteleschenbach", "country": "DE", "coord": {"lon": 10.78333, "lat": 49.216671}}, {"id": 2896533, "name": "Illkofen", "country": "DE", "coord": {"lon": 12.3, "lat": 49.01667}}, {"id": 2808363, "name": "Wimm", "country": "DE", "coord": {"lon": 12.86667, "lat": 48.216671}}, {"id": 6551983, "name": "Nottfeld", "country": "DE", "coord": {"lon": 9.76667, "lat": 54.616699}}, {"id": 2861739, "name": "Nottfeld", "country": "DE", "coord": {"lon": 9.76667, "lat": 54.616669}}, {"id": 6547977, "name": "S\u00fclstorf", "country": "DE", "coord": {"lon": 11.3667, "lat": 53.516701}}, {"id": 2824937, "name": "Sulstorf", "country": "DE", "coord": {"lon": 11.36667, "lat": 53.51667}}, {"id": 6551910, "name": "Rodenbek", "country": "DE", "coord": {"lon": 10.0167, "lat": 54.283298}}, {"id": 2846048, "name": "Rodenbek", "country": "DE", "coord": {"lon": 10.01667, "lat": 54.283329}}, {"id": 6558461, "name": "W\u00f6lpinghausen", "country": "DE", "coord": {"lon": 9.25574, "lat": 52.419498}}, {"id": 2806320, "name": "Wolpinghausen", "country": "DE", "coord": {"lon": 9.23333, "lat": 52.416672}}, {"id": 2876877, "name": "Lippoldshausen", "country": "DE", "coord": {"lon": 9.72608, "lat": 51.415958}}, {"id": 2921700, "name": "Geisenkam", "country": "DE", "coord": {"lon": 12.21667, "lat": 47.783329}}, {"id": 6548272, "name": "Karlsburg", "country": "DE", "coord": {"lon": 13.6167, "lat": 53.966702}}, {"id": 2892887, "name": "Karlsburg", "country": "DE", "coord": {"lon": 13.61667, "lat": 53.966671}}, {"id": 3205569, "name": "Steinholz", "country": "DE", "coord": {"lon": 10.65, "lat": 47.900002}}, {"id": 2874923, "name": "L\u00fctjenbornholt", "country": "DE", "coord": {"lon": 9.33333, "lat": 54.083328}}, {"id": 2917006, "name": "Gro\u00df Barnitz", "country": "DE", "coord": {"lon": 10.5, "lat": 53.799999}}, {"id": 2823057, "name": "Thalkleinich", "country": "DE", "coord": {"lon": 7.18333, "lat": 49.900002}}, {"id": 6552323, "name": "Steinhorst", "country": "DE", "coord": {"lon": 10.4, "lat": 52.6833}}, {"id": 2827951, "name": "Steinhorst", "country": "DE", "coord": {"lon": 10.4, "lat": 52.683331}}, {"id": 6555079, "name": "Bosenbach", "country": "DE", "coord": {"lon": 7.53333, "lat": 49.533298}}, {"id": 2945902, "name": "Bosenbach", "country": "DE", "coord": {"lon": 7.53333, "lat": 49.533329}}, {"id": 6555064, "name": "Waldleiningen", "country": "DE", "coord": {"lon": 7.88333, "lat": 49.400002}}, {"id": 2814866, "name": "Waldleiningen", "country": "DE", "coord": {"lon": 7.88333, "lat": 49.400002}}, {"id": 6553561, "name": "Winterburg", "country": "DE", "coord": {"lon": 7.65, "lat": 49.866699}}, {"id": 2807778, "name": "Winterburg", "country": "DE", "coord": {"lon": 7.65, "lat": 49.866669}}, {"id": 2899189, "name": "Hopfmannsfeld", "country": "DE", "coord": {"lon": 9.3, "lat": 50.583328}}, {"id": 2863233, "name": "Niederjossa", "country": "DE", "coord": {"lon": 9.56667, "lat": 50.76667}}, {"id": 2923443, "name": "Gablenz", "country": "DE", "coord": {"lon": 14.51667, "lat": 51.683331}}, {"id": 2900763, "name": "H\u00f6lden", "country": "DE", "coord": {"lon": 10.58333, "lat": 48.23333}}, {"id": 2906417, "name": "Hengstforde", "country": "DE", "coord": {"lon": 7.76667, "lat": 53.216671}}, {"id": 6554401, "name": "Baustert", "country": "DE", "coord": {"lon": 6.38333, "lat": 49.983299}}, {"id": 2951887, "name": "Baustert", "country": "DE", "coord": {"lon": 6.38984, "lat": 49.978001}}, {"id": 2815794, "name": "Waaswitz", "country": "DE", "coord": {"lon": 12.16667, "lat": 50.916672}}, {"id": 6552646, "name": "Otter", "country": "DE", "coord": {"lon": 9.73333, "lat": 53.233299}}, {"id": 2856061, "name": "Otter", "country": "DE", "coord": {"lon": 9.74247, "lat": 53.24015}}, {"id": 2953440, "name": "Bad Herrenalb", "country": "DE", "coord": {"lon": 8.43617, "lat": 48.797871}}, {"id": 3209121, "name": "Niesen", "country": "DE", "coord": {"lon": 9.13333, "lat": 51.616669}}, {"id": 2929753, "name": "Erbsen", "country": "DE", "coord": {"lon": 9.8, "lat": 51.583328}}, {"id": 2944206, "name": "Bretsch", "country": "DE", "coord": {"lon": 11.63333, "lat": 52.849998}}, {"id": 6555722, "name": "Gr\u00f6mbach", "country": "DE", "coord": {"lon": 8.55, "lat": 48.583302}}, {"id": 2917154, "name": "Grombach", "country": "DE", "coord": {"lon": 8.55, "lat": 48.583328}}, {"id": 2896861, "name": "H\u00fctzel", "country": "DE", "coord": {"lon": 10.02686, "lat": 53.096352}}, {"id": 6557265, "name": "Winterrieden", "country": "DE", "coord": {"lon": 10.2167, "lat": 48.116699}}, {"id": 2807718, "name": "Winterrieden", "country": "DE", "coord": {"lon": 10.21667, "lat": 48.116669}}, {"id": 2846493, "name": "Rippien", "country": "DE", "coord": {"lon": 13.73171, "lat": 50.98188}}, {"id": 6552836, "name": "Weste", "country": "DE", "coord": {"lon": 10.7, "lat": 53.0667}}, {"id": 2810559, "name": "Weste", "country": "DE", "coord": {"lon": 10.70283, "lat": 53.059429}}, {"id": 2913855, "name": "Guggenberg", "country": "DE", "coord": {"lon": 11.05, "lat": 47.666672}}, {"id": 2878649, "name": "Leppin", "country": "DE", "coord": {"lon": 11.89596, "lat": 53.310982}}, {"id": 2937788, "name": "Deuz", "country": "DE", "coord": {"lon": 8.15, "lat": 50.883331}}, {"id": 2842620, "name": "Saas", "country": "DE", "coord": {"lon": 11.56208, "lat": 49.91785}}, {"id": 3204987, "name": "Bornitz", "country": "DE", "coord": {"lon": 13.41667, "lat": 51.23333}}, {"id": 6551392, "name": "Wesseln", "country": "DE", "coord": {"lon": 9.08333, "lat": 54.200001}}, {"id": 2810608, "name": "Wesseln", "country": "DE", "coord": {"lon": 9.08333, "lat": 54.200001}}, {"id": 2850891, "name": "Ragwitz", "country": "DE", "coord": {"lon": 12.11667, "lat": 51.283329}}, {"id": 2867609, "name": "Mundenhof", "country": "DE", "coord": {"lon": 7.78333, "lat": 48.01667}}, {"id": 2934067, "name": "Ebene", "country": "DE", "coord": {"lon": 10.75, "lat": 50.183331}}, {"id": 6548229, "name": "Ventschow", "country": "DE", "coord": {"lon": 11.58045, "lat": 53.787769}}, {"id": 2817620, "name": "Ventschow", "country": "DE", "coord": {"lon": 11.58045, "lat": 53.787769}}, {"id": 2869499, "name": "Moosau", "country": "DE", "coord": {"lon": 13.30333, "lat": 48.984268}}, {"id": 2829988, "name": "Sprotta", "country": "DE", "coord": {"lon": 12.70844, "lat": 51.487801}}, {"id": 2959614, "name": "Achum", "country": "DE", "coord": {"lon": 9.08333, "lat": 52.283329}}, {"id": 2917909, "name": "Grauhof", "country": "DE", "coord": {"lon": 10.44877, "lat": 51.93792}}, {"id": 2857138, "name": "Oppitz", "country": "DE", "coord": {"lon": 14.41667, "lat": 51.299999}}, {"id": 2881661, "name": "Lamspringe", "country": "DE", "coord": {"lon": 10.01667, "lat": 51.966671}}, {"id": 6549885, "name": "Marksuhl", "country": "DE", "coord": {"lon": 10.2, "lat": 50.916698}}, {"id": 2873318, "name": "Marksuhl", "country": "DE", "coord": {"lon": 10.2, "lat": 50.916672}}, {"id": 6553458, "name": "Ziegenhain", "country": "DE", "coord": {"lon": 7.53333, "lat": 50.6833}}, {"id": 2804391, "name": "Ziegenhain", "country": "DE", "coord": {"lon": 7.53333, "lat": 50.683331}}, {"id": 2849600, "name": "Redekin", "country": "DE", "coord": {"lon": 12.08333, "lat": 52.466671}}, {"id": 6547690, "name": "Gerdshagen", "country": "DE", "coord": {"lon": 12.2, "lat": 53.25}}, {"id": 2921152, "name": "Gerdshagen", "country": "DE", "coord": {"lon": 12.2, "lat": 53.25}}, {"id": 2839881, "name": "Schellberg", "country": "DE", "coord": {"lon": 7.1, "lat": 51.133331}}, {"id": 2854443, "name": "Pfaffenberg", "country": "DE", "coord": {"lon": 7.11667, "lat": 51.133331}}, {"id": 2852804, "name": "Polte", "country": "DE", "coord": {"lon": 11.93333, "lat": 52.400002}}, {"id": 2818441, "name": "Unterweilbach", "country": "DE", "coord": {"lon": 11.44896, "lat": 48.306091}}, {"id": 2938908, "name": "Darnstedt", "country": "DE", "coord": {"lon": 11.61667, "lat": 51.083328}}, {"id": 6549873, "name": "Frankenroda", "country": "DE", "coord": {"lon": 10.2833, "lat": 51.099998}}, {"id": 2925561, "name": "Frankenroda", "country": "DE", "coord": {"lon": 10.28333, "lat": 51.099998}}, {"id": 2816582, "name": "V\u00f6llenerfehn", "country": "DE", "coord": {"lon": 7.41667, "lat": 53.099998}}, {"id": 6550291, "name": "Wickerstedt", "country": "DE", "coord": {"lon": 11.55, "lat": 51.0667}}, {"id": 2809741, "name": "Wickerstedt", "country": "DE", "coord": {"lon": 11.55, "lat": 51.066669}}, {"id": 2863039, "name": "Niedernissa", "country": "DE", "coord": {"lon": 11.1, "lat": 50.950001}}, {"id": 3208365, "name": "Schnuttenbach", "country": "DE", "coord": {"lon": 10.38963, "lat": 48.480888}}, {"id": 2919717, "name": "Gmund am Tegernsee", "country": "DE", "coord": {"lon": 11.73333, "lat": 47.75}}, {"id": 2949593, "name": "Beule", "country": "DE", "coord": {"lon": 9.95, "lat": 47.566669}}, {"id": 2954009, "name": "Auretsdobl", "country": "DE", "coord": {"lon": 13.20445, "lat": 48.348148}}, {"id": 2859777, "name": "Obermettenwald", "country": "DE", "coord": {"lon": 12.91667, "lat": 48.866669}}, {"id": 6548673, "name": "Gro\u00dfhennersdorf", "country": "DE", "coord": {"lon": 14.8, "lat": 50.983299}}, {"id": 2915523, "name": "Grosshennersdorf", "country": "DE", "coord": {"lon": 14.78333, "lat": 50.98333}}, {"id": 2918193, "name": "Graitschen", "country": "DE", "coord": {"lon": 11.78333, "lat": 51.049999}}, {"id": 2937346, "name": "Diensdorf", "country": "DE", "coord": {"lon": 14.06667, "lat": 52.25}}, {"id": 2857080, "name": "Orlamunde", "country": "DE", "coord": {"lon": 11.51667, "lat": 50.783329}}, {"id": 6551312, "name": "Delve", "country": "DE", "coord": {"lon": 9.25, "lat": 54.299999}}, {"id": 2938315, "name": "Delve", "country": "DE", "coord": {"lon": 9.25, "lat": 54.299999}}, {"id": 2806382, "name": "Wollmatingen", "country": "DE", "coord": {"lon": 9.14595, "lat": 47.692261}}, {"id": 2891844, "name": "Kelbra", "country": "DE", "coord": {"lon": 11.04143, "lat": 51.43528}}, {"id": 2912417, "name": "Hagnau", "country": "DE", "coord": {"lon": 9.31787, "lat": 47.676659}}, {"id": 2805522, "name": "W\u00fcstenfelde", "country": "DE", "coord": {"lon": 13.14514, "lat": 53.944172}}, {"id": 2820822, "name": "T\u00fclau", "country": "DE", "coord": {"lon": 10.86667, "lat": 52.583328}}, {"id": 2820823, "name": "Tulau", "country": "DE", "coord": {"lon": 10.87818, "lat": 52.575779}}, {"id": 2875229, "name": "L\u00fchnde", "country": "DE", "coord": {"lon": 9.9507, "lat": 52.273621}}, {"id": 2904754, "name": "Hilgenriedersiel", "country": "DE", "coord": {"lon": 7.28333, "lat": 53.666672}}, {"id": 2946350, "name": "Borbeck", "country": "DE", "coord": {"lon": 8.15, "lat": 53.200001}}, {"id": 6553719, "name": "P\u00fcnderich", "country": "DE", "coord": {"lon": 7.11667, "lat": 50.033298}}, {"id": 2851689, "name": "Punderich", "country": "DE", "coord": {"lon": 7.11667, "lat": 50.033329}}, {"id": 2806392, "name": "Wollishausen", "country": "DE", "coord": {"lon": 10.70661, "lat": 48.320251}}, {"id": 6559324, "name": "Zusamaltheim", "country": "DE", "coord": {"lon": 10.67217, "lat": 48.543991}}, {"id": 2803667, "name": "Zusamaltheim", "country": "DE", "coord": {"lon": 10.63562, "lat": 48.53104}}, {"id": 6556846, "name": "M\u00f6nchsroth", "country": "DE", "coord": {"lon": 10.3667, "lat": 49.016701}}, {"id": 2869823, "name": "Monchsroth", "country": "DE", "coord": {"lon": 10.36667, "lat": 49.01667}}, {"id": 2873749, "name": "March bei Reut", "country": "DE", "coord": {"lon": 12.93333, "lat": 48.316669}}, {"id": 2913050, "name": "Habelsbach", "country": "DE", "coord": {"lon": 12.31667, "lat": 48.799999}}, {"id": 6555294, "name": "Ober-Hilbersheim", "country": "DE", "coord": {"lon": 8.02889, "lat": 49.900002}}, {"id": 2860335, "name": "Ober-Hilbersheim", "country": "DE", "coord": {"lon": 8.02889, "lat": 49.900002}}, {"id": 2936718, "name": "Dittmannsdorf", "country": "DE", "coord": {"lon": 13.38333, "lat": 50.700001}}, {"id": 2864855, "name": "Neuhohelinde", "country": "DE", "coord": {"lon": 13.2, "lat": 50.849998}}, {"id": 2921168, "name": "Gerbitz", "country": "DE", "coord": {"lon": 11.81667, "lat": 51.833328}}, {"id": 2862753, "name": "Niederweidbach", "country": "DE", "coord": {"lon": 8.48333, "lat": 50.700001}}, {"id": 6553254, "name": "Cornberg", "country": "DE", "coord": {"lon": 9.86667, "lat": 51.049999}}, {"id": 2939847, "name": "Cornberg", "country": "DE", "coord": {"lon": 9.86667, "lat": 51.049999}}, {"id": 6552691, "name": "Rullstorf", "country": "DE", "coord": {"lon": 10.52971, "lat": 53.286449}}, {"id": 2843148, "name": "Rullstorf", "country": "DE", "coord": {"lon": 10.52972, "lat": 53.286449}}, {"id": 6552700, "name": "Westergellersen", "country": "DE", "coord": {"lon": 10.25, "lat": 53.233299}}, {"id": 2810364, "name": "Westergellersen", "country": "DE", "coord": {"lon": 10.25, "lat": 53.23333}}, {"id": 6551919, "name": "Sehestedt", "country": "DE", "coord": {"lon": 9.81667, "lat": 54.366699}}, {"id": 2833500, "name": "Sehestedt", "country": "DE", "coord": {"lon": 9.81667, "lat": 54.366669}}, {"id": 6551722, "name": "Dersau", "country": "DE", "coord": {"lon": 10.35, "lat": 54.116699}}, {"id": 2938033, "name": "Dersau", "country": "DE", "coord": {"lon": 10.35, "lat": 54.116669}}, {"id": 6551816, "name": "Brekendorf", "country": "DE", "coord": {"lon": 9.63333, "lat": 54.416698}}, {"id": 2944431, "name": "Brekendorf", "country": "DE", "coord": {"lon": 9.63333, "lat": 54.416672}}, {"id": 2925320, "name": "Frauenreuth", "country": "DE", "coord": {"lon": 12.08333, "lat": 49.883331}}, {"id": 2926124, "name": "Fl\u00f6rsbach", "country": "DE", "coord": {"lon": 9.41667, "lat": 50.133331}}, {"id": 6553308, "name": "Herschbroich", "country": "DE", "coord": {"lon": 6.96667, "lat": 50.366699}}, {"id": 2905593, "name": "Herschbroich", "country": "DE", "coord": {"lon": 6.96667, "lat": 50.366669}}, {"id": 2822692, "name": "Thomashof", "country": "DE", "coord": {"lon": 10.3, "lat": 50.116669}}, {"id": 6556915, "name": "Oberickelsheim", "country": "DE", "coord": {"lon": 10.1333, "lat": 49.599998}}, {"id": 2860151, "name": "Oberickelsheim", "country": "DE", "coord": {"lon": 10.13333, "lat": 49.599998}}, {"id": 2896470, "name": "Ilverich", "country": "DE", "coord": {"lon": 6.7, "lat": 51.26667}}, {"id": 2805365, "name": "Zabeltitz", "country": "DE", "coord": {"lon": 13.5, "lat": 51.349998}}, {"id": 6553539, "name": "Schweinschied", "country": "DE", "coord": {"lon": 7.56667, "lat": 49.700001}}, {"id": 2834456, "name": "Schweinschied", "country": "DE", "coord": {"lon": 7.56667, "lat": 49.700001}}, {"id": 6554934, "name": "B\u00f6rrstadt", "country": "DE", "coord": {"lon": 7.95, "lat": 49.583302}}, {"id": 2946031, "name": "Borrstadt", "country": "DE", "coord": {"lon": 7.95, "lat": 49.583328}}, {"id": 2816913, "name": "Vogelsang", "country": "DE", "coord": {"lon": 9.7, "lat": 54.433331}}, {"id": 2870160, "name": "Mohorn", "country": "DE", "coord": {"lon": 13.46667, "lat": 51.01667}}, {"id": 6548550, "name": "Borstendorf", "country": "DE", "coord": {"lon": 13.1667, "lat": 50.783298}}, {"id": 2945980, "name": "Borstendorf", "country": "DE", "coord": {"lon": 13.16667, "lat": 50.783329}}, {"id": 6552771, "name": "Gilten", "country": "DE", "coord": {"lon": 9.58333, "lat": 52.700001}}, {"id": 2920386, "name": "Gilten", "country": "DE", "coord": {"lon": 9.58333, "lat": 52.700001}}, {"id": 6552761, "name": "Westerwalsede", "country": "DE", "coord": {"lon": 9.36667, "lat": 53.033298}}, {"id": 2810168, "name": "Westerwalsede", "country": "DE", "coord": {"lon": 9.36667, "lat": 53.033329}}, {"id": 2862552, "name": "Nienhusen", "country": "DE", "coord": {"lon": 12.03333, "lat": 54}}, {"id": 6547971, "name": "Schossin", "country": "DE", "coord": {"lon": 11.2167, "lat": 53.549999}}, {"id": 2836271, "name": "Schossin", "country": "DE", "coord": {"lon": 11.21667, "lat": 53.549999}}, {"id": 2888046, "name": "Klein Wardow", "country": "DE", "coord": {"lon": 12.41667, "lat": 53.933331}}, {"id": 6547916, "name": "Alt Krenzlin", "country": "DE", "coord": {"lon": 11.3, "lat": 53.3167}}, {"id": 2957061, "name": "Alt Krenzlin", "country": "DE", "coord": {"lon": 11.3, "lat": 53.316669}}, {"id": 2939288, "name": "Dalliendorf", "country": "DE", "coord": {"lon": 11.33333, "lat": 53.783329}}, {"id": 2919940, "name": "Gleschendorf", "country": "DE", "coord": {"lon": 10.66416, "lat": 54.029362}}, {"id": 6552170, "name": "Bokelrehm", "country": "DE", "coord": {"lon": 9.38608, "lat": 54.038212}}, {"id": 2946782, "name": "Bokelrehm", "country": "DE", "coord": {"lon": 9.38606, "lat": 54.038151}}, {"id": 6551981, "name": "Norderbrarup", "country": "DE", "coord": {"lon": 9.78333, "lat": 54.650002}}, {"id": 2862093, "name": "Norderbrarup", "country": "DE", "coord": {"lon": 9.78333, "lat": 54.650002}}, {"id": 6551989, "name": "Saustrup", "country": "DE", "coord": {"lon": 9.76667, "lat": 54.666698}}, {"id": 2841074, "name": "Saustrup", "country": "DE", "coord": {"lon": 9.76667, "lat": 54.666672}}, {"id": 2943369, "name": "Brudersdorf", "country": "DE", "coord": {"lon": 12.1, "lat": 49.450001}}, {"id": 6556172, "name": "Mindelstetten", "country": "DE", "coord": {"lon": 11.6439, "lat": 48.8512}}, {"id": 2871042, "name": "Mindelstetten", "country": "DE", "coord": {"lon": 11.65, "lat": 48.849998}}, {"id": 2945051, "name": "Braunlingen", "country": "DE", "coord": {"lon": 8.45, "lat": 47.933331}}, {"id": 6557132, "name": "Ellgau", "country": "DE", "coord": {"lon": 10.8667, "lat": 48.599998}}, {"id": 2930952, "name": "Ellgau", "country": "DE", "coord": {"lon": 10.86667, "lat": 48.599998}}, {"id": 6554328, "name": "Heckenm\u00fcnster", "country": "DE", "coord": {"lon": 6.78333, "lat": 49.900002}}, {"id": 2908439, "name": "Heckenmunster", "country": "DE", "coord": {"lon": 6.78333, "lat": 49.900002}}, {"id": 6554378, "name": "\u00dcrzig", "country": "DE", "coord": {"lon": 7, "lat": 49.983299}}, {"id": 2818121, "name": "Urzig", "country": "DE", "coord": {"lon": 7.0061, "lat": 49.979431}}, {"id": 6555339, "name": "Ludwigswinkel", "country": "DE", "coord": {"lon": 7.66667, "lat": 49.083302}}, {"id": 2875321, "name": "Ludwigswinkel", "country": "DE", "coord": {"lon": 7.66667, "lat": 49.083328}}, {"id": 6555154, "name": "Ulmet", "country": "DE", "coord": {"lon": 7.45, "lat": 49.583302}}, {"id": 2820240, "name": "Ulmet", "country": "DE", "coord": {"lon": 7.45, "lat": 49.583328}}, {"id": 6555055, "name": "Otterbach", "country": "DE", "coord": {"lon": 7.7357, "lat": 49.478001}}, {"id": 2856057, "name": "Otterbach", "country": "DE", "coord": {"lon": 7.75, "lat": 49.48333}}, {"id": 6555087, "name": "Ehweiler", "country": "DE", "coord": {"lon": 7.36667, "lat": 49.516701}}, {"id": 2932764, "name": "Ehweiler", "country": "DE", "coord": {"lon": 7.36667, "lat": 49.51667}}, {"id": 2905582, "name": "Herschweiler", "country": "DE", "coord": {"lon": 7.35, "lat": 49.48333}}, {"id": 6555161, "name": "Matzenbach", "country": "DE", "coord": {"lon": 7.46667, "lat": 49.5}}, {"id": 2872880, "name": "Matzenbach", "country": "DE", "coord": {"lon": 7.46667, "lat": 49.5}}, {"id": 6555092, "name": "Etschberg", "country": "DE", "coord": {"lon": 7.43333, "lat": 49.516701}}, {"id": 2928692, "name": "Etschberg", "country": "DE", "coord": {"lon": 7.43333, "lat": 49.51667}}, {"id": 2872613, "name": "Mechenried", "country": "DE", "coord": {"lon": 10.48333, "lat": 50.083328}}, {"id": 2922065, "name": "Gehau", "country": "DE", "coord": {"lon": 9.46667, "lat": 50.76667}}, {"id": 6555253, "name": "R\u00f6dersheim-Gronau", "country": "DE", "coord": {"lon": 8.26139, "lat": 49.43}}, {"id": 3272457, "name": "Rodersheim-Gronau", "country": "DE", "coord": {"lon": 8.26139, "lat": 49.43}}, {"id": 6555246, "name": "Kleinniedesheim", "country": "DE", "coord": {"lon": 8.32222, "lat": 49.586899}}, {"id": 2888441, "name": "Kleinniedesheim", "country": "DE", "coord": {"lon": 8.32222, "lat": 49.586941}}, {"id": 6555240, "name": "Gro\u00dfniedesheim", "country": "DE", "coord": {"lon": 8.31222, "lat": 49.575298}}, {"id": 2915226, "name": "Grossniedesheim", "country": "DE", "coord": {"lon": 8.31222, "lat": 49.575279}}, {"id": 2860349, "name": "Oberhermsdorf", "country": "DE", "coord": {"lon": 13.6, "lat": 51.01667}}, {"id": 2936120, "name": "Dorfchemnitz", "country": "DE", "coord": {"lon": 12.83333, "lat": 50.666672}}, {"id": 2892563, "name": "Kasendorf", "country": "DE", "coord": {"lon": 11.35, "lat": 50.033329}}, {"id": 2896869, "name": "H\u00fcttstadl", "country": "DE", "coord": {"lon": 11.83777, "lat": 49.9786}}, {"id": 6548599, "name": "Langenbernsdorf", "country": "DE", "coord": {"lon": 12.3, "lat": 50.75}}, {"id": 2881154, "name": "Langenbernsdorf", "country": "DE", "coord": {"lon": 12.3, "lat": 50.75}}, {"id": 2812103, "name": "Weisch\u00fctz", "country": "DE", "coord": {"lon": 11.7, "lat": 51.216671}}, {"id": 2816620, "name": "Volkmaritz", "country": "DE", "coord": {"lon": 11.7, "lat": 51.533329}}, {"id": 2823355, "name": "Teuchern", "country": "DE", "coord": {"lon": 12.01667, "lat": 51.116669}}, {"id": 2918268, "name": "Gr\u00e4fentonna", "country": "DE", "coord": {"lon": 10.73333, "lat": 51.099998}}, {"id": 2906729, "name": "Helmers", "country": "DE", "coord": {"lon": 10.3, "lat": 50.73333}}, {"id": 2833373, "name": "Seifertshain", "country": "DE", "coord": {"lon": 12.51667, "lat": 51.299999}}, {"id": 2803681, "name": "Z\u00fcrchel", "country": "DE", "coord": {"lon": 13.85, "lat": 51.616669}}, {"id": 2902571, "name": "Hoffnungsbay", "country": "DE", "coord": {"lon": 14.18333, "lat": 52.01667}}, {"id": 2923637, "name": "Furstenberg", "country": "DE", "coord": {"lon": 13.15, "lat": 53.183331}}, {"id": 6552094, "name": "Gro\u00df R\u00f6nnau", "country": "DE", "coord": {"lon": 10.3167, "lat": 53.966702}}, {"id": 2915121, "name": "Gross Ronnau", "country": "DE", "coord": {"lon": 10.31667, "lat": 53.966671}}, {"id": 2847249, "name": "Rieden", "country": "DE", "coord": {"lon": 11.28333, "lat": 47.73333}}, {"id": 2857576, "name": "\u00d6hrenfeld", "country": "DE", "coord": {"lon": 10.71667, "lat": 51.849998}}, {"id": 6553337, "name": "Schalkenbach", "country": "DE", "coord": {"lon": 7.15, "lat": 50.5}}, {"id": 2840586, "name": "Schalkenbach", "country": "DE", "coord": {"lon": 7.15, "lat": 50.5}}, {"id": 6550156, "name": "Strau\u00dffurt", "country": "DE", "coord": {"lon": 10.9833, "lat": 51.166698}}, {"id": 2826073, "name": "Straussfurt", "country": "DE", "coord": {"lon": 10.98333, "lat": 51.166672}}, {"id": 6550335, "name": "Schwarzburg", "country": "DE", "coord": {"lon": 11.2, "lat": 50.633301}}, {"id": 2835105, "name": "Schwarzburg", "country": "DE", "coord": {"lon": 11.19189, "lat": 50.64304}}, {"id": 6548537, "name": "Mehltheuer", "country": "DE", "coord": {"lon": 12.05, "lat": 50.549999}}, {"id": 2872409, "name": "Mehltheuer", "country": "DE", "coord": {"lon": 12.05, "lat": 50.549999}}, {"id": 2917067, "name": "Grossaara", "country": "DE", "coord": {"lon": 11.96667, "lat": 50.849998}}, {"id": 2867888, "name": "Muhltroff", "country": "DE", "coord": {"lon": 11.93333, "lat": 50.533329}}, {"id": 2806144, "name": "W\u00f6rmlitz", "country": "DE", "coord": {"lon": 11.85, "lat": 52.166672}}, {"id": 2938158, "name": "Derben", "country": "DE", "coord": {"lon": 11.99741, "lat": 52.414459}}, {"id": 6553372, "name": "Burglahr", "country": "DE", "coord": {"lon": 7.48333, "lat": 50.616699}}, {"id": 2941206, "name": "Burglahr", "country": "DE", "coord": {"lon": 7.49688, "lat": 50.617779}}, {"id": 6548159, "name": "Alt Meteln", "country": "DE", "coord": {"lon": 11.35, "lat": 53.75}}, {"id": 2956988, "name": "Alt Meteln", "country": "DE", "coord": {"lon": 11.35, "lat": 53.75}}, {"id": 2856986, "name": "Ortkrug", "country": "DE", "coord": {"lon": 11.46667, "lat": 53.48333}}, {"id": 2898735, "name": "Horrem", "country": "DE", "coord": {"lon": 6.70664, "lat": 50.913422}}, {"id": 6553552, "name": "Waldb\u00f6ckelheim", "country": "DE", "coord": {"lon": 7.71667, "lat": 49.8167}}, {"id": 2815139, "name": "Waldbockelheim", "country": "DE", "coord": {"lon": 7.71667, "lat": 49.816669}}, {"id": 2921532, "name": "Gelchsheim", "country": "DE", "coord": {"lon": 10.01667, "lat": 49.566669}}, {"id": 6553568, "name": "Abentheuer", "country": "DE", "coord": {"lon": 7.1, "lat": 49.650002}}, {"id": 2959841, "name": "Abentheuer", "country": "DE", "coord": {"lon": 7.1, "lat": 49.650002}}, {"id": 2949952, "name": "Bernshausen", "country": "DE", "coord": {"lon": 8.31667, "lat": 50.900002}}, {"id": 6551893, "name": "Noer", "country": "DE", "coord": {"lon": 10, "lat": 54.466702}}, {"id": 2862304, "name": "Noer", "country": "DE", "coord": {"lon": 10, "lat": 54.466671}}, {"id": 2893775, "name": "Kalkreuth", "country": "DE", "coord": {"lon": 13.63333, "lat": 51.283329}}, {"id": 2949455, "name": "Beyernaumburg", "country": "DE", "coord": {"lon": 11.4, "lat": 51.48333}}, {"id": 2892272, "name": "Katzberg", "country": "DE", "coord": {"lon": 13.48333, "lat": 48.883331}}, {"id": 2945385, "name": "Brande", "country": "DE", "coord": {"lon": 9.71667, "lat": 53.849998}}, {"id": 2900474, "name": "Hollern", "country": "DE", "coord": {"lon": 9.54791, "lat": 53.592918}}, {"id": 2880988, "name": "Langenleiten", "country": "DE", "coord": {"lon": 9.98333, "lat": 50.333328}}, {"id": 2850973, "name": "Radis", "country": "DE", "coord": {"lon": 12.51667, "lat": 51.75}}, {"id": 2913290, "name": "Gutzkow", "country": "DE", "coord": {"lon": 13.1, "lat": 53.73333}}, {"id": 6552532, "name": "Marklohe", "country": "DE", "coord": {"lon": 9.1406, "lat": 52.6422}}, {"id": 2873343, "name": "Marklohe", "country": "DE", "coord": {"lon": 9.16667, "lat": 52.666672}}, {"id": 2853559, "name": "Pischlach", "country": "DE", "coord": {"lon": 10.98333, "lat": 47.75}}, {"id": 2928894, "name": "Eslarn", "country": "DE", "coord": {"lon": 12.53333, "lat": 49.583328}}, {"id": 2867850, "name": "Muldenstein", "country": "DE", "coord": {"lon": 12.33333, "lat": 51.666672}}, {"id": 2811156, "name": "Wengelsdorf", "country": "DE", "coord": {"lon": 12.05, "lat": 51.283329}}, {"id": 2910463, "name": "Harkerode", "country": "DE", "coord": {"lon": 11.4, "lat": 51.683331}}, {"id": 2857984, "name": "Oebles-Schlechtewitz", "country": "DE", "coord": {"lon": 12.06667, "lat": 51.25}}, {"id": 2926417, "name": "Flackenhorst", "country": "DE", "coord": {"lon": 10.13806, "lat": 52.57066}}, {"id": 6554900, "name": "Frankeneck", "country": "DE", "coord": {"lon": 8.04861, "lat": 49.3764}}, {"id": 2925614, "name": "Frankeneck", "country": "DE", "coord": {"lon": 8.04861, "lat": 49.376389}}, {"id": 2809214, "name": "Wiesensteig", "country": "DE", "coord": {"lon": 9.6254, "lat": 48.561272}}, {"id": 6555005, "name": "Freisbach", "country": "DE", "coord": {"lon": 8.27194, "lat": 49.271702}}, {"id": 2925047, "name": "Freisbach", "country": "DE", "coord": {"lon": 8.27194, "lat": 49.271671}}, {"id": 6552359, "name": "Danndorf", "country": "DE", "coord": {"lon": 10.91715, "lat": 52.424671}}, {"id": 2939000, "name": "Danndorf", "country": "DE", "coord": {"lon": 10.91286, "lat": 52.424721}}, {"id": 2943519, "name": "Br\u00fcck", "country": "DE", "coord": {"lon": 6.97177, "lat": 50.484219}}, {"id": 6553814, "name": "Wolken", "country": "DE", "coord": {"lon": 7.46667, "lat": 50.333302}}, {"id": 2806489, "name": "Wolken", "country": "DE", "coord": {"lon": 7.46667, "lat": 50.333328}}, {"id": 6548766, "name": "Narsdorf", "country": "DE", "coord": {"lon": 12.7167, "lat": 51.016701}}, {"id": 2867066, "name": "Narsdorf", "country": "DE", "coord": {"lon": 12.71667, "lat": 51.01667}}, {"id": 2924227, "name": "Fr\u00f6mern", "country": "DE", "coord": {"lon": 7.73333, "lat": 51.5}}, {"id": 2808929, "name": "Wildenrath", "country": "DE", "coord": {"lon": 6.18333, "lat": 51.116669}}, {"id": 2952468, "name": "B\u00e4rnsdorf", "country": "DE", "coord": {"lon": 13.73051, "lat": 51.163311}}, {"id": 6550143, "name": "Markvippach", "country": "DE", "coord": {"lon": 11.1667, "lat": 51.083302}}, {"id": 2873276, "name": "Markvippach", "country": "DE", "coord": {"lon": 11.16667, "lat": 51.083328}}, {"id": 2847186, "name": "Riedern am Wald", "country": "DE", "coord": {"lon": 8.3, "lat": 47.716671}}, {"id": 2867982, "name": "M\u00fchlheim an der Donau", "country": "DE", "coord": {"lon": 8.88333, "lat": 48.033329}}, {"id": 6556017, "name": "Kirchberg an der Iller", "country": "DE", "coord": {"lon": 10.0833, "lat": 48.133301}}, {"id": 2890647, "name": "Kirchberg an der Iller", "country": "DE", "coord": {"lon": 10.08333, "lat": 48.133331}}, {"id": 6555641, "name": "Binau", "country": "DE", "coord": {"lon": 9.05806, "lat": 49.368301}}, {"id": 2948861, "name": "Binau", "country": "DE", "coord": {"lon": 9.05806, "lat": 49.368328}}, {"id": 2906212, "name": "Herbitzheim", "country": "DE", "coord": {"lon": 7.21667, "lat": 49.166672}}, {"id": 2813486, "name": "Weddeort", "country": "DE", "coord": {"lon": 13.48333, "lat": 54.566669}}, {"id": 2892522, "name": "Kassebruch", "country": "DE", "coord": {"lon": 8.63333, "lat": 53.366669}}, {"id": 6552713, "name": "Alfstedt", "country": "DE", "coord": {"lon": 9.0657, "lat": 53.5471}}, {"id": 2958518, "name": "Alfstedt", "country": "DE", "coord": {"lon": 9.06667, "lat": 53.549999}}, {"id": 2931180, "name": "Elfershude", "country": "DE", "coord": {"lon": 8.7731, "lat": 53.420528}}, {"id": 6552605, "name": "Nordleda", "country": "DE", "coord": {"lon": 8.83333, "lat": 53.766701}}, {"id": 2861919, "name": "Nordleda", "country": "DE", "coord": {"lon": 8.83333, "lat": 53.76667}}, {"id": 6551834, "name": "Fleckeby", "country": "DE", "coord": {"lon": 9.7, "lat": 54.483299}}, {"id": 2926339, "name": "Fleckeby", "country": "DE", "coord": {"lon": 9.7, "lat": 54.48333}}, {"id": 6551769, "name": "Ruhwinkel", "country": "DE", "coord": {"lon": 10.2167, "lat": 54.099998}}, {"id": 2843177, "name": "Ruhwinkel", "country": "DE", "coord": {"lon": 10.21667, "lat": 54.099998}}, {"id": 6551870, "name": "Krogaspe", "country": "DE", "coord": {"lon": 9.93333, "lat": 54.133301}}, {"id": 2883827, "name": "Krogaspe", "country": "DE", "coord": {"lon": 9.93333, "lat": 54.133331}}, {"id": 6552244, "name": "Silzen", "country": "DE", "coord": {"lon": 9.61667, "lat": 54.033298}}, {"id": 2832049, "name": "Silzen", "country": "DE", "coord": {"lon": 9.61667, "lat": 54.033329}}, {"id": 2869626, "name": "Moorrege", "country": "DE", "coord": {"lon": 9.66667, "lat": 53.933331}}, {"id": 6552161, "name": "Agethorst", "country": "DE", "coord": {"lon": 9.43582, "lat": 54.019508}}, {"id": 2959308, "name": "Agethorst", "country": "DE", "coord": {"lon": 9.4359, "lat": 54.01947}}, {"id": 6556292, "name": "Mettenheim", "country": "DE", "coord": {"lon": 12.4667, "lat": 48.266701}}, {"id": 2871556, "name": "Mettenheim", "country": "DE", "coord": {"lon": 12.46667, "lat": 48.26667}}, {"id": 6552505, "name": "Golmbach", "country": "DE", "coord": {"lon": 9.55, "lat": 51.900002}}, {"id": 2919197, "name": "Golmbach", "country": "DE", "coord": {"lon": 9.55, "lat": 51.900002}}, {"id": 6555222, "name": "Silz", "country": "DE", "coord": {"lon": 7.95, "lat": 49.150002}}, {"id": 2832053, "name": "Silz", "country": "DE", "coord": {"lon": 7.95, "lat": 49.150002}}, {"id": 2899126, "name": "H\u00f6rafing", "country": "DE", "coord": {"lon": 12.88333, "lat": 47.849998}}, {"id": 2873922, "name": "Manholding", "country": "DE", "coord": {"lon": 12.56699, "lat": 47.919682}}, {"id": 6556792, "name": "Poxdorf", "country": "DE", "coord": {"lon": 11.0667, "lat": 49.666698}}, {"id": 2852395, "name": "Poxdorf", "country": "DE", "coord": {"lon": 11.07079, "lat": 49.663349}}, {"id": 6556892, "name": "Pommelsbrunn", "country": "DE", "coord": {"lon": 11.5167, "lat": 49.5}}, {"id": 2852772, "name": "Pommelsbrunn", "country": "DE", "coord": {"lon": 11.51101, "lat": 49.504372}}, {"id": 2833335, "name": "Seimerich", "country": "DE", "coord": {"lon": 6.25, "lat": 49.916672}}, {"id": 6552756, "name": "Tiste", "country": "DE", "coord": {"lon": 9.53333, "lat": 53.283298}}, {"id": 2822087, "name": "Tiste", "country": "DE", "coord": {"lon": 9.53333, "lat": 53.283329}}, {"id": 6552458, "name": "Schwaf\u00f6rden", "country": "DE", "coord": {"lon": 8.816, "lat": 52.727901}}, {"id": 2835454, "name": "Schwaforden", "country": "DE", "coord": {"lon": 8.83026, "lat": 52.737751}}, {"id": 2806775, "name": "Wolfmannshausen", "country": "DE", "coord": {"lon": 10.46667, "lat": 50.433331}}, {"id": 6550072, "name": "Eschenbergen", "country": "DE", "coord": {"lon": 10.75, "lat": 51.033298}}, {"id": 2929063, "name": "Eschenbergen", "country": "DE", "coord": {"lon": 10.75, "lat": 51.033329}}, {"id": 2918941, "name": "G\u00f6rschen", "country": "DE", "coord": {"lon": 11.9, "lat": 51.116669}}, {"id": 6557157, "name": "Blindheim", "country": "DE", "coord": {"lon": 10.6333, "lat": 48.633301}}, {"id": 2947713, "name": "Blindheim", "country": "DE", "coord": {"lon": 10.63333, "lat": 48.633331}}, {"id": 2927530, "name": "Feichten", "country": "DE", "coord": {"lon": 12.6, "lat": 48.083328}}, {"id": 2953910, "name": "Autenzell", "country": "DE", "coord": {"lon": 11.26667, "lat": 48.51667}}, {"id": 2804925, "name": "Zeitlofs", "country": "DE", "coord": {"lon": 9.66667, "lat": 50.26667}}, {"id": 7602477, "name": "Gro\u00df Rheide", "country": "DE", "coord": {"lon": 9.43333, "lat": 54.450001}}, {"id": 2915143, "name": "Gross Rheide", "country": "DE", "coord": {"lon": 9.43333, "lat": 54.450001}}, {"id": 6552951, "name": "Hesel", "country": "DE", "coord": {"lon": 7.6, "lat": 53.299999}}, {"id": 2905421, "name": "Hesel", "country": "DE", "coord": {"lon": 7.6, "lat": 53.299999}}, {"id": 2864494, "name": "Neum\u00fchlen", "country": "DE", "coord": {"lon": 9.10183, "lat": 52.25153}}, {"id": 2862348, "name": "Nittenau", "country": "DE", "coord": {"lon": 12.2725, "lat": 49.199169}}, {"id": 2886270, "name": "Kollund", "country": "DE", "coord": {"lon": 9.18333, "lat": 54.599998}}, {"id": 2897559, "name": "Hundorf", "country": "DE", "coord": {"lon": 11.43359, "lat": 53.70311}}, {"id": 2932774, "name": "Ehrsberg", "country": "DE", "coord": {"lon": 7.90561, "lat": 47.743649}}, {"id": 6554516, "name": "Wettlingen", "country": "DE", "coord": {"lon": 6.4, "lat": 49.9333}}, {"id": 2809928, "name": "Wettlingen", "country": "DE", "coord": {"lon": 6.4, "lat": 49.933331}}, {"id": 2890614, "name": "Kirchdorf", "country": "DE", "coord": {"lon": 11.76667, "lat": 48.599998}}, {"id": 2931856, "name": "Eilern", "country": "DE", "coord": {"lon": 8.78333, "lat": 51.549999}}, {"id": 2838925, "name": "Schlammersdorf", "country": "DE", "coord": {"lon": 11.00744, "lat": 49.769508}}, {"id": 2937831, "name": "Deutleben", "country": "DE", "coord": {"lon": 11.85, "lat": 51.599998}}, {"id": 2928779, "name": "Essentho", "country": "DE", "coord": {"lon": 8.83333, "lat": 51.48333}}, {"id": 2803737, "name": "Z\u00fchlsdorf", "country": "DE", "coord": {"lon": 13.38761, "lat": 52.73}}, {"id": 2882524, "name": "Kummersdorf-Gut", "country": "DE", "coord": {"lon": 13.36667, "lat": 52.099998}}, {"id": 2959571, "name": "Adamshoffnung", "country": "DE", "coord": {"lon": 12.36288, "lat": 53.44656}}, {"id": 2864806, "name": "Neukalen", "country": "DE", "coord": {"lon": 12.79015, "lat": 53.82275}}, {"id": 2805579, "name": "Wuschlaub", "country": "DE", "coord": {"lon": 12.13333, "lat": 51.183331}}, {"id": 2957309, "name": "Alterstedt", "country": "DE", "coord": {"lon": 10.55, "lat": 51.099998}}, {"id": 6550449, "name": "Langenorla", "country": "DE", "coord": {"lon": 11.5833, "lat": 50.733299}}, {"id": 2880960, "name": "Langenorla", "country": "DE", "coord": {"lon": 11.58333, "lat": 50.73333}}, {"id": 6555358, "name": "Thaleischweiler-Fr\u00f6schen", "country": "DE", "coord": {"lon": 7.58333, "lat": 49.266701}}, {"id": 2823137, "name": "Thaleischweiler-Froschen", "country": "DE", "coord": {"lon": 7.58333, "lat": 49.26667}}, {"id": 2818470, "name": "Unterwaldm\u00fchle", "country": "DE", "coord": {"lon": 10.33333, "lat": 47.883331}}, {"id": 6557051, "name": "Urspringen", "country": "DE", "coord": {"lon": 9.67417, "lat": 49.900299}}, {"id": 2818142, "name": "Urspringen", "country": "DE", "coord": {"lon": 9.67417, "lat": 49.90028}}, {"id": 6554754, "name": "Kl\u00fcsserath", "country": "DE", "coord": {"lon": 6.85, "lat": 49.833302}}, {"id": 2887302, "name": "Klusserath", "country": "DE", "coord": {"lon": 6.85, "lat": 49.833328}}, {"id": 6557235, "name": "Westendorf", "country": "DE", "coord": {"lon": 10.7167, "lat": 47.9333}}, {"id": 2810533, "name": "Westendorf", "country": "DE", "coord": {"lon": 10.71667, "lat": 47.933331}}, {"id": 2945954, "name": "B\u00f6rwang", "country": "DE", "coord": {"lon": 10.36667, "lat": 47.783329}}, {"id": 2921687, "name": "Geishof", "country": "DE", "coord": {"lon": 10.21667, "lat": 48}}, {"id": 2846268, "name": "R\u00f6bsdorf", "country": "DE", "coord": {"lon": 10.25, "lat": 54.383331}}, {"id": 6552287, "name": "R\u00fcmpel", "country": "DE", "coord": {"lon": 10.35, "lat": 53.783298}}, {"id": 2843094, "name": "Rumpel", "country": "DE", "coord": {"lon": 10.35, "lat": 53.783329}}, {"id": 2841407, "name": "Sarkwitz", "country": "DE", "coord": {"lon": 10.66609, "lat": 53.99094}}, {"id": 6550294, "name": "Wohlsborn", "country": "DE", "coord": {"lon": 11.3667, "lat": 51.033298}}, {"id": 2807033, "name": "Wohlsborn", "country": "DE", "coord": {"lon": 11.36667, "lat": 51.033329}}, {"id": 6554657, "name": "Oberstadtfeld", "country": "DE", "coord": {"lon": 6.76667, "lat": 50.1833}}, {"id": 2858971, "name": "Oberstadtfeld", "country": "DE", "coord": {"lon": 6.76667, "lat": 50.183331}}, {"id": 2852846, "name": "Pollhans", "country": "DE", "coord": {"lon": 8.61667, "lat": 51.900002}}, {"id": 2852160, "name": "Pretzien", "country": "DE", "coord": {"lon": 11.83333, "lat": 52.049999}}, {"id": 6551083, "name": "Zechin", "country": "DE", "coord": {"lon": 14.4569, "lat": 52.604301}}, {"id": 2805119, "name": "Zechin", "country": "DE", "coord": {"lon": 14.45251, "lat": 52.608421}}, {"id": 2902512, "name": "Hofkoh", "country": "DE", "coord": {"lon": 9.31667, "lat": 53.26667}}, {"id": 2897504, "name": "Hundsh\u00fcbel", "country": "DE", "coord": {"lon": 12.56667, "lat": 50.549999}}, {"id": 6550555, "name": "Rositz", "country": "DE", "coord": {"lon": 12.3713, "lat": 51.017101}}, {"id": 2844883, "name": "Rositz", "country": "DE", "coord": {"lon": 12.36667, "lat": 51.033329}}, {"id": 6547653, "name": "Dabergotz", "country": "DE", "coord": {"lon": 12.7333, "lat": 52.900002}}, {"id": 2939635, "name": "Dabergotz", "country": "DE", "coord": {"lon": 12.72466, "lat": 52.903099}}, {"id": 6551464, "name": "Koberg", "country": "DE", "coord": {"lon": 10.5167, "lat": 53.633301}}, {"id": 2886971, "name": "Koberg", "country": "DE", "coord": {"lon": 10.51667, "lat": 53.633331}}, {"id": 6555807, "name": "Kappel-Grafenhausen", "country": "DE", "coord": {"lon": 7.75, "lat": 48.283298}}, {"id": 3209257, "name": "Kappel-Grafenhausen", "country": "DE", "coord": {"lon": 7.75, "lat": 48.283329}}, {"id": 2919867, "name": "Glindow", "country": "DE", "coord": {"lon": 12.911, "lat": 52.366798}}, {"id": 6557278, "name": "Fremdingen", "country": "DE", "coord": {"lon": 10.4667, "lat": 48.966702}}, {"id": 2924999, "name": "Fremdingen", "country": "DE", "coord": {"lon": 10.46667, "lat": 48.966671}}, {"id": 2952403, "name": "Barskamp", "country": "DE", "coord": {"lon": 10.78092, "lat": 53.243359}}, {"id": 6547447, "name": "Wettstetten", "country": "DE", "coord": {"lon": 11.4167, "lat": 48.833302}}, {"id": 2809914, "name": "Wettstetten", "country": "DE", "coord": {"lon": 11.41667, "lat": 48.833328}}, {"id": 2842040, "name": "Sand", "country": "DE", "coord": {"lon": 12.66667, "lat": 48.900002}}, {"id": 6550369, "name": "Hummelshain", "country": "DE", "coord": {"lon": 11.6333, "lat": 50.766701}}, {"id": 2897673, "name": "Hummelshain", "country": "DE", "coord": {"lon": 11.63333, "lat": 50.76667}}, {"id": 6554948, "name": "Gerbach", "country": "DE", "coord": {"lon": 7.86667, "lat": 49.666698}}, {"id": 2921188, "name": "Gerbach", "country": "DE", "coord": {"lon": 7.86667, "lat": 49.666672}}, {"id": 2928252, "name": "Eyershausen", "country": "DE", "coord": {"lon": 9.98333, "lat": 51.916672}}, {"id": 2807141, "name": "Wixhausen", "country": "DE", "coord": {"lon": 8.66111, "lat": 49.93528}}, {"id": 2955599, "name": "Arheilgen", "country": "DE", "coord": {"lon": 8.65, "lat": 49.91333}}, {"id": 2932277, "name": "Eichenstein", "country": "DE", "coord": {"lon": 11.70409, "lat": 50.384659}}, {"id": 2813848, "name": "Waschenbach", "country": "DE", "coord": {"lon": 8.70722, "lat": 49.80444}}, {"id": 2904852, "name": "Hienhardt", "country": "DE", "coord": {"lon": 12.93333, "lat": 48.966671}}, {"id": 2937455, "name": "Diekhaus", "country": "DE", "coord": {"lon": 8.11667, "lat": 52.816669}}, {"id": 2827462, "name": "Stendorf", "country": "DE", "coord": {"lon": 9.83333, "lat": 50.716671}}, {"id": 6551991, "name": "Scheggerott", "country": "DE", "coord": {"lon": 9.81667, "lat": 54.666698}}, {"id": 2840058, "name": "Scheggerott", "country": "DE", "coord": {"lon": 9.81667, "lat": 54.666672}}, {"id": 2881999, "name": "Lackerau", "country": "DE", "coord": {"lon": 13.73333, "lat": 48.76667}}, {"id": 6548547, "name": "Werda", "country": "DE", "coord": {"lon": 12.3167, "lat": 50.4333}}, {"id": 2810970, "name": "Werda", "country": "DE", "coord": {"lon": 12.31667, "lat": 50.433331}}, {"id": 2867858, "name": "Muldenberg", "country": "DE", "coord": {"lon": 12.4, "lat": 50.416672}}, {"id": 2850744, "name": "Rakow", "country": "DE", "coord": {"lon": 11.62045, "lat": 54.03923}}, {"id": 2829569, "name": "Stamsried", "country": "DE", "coord": {"lon": 12.53333, "lat": 49.26667}}, {"id": 6555183, "name": "Gleisweiler", "country": "DE", "coord": {"lon": 8.06944, "lat": 49.242199}}, {"id": 2919956, "name": "Gleisweiler", "country": "DE", "coord": {"lon": 8.06944, "lat": 49.242222}}, {"id": 6556422, "name": "Antdorf", "country": "DE", "coord": {"lon": 11.3, "lat": 47.75}}, {"id": 2955914, "name": "Antdorf", "country": "DE", "coord": {"lon": 11.3, "lat": 47.75}}, {"id": 6553590, "name": "Gimbweiler", "country": "DE", "coord": {"lon": 7.2, "lat": 49.583302}}, {"id": 2920375, "name": "Gimbweiler", "country": "DE", "coord": {"lon": 7.2, "lat": 49.583328}}, {"id": 6554051, "name": "Kemmenau", "country": "DE", "coord": {"lon": 7.75, "lat": 50.349998}}, {"id": 2891691, "name": "Kemmenau", "country": "DE", "coord": {"lon": 7.75, "lat": 50.349998}}, {"id": 2852140, "name": "Preu\u00dfnitz", "country": "DE", "coord": {"lon": 12.63333, "lat": 52.133331}}, {"id": 2830423, "name": "Spindlersfeld", "country": "DE", "coord": {"lon": 13.53333, "lat": 52.450001}}, {"id": 3247450, "name": "Kreisfreie Stadt Bonn", "country": "DE", "coord": {"lon": 7.11139, "lat": 50.715832}}, {"id": 2885734, "name": "Konigswinter", "country": "DE", "coord": {"lon": 7.18333, "lat": 50.683331}}, {"id": 2858747, "name": "Oberumbach", "country": "DE", "coord": {"lon": 11.15, "lat": 48.316669}}, {"id": 2858753, "name": "Oberuhldingen", "country": "DE", "coord": {"lon": 9.25, "lat": 47.73333}}, {"id": 2934047, "name": "Ebenhofen", "country": "DE", "coord": {"lon": 10.61667, "lat": 47.816669}}, {"id": 2957834, "name": "Altenberg", "country": "DE", "coord": {"lon": 13.75334, "lat": 50.76556}}, {"id": 2948957, "name": "Billberge", "country": "DE", "coord": {"lon": 12.00359, "lat": 52.630562}}, {"id": 2881097, "name": "Langeneichstadt", "country": "DE", "coord": {"lon": 11.75, "lat": 51.349998}}, {"id": 6555809, "name": "B\u00f6singen", "country": "DE", "coord": {"lon": 8.55, "lat": 48.233299}}, {"id": 2945866, "name": "Bosingen", "country": "DE", "coord": {"lon": 8.55, "lat": 48.23333}}, {"id": 2953451, "name": "Bad Grund", "country": "DE", "coord": {"lon": 10.23694, "lat": 51.810211}}, {"id": 2851879, "name": "Proschwitz", "country": "DE", "coord": {"lon": 13.48333, "lat": 51.183331}}, {"id": 6548085, "name": "Nossentiner H\u00fctte", "country": "DE", "coord": {"lon": 12.4333, "lat": 53.533298}}, {"id": 2861784, "name": "Nossentiner Hutte", "country": "DE", "coord": {"lon": 12.42416, "lat": 53.53434}}, {"id": 2928785, "name": "Essenrode", "country": "DE", "coord": {"lon": 10.63333, "lat": 52.366669}}, {"id": 2943795, "name": "Brome", "country": "DE", "coord": {"lon": 10.95, "lat": 52.599998}}, {"id": 2924827, "name": "Frickhofen", "country": "DE", "coord": {"lon": 8.01667, "lat": 50.5}}, {"id": 2866212, "name": "Neubeckum", "country": "DE", "coord": {"lon": 8.05, "lat": 51.799999}}, {"id": 6553604, "name": "Horbruch", "country": "DE", "coord": {"lon": 7.23333, "lat": 49.883301}}, {"id": 2899081, "name": "Horbruch", "country": "DE", "coord": {"lon": 7.23333, "lat": 49.883331}}, {"id": 6553635, "name": "Ruschberg", "country": "DE", "coord": {"lon": 7.28333, "lat": 49.616699}}, {"id": 2842930, "name": "Ruschberg", "country": "DE", "coord": {"lon": 7.28333, "lat": 49.616669}}, {"id": 6553651, "name": "Weitersbach", "country": "DE", "coord": {"lon": 7.31667, "lat": 49.866699}}, {"id": 2811654, "name": "Weitersbach", "country": "DE", "coord": {"lon": 7.31667, "lat": 49.866669}}, {"id": 6554433, "name": "Gondorf", "country": "DE", "coord": {"lon": 6.61667, "lat": 49.966702}}, {"id": 2919119, "name": "Gondorf", "country": "DE", "coord": {"lon": 6.61667, "lat": 49.966671}}, {"id": 6553570, "name": "Allenbach", "country": "DE", "coord": {"lon": 7.16667, "lat": 49.75}}, {"id": 2958457, "name": "Allenbach", "country": "DE", "coord": {"lon": 7.16667, "lat": 49.75}}, {"id": 2823509, "name": "Tengling", "country": "DE", "coord": {"lon": 12.73333, "lat": 48}}, {"id": 6556692, "name": "S\u00fcnching", "country": "DE", "coord": {"lon": 12.35, "lat": 48.883301}}, {"id": 2824687, "name": "Sunching", "country": "DE", "coord": {"lon": 12.35, "lat": 48.883331}}, {"id": 6555928, "name": "H\u00fclben", "country": "DE", "coord": {"lon": 9.40752, "lat": 48.519932}}, {"id": 2897879, "name": "Hulben", "country": "DE", "coord": {"lon": 9.4079, "lat": 48.519821}}, {"id": 6554840, "name": "Eppelsheim", "country": "DE", "coord": {"lon": 8.16528, "lat": 49.705601}}, {"id": 2929862, "name": "Eppelsheim", "country": "DE", "coord": {"lon": 8.16528, "lat": 49.705559}}, {"id": 2890766, "name": "Kirchbach", "country": "DE", "coord": {"lon": 13.23333, "lat": 50.866669}}, {"id": 2821440, "name": "Trebitz", "country": "DE", "coord": {"lon": 11.76667, "lat": 51.583328}}, {"id": 2919853, "name": "Globig", "country": "DE", "coord": {"lon": 12.75, "lat": 51.783329}}, {"id": 6549121, "name": "Farnst\u00e4dt", "country": "DE", "coord": {"lon": 11.5667, "lat": 51.4333}}, {"id": 2927798, "name": "Farnstadt", "country": "DE", "coord": {"lon": 11.56667, "lat": 51.433331}}, {"id": 2844924, "name": "Rosenthal", "country": "DE", "coord": {"lon": 8.88333, "lat": 50.966671}}, {"id": 6555189, "name": "Hainfeld", "country": "DE", "coord": {"lon": 8.10111, "lat": 49.2575}}, {"id": 2911831, "name": "Hainfeld", "country": "DE", "coord": {"lon": 8.10111, "lat": 49.2575}}, {"id": 2896600, "name": "Ilbesheim", "country": "DE", "coord": {"lon": 8.055, "lat": 49.182499}}, {"id": 2803722, "name": "Zultenberg", "country": "DE", "coord": {"lon": 11.31667, "lat": 50.049999}}, {"id": 6548217, "name": "Roggenstorf", "country": "DE", "coord": {"lon": 11.0667, "lat": 53.916698}}, {"id": 2845845, "name": "Roggenstorf", "country": "DE", "coord": {"lon": 11.06667, "lat": 53.916672}}, {"id": 2804231, "name": "Ziggelmark", "country": "DE", "coord": {"lon": 11.05, "lat": 53.51667}}, {"id": 2895222, "name": "J\u00e4mlitz", "country": "DE", "coord": {"lon": 14.66667, "lat": 51.566669}}, {"id": 2838890, "name": "Schlarpe", "country": "DE", "coord": {"lon": 9.75, "lat": 51.650002}}, {"id": 2930970, "name": "Ellershausen bei M\u00fcnden", "country": "DE", "coord": {"lon": 9.68333, "lat": 51.51667}}, {"id": 6556024, "name": "Oggelshausen", "country": "DE", "coord": {"lon": 9.65, "lat": 48.0667}}, {"id": 2857741, "name": "Oggelshausen", "country": "DE", "coord": {"lon": 9.65, "lat": 48.066669}}, {"id": 2847910, "name": "Reupelsdorf", "country": "DE", "coord": {"lon": 10.3, "lat": 49.816669}}, {"id": 2879742, "name": "Ledde", "country": "DE", "coord": {"lon": 7.81667, "lat": 52.23333}}, {"id": 2851960, "name": "Priwall", "country": "DE", "coord": {"lon": 10.88333, "lat": 53.950001}}, {"id": 6552915, "name": "Renkenberge", "country": "DE", "coord": {"lon": 7.38333, "lat": 52.900002}}, {"id": 2848207, "name": "Renkenberge", "country": "DE", "coord": {"lon": 7.38333, "lat": 52.900002}}, {"id": 6555220, "name": "Schweighofen", "country": "DE", "coord": {"lon": 8, "lat": 49.033298}}, {"id": 2834560, "name": "Schweighofen", "country": "DE", "coord": {"lon": 7.99367, "lat": 49.039841}}, {"id": 2908614, "name": "Haverlah", "country": "DE", "coord": {"lon": 10.16667, "lat": 52.066669}}, {"id": 2834122, "name": "Schw\u00fclper", "country": "DE", "coord": {"lon": 10.43333, "lat": 52.349998}}, {"id": 2915044, "name": "Gro\u00df Schw\u00fclper", "country": "DE", "coord": {"lon": 10.43126, "lat": 52.355888}}, {"id": 6553729, "name": "Urmersbach", "country": "DE", "coord": {"lon": 7.13333, "lat": 50.25}}, {"id": 2818186, "name": "Urmersbach", "country": "DE", "coord": {"lon": 7.13333, "lat": 50.25}}, {"id": 6552935, "name": "Getelo", "country": "DE", "coord": {"lon": 6.85, "lat": 52.466702}}, {"id": 2920786, "name": "Getelo", "country": "DE", "coord": {"lon": 6.85, "lat": 52.466671}}, {"id": 6552933, "name": "Esche", "country": "DE", "coord": {"lon": 6.96667, "lat": 52.533298}}, {"id": 2929131, "name": "Esche", "country": "DE", "coord": {"lon": 6.96667, "lat": 52.533329}}, {"id": 2958593, "name": "Albstedt", "country": "DE", "coord": {"lon": 8.71757, "lat": 53.330029}}, {"id": 2895789, "name": "Irmenseul", "country": "DE", "coord": {"lon": 9.95, "lat": 51.98333}}, {"id": 6547927, "name": "Dersenow", "country": "DE", "coord": {"lon": 10.8833, "lat": 53.383301}}, {"id": 2938018, "name": "Dersenow", "country": "DE", "coord": {"lon": 10.88333, "lat": 53.383331}}, {"id": 2936678, "name": "Dobbin", "country": "DE", "coord": {"lon": 12.0278, "lat": 53.624691}}, {"id": 2836944, "name": "Sch\u00f6nberg", "country": "DE", "coord": {"lon": 10.93333, "lat": 53.849998}}, {"id": 6551640, "name": "Ahrensb\u00f6k", "country": "DE", "coord": {"lon": 10.5833, "lat": 54.016701}}, {"id": 2959084, "name": "Ahrensbok", "country": "DE", "coord": {"lon": 10.57434, "lat": 54.008621}}, {"id": 6551867, "name": "Klein Wittensee", "country": "DE", "coord": {"lon": 9.73333, "lat": 54.383301}}, {"id": 2887981, "name": "Klein Wittensee", "country": "DE", "coord": {"lon": 9.73333, "lat": 54.383331}}, {"id": 6552232, "name": "Poyenberg", "country": "DE", "coord": {"lon": 9.7, "lat": 54.033298}}, {"id": 2852388, "name": "Poyenberg", "country": "DE", "coord": {"lon": 9.7, "lat": 54.033329}}, {"id": 2937268, "name": "Dierkshausen", "country": "DE", "coord": {"lon": 9.98333, "lat": 53.26667}}, {"id": 6552058, "name": "Sterup", "country": "DE", "coord": {"lon": 9.73333, "lat": 54.733299}}, {"id": 2827284, "name": "Sterup", "country": "DE", "coord": {"lon": 9.73333, "lat": 54.73333}}, {"id": 2881398, "name": "Langballigkaten", "country": "DE", "coord": {"lon": 9.63333, "lat": 54.816669}}, {"id": 6552019, "name": "Gro\u00dfenwiehe", "country": "DE", "coord": {"lon": 9.25, "lat": 54.700001}}, {"id": 2916570, "name": "Grossenwiehe", "country": "DE", "coord": {"lon": 9.25, "lat": 54.700001}}, {"id": 6556290, "name": "Lohkirchen", "country": "DE", "coord": {"lon": 12.45, "lat": 48.3167}}, {"id": 2876249, "name": "Lohkirchen", "country": "DE", "coord": {"lon": 12.45, "lat": 48.316669}}, {"id": 2841262, "name": "Satzbach", "country": "DE", "coord": {"lon": 13.51667, "lat": 48.599998}}, {"id": 6555856, "name": "Rietheim-Weilheim", "country": "DE", "coord": {"lon": 8.76667, "lat": 48.016701}}, {"id": 3206259, "name": "Rietheim-Weilheim", "country": "DE", "coord": {"lon": 8.76667, "lat": 48.01667}}, {"id": 6555948, "name": "Dormettingen", "country": "DE", "coord": {"lon": 8.7734, "lat": 48.236881}}, {"id": 2935817, "name": "Dormettingen", "country": "DE", "coord": {"lon": 8.77327, "lat": 48.236881}}, {"id": 6555417, "name": "Dettingen unter Teck", "country": "DE", "coord": {"lon": 9.45, "lat": 48.616699}}, {"id": 2937896, "name": "Dettingen unter Teck", "country": "DE", "coord": {"lon": 9.45, "lat": 48.616669}}, {"id": 6555278, "name": "Hillesheim", "country": "DE", "coord": {"lon": 8.25611, "lat": 49.776402}}, {"id": 2904692, "name": "Hillesheim", "country": "DE", "coord": {"lon": 8.25611, "lat": 49.77639}}, {"id": 6554579, "name": "Nimshuscheid", "country": "DE", "coord": {"lon": 6.48333, "lat": 50.099998}}, {"id": 2862403, "name": "Nimshuscheid", "country": "DE", "coord": {"lon": 6.48333, "lat": 50.099998}}, {"id": 6554764, "name": "Mandern", "country": "DE", "coord": {"lon": 6.76667, "lat": 49.599998}}, {"id": 2873974, "name": "Mandern", "country": "DE", "coord": {"lon": 6.76667, "lat": 49.599998}}, {"id": 6554405, "name": "Bettingen", "country": "DE", "coord": {"lon": 6.4, "lat": 49.950001}}, {"id": 2949697, "name": "Bettingen", "country": "DE", "coord": {"lon": 6.4016, "lat": 49.942108}}, {"id": 2804796, "name": "Zeltingen", "country": "DE", "coord": {"lon": 7.01667, "lat": 49.950001}}, {"id": 2828060, "name": "Steingruben", "country": "DE", "coord": {"lon": 7.81667, "lat": 49.666672}}, {"id": 6554824, "name": "Albig", "country": "DE", "coord": {"lon": 8.12139, "lat": 49.773602}}, {"id": 2958638, "name": "Albig", "country": "DE", "coord": {"lon": 8.12139, "lat": 49.773609}}, {"id": 6554841, "name": "Erbes-B\u00fcdesheim", "country": "DE", "coord": {"lon": 8.03139, "lat": 49.754398}}, {"id": 2929769, "name": "Erbes-Budesheim", "country": "DE", "coord": {"lon": 8.03139, "lat": 49.75444}}, {"id": 2938950, "name": "Danzwiesen", "country": "DE", "coord": {"lon": 9.9, "lat": 50.549999}}, {"id": 6554911, "name": "Kleinkarlbach", "country": "DE", "coord": {"lon": 8.14972, "lat": 49.538601}}, {"id": 2888676, "name": "Kleinkarlbach", "country": "DE", "coord": {"lon": 8.14972, "lat": 49.538609}}, {"id": 6554897, "name": "Erpolzheim", "country": "DE", "coord": {"lon": 8.22472, "lat": 49.489201}}, {"id": 2929279, "name": "Erpolzheim", "country": "DE", "coord": {"lon": 8.22472, "lat": 49.48917}}, {"id": 6548696, "name": "Lohmen", "country": "DE", "coord": {"lon": 14, "lat": 50.983299}}, {"id": 2876212, "name": "Lohmen", "country": "DE", "coord": {"lon": 14.00268, "lat": 50.988312}}, {"id": 2875067, "name": "Lunzenau", "country": "DE", "coord": {"lon": 12.76667, "lat": 50.950001}}, {"id": 2888279, "name": "Kleinsaubernitz", "country": "DE", "coord": {"lon": 14.6, "lat": 51.26667}}, {"id": 6550528, "name": "Zedlitz", "country": "DE", "coord": {"lon": 12.0333, "lat": 50.8167}}, {"id": 2805095, "name": "Zedlitz", "country": "DE", "coord": {"lon": 12.03333, "lat": 50.816669}}, {"id": 6550491, "name": "Gauern", "country": "DE", "coord": {"lon": 12.2, "lat": 50.783298}}, {"id": 2922284, "name": "Gauern", "country": "DE", "coord": {"lon": 12.2, "lat": 50.783329}}, {"id": 2925703, "name": "Forstwolfersdorf", "country": "DE", "coord": {"lon": 11.96667, "lat": 50.73333}}, {"id": 2803821, "name": "Zscherneddel", "country": "DE", "coord": {"lon": 12.11667, "lat": 51.349998}}, {"id": 2852229, "name": "Premsendorf", "country": "DE", "coord": {"lon": 13.13333, "lat": 51.75}}, {"id": 2835233, "name": "Schwansee", "country": "DE", "coord": {"lon": 11.08333, "lat": 51.083328}}, {"id": 2943720, "name": "Br\u00f6sen", "country": "DE", "coord": {"lon": 12.31667, "lat": 51.150002}}, {"id": 2838945, "name": "Schlagwitz", "country": "DE", "coord": {"lon": 13.05, "lat": 51.23333}}, {"id": 2888540, "name": "Klein Loitz", "country": "DE", "coord": {"lon": 14.5, "lat": 51.599998}}, {"id": 2838547, "name": "Schlieben", "country": "DE", "coord": {"lon": 13.38333, "lat": 51.716671}}, {"id": 6555951, "name": "Hausen am Tann", "country": "DE", "coord": {"lon": 8.8364, "lat": 48.19836}}, {"id": 2908858, "name": "Hausen am Tann", "country": "DE", "coord": {"lon": 8.83631, "lat": 48.19833}}, {"id": 6557294, "name": "Niedersch\u00f6nenfeld", "country": "DE", "coord": {"lon": 10.9333, "lat": 48.716702}}, {"id": 2862891, "name": "Niederschonenfeld", "country": "DE", "coord": {"lon": 10.93333, "lat": 48.716671}}, {"id": 6551980, "name": "Neuberend", "country": "DE", "coord": {"lon": 9.53333, "lat": 54.549999}}, {"id": 2866208, "name": "Neuberend", "country": "DE", "coord": {"lon": 9.53333, "lat": 54.549999}}, {"id": 6551894, "name": "N\u00fcbbel", "country": "DE", "coord": {"lon": 9.61667, "lat": 54.266701}}, {"id": 2861714, "name": "Nubbel", "country": "DE", "coord": {"lon": 9.61667, "lat": 54.26667}}, {"id": 2822855, "name": "Theodorshalle", "country": "DE", "coord": {"lon": 7.85, "lat": 49.816669}}, {"id": 6553451, "name": "Wallmenroth", "country": "DE", "coord": {"lon": 7.83333, "lat": 50.799999}}, {"id": 2814557, "name": "Wallmenroth", "country": "DE", "coord": {"lon": 7.83333, "lat": 50.799999}}, {"id": 2861258, "name": "Oberbiel", "country": "DE", "coord": {"lon": 8.43333, "lat": 50.549999}}, {"id": 2936620, "name": "Doberschau", "country": "DE", "coord": {"lon": 14.4, "lat": 51.150002}}, {"id": 2951236, "name": "Belleben", "country": "DE", "coord": {"lon": 11.63333, "lat": 51.666672}}, {"id": 2936852, "name": "Dippelsdorf", "country": "DE", "coord": {"lon": 12.01667, "lat": 51.150002}}, {"id": 2868659, "name": "M\u00fchlbeck", "country": "DE", "coord": {"lon": 12.38333, "lat": 51.633331}}, {"id": 2809753, "name": "Wickerode", "country": "DE", "coord": {"lon": 11.13181, "lat": 51.476139}}, {"id": 2945758, "name": "Bottmersdorf", "country": "DE", "coord": {"lon": 11.43333, "lat": 52.033329}}, {"id": 6555360, "name": "Vinningen", "country": "DE", "coord": {"lon": 7.55, "lat": 49.166698}}, {"id": 2817168, "name": "Vinningen", "country": "DE", "coord": {"lon": 7.55, "lat": 49.166672}}, {"id": 6556059, "name": "Bergatreute", "country": "DE", "coord": {"lon": 9.75, "lat": 47.849998}}, {"id": 2950686, "name": "Bergatreute", "country": "DE", "coord": {"lon": 9.75, "lat": 47.849998}}, {"id": 2878253, "name": "Leuzbach", "country": "DE", "coord": {"lon": 7.63333, "lat": 50.683331}}, {"id": 2946973, "name": "B\u00f6hlendorf", "country": "DE", "coord": {"lon": 12.67419, "lat": 54.06699}}, {"id": 2905389, "name": "Hespe", "country": "DE", "coord": {"lon": 9.1, "lat": 52.333328}}, {"id": 2905394, "name": "Hespe", "country": "DE", "coord": {"lon": 9.10818, "lat": 52.32999}}, {"id": 2889927, "name": "Klebing", "country": "DE", "coord": {"lon": 12.31667, "lat": 48.25}}, {"id": 6554250, "name": "Neunkhausen", "country": "DE", "coord": {"lon": 7.9, "lat": 50.700001}}, {"id": 2864437, "name": "Neunkhausen", "country": "DE", "coord": {"lon": 7.9, "lat": 50.700001}}, {"id": 6553521, "name": "Norheim", "country": "DE", "coord": {"lon": 7.81667, "lat": 49.799999}}, {"id": 2861830, "name": "Norheim", "country": "DE", "coord": {"lon": 7.81667, "lat": 49.799999}}, {"id": 6548317, "name": "Rubkow", "country": "DE", "coord": {"lon": 13.7167, "lat": 53.9333}}, {"id": 2843535, "name": "Rubkow", "country": "DE", "coord": {"lon": 13.71667, "lat": 53.933331}}, {"id": 6548371, "name": "Lutheran", "country": "DE", "coord": {"lon": 12, "lat": 53.450001}}, {"id": 2874936, "name": "Lutheran", "country": "DE", "coord": {"lon": 12.00119, "lat": 53.458309}}, {"id": 2848127, "name": "Renzow", "country": "DE", "coord": {"lon": 11.15, "lat": 53.616669}}, {"id": 6557094, "name": "Oberpleichfeld", "country": "DE", "coord": {"lon": 10.0833, "lat": 49.883301}}, {"id": 2859423, "name": "Oberpleichfeld", "country": "DE", "coord": {"lon": 10.08333, "lat": 49.883331}}, {"id": 2859033, "name": "Oberselk", "country": "DE", "coord": {"lon": 9.56667, "lat": 54.466671}}, {"id": 6551725, "name": "Fahren", "country": "DE", "coord": {"lon": 10.3333, "lat": 54.349998}}, {"id": 2928165, "name": "Fahren", "country": "DE", "coord": {"lon": 10.33333, "lat": 54.349998}}, {"id": 2881528, "name": "Landmark", "country": "DE", "coord": {"lon": 8.96667, "lat": 53.75}}, {"id": 2903675, "name": "Hirschendorf", "country": "DE", "coord": {"lon": 10.91667, "lat": 50.450001}}, {"id": 6550473, "name": "Seisla", "country": "DE", "coord": {"lon": 11.53517, "lat": 50.650551}}, {"id": 2833326, "name": "Seisla", "country": "DE", "coord": {"lon": 11.53483, "lat": 50.65028}}, {"id": 6554091, "name": "Reitzenhain", "country": "DE", "coord": {"lon": 7.78333, "lat": 50.150002}}, {"id": 2848353, "name": "Reitzenhain", "country": "DE", "coord": {"lon": 7.78333, "lat": 50.150002}}, {"id": 6551749, "name": "Lammershagen", "country": "DE", "coord": {"lon": 10.45, "lat": 54.283298}}, {"id": 2881728, "name": "Lammershagen", "country": "DE", "coord": {"lon": 10.45, "lat": 54.283329}}, {"id": 2847401, "name": "Riebrau", "country": "DE", "coord": {"lon": 10.88402, "lat": 53.09042}}, {"id": 2865112, "name": "Neuhausen", "country": "DE", "coord": {"lon": 8.46007, "lat": 48.132992}}, {"id": 2863062, "name": "Niederneuching", "country": "DE", "coord": {"lon": 11.85, "lat": 48.25}}, {"id": 2895894, "name": "Inzenham", "country": "DE", "coord": {"lon": 12.22838, "lat": 47.880692}}, {"id": 2879892, "name": "Lauterhofen", "country": "DE", "coord": {"lon": 11.61667, "lat": 49.366669}}, {"id": 6557095, "name": "Prosselsheim", "country": "DE", "coord": {"lon": 10.1333, "lat": 49.866699}}, {"id": 2851863, "name": "Prosselsheim", "country": "DE", "coord": {"lon": 10.13333, "lat": 49.866669}}, {"id": 6556976, "name": "Hendungen", "country": "DE", "coord": {"lon": 10.35, "lat": 50.400002}}, {"id": 2906490, "name": "Hendungen", "country": "DE", "coord": {"lon": 10.35, "lat": 50.400002}}, {"id": 2944343, "name": "Bremke", "country": "DE", "coord": {"lon": 8.21667, "lat": 51.25}}, {"id": 2807489, "name": "Wischenhofen", "country": "DE", "coord": {"lon": 11.91667, "lat": 49.116669}}, {"id": 6552792, "name": "D\u00fcdenb\u00fcttel", "country": "DE", "coord": {"lon": 9.35, "lat": 53.583302}}, {"id": 2934740, "name": "Dudenbuttel", "country": "DE", "coord": {"lon": 9.35, "lat": 53.583328}}, {"id": 6556244, "name": "Oberau", "country": "DE", "coord": {"lon": 11.13095, "lat": 47.560699}}, {"id": 2861384, "name": "Oberau", "country": "DE", "coord": {"lon": 11.13919, "lat": 47.559792}}, {"id": 2824063, "name": "Tannesberg", "country": "DE", "coord": {"lon": 12.33333, "lat": 49.533329}}, {"id": 6548592, "name": "Sosa", "country": "DE", "coord": {"lon": 12.6667, "lat": 50.5}}, {"id": 2830912, "name": "Sosa", "country": "DE", "coord": {"lon": 12.66667, "lat": 50.5}}, {"id": 2956739, "name": "Altzschillen", "country": "DE", "coord": {"lon": 12.76667, "lat": 51}}, {"id": 2957341, "name": "Alterode", "country": "DE", "coord": {"lon": 11.38333, "lat": 51.666672}}, {"id": 2901618, "name": "Hohenlohe", "country": "DE", "coord": {"lon": 12.23333, "lat": 51.216671}}, {"id": 2933485, "name": "Edderitz", "country": "DE", "coord": {"lon": 11.93333, "lat": 51.683331}}, {"id": 2832951, "name": "Serno", "country": "DE", "coord": {"lon": 12.41667, "lat": 52}}, {"id": 6549138, "name": "Obhausen", "country": "DE", "coord": {"lon": 11.6667, "lat": 51.400002}}, {"id": 2858426, "name": "Obhausen", "country": "DE", "coord": {"lon": 11.66667, "lat": 51.400002}}, {"id": 2896268, "name": "Immensen", "country": "DE", "coord": {"lon": 9.9, "lat": 51.783329}}, {"id": 2846563, "name": "Rinkerode", "country": "DE", "coord": {"lon": 7.68333, "lat": 51.849998}}, {"id": 2955654, "name": "Arendorf", "country": "DE", "coord": {"lon": 10.33333, "lat": 53.033329}}, {"id": 6552351, "name": "Wollbrandshausen", "country": "DE", "coord": {"lon": 10.1667, "lat": 51.583302}}, {"id": 2806439, "name": "Wollbrandshausen", "country": "DE", "coord": {"lon": 10.16667, "lat": 51.583328}}, {"id": 2810197, "name": "Wester Schnateb\u00fcll", "country": "DE", "coord": {"lon": 8.91667, "lat": 54.75}}, {"id": 2866374, "name": "Netra", "country": "DE", "coord": {"lon": 10.1, "lat": 51.099998}}, {"id": 6552155, "name": "Westerrade", "country": "DE", "coord": {"lon": 10.45, "lat": 53.9333}}, {"id": 2810208, "name": "Westerrade", "country": "DE", "coord": {"lon": 10.45, "lat": 53.933331}}, {"id": 3204955, "name": "Rohrbach", "country": "DE", "coord": {"lon": 12.31667, "lat": 50.25}}, {"id": 2859511, "name": "Obernzenn", "country": "DE", "coord": {"lon": 10.46667, "lat": 49.450001}}, {"id": 2838113, "name": "Schmalenbach", "country": "DE", "coord": {"lon": 10.51667, "lat": 49.333328}}, {"id": 2921021, "name": "Gern", "country": "DE", "coord": {"lon": 10.65, "lat": 49.166672}}, {"id": 6550150, "name": "Ringleben", "country": "DE", "coord": {"lon": 10.95, "lat": 51.099998}}, {"id": 2846594, "name": "Ringleben", "country": "DE", "coord": {"lon": 10.95, "lat": 51.099998}}, {"id": 2813858, "name": "Wasch", "country": "DE", "coord": {"lon": 7.76667, "lat": 49.466671}}, {"id": 2894136, "name": "Kahlheckerhof", "country": "DE", "coord": {"lon": 7.81667, "lat": 49.583328}}, {"id": 2940744, "name": "Busdorf", "country": "DE", "coord": {"lon": 13.401, "lat": 54.014832}}, {"id": 2888911, "name": "Kleinflintbek", "country": "DE", "coord": {"lon": 10.08333, "lat": 54.26667}}, {"id": 6552762, "name": "Wilstedt", "country": "DE", "coord": {"lon": 9.1, "lat": 53.1833}}, {"id": 2808417, "name": "Wilstedt", "country": "DE", "coord": {"lon": 9.1, "lat": 53.183331}}, {"id": 2857526, "name": "Okel", "country": "DE", "coord": {"lon": 8.88333, "lat": 52.933331}}, {"id": 6551360, "name": "Odderade", "country": "DE", "coord": {"lon": 9.18333, "lat": 54.133301}}, {"id": 2858154, "name": "Odderade", "country": "DE", "coord": {"lon": 9.18333, "lat": 54.133331}}, {"id": 6551750, "name": "Lebrade", "country": "DE", "coord": {"lon": 10.4167, "lat": 54.216702}}, {"id": 2879797, "name": "Lebrade", "country": "DE", "coord": {"lon": 10.41667, "lat": 54.216671}}, {"id": 2928518, "name": "Euerdorf", "country": "DE", "coord": {"lon": 10.02331, "lat": 50.148529}}, {"id": 6552503, "name": "Eimen", "country": "DE", "coord": {"lon": 9.78333, "lat": 51.883301}}, {"id": 2931825, "name": "Eimen", "country": "DE", "coord": {"lon": 9.78333, "lat": 51.883331}}, {"id": 2910099, "name": "Harthof", "country": "DE", "coord": {"lon": 10.71667, "lat": 48.783329}}, {"id": 2845871, "name": "Roggenbach", "country": "DE", "coord": {"lon": 8.36667, "lat": 48.083328}}, {"id": 6554326, "name": "Gro\u00dflittgen", "country": "DE", "coord": {"lon": 6.8, "lat": 50.033298}}, {"id": 2915318, "name": "Grosslittgen", "country": "DE", "coord": {"lon": 6.79865, "lat": 50.02787}}, {"id": 6548789, "name": "Mockrehna", "country": "DE", "coord": {"lon": 12.8, "lat": 51.5}}, {"id": 2870266, "name": "Mockrehna", "country": "DE", "coord": {"lon": 12.81418, "lat": 51.507568}}, {"id": 2817689, "name": "Velling", "country": "DE", "coord": {"lon": 12.81667, "lat": 48.916672}}, {"id": 6556128, "name": "M\u00fcnsing", "country": "DE", "coord": {"lon": 11.3667, "lat": 47.900002}}, {"id": 2867561, "name": "Munsing", "country": "DE", "coord": {"lon": 11.36667, "lat": 47.900002}}, {"id": 2806849, "name": "Wolfersreut", "country": "DE", "coord": {"lon": 13.48333, "lat": 48.816669}}, {"id": 2868861, "name": "Muden", "country": "DE", "coord": {"lon": 10.36011, "lat": 52.52771}}, {"id": 2918645, "name": "G\u00f6ttien", "country": "DE", "coord": {"lon": 11.06667, "lat": 52.98333}}, {"id": 2946492, "name": "Bonbruck", "country": "DE", "coord": {"lon": 12.28333, "lat": 48.316669}}, {"id": 2889621, "name": "Kleindehsa", "country": "DE", "coord": {"lon": 14.6, "lat": 51.099998}}, {"id": 2956405, "name": "Am\u00f6neburg", "country": "DE", "coord": {"lon": 8.26667, "lat": 50.033329}}, {"id": 2908183, "name": "Heggen", "country": "DE", "coord": {"lon": 7.95, "lat": 51.150002}}, {"id": 6547677, "name": "P\u00e4wesin", "country": "DE", "coord": {"lon": 12.7167, "lat": 52.516701}}, {"id": 2855151, "name": "Pawesin", "country": "DE", "coord": {"lon": 12.71667, "lat": 52.51667}}, {"id": 6548116, "name": "Grammendorf", "country": "DE", "coord": {"lon": 12.8833, "lat": 54.033298}}, {"id": 2918160, "name": "Grammendorf", "country": "DE", "coord": {"lon": 12.87409, "lat": 54.035648}}, {"id": 2860323, "name": "Oberh\u00f6chst\u00e4dt", "country": "DE", "coord": {"lon": 10.69777, "lat": 49.648129}}, {"id": 2820217, "name": "Ulrichstein", "country": "DE", "coord": {"lon": 9.2, "lat": 50.583328}}, {"id": 2845304, "name": "Romhild", "country": "DE", "coord": {"lon": 10.55, "lat": 50.383331}}, {"id": 2958699, "name": "Alberstedt", "country": "DE", "coord": {"lon": 11.63333, "lat": 51.450001}}, {"id": 2884444, "name": "Kreisfeld", "country": "DE", "coord": {"lon": 11.48333, "lat": 51.533329}}, {"id": 2846791, "name": "Rietzneuendorf", "country": "DE", "coord": {"lon": 13.66667, "lat": 52.01667}}, {"id": 6548459, "name": "Jatznick", "country": "DE", "coord": {"lon": 13.9417, "lat": 53.583302}}, {"id": 2895131, "name": "Jatznick", "country": "DE", "coord": {"lon": 13.93333, "lat": 53.599998}}, {"id": 2852273, "name": "Prehlitz", "country": "DE", "coord": {"lon": 12.27224, "lat": 51.031792}}, {"id": 2941707, "name": "B\u00fclzig", "country": "DE", "coord": {"lon": 12.75, "lat": 51.900002}}, {"id": 2919030, "name": "Gorenzen", "country": "DE", "coord": {"lon": 11.35, "lat": 51.566669}}, {"id": 2949020, "name": "Bietegast", "country": "DE", "coord": {"lon": 12.71667, "lat": 51.799999}}, {"id": 2904462, "name": "Hindfeld", "country": "DE", "coord": {"lon": 10.56667, "lat": 50.366669}}, {"id": 6553992, "name": "Attenhausen", "country": "DE", "coord": {"lon": 7.88333, "lat": 50.299999}}, {"id": 2954921, "name": "Attenhausen", "country": "DE", "coord": {"lon": 7.88333, "lat": 50.299999}}, {"id": 6547433, "name": "Hontheim", "country": "DE", "coord": {"lon": 6.98333, "lat": 50.0667}}, {"id": 2899304, "name": "Hontheim", "country": "DE", "coord": {"lon": 6.98333, "lat": 50.066669}}, {"id": 2946310, "name": "B\u00f6rfink", "country": "DE", "coord": {"lon": 7.06667, "lat": 49.683331}}, {"id": 2946311, "name": "Borfink", "country": "DE", "coord": {"lon": 7.08333, "lat": 49.683331}}, {"id": 2836066, "name": "Schrofen", "country": "DE", "coord": {"lon": 10.11667, "lat": 47.900002}}, {"id": 6557117, "name": "Obergriesbach", "country": "DE", "coord": {"lon": 11.0667, "lat": 48.416698}}, {"id": 2860574, "name": "Obergriesbach", "country": "DE", "coord": {"lon": 11.06667, "lat": 48.416672}}, {"id": 2953680, "name": "Bachenhausen", "country": "DE", "coord": {"lon": 11.53333, "lat": 48.366669}}, {"id": 2858316, "name": "Ochsenholz", "country": "DE", "coord": {"lon": 11.41667, "lat": 49.900002}}, {"id": 6556661, "name": "P\u00fcchersreuth", "country": "DE", "coord": {"lon": 12.2333, "lat": 49.75}}, {"id": 2851784, "name": "Puchersreuth", "country": "DE", "coord": {"lon": 12.23333, "lat": 49.75}}, {"id": 2928261, "name": "Eydelstedt", "country": "DE", "coord": {"lon": 8.54668, "lat": 52.69241}}, {"id": 6556463, "name": "Niederalteich", "country": "DE", "coord": {"lon": 13.0333, "lat": 48.766701}}, {"id": 2863667, "name": "Niederalteich", "country": "DE", "coord": {"lon": 13.02412, "lat": 48.76564}}, {"id": 2865587, "name": "Neuenreuth", "country": "DE", "coord": {"lon": 12.13333, "lat": 50.083328}}, {"id": 2871942, "name": "Menhofen", "country": "DE", "coord": {"lon": 10.85, "lat": 47.916672}}, {"id": 2857451, "name": "Oldenburg in Holstein", "country": "DE", "coord": {"lon": 10.88333, "lat": 54.299999}}, {"id": 6551721, "name": "Dannau", "country": "DE", "coord": {"lon": 10.5333, "lat": 54.25}}, {"id": 2939004, "name": "Dannau", "country": "DE", "coord": {"lon": 10.53333, "lat": 54.25}}, {"id": 6554505, "name": "Sinspelt", "country": "DE", "coord": {"lon": 6.31667, "lat": 49.966702}}, {"id": 2831870, "name": "Sinspelt", "country": "DE", "coord": {"lon": 6.31817, "lat": 49.972591}}, {"id": 2952284, "name": "Baselt", "country": "DE", "coord": {"lon": 6.5, "lat": 50.216671}}, {"id": 2847574, "name": "Rhinow", "country": "DE", "coord": {"lon": 12.34194, "lat": 52.750938}}, {"id": 2902447, "name": "Hof Poseritz", "country": "DE", "coord": {"lon": 13.28333, "lat": 54.299999}}, {"id": 6930492, "name": "Kumpfm\u00fchle", "country": "DE", "coord": {"lon": 11.16975, "lat": 48.251801}}, {"id": 6553738, "name": "Zilshausen", "country": "DE", "coord": {"lon": 7.38333, "lat": 50.116699}}, {"id": 2804208, "name": "Zilshausen", "country": "DE", "coord": {"lon": 7.38333, "lat": 50.116669}}, {"id": 6550461, "name": "Paska", "country": "DE", "coord": {"lon": 11.6333, "lat": 50.616699}}, {"id": 2855333, "name": "Paska", "country": "DE", "coord": {"lon": 11.62903, "lat": 50.61985}}, {"id": 2858676, "name": "Oberwaldbach", "country": "DE", "coord": {"lon": 10.46516, "lat": 48.362518}}, {"id": 2913745, "name": "Gumpenweiler", "country": "DE", "coord": {"lon": 10.58333, "lat": 48.25}}, {"id": 3208743, "name": "Kappe", "country": "DE", "coord": {"lon": 13.43333, "lat": 52.966671}}, {"id": 2811166, "name": "Weng", "country": "DE", "coord": {"lon": 12.9, "lat": 47.849998}}, {"id": 2950029, "name": "Bernhards", "country": "DE", "coord": {"lon": 9.71667, "lat": 50.599998}}, {"id": 6554368, "name": "Rivenich", "country": "DE", "coord": {"lon": 6.85, "lat": 49.883301}}, {"id": 2846308, "name": "Rivenich", "country": "DE", "coord": {"lon": 6.85, "lat": 49.883331}}, {"id": 2939686, "name": "Cunnersdorf", "country": "DE", "coord": {"lon": 13.78333, "lat": 50.883331}}, {"id": 2818810, "name": "Unterrupsroth", "country": "DE", "coord": {"lon": 9.93333, "lat": 50.549999}}, {"id": 2851865, "name": "Pro\u00df", "country": "DE", "coord": {"lon": 11.37697, "lat": 50.068291}}, {"id": 2951474, "name": "Behrend", "country": "DE", "coord": {"lon": 11.75, "lat": 52.849998}}, {"id": 2864463, "name": "Neundorf", "country": "DE", "coord": {"lon": 11.21667, "lat": 50.25}}, {"id": 2959674, "name": "Achner", "country": "DE", "coord": {"lon": 11.46667, "lat": 47.599998}}, {"id": 2855307, "name": "Passin", "country": "DE", "coord": {"lon": 12, "lat": 53.900002}}, {"id": 2922751, "name": "Gammendorf", "country": "DE", "coord": {"lon": 11.15, "lat": 54.5}}, {"id": 6549805, "name": "Pfaffschwende", "country": "DE", "coord": {"lon": 10.1, "lat": 51.25}}, {"id": 2854296, "name": "Pfaffschwende", "country": "DE", "coord": {"lon": 10.1, "lat": 51.25}}, {"id": 2900902, "name": "Hohn", "country": "DE", "coord": {"lon": 7.35, "lat": 50.833328}}, {"id": 2924930, "name": "Fretzdorf", "country": "DE", "coord": {"lon": 12.55, "lat": 53.066669}}, {"id": 2877905, "name": "Lieblingshof", "country": "DE", "coord": {"lon": 12.32924, "lat": 54.03001}}, {"id": 2915515, "name": "Gro\u00df Hesepe", "country": "DE", "coord": {"lon": 7.23333, "lat": 52.616669}}, {"id": 2815353, "name": "Wahren", "country": "DE", "coord": {"lon": 12.33333, "lat": 51.366669}}, {"id": 2823433, "name": "Teschow", "country": "DE", "coord": {"lon": 12.63333, "lat": 53.783329}}, {"id": 2808405, "name": "Wilting", "country": "DE", "coord": {"lon": 12.6475, "lat": 49.166779}}, {"id": 6556204, "name": "H\u00f6rgertshausen", "country": "DE", "coord": {"lon": 11.8667, "lat": 48.549999}}, {"id": 2899033, "name": "Horgertshausen", "country": "DE", "coord": {"lon": 11.86667, "lat": 48.549999}}, {"id": 2927584, "name": "Fehlheim", "country": "DE", "coord": {"lon": 8.57194, "lat": 49.705002}}, {"id": 6552814, "name": "Wischhafen", "country": "DE", "coord": {"lon": 9.31667, "lat": 53.783298}}, {"id": 2807484, "name": "Wischhafen", "country": "DE", "coord": {"lon": 9.31667, "lat": 53.783329}}, {"id": 2936431, "name": "Dolbau", "country": "DE", "coord": {"lon": 12.06667, "lat": 51.466671}}, {"id": 2936535, "name": "Dockenhuden", "country": "DE", "coord": {"lon": 9.82847, "lat": 53.560188}}, {"id": 2903129, "name": "Hochkamp", "country": "DE", "coord": {"lon": 9.85, "lat": 53.566669}}, {"id": 2884163, "name": "Kreuzberg", "country": "DE", "coord": {"lon": 13.38333, "lat": 52.48333}}, {"id": 6555890, "name": "Schallbach", "country": "DE", "coord": {"lon": 7.63333, "lat": 47.650002}}, {"id": 2840552, "name": "Schallbach", "country": "DE", "coord": {"lon": 7.63333, "lat": 47.650002}}, {"id": 6555813, "name": "Hardt", "country": "DE", "coord": {"lon": 8.41667, "lat": 48.1833}}, {"id": 2910575, "name": "Hardt", "country": "DE", "coord": {"lon": 8.41667, "lat": 48.183331}}, {"id": 6552551, "name": "Beedenbostel", "country": "DE", "coord": {"lon": 10.25, "lat": 52.650002}}, {"id": 2951616, "name": "Beedenbostel", "country": "DE", "coord": {"lon": 10.25, "lat": 52.650002}}, {"id": 2875453, "name": "Luderbach", "country": "DE", "coord": {"lon": 13.11667, "lat": 48.433331}}, {"id": 6552343, "name": "Rhumspringe", "country": "DE", "coord": {"lon": 10.3, "lat": 51.583302}}, {"id": 2847547, "name": "Rhumspringe", "country": "DE", "coord": {"lon": 10.3, "lat": 51.583328}}, {"id": 2805313, "name": "Zahna", "country": "DE", "coord": {"lon": 12.78333, "lat": 51.916672}}, {"id": 2804751, "name": "Zeppernick", "country": "DE", "coord": {"lon": 12.01667, "lat": 52.116669}}, {"id": 3208616, "name": "Okertalsiedlung", "country": "DE", "coord": {"lon": 10.55, "lat": 52.133331}}, {"id": 6556794, "name": "Weilersbach", "country": "DE", "coord": {"lon": 11.1167, "lat": 49.75}}, {"id": 3207003, "name": "Weilersbach", "country": "DE", "coord": {"lon": 11.11667, "lat": 49.75}}, {"id": 2898696, "name": "H\u00f6rsingen", "country": "DE", "coord": {"lon": 11.15456, "lat": 52.2794}}, {"id": 2807042, "name": "Wohlmirstedt", "country": "DE", "coord": {"lon": 11.46667, "lat": 51.25}}, {"id": 6550206, "name": "Gillersdorf", "country": "DE", "coord": {"lon": 11.0167, "lat": 50.616699}}, {"id": 2920410, "name": "Gillersdorf", "country": "DE", "coord": {"lon": 11.01667, "lat": 50.616669}}, {"id": 2842045, "name": "Sand", "country": "DE", "coord": {"lon": 13.35, "lat": 50.950001}}, {"id": 2888317, "name": "Klein Rodensleben", "country": "DE", "coord": {"lon": 11.43333, "lat": 52.116669}}, {"id": 2952234, "name": "Basum-Sussum", "country": "DE", "coord": {"lon": 7.81667, "lat": 52.566669}}, {"id": 2821348, "name": "Tremmen", "country": "DE", "coord": {"lon": 12.81813, "lat": 52.530529}}, {"id": 2945498, "name": "Bramfeld", "country": "DE", "coord": {"lon": 10.0725, "lat": 53.608608}}, {"id": 6555537, "name": "Zaberfeld", "country": "DE", "coord": {"lon": 8.92694, "lat": 49.056099}}, {"id": 2805361, "name": "Zaberfeld", "country": "DE", "coord": {"lon": 8.92694, "lat": 49.05611}},