[{"id": 1799908, "name": "Nanlong", "country": "CN", "coord": {"lon": 106.063087, "lat": 31.353331}}, {"id": 1799903, "name": "Nanlu", "country": "CN", "coord": {"lon": 119.871689, "lat": 30.640619}}, {"id": 1799904, "name": "Nanlu", "country": "CN", "coord": {"lon": 110.075447, "lat": 19.250111}}, {"id": 1799897, "name": "Nanma", "country": "CN", "coord": {"lon": 118.158333, "lat": 36.181671}}, {"id": 1799895, "name": "Nanmaizhu", "country": "CN", "coord": {"lon": 117.74472, "lat": 39.502499}}, {"id": 1799887, "name": "Nanmiao", "country": "CN", "coord": {"lon": 114.412758, "lat": 27.687929}}, {"id": 1799880, "name": "Nanmo", "country": "CN", "coord": {"lon": 120.27417, "lat": 32.59306}}, {"id": 1917455, "name": "Nanmu", "country": "CN", "coord": {"lon": 114.539169, "lat": 25.176109}}, {"id": 1928317, "name": "Nanmu", "country": "CN", "coord": {"lon": 110.909622, "lat": 28.880899}}, {"id": 7658344, "name": "Nanmu", "country": "CN", "coord": {"lon": 114.166283, "lat": 27.987801}}, {"id": 1799876, "name": "Nanmuping", "country": "CN", "coord": {"lon": 109.678612, "lat": 27.31111}}, {"id": 2155814, "name": "Nanneella", "country": "AU", "coord": {"lon": 144.783325, "lat": -36.316669}}, {"id": 7297178, "name": "Nannerch", "country": "GB", "coord": {"lon": -3.26675, "lat": 53.205219}}, {"id": 2641905, "name": "Nannerch", "country": "GB", "coord": {"lon": -3.25027, "lat": 53.21608}}, {"id": 3145014, "name": "Nannestad", "country": "NO", "coord": {"lon": 11.012, "lat": 60.217072}}, {"id": 6553935, "name": "Nannhausen", "country": "DE", "coord": {"lon": 7.48333, "lat": 49.966702}}, {"id": 2867104, "name": "Nannhausen", "country": "DE", "coord": {"lon": 7.48333, "lat": 49.966671}}, {"id": 1261906, "name": "Nannilam", "country": "IN", "coord": {"lon": 79.610619, "lat": 10.87933}}, {"id": 1799869, "name": "Nanning", "country": "CN", "coord": {"lon": 108.316673, "lat": 22.816669}}, {"id": 6534630, "name": "Nanno", "country": "IT", "coord": {"lon": 11.04747, "lat": 46.314812}}, {"id": 2065001, "name": "Nannup", "country": "AU", "coord": {"lon": 115.75, "lat": -33.98333}}, {"id": 7839618, "name": "Nannup", "country": "AU", "coord": {"lon": 115.673752, "lat": -34.134659}}, {"id": 3421765, "name": "Nanortalik", "country": "GL", "coord": {"lon": -45.237148, "lat": 60.143169}}, {"id": 672512, "name": "Nanov", "country": "RO", "coord": {"lon": 25.299999, "lat": 44}}, {"id": 1261901, "name": "Nanpara", "country": "IN", "coord": {"lon": 81.5, "lat": 27.866671}}, {"id": 2035644, "name": "Nanpiao", "country": "CN", "coord": {"lon": 120.747917, "lat": 41.098221}}, {"id": 1917962, "name": "Nanping", "country": "CN", "coord": {"lon": 117.47139, "lat": 24.653061}}, {"id": 1799846, "name": "Nanping", "country": "CN", "coord": {"lon": 118.173607, "lat": 26.645}}, {"id": 1799844, "name": "Nanping", "country": "CN", "coord": {"lon": 112.074127, "lat": 29.909479}}, {"id": 2035643, "name": "Nanping", "country": "CN", "coord": {"lon": 129.204437, "lat": 42.26292}}, {"id": 7408043, "name": "Nanping", "country": "CN", "coord": {"lon": 106.390228, "lat": 33.014992}}, {"id": 8134743, "name": "Nanpinggang", "country": "CN", "coord": {"lon": 111.685211, "lat": 29.06531}}, {"id": 1799824, "name": "Nanqiao", "country": "CN", "coord": {"lon": 110.125053, "lat": 18.668131}}, {"id": 7692215, "name": "Nanqiao", "country": "CN", "coord": {"lon": 114.071533, "lat": 28.73768}}, {"id": 1799812, "name": "Nanqiu", "country": "CN", "coord": {"lon": 106.723389, "lat": 36.899509}}, {"id": 1799809, "name": "Nanquan", "country": "CN", "coord": {"lon": 113.177193, "lat": 39.420422}}, {"id": 1799805, "name": "Nanrenfu", "country": "CN", "coord": {"lon": 117.191673, "lat": 39.646111}}, {"id": 6451507, "name": "Nans-les-Pins", "country": "FR", "coord": {"lon": 5.78333, "lat": 43.366669}}, {"id": 2990987, "name": "Nans-les-Pins", "country": "FR", "coord": {"lon": 5.7834, "lat": 43.37035}}, {"id": 1281269, "name": "Nansan", "country": "CN", "coord": {"lon": 98.80397, "lat": 23.79574}}, {"id": 1548424, "name": "Nansha", "country": "CN", "coord": {"lon": 120.219971, "lat": 32.17284}}, {"id": 1799795, "name": "Nansha", "country": "CN", "coord": {"lon": 102.833298, "lat": 23.18037}}, {"id": 1799781, "name": "Nanshan", "country": "CN", "coord": {"lon": 116.496101, "lat": 25.599051}}, {"id": 1799783, "name": "Nanshan", "country": "CN", "coord": {"lon": 118.324699, "lat": 26.61986}}, {"id": 7065390, "name": "Nanshan", "country": "CN", "coord": {"lon": 118.085411, "lat": 28.80344}}, {"id": 1928065, "name": "Nanshanping", "country": "CN", "coord": {"lon": 110.894112, "lat": 29.317459}}, {"id": 1799764, "name": "Nanshe", "country": "CN", "coord": {"lon": 109.111488, "lat": 34.773201}}, {"id": 1907842, "name": "Nansheng", "country": "CN", "coord": {"lon": 109.588097, "lat": 18.73945}}, {"id": 1799759, "name": "Nanshenzao", "country": "CN", "coord": {"lon": 120.533333, "lat": 32.783329}}, {"id": 1910240, "name": "Nanshi", "country": "CN", "coord": {"lon": 108.462379, "lat": 34.360401}}, {"id": 6421906, "name": "Nanshi", "country": "CN", "coord": {"lon": 112.158333, "lat": 25.50778}}, {"id": 7048397, "name": "Nanshi", "country": "CN", "coord": {"lon": 109.627777, "lat": 34.65097}}, {"id": 7071551, "name": "Nanshi", "country": "CN", "coord": {"lon": 120.229736, "lat": 29.14875}}, {"id": 151920, "name": "Nansio", "country": "TZ", "coord": {"lon": 33.049999, "lat": -2.13333}}, {"id": 7669790, "name": "Nant", "country": "CH", "coord": {"lon": 7.10707, "lat": 46.957989}}, {"id": 2035635, "name": "Nantai", "country": "CN", "coord": {"lon": 122.804367, "lat": 40.924099}}, {"id": 1925076, "name": "Nantai", "country": "CN", "coord": {"lon": 116.40419, "lat": 28.49152}}, {"id": 1799732, "name": "Nantang", "country": "CN", "coord": {"lon": 115.907158, "lat": 22.91374}}, {"id": 2064995, "name": "Nantawarra", "country": "AU", "coord": {"lon": 138.233337, "lat": -34.01667}}, {"id": 6451976, "name": "Nanterre", "country": "FR", "coord": {"lon": 2.20714, "lat": 48.891842}}, {"id": 2990970, "name": "Nanterre", "country": "FR", "coord": {"lon": 2.20675, "lat": 48.891979}}, {"id": 6434483, "name": "Nantes", "country": "FR", "coord": {"lon": -1.55, "lat": 47.216671}}, {"id": 2990969, "name": "Nantes", "country": "FR", "coord": {"lon": -1.55336, "lat": 47.217251}}, {"id": 6613509, "name": "Nanteuil", "country": "FR", "coord": {"lon": -0.16667, "lat": 46.416672}}, {"id": 2990965, "name": "Nanteuil", "country": "FR", "coord": {"lon": -0.17462, "lat": 46.41172}}, {"id": 2990961, "name": "Nanteuil-en-Vallee", "country": "FR", "coord": {"lon": 0.32206, "lat": 46.000889}}, {"id": 6427783, "name": "Nanteuil-en-Vall\u00e9e", "country": "FR", "coord": {"lon": 0.31667, "lat": 46}}, {"id": 6438856, "name": "Nanteuil-le-Haudouin", "country": "FR", "coord": {"lon": 2.8, "lat": 49.133331}}, {"id": 2990958, "name": "Nanteuil-le-Haudouin", "country": "FR", "coord": {"lon": 2.81142, "lat": 49.14082}}, {"id": 2990957, "name": "Nanteuil-les-Meaux", "country": "FR", "coord": {"lon": 2.89594, "lat": 48.929401}}, {"id": 6443770, "name": "Nanteuil-l\u00e8s-Meaux", "country": "FR", "coord": {"lon": 2.9, "lat": 48.933331}}, {"id": 2641899, "name": "Nantgaredig", "country": "GB", "coord": {"lon": -4.18943, "lat": 51.87104}}, {"id": 6445398, "name": "Nantiat", "country": "FR", "coord": {"lon": 1.18333, "lat": 46.01667}}, {"id": 2990949, "name": "Nantiat", "country": "FR", "coord": {"lon": 1.17308, "lat": 46.009102}}, {"id": 6085886, "name": "Nanticoke", "country": "CA", "coord": {"lon": -80.066353, "lat": 42.80011}}, {"id": 5202855, "name": "Nanticoke", "country": "US", "coord": {"lon": -76.004921, "lat": 41.20536}}, {"id": 2641896, "name": "Nantlle", "country": "GB", "coord": {"lon": -4.22513, "lat": 53.05674}}, {"id": 3172398, "name": "Nanto", "country": "IT", "coord": {"lon": 11.5776, "lat": 45.434292}}, {"id": 6694821, "name": "Nanto-shi", "country": "JP", "coord": {"lon": 136.911621, "lat": 36.569221}}, {"id": 6085892, "name": "Nanton", "country": "CA", "coord": {"lon": -113.768661, "lat": 50.350079}}, {"id": 1799722, "name": "Nantong", "country": "CN", "coord": {"lon": 120.874718, "lat": 32.030281}}, {"id": 1671564, "name": "Nantou", "country": "TW", "coord": {"lon": 120.92704, "lat": 23.83419}}, {"id": 1671566, "name": "Nantou", "country": "TW", "coord": {"lon": 120.663872, "lat": 23.915661}}, {"id": 6424605, "name": "Nantua", "country": "FR", "coord": {"lon": 5.61667, "lat": 46.150002}}, {"id": 2990932, "name": "Nantua", "country": "FR", "coord": {"lon": 5.61667, "lat": 46.150002}}, {"id": 4944903, "name": "Nantucket", "country": "US", "coord": {"lon": -70.099457, "lat": 41.283459}}, {"id": 2867099, "name": "Nantwein", "country": "DE", "coord": {"lon": 11.43497, "lat": 47.91433}}, {"id": 2641892, "name": "Nantwich", "country": "GB", "coord": {"lon": -2.52051, "lat": 53.068779}}, {"id": 5202860, "name": "Nanty Glo", "country": "US", "coord": {"lon": -78.833359, "lat": 40.47229}}, {"id": 5128266, "name": "Nanuet", "country": "US", "coord": {"lon": -74.013474, "lat": 41.088711}}, {"id": 1855623, "name": "Nanukaichi", "country": "JP", "coord": {"lon": 133.466675, "lat": 34.599998}}, {"id": 3456398, "name": "Nanuque", "country": "BR", "coord": {"lon": -40.353889, "lat": -17.83917}}, {"id": 6962594, "name": "Nanwai", "country": "CN", "coord": {"lon": 107.503632, "lat": 31.204741}}, {"id": 1919753, "name": "Nanwan", "country": "CN", "coord": {"lon": 115.514633, "lat": 23.35755}}, {"id": 1799697, "name": "Nanwanling", "country": "CN", "coord": {"lon": 107.146912, "lat": 34.81707}}, {"id": 1910241, "name": "Nanwei", "country": "CN", "coord": {"lon": 108.542221, "lat": 34.357498}}, {"id": 1799686, "name": "Nanxi", "country": "CN", "coord": {"lon": 104.979584, "lat": 28.842091}}, {"id": 1919692, "name": "Nanxi", "country": "CN", "coord": {"lon": 116.24234, "lat": 23.5044}}, {"id": 1922346, "name": "Nanxia", "country": "CN", "coord": {"lon": 117.874519, "lat": 26.28084}}, {"id": 1799674, "name": "Nanxiang", "country": "CN", "coord": {"lon": 121.311798, "lat": 31.299789}}, {"id": 1799664, "name": "Nanxindian", "country": "CN", "coord": {"lon": 111.359222, "lat": 35.969551}}, {"id": 1799658, "name": "Nanxing", "country": "CN", "coord": {"lon": 106.670967, "lat": 33.768478}}, {"id": 7328930, "name": "Nanxinxiang", "country": "CN", "coord": {"lon": 116.0634, "lat": 28.80069}}, {"id": 1799642, "name": "Nanxun", "country": "CN", "coord": {"lon": 120.419937, "lat": 30.86902}}, {"id": 1799640, "name": "Nanya", "country": "CN", "coord": {"lon": 118.307472, "lat": 26.876249}}, {"id": 877581, "name": "Nanyamba", "country": "TZ", "coord": {"lon": 39.833328, "lat": -10.68333}}, {"id": 7064531, "name": "Nanyan", "country": "CN", "coord": {"lon": 117.447777, "lat": 28.399389}}, {"id": 1799629, "name": "Nanyang", "country": "CN", "coord": {"lon": 112.532784, "lat": 32.99472}}, {"id": 1799622, "name": "Nanyang", "country": "CN", "coord": {"lon": 121.708893, "lat": 31.87389}}, {"id": 1921728, "name": "Nanyang", "country": "CN", "coord": {"lon": 116.952522, "lat": 25.026541}}, {"id": 6824641, "name": "Nanyang", "country": "CN", "coord": {"lon": 103.134468, "lat": 24.8479}}, {"id": 7326338, "name": "Nanyang", "country": "CN", "coord": {"lon": 104.643272, "lat": 33.95705}}, {"id": 7367819, "name": "Nanyang", "country": "CN", "coord": {"lon": 107.930313, "lat": 34.487579}}, {"id": 7643656, "name": "Nanyang", "country": "CN", "coord": {"lon": 115.51564, "lat": 29.73485}}, {"id": 7735170, "name": "Nanyang", "country": "CN", "coord": {"lon": 120.442574, "lat": 30.26268}}, {"id": 7746699, "name": "Nanyi", "country": "CN", "coord": {"lon": 115.326042, "lat": 29.44816}}, {"id": 1698225, "name": "Nanyo", "country": "PH", "coord": {"lon": 125.637779, "lat": 7.33306}}, {"id": 7330664, "name": "Nanyu", "country": "CN", "coord": {"lon": 104.4133, "lat": 33.71838}}, {"id": 1799591, "name": "Nanyuan", "country": "CN", "coord": {"lon": 116.407883, "lat": 27.488489}}, {"id": 1928889, "name": "Nanyuemiao", "country": "CN", "coord": {"lon": 110.826942, "lat": 27.126671}}, {"id": 184433, "name": "Nanyuki", "country": "KE", "coord": {"lon": 37.07283, "lat": 0.01667}}, {"id": 7521060, "name": "Nanyulin", "country": "CN", "coord": {"lon": 113.565887, "lat": 39.741192}}, {"id": 1799581, "name": "Nanyulinxi", "country": "CN", "coord": {"lon": 112.681419, "lat": 39.20892}}, {"id": 2035622, "name": "Nanzamu", "country": "CN", "coord": {"lon": 124.411011, "lat": 41.969269}}, {"id": 6555125, "name": "Nanzdietschweiler", "country": "DE", "coord": {"lon": 7.45, "lat": 49.450001}}, {"id": 2867098, "name": "Nanzdietschweiler", "country": "DE", "coord": {"lon": 7.45, "lat": 49.450001}}, {"id": 1799578, "name": "Nanzha", "country": "CN", "coord": {"lon": 120.237511, "lat": 31.857691}}, {"id": 7367849, "name": "Nanzhai", "country": "CN", "coord": {"lon": 107.17366, "lat": 34.657139}}, {"id": 1799574, "name": "Nanzhang Chengguanzhen", "country": "CN", "coord": {"lon": 111.827522, "lat": 31.783939}}, {"id": 1799566, "name": "Nanzhao", "country": "CN", "coord": {"lon": 117.171158, "lat": 23.719879}}, {"id": 6644098, "name": "Nanzhao", "country": "CN", "coord": {"lon": 100.303436, "lat": 25.222219}}, {"id": 1799565, "name": "Nanzhao Chengguanzhen", "country": "CN", "coord": {"lon": 112.427231, "lat": 33.492489}}, {"id": 1941133, "name": "Nanzhen", "country": "CN", "coord": {"lon": 110.548477, "lat": 29.87188}}, {"id": 7628535, "name": "Nanzheng Chengguanzhen", "country": "CN", "coord": {"lon": 106.934662, "lat": 33.00452}}, {"id": 7367812, "name": "Nanzhihui", "country": "CN", "coord": {"lon": 107.355888, "lat": 34.470798}}, {"id": 1799552, "name": "Nanzhou", "country": "CN", "coord": {"lon": 112.402428, "lat": 29.35955}}, {"id": 7517930, "name": "Nanzhuang", "country": "CN", "coord": {"lon": 107.981712, "lat": 36.068508}}, {"id": 2867094, "name": "Nanzweiler", "country": "DE", "coord": {"lon": 7.43333, "lat": 49.450001}}, {"id": 3456397, "name": "Nao Me Toque", "country": "BR", "coord": {"lon": -52.820831, "lat": -28.459169}}, {"id": 1799535, "name": "Naodian", "country": "CN", "coord": {"lon": 113.211021, "lat": 33.854401}}, {"id": 3522836, "name": "Naolinco de Victoria", "country": "MX", "coord": {"lon": -96.849998, "lat": 19.65}}, {"id": 6444644, "name": "Naours", "country": "FR", "coord": {"lon": 2.28333, "lat": 50.033329}}, {"id": 2990926, "name": "Naours", "country": "FR", "coord": {"lon": 2.27691, "lat": 50.036819}}, {"id": 735030, "name": "Naousa", "country": "GR", "coord": {"lon": 22.06806, "lat": 40.62944}}, {"id": 256653, "name": "Naousa", "country": "GR", "coord": {"lon": 25.23333, "lat": 37.116669}}, {"id": 2035617, "name": "Naozhi", "country": "CN", "coord": {"lon": 127.024338, "lat": 41.926182}}, {"id": 5376095, "name": "Napa", "country": "US", "coord": {"lon": -122.28553, "lat": 38.297138}}, {"id": 5376101, "name": "Napa County", "country": "US", "coord": {"lon": -122.334419, "lat": 38.483238}}, {"id": 5869635, "name": "Napaimute (historical)", "country": "US", "coord": {"lon": -154.866669, "lat": 59.433331}}, {"id": 3070045, "name": "Napajedla", "country": "CZ", "coord": {"lon": 17.51194, "lat": 49.171558}}, {"id": 8051537, "name": "Napak", "country": "UG", "coord": {"lon": 34.250118, "lat": 2.25139}}, {"id": 8030561, "name": "Napak District", "country": "UG", "coord": {"lon": 34.168339, "lat": 2.38153}}, {"id": 3430486, "name": "Napaleof\u00fa", "country": "AR", "coord": {"lon": -58.743649, "lat": -37.62468}}, {"id": 1698208, "name": "Napalitan", "country": "PH", "coord": {"lon": 124.802223, "lat": 8.77528}}, {"id": 624812, "name": "Napalki", "country": "BY", "coord": {"lon": 28.1222, "lat": 54.100861}}, {"id": 7870927, "name": "Napanee Downtown", "country": "CA", "coord": {"lon": -76.950691, "lat": 44.248322}}, {"id": 5128267, "name": "Napanoch", "country": "US", "coord": {"lon": -74.371536, "lat": 41.74398}}, {"id": 1261882, "name": "Napasar", "country": "IN", "coord": {"lon": 73.550003, "lat": 27.966669}}, {"id": 5869649, "name": "Napaskiak", "country": "US", "coord": {"lon": -161.766113, "lat": 60.708061}}, {"id": 5804467, "name": "Napavine", "country": "US", "coord": {"lon": -122.90818, "lat": 46.574551}}, {"id": 7037068, "name": "Napel", "country": "ID", "coord": {"lon": 112.709999, "lat": -8.1088}}, {"id": 3843436, "name": "Napenay", "country": "AR", "coord": {"lon": -60.616669, "lat": -26.73333}}, {"id": 4903279, "name": "Naperville", "country": "US", "coord": {"lon": -88.147293, "lat": 41.785858}}, {"id": 2186313, "name": "Napier", "country": "NZ", "coord": {"lon": 176.916672, "lat": -39.48333}}, {"id": 2064984, "name": "Napier", "country": "AU", "coord": {"lon": 118, "lat": -34.833328}}, {"id": 7910054, "name": "Napier City", "country": "NZ", "coord": {"lon": 176.868866, "lat": -39.479328}}, {"id": 4079080, "name": "Napier Field", "country": "US", "coord": {"lon": -85.454102, "lat": 31.315451}}, {"id": 6085960, "name": "Napierville", "country": "CA", "coord": {"lon": -73.404678, "lat": 45.186481}}, {"id": 7262771, "name": "Napili-Honokowai", "country": "US", "coord": {"lon": -156.670456, "lat": 20.970751}}, {"id": 6085962, "name": "Napinka", "country": "CA", "coord": {"lon": -100.841988, "lat": 49.322498}}, {"id": 717042, "name": "Napkor", "country": "HU", "coord": {"lon": 21.86763, "lat": 47.937969}}, {"id": 4165565, "name": "Naples", "country": "US", "coord": {"lon": -81.794807, "lat": 26.14204}}, {"id": 4713782, "name": "Naples", "country": "US", "coord": {"lon": -94.680206, "lat": 33.203178}}, {"id": 5128276, "name": "Naples", "country": "US", "coord": {"lon": -77.402489, "lat": 42.615349}}, {"id": 5778807, "name": "Naples", "country": "US", "coord": {"lon": -109.499298, "lat": 40.42691}}, {"id": 4165574, "name": "Naples Manor", "country": "US", "coord": {"lon": -81.726196, "lat": 26.088699}}, {"id": 4165576, "name": "Naples Park", "country": "US", "coord": {"lon": -81.80925, "lat": 26.261749}}, {"id": 1698177, "name": "Napnapan", "country": "PH", "coord": {"lon": 122.392998, "lat": 10.70845}}, {"id": 1799529, "name": "Napo Chengxiangzhen", "country": "CN", "coord": {"lon": 105.791573, "lat": 23.479441}}, {"id": 5003224, "name": "Napoleon", "country": "US", "coord": {"lon": -84.246063, "lat": 42.160591}}, {"id": 5060572, "name": "Napoleon", "country": "US", "coord": {"lon": -99.771217, "lat": 46.508308}}, {"id": 5164057, "name": "Napoleon", "country": "US", "coord": {"lon": -84.125221, "lat": 41.392269}}, {"id": 2155802, "name": "Napoleons", "country": "AU", "coord": {"lon": 143.833328, "lat": -37.666672}}, {"id": 4334696, "name": "Napoleonville", "country": "US", "coord": {"lon": -91.024818, "lat": 29.940479}}, {"id": 1698160, "name": "Napoles", "country": "PH", "coord": {"lon": 122.899719, "lat": 10.50417}}, {"id": 3172394, "name": "Napoli", "country": "IT", "coord": {"lon": 14.25, "lat": 40.833328}}, {"id": 3172395, "name": "Napoli", "country": "IT", "coord": {"lon": 14.25, "lat": 40.833328}}, {"id": 4924077, "name": "Nappanee", "country": "US", "coord": {"lon": -86.001389, "lat": 41.442829}}, {"id": 2064970, "name": "Napperby", "country": "AU", "coord": {"lon": 138.116669, "lat": -33.166672}}, {"id": 672507, "name": "Napradea", "country": "RO", "coord": {"lon": 23.316669, "lat": 47.366669}}, {"id": 3091135, "name": "Naprawa", "country": "PL", "coord": {"lon": 19.87916, "lat": 49.646568}}, {"id": 1634352, "name": "Napu", "country": "ID", "coord": {"lon": 119.926361, "lat": -9.39627}}, {"id": 1280477, "name": "Napug", "country": "CN", "coord": {"lon": 81.083328, "lat": 32.416672}}, {"id": 1698135, "name": "Napuro", "country": "PH", "coord": {"lon": 124.708199, "lat": 12.0273}}, {"id": 523476, "name": "Naputnovo", "country": "RU", "coord": {"lon": 39.700001, "lat": 55.900002}}, {"id": 122698, "name": "Naqadeh", "country": "IR", "coord": {"lon": 45.388, "lat": 36.955299}}, {"id": 3456395, "name": "Naque", "country": "BR", "coord": {"lon": -42.328331, "lat": -19.23028}}, {"id": 2513375, "name": "Naquera", "country": "ES", "coord": {"lon": -0.41667, "lat": 39.650002}}, {"id": 1855608, "name": "Nara-ken", "country": "JP", "coord": {"lon": 135.832886, "lat": 34.685249}}, {"id": 1855612, "name": "Nara-shi", "country": "JP", "coord": {"lon": 135.804855, "lat": 34.685051}}, {"id": 624804, "name": "Narach", "country": "BY", "coord": {"lon": 26.70697, "lat": 54.908321}}, {"id": 624805, "name": "Narach", "country": "BY", "coord": {"lon": 26.73247, "lat": 54.562248}}, {"id": 2155796, "name": "Naracoorte", "country": "AU", "coord": {"lon": 140.738297, "lat": -36.957851}}, {"id": 7839443, "name": "Naracoorte and Lucindale", "country": "AU", "coord": {"lon": 140.527908, "lat": -36.995419}}, {"id": 2155792, "name": "Naradhan", "country": "AU", "coord": {"lon": 146.333328, "lat": -33.616669}}, {"id": 1185293, "name": "Narail", "country": "BD", "coord": {"lon": 89.5, "lat": 23.16667}}, {"id": 1261872, "name": "Naraina", "country": "IN", "coord": {"lon": 75.199997, "lat": 26.783331}}, {"id": 1261871, "name": "Naraini", "country": "IN", "coord": {"lon": 80.48333, "lat": 25.183331}}, {"id": 2028905, "name": "Naran-mandokhu Somon", "country": "MN", "coord": {"lon": 108.25, "lat": 44.400002}}, {"id": 1515498, "name": "Naranbulag", "country": "MN", "coord": {"lon": 92.566673, "lat": 49.366669}}, {"id": 2029886, "name": "Naranbulag", "country": "MN", "coord": {"lon": 113.374268, "lat": 49.243599}}, {"id": 1132344, "name": "Narang", "country": "AF", "coord": {"lon": 71.047379, "lat": 34.76009}}, {"id": 1169334, "name": "Narang", "country": "PK", "coord": {"lon": 74.517563, "lat": 31.9132}}, {"id": 7414222, "name": "Narang", "country": "ID", "coord": {"lon": 120.369003, "lat": -8.7767}}, {"id": 2155787, "name": "Narangba", "country": "AU", "coord": {"lon": 152.966675, "lat": -27.200001}}, {"id": 4165580, "name": "Naranja", "country": "US", "coord": {"lon": -80.422829, "lat": 25.51816}}, {"id": 3653882, "name": "Naranjal", "country": "EC", "coord": {"lon": -79.616669, "lat": -2.66667}}, {"id": 3437689, "name": "Naranjal", "country": "PY", "coord": {"lon": -55.183331, "lat": -25.966669}}, {"id": 3934385, "name": "Naranjal", "country": "PE", "coord": {"lon": -77.062218, "lat": -11.97278}}, {"id": 3653873, "name": "Naranjito", "country": "EC", "coord": {"lon": -79.48333, "lat": -2.21667}}, {"id": 4566402, "name": "Naranjito", "country": "PR", "coord": {"lon": -66.244888, "lat": 18.300791}}, {"id": 3604478, "name": "Naranjito", "country": "HN", "coord": {"lon": -88.683327, "lat": 14.95}}, {"id": 4566403, "name": "Naranjito Municipio", "country": "PR", "coord": {"lon": -66.255173, "lat": 18.28968}}, {"id": 3495964, "name": "Naranjo", "country": "DO", "coord": {"lon": -69.848473, "lat": 18.82176}}, {"id": 3622751, "name": "Naranjo", "country": "CR", "coord": {"lon": -84.378242, "lat": 10.09866}}, {"id": 3522804, "name": "Naranjos", "country": "MX", "coord": {"lon": -97.683327, "lat": 21.35}}, {"id": 3437690, "name": "Naranj\u00e1l", "country": "PY", "coord": {"lon": -57.566669, "lat": -25.1}}, {"id": 2155783, "name": "Narara", "country": "AU", "coord": {"lon": 151.350006, "lat": -33.400002}}, {"id": 1261853, "name": "Narasannapeta", "country": "IN", "coord": {"lon": 84.050003, "lat": 18.41667}}, {"id": 1261852, "name": "Narasapur", "country": "IN", "coord": {"lon": 81.666672, "lat": 16.450001}}, {"id": 1261848, "name": "Narasaraopet", "country": "IN", "coord": {"lon": 80.066673, "lat": 16.25}}, {"id": 2111687, "name": "Narashino", "country": "JP", "coord": {"lon": 140.033325, "lat": 35.683331}}, {"id": 1261847, "name": "Narasimharajapura", "country": "IN", "coord": {"lon": 75.51667, "lat": 13.61667}}, {"id": 1261844, "name": "Narasingapuram", "country": "IN", "coord": {"lon": 79.333328, "lat": 13.61667}}, {"id": 1608409, "name": "Narathiwat", "country": "TH", "coord": {"lon": 101.823082, "lat": 6.42639}}, {"id": 1261839, "name": "Narauli", "country": "IN", "coord": {"lon": 78.716667, "lat": 28.5}}, {"id": 1261837, "name": "Naraura", "country": "IN", "coord": {"lon": 78.383331, "lat": 28.200001}}, {"id": 1261835, "name": "Naravarikuppam", "country": "IN", "coord": {"lon": 80.174171, "lat": 13.19556}}, {"id": 1132336, "name": "Naray", "country": "AF", "coord": {"lon": 71.522499, "lat": 35.221001}}, {"id": 1261832, "name": "Narayanavanam", "country": "IN", "coord": {"lon": 79.583328, "lat": 13.41667}}, {"id": 1185155, "name": "Narayanganj", "country": "BD", "coord": {"lon": 90.501106, "lat": 23.623329}}, {"id": 1261828, "name": "Narayangarh", "country": "IN", "coord": {"lon": 77.133331, "lat": 30.48333}}, {"id": 1261829, "name": "Narayangarh", "country": "IN", "coord": {"lon": 75.050003, "lat": 24.283331}}, {"id": 1261823, "name": "Narayanpet", "country": "IN", "coord": {"lon": 77.5, "lat": 16.73333}}, {"id": 3115754, "name": "Narayola", "country": "ES", "coord": {"lon": -6.69449, "lat": 42.57793}}, {"id": 2641885, "name": "Narberth", "country": "GB", "coord": {"lon": -4.74275, "lat": 51.79784}}, {"id": 5202869, "name": "Narberth", "country": "US", "coord": {"lon": -75.26046, "lat": 40.00845}}, {"id": 3172380, "name": "Narbolia", "country": "IT", "coord": {"lon": 8.57752, "lat": 40.05035}}, {"id": 6357481, "name": "Narboneta", "country": "ES", "coord": {"lon": -1.48528, "lat": 39.756409}}, {"id": 2513372, "name": "Narboneta", "country": "ES", "coord": {"lon": -1.46667, "lat": 39.75}}, {"id": 6453642, "name": "Narbonne", "country": "FR", "coord": {"lon": 3, "lat": 43.183331}}, {"id": 2990919, "name": "Narbonne", "country": "FR", "coord": {"lon": 3, "lat": 43.183331}}, {"id": 2641884, "name": "Narborough", "country": "GB", "coord": {"lon": -1.2, "lat": 52.566669}}, {"id": 2524024, "name": "Narcao", "country": "IT", "coord": {"lon": 8.675, "lat": 39.1675}}, {"id": 6440531, "name": "Narcastet", "country": "FR", "coord": {"lon": -0.31667, "lat": 43.25}}, {"id": 2990916, "name": "Narcastet", "country": "FR", "coord": {"lon": -0.31667, "lat": 43.25}}, {"id": 3115752, "name": "Narciandi", "country": "ES", "coord": {"lon": -5.09903, "lat": 43.348339}}, {"id": 6085991, "name": "Narcisse", "country": "CA", "coord": {"lon": -97.53038, "lat": 50.683311}}, {"id": 3115751, "name": "Narcu\u00e9", "country": "ES", "coord": {"lon": -2.25744, "lat": 42.724831}}, {"id": 585388, "name": "Nardaran", "country": "AZ", "coord": {"lon": 50.005562, "lat": 40.55611}}, {"id": 3172379, "name": "Nardo", "country": "IT", "coord": {"lon": 18.02972, "lat": 40.175121}}, {"id": 2524023, "name": "Nardodipace", "country": "IT", "coord": {"lon": 16.342501, "lat": 38.472279}}, {"id": 2867080, "name": "Nardt", "country": "DE", "coord": {"lon": 14.2, "lat": 51.450001}}, {"id": 6539839, "name": "Nard\u00f2", "country": "IT", "coord": {"lon": 18.02972, "lat": 40.175121}}, {"id": 2155774, "name": "Nareen", "country": "AU", "coord": {"lon": 141.566666, "lat": -37.383331}}, {"id": 1261810, "name": "Naregal", "country": "IN", "coord": {"lon": 75.816673, "lat": 15.58333}}, {"id": 2155772, "name": "Narellan", "country": "AU", "coord": {"lon": 150.733337, "lat": -34.033329}}, {"id": 1261806, "name": "Narendranagar", "country": "IN", "coord": {"lon": 78.300003, "lat": 30.16667}}, {"id": 764125, "name": "Narew", "country": "PL", "coord": {"lon": 23.51984, "lat": 52.914181}}, {"id": 3703946, "name": "Nargana", "country": "PA", "coord": {"lon": -78.590561, "lat": 9.44278}}, {"id": 6434666, "name": "Nargis", "country": "FR", "coord": {"lon": 2.7575, "lat": 48.111301}}, {"id": 2990912, "name": "Nargis", "country": "FR", "coord": {"lon": 2.75597, "lat": 48.111061}}, {"id": 1261800, "name": "Nargund", "country": "IN", "coord": {"lon": 75.383331, "lat": 15.71667}}, {"id": 523443, "name": "Narimanov", "country": "RU", "coord": {"lon": 47.8498, "lat": 46.692699}}, {"id": 2155762, "name": "Naringal", "country": "AU", "coord": {"lon": 142.699997, "lat": -38.400002}}, {"id": 1634338, "name": "Naringgul", "country": "ID", "coord": {"lon": 107.328201, "lat": -7.3344}}, {"id": 3674027, "name": "Narino", "country": "CO", "coord": {"lon": -75.176559, "lat": 5.60893}}, {"id": 3674029, "name": "Narino", "country": "CO", "coord": {"lon": -74.827309, "lat": 4.39781}}, {"id": 3674031, "name": "Narino", "country": "CO", "coord": {"lon": -77.360497, "lat": 1.29546}}, {"id": 4828388, "name": "Narita", "country": "US", "coord": {"lon": -89.218979, "lat": 39.983101}}, {"id": 2111684, "name": "Narita", "country": "JP", "coord": {"lon": 140.316666, "lat": 35.783329}}, {"id": 829788, "name": "Narkevychi", "country": "UA", "coord": {"lon": 26.641781, "lat": 49.51717}}, {"id": 741335, "name": "Narlica", "country": "TR", "coord": {"lon": 29.48111, "lat": 40.38583}}, {"id": 1634336, "name": "Narmada", "country": "ID", "coord": {"lon": 116.202003, "lat": -8.5912}}, {"id": 741330, "name": "Narman", "country": "TR", "coord": {"lon": 41.87027, "lat": 40.346531}}, {"id": 1261772, "name": "Narnaul", "country": "IN", "coord": {"lon": 76.10833, "lat": 28.044439}}, {"id": 1261771, "name": "Narnaund", "country": "IN", "coord": {"lon": 76.150002, "lat": 29.216669}}, {"id": 3172377, "name": "Narni", "country": "IT", "coord": {"lon": 12.52307, "lat": 42.517132}}, {"id": 6539972, "name": "Narni", "country": "IT", "coord": {"lon": 12.52307, "lat": 42.517132}}, {"id": 6540842, "name": "Naro", "country": "IT", "coord": {"lon": 13.79356, "lat": 37.293541}}, {"id": 2524022, "name": "Naro", "country": "IT", "coord": {"lon": 13.79356, "lat": 37.293541}}, {"id": 1698108, "name": "Naro", "country": "PH", "coord": {"lon": 123.67392, "lat": 11.89697}}, {"id": 184367, "name": "Naro Moru", "country": "KE", "coord": {"lon": 37.02129, "lat": -0.16756}}, {"id": 523426, "name": "Naro-Fominsk", "country": "RU", "coord": {"lon": 36.73307, "lat": 55.38752}}, {"id": 1261768, "name": "Naroda", "country": "IN", "coord": {"lon": 72.666672, "lat": 23.08333}}, {"id": 700446, "name": "Narodychi", "country": "UA", "coord": {"lon": 29.082279, "lat": 51.202862}}, {"id": 184379, "name": "Narok", "country": "KE", "coord": {"lon": 35.860119, "lat": -1.07829}}, {"id": 764117, "name": "Narol", "country": "PL", "coord": {"lon": 23.32679, "lat": 50.349251}}, {"id": 3115739, "name": "Naron", "country": "ES", "coord": {"lon": -8.15278, "lat": 43.51667}}, {"id": 2155750, "name": "Narooma", "country": "AU", "coord": {"lon": 150.050003, "lat": -36.216671}}, {"id": 523415, "name": "Narovchat", "country": "RU", "coord": {"lon": 43.69458, "lat": 53.876541}}, {"id": 1169278, "name": "Narowal", "country": "PK", "coord": {"lon": 74.883331, "lat": 32.099998}}, {"id": 624799, "name": "Narowlya", "country": "BY", "coord": {"lon": 29.500401, "lat": 51.796101}}, {"id": 1698104, "name": "Narra", "country": "PH", "coord": {"lon": 118.400002, "lat": 9.31667}}, {"id": 1698103, "name": "Narra", "country": "PH", "coord": {"lon": 118.404297, "lat": 9.26877}}, {"id": 2155745, "name": "Narrabeen", "country": "AU", "coord": {"lon": 151.297363, "lat": -33.712769}}, {"id": 7839755, "name": "Narrabri", "country": "AU", "coord": {"lon": 149.602417, "lat": -30.327789}}, {"id": 2155742, "name": "Narrabri", "country": "AU", "coord": {"lon": 149.783325, "lat": -30.316669}}, {"id": 2155739, "name": "Narraburra", "country": "AU", "coord": {"lon": 147.649994, "lat": -34.333328}}, {"id": 2155737, "name": "Narracan", "country": "AU", "coord": {"lon": 146.233337, "lat": -38.25}}, {"id": 5223525, "name": "Narragansett Pier", "country": "US", "coord": {"lon": -71.456444, "lat": 41.43232}}, {"id": 2962311, "name": "Narraghmore", "country": "IE", "coord": {"lon": -6.83444, "lat": 53.047501}}, {"id": 7839756, "name": "Narrandera", "country": "AU", "coord": {"lon": 146.531967, "lat": -34.591068}}, {"id": 2155731, "name": "Narrandera", "country": "AU", "coord": {"lon": 146.550003, "lat": -34.75}}, {"id": 3363754, "name": "Narraville", "country": "NA", "coord": {"lon": 14.53722, "lat": -22.95167}}, {"id": 2155720, "name": "Narrawong", "country": "AU", "coord": {"lon": 141.716675, "lat": -38.25}}, {"id": 2155718, "name": "Narre Warren", "country": "AU", "coord": {"lon": 145.300003, "lat": -38.033329}}, {"id": 2155717, "name": "Narre Warren North", "country": "AU", "coord": {"lon": 145.316666, "lat": -37.98333}}, {"id": 2064919, "name": "Narrikup", "country": "AU", "coord": {"lon": 117.73333, "lat": -34.76667}}, {"id": 3115738, "name": "Narrillos del Alamo", "country": "ES", "coord": {"lon": -5.46584, "lat": 40.56673}}, {"id": 6355747, "name": "Narrillos del Rebollar", "country": "ES", "coord": {"lon": -4.9598, "lat": 40.680161}}, {"id": 3115737, "name": "Narrillos del Rebollar", "country": "ES", "coord": {"lon": -4.96577, "lat": 40.664879}}, {"id": 6355746, "name": "Narrillos del \u00c1lamo", "country": "ES", "coord": {"lon": -5.46841, "lat": 40.576199}}, {"id": 7839620, "name": "Narrogin", "country": "AU", "coord": {"lon": 117.171669, "lat": -32.937561}}, {"id": 2064915, "name": "Narrogin", "country": "AU", "coord": {"lon": 117.166672, "lat": -32.933331}}, {"id": 7839621, "name": "Narrogin", "country": "AU", "coord": {"lon": 117.263657, "lat": -32.99696}}, {"id": 7839757, "name": "Narromine", "country": "AU", "coord": {"lon": 147.975906, "lat": -32.231739}}, {"id": 2155710, "name": "Narromine", "country": "AU", "coord": {"lon": 148.25, "lat": -32.150002}}, {"id": 6361169, "name": "Narros", "country": "ES", "coord": {"lon": -2.27753, "lat": 41.852951}}, {"id": 3115735, "name": "Narros", "country": "ES", "coord": {"lon": -2.29474, "lat": 41.849232}}, {"id": 3115734, "name": "Narros de Cu\u00e9llar", "country": "ES", "coord": {"lon": -4.40786, "lat": 41.300331}}, {"id": 6360452, "name": "Narros de Matalayegua", "country": "ES", "coord": {"lon": -5.89345, "lat": 40.702209}}, {"id": 3115731, "name": "Narros de Matalayegua", "country": "ES", "coord": {"lon": -5.92658, "lat": 40.698799}}, {"id": 3115730, "name": "Narros de Salduena", "country": "ES", "coord": {"lon": -4.86908, "lat": 40.872681}}, {"id": 6355750, "name": "Narros de Saldue\u00f1a", "country": "ES", "coord": {"lon": -4.86452, "lat": 40.874908}}, {"id": 6355748, "name": "Narros del Castillo", "country": "ES", "coord": {"lon": -5.04852, "lat": 40.852161}}, {"id": 3115733, "name": "Narros del Castillo", "country": "ES", "coord": {"lon": -5.0601, "lat": 40.858688}}, {"id": 6355749, "name": "Narros del Puerto", "country": "ES", "coord": {"lon": -4.99212, "lat": 40.540119}}, {"id": 3115732, "name": "Narros del Puerto", "country": "ES", "coord": {"lon": -4.99292, "lat": 40.541309}}, {"id": 6433905, "name": "Narrosse", "country": "FR", "coord": {"lon": -1, "lat": 43.700001}}, {"id": 2990908, "name": "Narrosse", "country": "FR", "coord": {"lon": -1.00742, "lat": 43.703812}}, {"id": 4775438, "name": "Narrows", "country": "US", "coord": {"lon": -80.811188, "lat": 37.331509}}, {"id": 4775439, "name": "Narrows", "country": "US", "coord": {"lon": -79.958931, "lat": 37.205421}}, {"id": 3421719, "name": "Narsaq", "country": "GL", "coord": {"lon": -46.049999, "lat": 60.916672}}, {"id": 3421711, "name": "Narsarsuaq", "country": "GL", "coord": {"lon": -45.416672, "lat": 61.166672}}, {"id": 6548766, "name": "Narsdorf", "country": "DE", "coord": {"lon": 12.7167, "lat": 51.016701}}, {"id": 2867066, "name": "Narsdorf", "country": "DE", "coord": {"lon": 12.71667, "lat": 51.01667}}, {"id": 1261754, "name": "Narsimhapur", "country": "IN", "coord": {"lon": 79.199997, "lat": 22.950001}}, {"id": 1185117, "name": "Narsingdi", "country": "BD", "coord": {"lon": 90.718063, "lat": 23.92083}}, {"id": 1261752, "name": "Narsinghgarh", "country": "IN", "coord": {"lon": 77.099998, "lat": 23.700001}}, {"id": 1261750, "name": "Narsingi", "country": "IN", "coord": {"lon": 78.433327, "lat": 18.033331}}, {"id": 1261748, "name": "Narsipatnam", "country": "IN", "coord": {"lon": 82.616669, "lat": 17.66667}}, {"id": 2029840, "name": "Nart", "country": "MN", "coord": {"lon": 105.388329, "lat": 49.145}}, {"id": 523408, "name": "Nartan", "country": "RU", "coord": {"lon": 43.69944, "lat": 43.51083}}, {"id": 523405, "name": "Nartkala", "country": "RU", "coord": {"lon": 43.85083, "lat": 43.557499}}, {"id": 2867063, "name": "Nartum", "country": "DE", "coord": {"lon": 9.25, "lat": 53.200001}}, {"id": 7381990, "name": "Naru", "country": "ID", "coord": {"lon": 118.992897, "lat": -8.572}}, {"id": 7570762, "name": "Naru", "country": "ID", "coord": {"lon": 120.986298, "lat": -8.7645}}, {"id": 824385, "name": "Naruja", "country": "GE", "coord": {"lon": 41.95417, "lat": 41.90694}}, {"id": 672502, "name": "Naruja", "country": "RO", "coord": {"lon": 26.783331, "lat": 45.833328}}, {"id": 8068762, "name": "Narukan", "country": "ID", "coord": {"lon": 111.582603, "lat": -6.6943}}, {"id": 1855585, "name": "Narusawa", "country": "JP", "coord": {"lon": 138.733337, "lat": 35.75}}, {"id": 764107, "name": "Naruszewo", "country": "PL", "coord": {"lon": 20.35157, "lat": 52.526871}}, {"id": 2111677, "name": "Naruto", "country": "JP", "coord": {"lon": 140.416672, "lat": 35.599998}}, {"id": 1855580, "name": "Naruto", "country": "JP", "coord": {"lon": 134.616669, "lat": 34.183331}}, {"id": 590031, "name": "Narva", "country": "EE", "coord": {"lon": 28.190281, "lat": 59.37722}}, {"id": 862990, "name": "Narva linn", "country": "EE", "coord": {"lon": 28.11022, "lat": 59.369549}}, {"id": 590030, "name": "Narva-Joesuu", "country": "EE", "coord": {"lon": 28.040831, "lat": 59.458889}}, {"id": 7522358, "name": "Narva-J\u00f5esuu linn", "country": "EE", "coord": {"lon": 28.02142, "lat": 59.441269}}, {"id": 1698090, "name": "Narvacan", "country": "PH", "coord": {"lon": 120.475304, "lat": 17.4175}}, {"id": 6453321, "name": "Narvik", "country": "NO", "coord": {"lon": 17.42775, "lat": 68.438957}}, {"id": 3144987, "name": "Narvik", "country": "NO", "coord": {"lon": 17.4272, "lat": 68.438377}}, {"id": 1261739, "name": "Narwana", "country": "IN", "coord": {"lon": 76.116669, "lat": 29.616671}}, {"id": 1261736, "name": "Narwar", "country": "IN", "coord": {"lon": 77.900002, "lat": 25.65}}, {"id": 523392, "name": "Naryan-Mar", "country": "RU", "coord": {"lon": 53.086971, "lat": 67.671257}}, {"id": 1527592, "name": "Naryn", "country": "KG", "coord": {"lon": 75.991112, "lat": 41.428661}}, {"id": 1527590, "name": "Naryn Oblasty", "country": "KG", "coord": {"lon": 75.966667, "lat": 41.433331}}, {"id": 1520747, "name": "Narynkol", "country": "KZ", "coord": {"lon": 80.178329, "lat": 42.72583}}, {"id": 523382, "name": "Naryshkino", "country": "RU", "coord": {"lon": 35.726768, "lat": 52.967781}}, {"id": 3172375, "name": "Narzole", "country": "IT", "coord": {"lon": 7.86984, "lat": 44.59544}}, {"id": 6357323, "name": "Nar\u00f3n", "country": "ES", "coord": {"lon": -8.20062, "lat": 43.53334}}, {"id": 4036024, "name": "Nasanggalau", "country": "FJ", "coord": {"lon": -178.800003, "lat": -18.183331}}, {"id": 672497, "name": "Nasaud", "country": "RO", "coord": {"lon": 24.4, "lat": 47.283329}}, {"id": 3070030, "name": "Nasavrky", "country": "CZ", "coord": {"lon": 15.80461, "lat": 49.844501}}, {"id": 7569325, "name": "Nasawewe", "country": "ID", "coord": {"lon": 121.279602, "lat": -8.8829}}, {"id": 3843407, "name": "Naschel", "country": "AR", "coord": {"lon": -65.375351, "lat": -32.916561}}, {"id": 2867060, "name": "Naschendorf", "country": "DE", "coord": {"lon": 11.26667, "lat": 53.849998}}, {"id": 2201391, "name": "Naselai", "country": "FJ", "coord": {"lon": 178.566666, "lat": -18.049999}}, {"id": 4036017, "name": "Naselesele", "country": "FJ", "coord": {"lon": -179.866669, "lat": -16.700001}}, {"id": 2867055, "name": "Nasenberg", "country": "DE", "coord": {"lon": 13.16667, "lat": 51.26667}}, {"id": 2641873, "name": "Nash", "country": "GB", "coord": {"lon": -2.94611, "lat": 51.548889}}, {"id": 4713800, "name": "Nash", "country": "US", "coord": {"lon": -94.130753, "lat": 33.442348}}, {"id": 4713805, "name": "Nash", "country": "US", "coord": {"lon": -96.812767, "lat": 32.265701}}, {"id": 4481511, "name": "Nash County", "country": "US", "coord": {"lon": -77.96637, "lat": 35.96682}}, {"id": 523359, "name": "Nashch\u00ebkino", "country": "RU", "coord": {"lon": 38.066666, "lat": 55.329445}}, {"id": 2155695, "name": "Nashdale", "country": "AU", "coord": {"lon": 149.033325, "lat": -33.283329}}, {"id": 8131501, "name": "Nashik Division", "country": "IN", "coord": {"lon": 73.789421, "lat": 19.98295}}, {"id": 1855566, "name": "Nashizukuri", "country": "JP", "coord": {"lon": 135.666672, "lat": 34.783329}}, {"id": 5264158, "name": "Nashotah", "country": "US", "coord": {"lon": -88.402321, "lat": 43.09779}}, {"id": 2155693, "name": "Nashua", "country": "AU", "coord": {"lon": 153.466675, "lat": -28.73333}}, {"id": 5090046, "name": "Nashua", "country": "US", "coord": {"lon": -71.467567, "lat": 42.765369}}, {"id": 4868498, "name": "Nashua", "country": "US", "coord": {"lon": -92.536301, "lat": 42.952751}}, {"id": 5003243, "name": "Nashville", "country": "US", "coord": {"lon": -85.093048, "lat": 42.60281}}, {"id": 4644585, "name": "Nashville", "country": "US", "coord": {"lon": -86.784439, "lat": 36.16589}}, {"id": 4123271, "name": "Nashville", "country": "US", "coord": {"lon": -93.84713, "lat": 33.945671}}, {"id": 4211839, "name": "Nashville", "country": "US", "coord": {"lon": -83.250153, "lat": 31.20742}}, {"id": 4245376, "name": "Nashville", "country": "US", "coord": {"lon": -89.380638, "lat": 38.343658}}, {"id": 4261983, "name": "Nashville", "country": "US", "coord": {"lon": -86.251099, "lat": 39.207272}}, {"id": 4481519, "name": "Nashville", "country": "US", "coord": {"lon": -77.965538, "lat": 35.974602}}, {"id": 4437979, "name": "Nashville (historical)", "country": "US", "coord": {"lon": -88.323647, "lat": 33.326511}}, {"id": 3194581, "name": "Nasice", "country": "HR", "coord": {"lon": 18.08778, "lat": 45.488609}}, {"id": 764100, "name": "Nasielsk", "country": "PL", "coord": {"lon": 20.805531, "lat": 52.588871}}, {"id": 1261731, "name": "Nasik", "country": "IN", "coord": {"lon": 73.800003, "lat": 19.98333}}, {"id": 624612, "name": "Nasilava", "country": "BY", "coord": {"lon": 26.800671, "lat": 54.310261}}, {"id": 6554470, "name": "Nasingen", "country": "DE", "coord": {"lon": 6.25, "lat": 49.966702}}, {"id": 2867050, "name": "Nasingen", "country": "DE", "coord": {"lon": 6.25, "lat": 49.966671}}, {"id": 3172373, "name": "Nasino", "country": "IT", "coord": {"lon": 8.03205, "lat": 44.113628}}, {"id": 1698063, "name": "Nasipit", "country": "PH", "coord": {"lon": 125.294724, "lat": 8.96917}}, {"id": 6992531, "name": "Nasir", "country": "SD", "coord": {"lon": 32.5634, "lat": 15.5894}}, {"id": 1261727, "name": "Nasirabad", "country": "IN", "coord": {"lon": 74.73333, "lat": 26.299999}}, {"id": 1169254, "name": "Nasirabad", "country": "PK", "coord": {"lon": 67.916779, "lat": 27.380911}}, {"id": 7895303, "name": "Nasirah", "country": "SY", "coord": {"lon": 36.284649, "lat": 34.785759}}, {"id": 2201316, "name": "Nasirotu", "country": "FJ", "coord": {"lon": 178.25, "lat": -18.033331}}, {"id": 6537767, "name": "Naso", "country": "IT", "coord": {"lon": 14.78688, "lat": 38.123058}}, {"id": 2524020, "name": "Naso", "country": "IT", "coord": {"lon": 14.78688, "lat": 38.123058}}, {"id": 820155, "name": "Nasonovo", "country": "RU", "coord": {"lon": 36.799168, "lat": 55.780556}}, {"id": 1261726, "name": "Naspur", "country": "IN", "coord": {"lon": 79.449997, "lat": 18.83333}}, {"id": 1261722, "name": "Nasriganj", "country": "IN", "coord": {"lon": 84.333328, "lat": 25.049999}}, {"id": 1261721, "name": "Nasrullahganj", "country": "IN", "coord": {"lon": 77.26667, "lat": 22.683331}}, {"id": 6430506, "name": "Nassandres", "country": "FR", "coord": {"lon": 0.73333, "lat": 49.116669}}, {"id": 2990902, "name": "Nassandres", "country": "FR", "coord": {"lon": 0.73597, "lat": 49.12632}}, {"id": 2329451, "name": "Nassarawa", "country": "NG", "coord": {"lon": 7.72417, "lat": 8.52944}}, {"id": 2595348, "name": "Nassarawa State", "country": "NG", "coord": {"lon": 8.25, "lat": 8.5}}, {"id": 3571824, "name": "Nassau", "country": "BS", "coord": {"lon": -77.343063, "lat": 25.058229}}, {"id": 2867037, "name": "Nassau", "country": "DE", "coord": {"lon": 7.8, "lat": 50.316669}}, {"id": 5128313, "name": "Nassau", "country": "US", "coord": {"lon": -73.610123, "lat": 42.515911}}, {"id": 4713813, "name": "Nassau Bay", "country": "US", "coord": {"lon": -95.091042, "lat": 29.54468}}, {"id": 5128316, "name": "Nassau County", "country": "US", "coord": {"lon": -73.582901, "lat": 40.75066}}, {"id": 7260484, "name": "Nassau Village-Ratliff", "country": "US", "coord": {"lon": -81.80925, "lat": 30.51111}}, {"id": 2867013, "name": "Nassenbeuren", "country": "DE", "coord": {"lon": 10.5, "lat": 48.083328}}, {"id": 2867011, "name": "Nassenfels", "country": "DE", "coord": {"lon": 11.26667, "lat": 48.799999}}, {"id": 2867009, "name": "Nassenhausen", "country": "DE", "coord": {"lon": 11.11667, "lat": 48.200001}}, {"id": 2867007, "name": "Nassenheide", "country": "DE", "coord": {"lon": 13.21667, "lat": 52.816669}}, {"id": 7873592, "name": "Nassereith", "country": "AT", "coord": {"lon": 10.81707, "lat": 47.332401}}, {"id": 2770927, "name": "Nassereith", "country": "AT", "coord": {"lon": 10.83333, "lat": 47.316669}}, {"id": 6433906, "name": "Nassiet", "country": "FR", "coord": {"lon": -0.68333, "lat": 43.599998}}, {"id": 2990901, "name": "Nassiet", "country": "FR", "coord": {"lon": -0.67762, "lat": 43.600121}}, {"id": 6425418, "name": "Nassigny", "country": "FR", "coord": {"lon": 2.6, "lat": 46.5}}, {"id": 2990900, "name": "Nassigny", "country": "FR", "coord": {"lon": 2.60647, "lat": 46.497341}}, {"id": 2690170, "name": "Nassjo", "country": "SE", "coord": {"lon": 14.69676, "lat": 57.653069}}, {"id": 2790452, "name": "Nassogne", "country": "BE", "coord": {"lon": 5.38333, "lat": 50.116669}}, {"id": 2790451, "name": "Nassogne", "country": "BE", "coord": {"lon": 5.34274, "lat": 50.12849}}, {"id": 523327, "name": "Nastas\u2019ino", "country": "RU", "coord": {"lon": 38.651112, "lat": 55.197498}}, {"id": 2866990, "name": "Nastatten", "country": "DE", "coord": {"lon": 7.85892, "lat": 50.19883}}, {"id": 645036, "name": "Nastola", "country": "FI", "coord": {"lon": 25.91667, "lat": 61}}, {"id": 645035, "name": "Nastola", "country": "FI", "coord": {"lon": 25.933331, "lat": 60.950001}}, {"id": 672492, "name": "Nasturelu", "country": "RO", "coord": {"lon": 25.466669, "lat": 43.666672}}, {"id": 1698032, "name": "Nasugbu", "country": "PH", "coord": {"lon": 120.683327, "lat": 14.1}}, {"id": 1698030, "name": "Nasugbu", "country": "PH", "coord": {"lon": 120.633202, "lat": 14.0722}}, {"id": 2690101, "name": "Nasum", "country": "SE", "coord": {"lon": 14.48333, "lat": 56.166672}}, {"id": 700432, "name": "Nasypne", "country": "UA", "coord": {"lon": 35.283333, "lat": 45.049999}}, {"id": 3047443, "name": "Naszaly", "country": "HU", "coord": {"lon": 18.257509, "lat": 47.703289}}, {"id": 2054927, "name": "Nas\u014fn-si", "country": "KP", "coord": {"lon": 130.366394, "lat": 42.336109}}, {"id": 3703938, "name": "Nata", "country": "PA", "coord": {"lon": -80.51667, "lat": 8.33333}}, {"id": 933238, "name": "Nata", "country": "BW", "coord": {"lon": 26.183331, "lat": -20.216669}}, {"id": 3674012, "name": "Nataga", "country": "CO", "coord": {"lon": -75.808517, "lat": 2.54359}}, {"id": 3674010, "name": "Natagaima", "country": "CO", "coord": {"lon": -75.094147, "lat": 3.62057}}, {"id": 3394023, "name": "Natal", "country": "BR", "coord": {"lon": -35.209438, "lat": -5.795}}, {"id": 4334706, "name": "Natalbany", "country": "US", "coord": {"lon": -90.48481, "lat": 30.546301}}, {"id": 4046430, "name": "Natalia", "country": "US", "coord": {"lon": -98.862534, "lat": 29.18968}}, {"id": 3437682, "name": "Natalicio Talavera", "country": "PY", "coord": {"lon": -56.299999, "lat": -25.633329}}, {"id": 3437681, "name": "Natalio", "country": "PY", "coord": {"lon": -55.083328, "lat": -26.716669}}, {"id": 1697942, "name": "Natalungan", "country": "PH", "coord": {"lon": 125.023613, "lat": 7.53167}}, {"id": 523292, "name": "Natal\u2019insk", "country": "RU", "coord": {"lon": 57.869781, "lat": 56.4739}}, {"id": 1697998, "name": "Natapian", "country": "PH", "coord": {"lon": 121.706596, "lat": 17.6745}}, {"id": 1634318, "name": "Natar", "country": "ID", "coord": {"lon": 105.192513, "lat": -5.30897}}, {"id": 7463788, "name": "Natarleba", "country": "ID", "coord": {"lon": 122.541, "lat": -8.5139}}, {"id": 7463872, "name": "Natarmage", "country": "ID", "coord": {"lon": 122.566704, "lat": -8.6031}}, {"id": 6086225, "name": "Natashquan", "country": "CA", "coord": {"lon": -61.819118, "lat": 50.185139}}, {"id": 2866985, "name": "Natbergen", "country": "DE", "coord": {"lon": 8.11667, "lat": 52.26667}}, {"id": 4437982, "name": "Natchez", "country": "US", "coord": {"lon": -91.403168, "lat": 31.56044}}, {"id": 4334720, "name": "Natchitoches", "country": "US", "coord": {"lon": -93.086273, "lat": 31.760719}}, {"id": 4334734, "name": "Natchitoches Parish", "country": "US", "coord": {"lon": -93.133499, "lat": 31.76683}}, {"id": 6552825, "name": "Natendorf", "country": "DE", "coord": {"lon": 10.4667, "lat": 53.083302}}, {"id": 2866981, "name": "Natendorf", "country": "DE", "coord": {"lon": 10.47031, "lat": 53.0798}}, {"id": 7286610, "name": "Naters", "country": "CH", "coord": {"lon": 7.98295, "lat": 46.407631}}, {"id": 2659510, "name": "Naters", "country": "CH", "coord": {"lon": 7.98912, "lat": 46.325359}}, {"id": 3115726, "name": "Nates", "country": "ES", "coord": {"lon": -3.49129, "lat": 43.3783}}, {"id": 2155687, "name": "Nathalia", "country": "AU", "coord": {"lon": 145.199997, "lat": -36.716671}}, {"id": 1261711, "name": "Nathdwara", "country": "IN", "coord": {"lon": 73.816673, "lat": 24.933331}}, {"id": 2201079, "name": "Nathekoro", "country": "FJ", "coord": {"lon": 179.333328, "lat": -16.799999}}, {"id": 7511010, "name": "Nathom", "country": "TH", "coord": {"lon": 104.090721, "lat": 17.78536}}, {"id": 4944994, "name": "Natick", "country": "US", "coord": {"lon": -71.349503, "lat": 42.283428}}, {"id": 2155683, "name": "Natimuk", "country": "AU", "coord": {"lon": 141.949997, "lat": -36.75}}, {"id": 2089856, "name": "National Capital District", "country": "PG", "coord": {"lon": 147.166672, "lat": -9.41667}}, {"id": 7521311, "name": "National Capital Region", "country": "PH", "coord": {"lon": 120.971748, "lat": 14.59455}}, {"id": 1273293, "name": "National Capital Territory of Delhi", "country": "IN", "coord": {"lon": 77.25, "lat": 28.75}}, {"id": 5376200, "name": "National City", "country": "US", "coord": {"lon": -117.099197, "lat": 32.678108}}, {"id": 2186302, "name": "National Park", "country": "NZ", "coord": {"lon": 175.399994, "lat": -39.183331}}, {"id": 4503217, "name": "National Park", "country": "US", "coord": {"lon": -75.178787, "lat": 39.865952}}, {"id": 2392601, "name": "Natitingou", "country": "BJ", "coord": {"lon": 1.37962, "lat": 10.30416}}, {"id": 1697970, "name": "Natividad", "country": "PH", "coord": {"lon": 120.798698, "lat": 16.0443}}, {"id": 3456377, "name": "Natividade", "country": "BR", "coord": {"lon": -41.973331, "lat": -21.042219}}, {"id": 3456378, "name": "Natividade da Serra", "country": "BR", "coord": {"lon": -45.44194, "lat": -23.375561}}, {"id": 3522795, "name": "Nativitas", "country": "MX", "coord": {"lon": -98.316673, "lat": 19.23333}}, {"id": 1697962, "name": "Nato", "country": "PH", "coord": {"lon": 123.535599, "lat": 13.6105}}, {"id": 1697966, "name": "Nato", "country": "PH", "coord": {"lon": 122.860283, "lat": 10.15917}}, {"id": 2155656, "name": "Natone", "country": "AU", "coord": {"lon": 145.933334, "lat": -41.166672}}, {"id": 1697958, "name": "Natonin", "country": "PH", "coord": {"lon": 121.276138, "lat": 17.10924}}, {"id": 2866971, "name": "Natorp", "country": "DE", "coord": {"lon": 7.63333, "lat": 51.5}}, {"id": 2866969, "name": "Natorper Chaussee", "country": "DE", "coord": {"lon": 7.61667, "lat": 51.51667}}, {"id": 5833224, "name": "Natrona County", "country": "US", "coord": {"lon": -106.783943, "lat": 42.966629}}, {"id": 2866966, "name": "Natrup", "country": "DE", "coord": {"lon": 7.43333, "lat": 51.950001}}, {"id": 1261705, "name": "Nattam", "country": "IN", "coord": {"lon": 78.23333, "lat": 10.23333}}, {"id": 1261704, "name": "Nattarasankottai", "country": "IN", "coord": {"lon": 78.566673, "lat": 9.86667}}, {"id": 2866956, "name": "Nattenhausen", "country": "DE", "coord": {"lon": 10.31667, "lat": 48.23333}}, {"id": 6554471, "name": "Nattenheim", "country": "DE", "coord": {"lon": 6.51667, "lat": 50.016701}}, {"id": 2866955, "name": "Nattenheim", "country": "DE", "coord": {"lon": 6.51667, "lat": 50.01667}}, {"id": 7872541, "name": "Natters", "country": "AT", "coord": {"lon": 11.36083, "lat": 47.234249}}, {"id": 2770913, "name": "Natters", "country": "AT", "coord": {"lon": 11.37342, "lat": 47.234138}}, {"id": 6555571, "name": "Nattheim", "country": "DE", "coord": {"lon": 10.2413, "lat": 48.699402}}, {"id": 2866942, "name": "Nattheim", "country": "DE", "coord": {"lon": 10.24209, "lat": 48.699631}}, {"id": 2690061, "name": "Nattraby", "country": "SE", "coord": {"lon": 15.51667, "lat": 56.200001}}, {"id": 7910166, "name": "Natuashish", "country": "CA", "coord": {"lon": -61.124149, "lat": 55.915642}}, {"id": 3394018, "name": "Natuba", "country": "BR", "coord": {"lon": -35.549999, "lat": -7.64139}}, {"id": 1697949, "name": "Natubleng", "country": "PH", "coord": {"lon": 120.78054, "lat": 16.69647}}, {"id": 523270, "name": "Natukhayevskaya", "country": "RU", "coord": {"lon": 37.564999, "lat": 44.907223}}, {"id": 3172367, "name": "Naturno", "country": "IT", "coord": {"lon": 11.00507, "lat": 46.64872}}, {"id": 523269, "name": "Natyrbovo", "country": "RU", "coord": {"lon": 40.626389, "lat": 44.73}}, {"id": 2866938, "name": "Natzungen", "country": "DE", "coord": {"lon": 9.23333, "lat": 51.616669}}, {"id": 6441240, "name": "Natzwiller", "country": "FR", "coord": {"lon": 7.25, "lat": 48.433331}}, {"id": 2990893, "name": "Natzwiller", "country": "FR", "coord": {"lon": 7.26041, "lat": 48.43541}}, {"id": 3456383, "name": "Nat\u00e9rcia", "country": "BR", "coord": {"lon": -45.511669, "lat": -22.120001}}, {"id": 1282996, "name": "Naubise", "country": "NP", "coord": {"lon": 85.150002, "lat": 27.716667}}, {"id": 7799586, "name": "Naubise", "country": "NP", "coord": {"lon": 85.156998, "lat": 27.703199}}, {"id": 2866934, "name": "Nauborn", "country": "DE", "coord": {"lon": 8.48333, "lat": 50.533329}}, {"id": 3522790, "name": "Naucalpan de Juarez", "country": "MX", "coord": {"lon": -99.239632, "lat": 19.47851}}, {"id": 6453655, "name": "Naucelle", "country": "FR", "coord": {"lon": 2.35, "lat": 44.200001}}, {"id": 2990890, "name": "Naucelle", "country": "FR", "coord": {"lon": 2.3431, "lat": 44.198101}}, {"id": 6427597, "name": "Naucelles", "country": "FR", "coord": {"lon": 2.43333, "lat": 44.950001}}, {"id": 2990889, "name": "Naucelles", "country": "FR", "coord": {"lon": 2.41889, "lat": 44.957821}}, {"id": 700416, "name": "Nauchnyy", "country": "UA", "coord": {"lon": 34.016666, "lat": 44.733334}}, {"id": 1497973, "name": "Nauchnyy Gorodok", "country": "RU", "coord": {"lon": 83.521004, "lat": 53.4203}}, {"id": 1169187, "name": "Naudero", "country": "PK", "coord": {"lon": 68.362167, "lat": 27.66477}}, {"id": 2770910, "name": "Nauders", "country": "AT", "coord": {"lon": 10.51667, "lat": 46.883331}}, {"id": 7873665, "name": "Nauders", "country": "AT", "coord": {"lon": 10.54071, "lat": 46.887459}}, {"id": 6086304, "name": "Naudville", "country": "CA", "coord": {"lon": -71.649101, "lat": 48.550091}}, {"id": 2866930, "name": "Nauen", "country": "DE", "coord": {"lon": 12.87374, "lat": 52.60701}}, {"id": 6549171, "name": "Nauendorf", "country": "DE", "coord": {"lon": 11.8833, "lat": 51.599998}}, {"id": 2866925, "name": "Nauendorf", "country": "DE", "coord": {"lon": 11.88333, "lat": 51.599998}}, {"id": 6550265, "name": "Nauendorf", "country": "DE", "coord": {"lon": 11.18005, "lat": 50.894642}}, {"id": 2866928, "name": "Nauendorf", "country": "DE", "coord": {"lon": 11.18108, "lat": 50.894531}}, {"id": 1261696, "name": "Naugachhia", "country": "IN", "coord": {"lon": 87.099998, "lat": 25.4}}, {"id": 4839222, "name": "Naugatuck", "country": "US", "coord": {"lon": -73.050659, "lat": 41.485931}}, {"id": 523267, "name": "Naugol\u2019noye", "country": "RU", "coord": {"lon": 38.183334, "lat": 56.366669}}, {"id": 6553175, "name": "Nauheim", "country": "DE", "coord": {"lon": 8.46333, "lat": 49.950802}}, {"id": 2866917, "name": "Nauheim", "country": "DE", "coord": {"lon": 8.46333, "lat": 49.950829}}, {"id": 6432321, "name": "Naujac-sur-Mer", "country": "FR", "coord": {"lon": -1.03333, "lat": 45.25}}, {"id": 2990887, "name": "Naujac-sur-Mer", "country": "FR", "coord": {"lon": -1.02469, "lat": 45.2542}}, {"id": 1697911, "name": "Naujan", "country": "PH", "coord": {"lon": 121.302818, "lat": 13.32328}}, {"id": 6432322, "name": "Naujan-et-Postiac", "country": "FR", "coord": {"lon": -0.18333, "lat": 44.783329}}, {"id": 2990886, "name": "Naujan-et-Postiac", "country": "FR", "coord": {"lon": -0.18062, "lat": 44.78912}}, {"id": 596719, "name": "Naujoji Akmene", "country": "LT", "coord": {"lon": 22.9, "lat": 56.316669}}, {"id": 523266, "name": "Nauka", "country": "RU", "coord": {"lon": 49.7798, "lat": 51.976898}}, {"id": 5555942, "name": "Naukati Bay", "country": "US", "coord": {"lon": -133.184723, "lat": 55.873611}}, {"id": 1169367, "name": "Naukot", "country": "PK", "coord": {"lon": 69.402382, "lat": 24.85869}}, {"id": 2962310, "name": "Naul", "country": "IE", "coord": {"lon": -6.28972, "lat": 53.58667}}, {"id": 2866906, "name": "Naumburg", "country": "DE", "coord": {"lon": 11.81667, "lat": 51.150002}}, {"id": 2866905, "name": "Naumburg", "country": "DE", "coord": {"lon": 9.16569, "lat": 51.248161}}, {"id": 2866902, "name": "Naumburgerhof", "country": "DE", "coord": {"lon": 7.65, "lat": 49.650002}}, {"id": 2019437, "name": "Naumova", "country": "RU", "coord": {"lon": 102.599998, "lat": 53.533329}}, {"id": 2866880, "name": "Naundorf", "country": "DE", "coord": {"lon": 13.9, "lat": 51.466671}}, {"id": 2866886, "name": "Naundorf", "country": "DE", "coord": {"lon": 13.39113, "lat": 51.231831}}, {"id": 6559275, "name": "Naundorf", "country": "DE", "coord": {"lon": 13.11778, "lat": 51.33485}}, {"id": 2866885, "name": "Naundorf", "country": "DE", "coord": {"lon": 13.11667, "lat": 51.25}}, {"id": 6553773, "name": "Naunheim", "country": "DE", "coord": {"lon": 7.31667, "lat": 50.25}}, {"id": 2866865, "name": "Naunheim", "country": "DE", "coord": {"lon": 7.31667, "lat": 50.25}}, {"id": 2866861, "name": "Naunhof", "country": "DE", "coord": {"lon": 12.58827, "lat": 51.277699}}, {"id": 6554157, "name": "Nauort", "country": "DE", "coord": {"lon": 7.63333, "lat": 50.466702}}, {"id": 2866858, "name": "Nauort", "country": "DE", "coord": {"lon": 7.63333, "lat": 50.466671}}, {"id": 3522789, "name": "Naupan", "country": "MX", "coord": {"lon": -98.116669, "lat": 20.23333}}, {"id": 2866856, "name": "Naurath", "country": "DE", "coord": {"lon": 6.88333, "lat": 49.76667}}, {"id": 6553420, "name": "Nauroth", "country": "DE", "coord": {"lon": 7.86667, "lat": 50.700001}}, {"id": 2866851, "name": "Nauroth", "country": "DE", "coord": {"lon": 7.86667, "lat": 50.700001}}, {"id": 523206, "name": "Naurskaya", "country": "RU", "coord": {"lon": 45.313332, "lat": 43.651939}}, {"id": 2110425, "name": "Nauru", "country": "NR", "coord": {"lon": 166.932999, "lat": -0.517}}, {"id": 1169160, "name": "Naushahra", "country": "PK", "coord": {"lon": 70.300003, "lat": 28.41667}}, {"id": 1169145, "name": "Naushahra Virkan", "country": "PK", "coord": {"lon": 73.972252, "lat": 31.962839}}, {"id": 1169143, "name": "Naushahro Firoz", "country": "PK", "coord": {"lon": 68.122978, "lat": 26.842381}}, {"id": 2019429, "name": "Naushki", "country": "RU", "coord": {"lon": 106.10556, "lat": 50.382778}}, {"id": 2866846, "name": "Nausis", "country": "DE", "coord": {"lon": 9.36667, "lat": 50.833328}}, {"id": 6549975, "name": "Nausitz", "country": "DE", "coord": {"lon": 11.3333, "lat": 51.3167}}, {"id": 2866843, "name": "Nausitz", "country": "DE", "coord": {"lon": 11.33333, "lat": 51.316669}}, {"id": 6550385, "name": "Nausnitz", "country": "DE", "coord": {"lon": 11.7333, "lat": 50.950001}}, {"id": 2866842, "name": "Nausnitz", "country": "DE", "coord": {"lon": 11.73333, "lat": 50.950001}}, {"id": 6429467, "name": "Naussannes", "country": "FR", "coord": {"lon": 0.73333, "lat": 44.75}}, {"id": 2990880, "name": "Naussannes", "country": "FR", "coord": {"lon": 0.72616, "lat": 44.755959}}, {"id": 2690055, "name": "Nausta", "country": "SE", "coord": {"lon": 19.283331, "lat": 66.349998}}, {"id": 3144953, "name": "Naustdal", "country": "NO", "coord": {"lon": 5.71675, "lat": 61.508961}}, {"id": 6358784, "name": "Naut Aran", "country": "ES", "coord": {"lon": 0.90603, "lat": 42.686169}}, {"id": 1261672, "name": "Nautanwa", "country": "IN", "coord": {"lon": 83.416672, "lat": 27.433331}}, {"id": 3522788, "name": "Nautla", "country": "MX", "coord": {"lon": -96.783333, "lat": 20.216669}}, {"id": 4903330, "name": "Nauvoo", "country": "US", "coord": {"lon": -91.384872, "lat": 40.550041}}, {"id": 6548657, "name": "Nauwalde", "country": "DE", "coord": {"lon": 13.4167, "lat": 51.416698}}, {"id": 2866834, "name": "Nauwalde", "country": "DE", "coord": {"lon": 13.41667, "lat": 51.416672}}, {"id": 6086361, "name": "Nauwigewauk", "country": "CA", "coord": {"lon": -65.898842, "lat": 45.466862}}, {"id": 3995050, "name": "Nava", "country": "MX", "coord": {"lon": -100.76667, "lat": 28.41667}}, {"id": 6359943, "name": "Nava", "country": "ES", "coord": {"lon": -5.4949, "lat": 43.33952}}, {"id": 3115722, "name": "Nava", "country": "ES", "coord": {"lon": -5.51064, "lat": 43.358101}}, {"id": 3115699, "name": "Nava de Arevalo", "country": "ES", "coord": {"lon": -4.77573, "lat": 40.97802}}, {"id": 6355752, "name": "Nava de Ar\u00e9valo", "country": "ES", "coord": {"lon": -4.75789, "lat": 40.990429}}, {"id": 3115698, "name": "Nava de Bejar", "country": "ES", "coord": {"lon": -5.67856, "lat": 40.475182}}, {"id": 6360454, "name": "Nava de B\u00e9jar", "country": "ES", "coord": {"lon": -5.67698, "lat": 40.47998}}, {"id": 6360455, "name": "Nava de Francia", "country": "ES", "coord": {"lon": -6.12135, "lat": 40.530579}}, {"id": 3115697, "name": "Nava de Francia", "country": "ES", "coord": {"lon": -6.11628, "lat": 40.535721}}, {"id": 6356506, "name": "Nava de Roa", "country": "ES", "coord": {"lon": -3.96261, "lat": 41.61578}}, {"id": 3115689, "name": "Nava de Roa", "country": "ES", "coord": {"lon": -3.96442, "lat": 41.613258}}, {"id": 6355955, "name": "Nava de Santiago (La)", "country": "ES", "coord": {"lon": -6.51479, "lat": 39.076248}}, {"id": 6360456, "name": "Nava de Sotrobal", "country": "ES", "coord": {"lon": -5.28503, "lat": 40.889381}}, {"id": 3115687, "name": "Nava de Sotrobal", "country": "ES", "coord": {"lon": -5.28562, "lat": 40.890388}}, {"id": 3115696, "name": "Nava de la Asuncion", "country": "ES", "coord": {"lon": -4.48751, "lat": 41.155861}}, {"id": 6360865, "name": "Nava de la Asunci\u00f3n", "country": "ES", "coord": {"lon": -4.4905, "lat": 41.148891}}, {"id": 6355753, "name": "Nava del Barco", "country": "ES", "coord": {"lon": -5.55814, "lat": 40.266071}}, {"id": 3115695, "name": "Nava del Barco", "country": "ES", "coord": {"lon": -5.54022, "lat": 40.293209}}, {"id": 6362228, "name": "Nava del Rey", "country": "ES", "coord": {"lon": -5.10473, "lat": 41.376671}}, {"id": 3115691, "name": "Nava del Rey", "country": "ES", "coord": {"lon": -5.08095, "lat": 41.33036}}, {"id": 6360453, "name": "Navacarros", "country": "ES", "coord": {"lon": -5.70237, "lat": 40.382702}}, {"id": 3115707, "name": "Navacarros", "country": "ES", "coord": {"lon": -5.71425, "lat": 40.397758}}, {"id": 3115706, "name": "Navacepeda de Tormes", "country": "ES", "coord": {"lon": -5.24897, "lat": 40.360081}}, {"id": 6355751, "name": "Navacepedilla de Corneja", "country": "ES", "coord": {"lon": -5.16415, "lat": 40.487251}}, {"id": 3115705, "name": "Navacepedilla de Corneja", "country": "ES", "coord": {"lon": -5.1838, "lat": 40.486019}}, {"id": 6359317, "name": "Navacerrada", "country": "ES", "coord": {"lon": -4.00711, "lat": 40.756859}}, {"id": 3115704, "name": "Navacerrada", "country": "ES", "coord": {"lon": -4.01696, "lat": 40.72905}}, {"id": 6356825, "name": "Navaconcejo", "country": "ES", "coord": {"lon": -5.84453, "lat": 40.171501}}, {"id": 3115700, "name": "Navaconcejo", "country": "ES", "coord": {"lon": -5.83108, "lat": 40.17712}}, {"id": 6355754, "name": "Navadijos", "country": "ES", "coord": {"lon": -5.08218, "lat": 40.430321}}, {"id": 3115686, "name": "Navadijos", "country": "ES", "coord": {"lon": -5.08285, "lat": 40.42524}}, {"id": 1261669, "name": "Navadwip", "country": "IN", "coord": {"lon": 88.366669, "lat": 23.41667}}, {"id": 6355755, "name": "Navaescurial", "country": "ES", "coord": {"lon": -5.26321, "lat": 40.468899}}, {"id": 3115685, "name": "Navaescurial", "country": "ES", "coord": {"lon": -5.27756, "lat": 40.47163}}, {"id": 3115684, "name": "Navafria", "country": "ES", "coord": {"lon": -3.82478, "lat": 41.055141}}, {"id": 6360866, "name": "Navafr\u00eda", "country": "ES", "coord": {"lon": -3.83262, "lat": 41.031288}}, {"id": 6361769, "name": "Navahermosa", "country": "ES", "coord": {"lon": -4.47207, "lat": 39.656288}}, {"id": 2513346, "name": "Navahermosa", "country": "ES", "coord": {"lon": -4.47012, "lat": 39.635262}}, {"id": 6355756, "name": "Navahondilla", "country": "ES", "coord": {"lon": -4.48771, "lat": 40.338661}}, {"id": 3115673, "name": "Navahondilla", "country": "ES", "coord": {"lon": -4.49661, "lat": 40.3251}}, {"id": 624785, "name": "Navahrudak", "country": "BY", "coord": {"lon": 25.833332, "lat": 53.599998}}, {"id": 6440533, "name": "Navailles-Angos", "country": "FR", "coord": {"lon": -0.33333, "lat": 43.416672}}, {"id": 2990872, "name": "Navailles-Angos", "country": "FR", "coord": {"lon": -0.33333, "lat": 43.416672}}, {"id": 6357032, "name": "Navajas", "country": "ES", "coord": {"lon": -0.49985, "lat": 39.882809}}, {"id": 2513343, "name": "Navajas", "country": "ES", "coord": {"lon": -0.5, "lat": 39.883331}}, {"id": 3115671, "name": "Navajeda", "country": "ES", "coord": {"lon": -3.70098, "lat": 43.364899}}, {"id": 5480831, "name": "Navajo", "country": "US", "coord": {"lon": -109.033981, "lat": 35.900009}}, {"id": 5480832, "name": "Navajo", "country": "US", "coord": {"lon": -107.063087, "lat": 36.946121}}, {"id": 5306233, "name": "Navajo County", "country": "US", "coord": {"lon": -110.813187, "lat": 36.9375}}, {"id": 3115669, "name": "Navajun", "country": "ES", "coord": {"lon": -2.1, "lat": 41.966671}}, {"id": 6359091, "name": "Navaj\u00fan", "country": "ES", "coord": {"lon": -2.08313, "lat": 41.968391}}, {"id": 6358375, "name": "Naval", "country": "ES", "coord": {"lon": 0.16993, "lat": 42.20129}}, {"id": 3115668, "name": "Naval", "country": "ES", "coord": {"lon": 0.15183, "lat": 42.195042}}, {"id": 1697882, "name": "Naval", "country": "PH", "coord": {"lon": 124.449997, "lat": 11.58333}}, {"id": 1697879, "name": "Naval", "country": "PH", "coord": {"lon": 124.397499, "lat": 11.56056}}, {"id": 7258330, "name": "Naval Academy", "country": "US", "coord": {"lon": -76.48774, "lat": 38.98568}}, {"id": 6355757, "name": "Navalacruz", "country": "ES", "coord": {"lon": -4.97887, "lat": 40.451832}}, {"id": 3115667, "name": "Navalacruz", "country": "ES", "coord": {"lon": -4.93122, "lat": 40.439919}}, {"id": 6359318, "name": "Navalafuente", "country": "ES", "coord": {"lon": -3.67062, "lat": 40.821331}}, {"id": 3115666, "name": "Navalafuente", "country": "ES", "coord": {"lon": -3.67266, "lat": 40.820629}}, {"id": 6359319, "name": "Navalagamella", "country": "ES", "coord": {"lon": -4.1313, "lat": 40.44006}}, {"id": 3115665, "name": "Navalagamella", "country": "ES", "coord": {"lon": -4.12334, "lat": 40.468941}}, {"id": 3115660, "name": "Navalcan", "country": "ES", "coord": {"lon": -5.08333, "lat": 40.066669}}, {"id": 6359320, "name": "Navalcarnero", "country": "ES", "coord": {"lon": -3.99743, "lat": 40.282101}}, {"id": 3115659, "name": "Navalcarnero", "country": "ES", "coord": {"lon": -4.01197, "lat": 40.289082}}, {"id": 6361770, "name": "Navalc\u00e1n", "country": "ES", "coord": {"lon": -5.08902, "lat": 40.111279}}, {"id": 6361170, "name": "Navaleno", "country": "ES", "coord": {"lon": -3.00553, "lat": 41.851181}}, {"id": 3115657, "name": "Navaleno", "country": "ES", "coord": {"lon": -3.00418, "lat": 41.838299}}, {"id": 6360457, "name": "Navales", "country": "ES", "coord": {"lon": -5.47343, "lat": 40.778542}}, {"id": 3115656, "name": "Navales", "country": "ES", "coord": {"lon": -5.47863, "lat": 40.78857}}, {"id": 3115655, "name": "Navalespino", "country": "ES", "coord": {"lon": -4.26604, "lat": 40.588341}}, {"id": 1261667, "name": "Navalgund", "country": "IN", "coord": {"lon": 75.366669, "lat": 15.56667}}, {"id": 6360867, "name": "Navalilla", "country": "ES", "coord": {"lon": -3.93851, "lat": 41.338589}}, {"id": 3115650, "name": "Navalilla", "country": "ES", "coord": {"lon": -3.93211, "lat": 41.341461}}, {"id": 3115646, "name": "Navallo", "country": "ES", "coord": {"lon": -7.09417, "lat": 43.332298}}, {"id": 6360868, "name": "Navalmanzano", "country": "ES", "coord": {"lon": -4.25447, "lat": 41.22208}}, {"id": 3115642, "name": "Navalmanzano", "country": "ES", "coord": {"lon": -4.25631, "lat": 41.215939}}, {"id": 2513325, "name": "Navalmedio de Morales", "country": "ES", "coord": {"lon": -4.53393, "lat": 38.849178}}, {"id": 6355758, "name": "Navalmoral", "country": "ES", "coord": {"lon": -4.73763, "lat": 40.464031}}, {"id": 3115641, "name": "Navalmoral", "country": "ES", "coord": {"lon": -4.76859, "lat": 40.460281}}, {"id": 3115640, "name": "Navalmoral de Bejar", "country": "ES", "coord": {"lon": -5.7831, "lat": 40.422642}}, {"id": 6360458, "name": "Navalmoral de B\u00e9jar", "country": "ES", "coord": {"lon": -5.78735, "lat": 40.432381}}, {"id": 2513324, "name": "Navalmoral de la Mata", "country": "ES", "coord": {"lon": -5.54064, "lat": 39.891579}}, {"id": 6356826, "name": "Navalmoral de la Mata", "country": "ES", "coord": {"lon": -5.56202, "lat": 39.936939}}, {"id": 6361771, "name": "Navalmoralejo", "country": "ES", "coord": {"lon": -5.11844, "lat": 39.750221}}, {"id": 2513323, "name": "Navalmoralejo", "country": "ES", "coord": {"lon": -5.14359, "lat": 39.739281}}, {"id": 6361772, "name": "Navalmorales (Los)", "country": "ES", "coord": {"lon": -4.61443, "lat": 39.70631}}, {"id": 6355760, "name": "Navalosa", "country": "ES", "coord": {"lon": -4.8931, "lat": 40.392841}}, {"id": 3115635, "name": "Navalosa", "country": "ES", "coord": {"lon": -4.93, "lat": 40.402119}}, {"id": 6355761, "name": "Navalperal de Pinares", "country": "ES", "coord": {"lon": -4.44624, "lat": 40.586658}}, {"id": 3115634, "name": "Navalperal de Pinares", "country": "ES", "coord": {"lon": -4.41149, "lat": 40.593979}}, {"id": 6355762, "name": "Navalperal de Tormes", "country": "ES", "coord": {"lon": -5.28234, "lat": 40.345421}}, {"id": 3115633, "name": "Navalperal de Tormes", "country": "ES", "coord": {"lon": -5.30084, "lat": 40.352798}}, {"id": 6357153, "name": "Navalpino", "country": "ES", "coord": {"lon": -4.61591, "lat": 39.25153}}, {"id": 2513320, "name": "Navalpino", "country": "ES", "coord": {"lon": -4.59133, "lat": 39.225731}}, {"id": 6361773, "name": "Navalucillos (Los)", "country": "ES", "coord": {"lon": -4.6803, "lat": 39.566601}}, {"id": 6355763, "name": "Navaluenga", "country": "ES", "coord": {"lon": -4.70147, "lat": 40.396469}}, {"id": 3115629, "name": "Navaluenga", "country": "ES", "coord": {"lon": -4.70897, "lat": 40.411228}}, {"id": 6356827, "name": "Navalvillar de Ibor", "country": "ES", "coord": {"lon": -5.37411, "lat": 39.600712}}, {"id": 2513314, "name": "Navalvillar de Ibor", "country": "ES", "coord": {"lon": -5.41328, "lat": 39.5839}}, {"id": 6355956, "name": "Navalvillar de Pela", "country": "ES", "coord": {"lon": -5.49277, "lat": 39.114719}}, {"id": 2513313, "name": "Navalvillar de Pela", "country": "ES", "coord": {"lon": -5.4681, "lat": 39.09436}}, {"id": 3115637, "name": "Naval\u00f3n", "country": "ES", "coord": {"lon": -6.03008, "lat": 43.573521}}, {"id": 6360459, "name": "Navamorales", "country": "ES", "coord": {"lon": -5.48953, "lat": 40.479759}}, {"id": 3115625, "name": "Navamorales", "country": "ES", "coord": {"lon": -5.47893, "lat": 40.476181}}, {"id": 6361774, "name": "Navamorcuende", "country": "ES", "coord": {"lon": -4.83622, "lat": 40.130569}}, {"id": 3115624, "name": "Navamorcuende", "country": "ES", "coord": {"lon": -4.78625, "lat": 40.15659}}, {"id": 2962308, "name": "Navan", "country": "IE", "coord": {"lon": -6.68139, "lat": 53.652779}}, {"id": 624784, "name": "Navapolatsk", "country": "BY", "coord": {"lon": 28.642441, "lat": 55.536282}}, {"id": 6355764, "name": "Navaquesera", "country": "ES", "coord": {"lon": -4.91491, "lat": 40.424381}}, {"id": 3115617, "name": "Navaquesera", "country": "ES", "coord": {"lon": -4.91108, "lat": 40.425579}}, {"id": 3115616, "name": "Navarcles", "country": "ES", "coord": {"lon": 1.90357, "lat": 41.751709}}, {"id": 3115615, "name": "Navardun", "country": "ES", "coord": {"lon": -1.14822, "lat": 42.51255}}, {"id": 6362873, "name": "Navard\u00fan", "country": "ES", "coord": {"lon": -1.12641, "lat": 42.50597}}, {"id": 6360869, "name": "Navares de Ayuso", "country": "ES", "coord": {"lon": -3.69717, "lat": 41.37323}}, {"id": 3115614, "name": "Navares de Ayuso", "country": "ES", "coord": {"lon": -3.70745, "lat": 41.37447}}, {"id": 6360870, "name": "Navares de Enmedio", "country": "ES", "coord": {"lon": -3.73326, "lat": 41.424122}}, {"id": 3115613, "name": "Navares de Enmedio", "country": "ES", "coord": {"lon": -3.72283, "lat": 41.380959}}, {"id": 6360871, "name": "Navares de las Cuevas", "country": "ES", "coord": {"lon": -3.75267, "lat": 41.424992}}, {"id": 3115612, "name": "Navares de las Cuevas", "country": "ES", "coord": {"lon": -3.75076, "lat": 41.41431}}, {"id": 6355272, "name": "Navaridas", "country": "ES", "coord": {"lon": -2.62932, "lat": 42.543251}}, {"id": 3115611, "name": "Navaridas", "country": "ES", "coord": {"lon": -2.6265, "lat": 42.545658}}, {"id": 700410, "name": "Navariya", "country": "UA", "coord": {"lon": 23.92746, "lat": 49.749519}}, {"id": 3115609, "name": "Navarra", "country": "ES", "coord": {"lon": -1.66667, "lat": 42.75}}, {"id": 2155647, "name": "Navarre", "country": "AU", "coord": {"lon": 143.100006, "lat": -36.900002}}, {"id": 4165637, "name": "Navarre", "country": "US", "coord": {"lon": -86.863571, "lat": 30.40159}}, {"id": 5164101, "name": "Navarre", "country": "US", "coord": {"lon": -81.522072, "lat": 40.724499}}, {"id": 6355765, "name": "Navarredonda de Gredos", "country": "ES", "coord": {"lon": -5.11563, "lat": 40.348171}}, {"id": 7302959, "name": "Navarredonda de Gredos", "country": "ES", "coord": {"lon": -5.13268, "lat": 40.361359}}, {"id": 6360460, "name": "Navarredonda de la Rinconada", "country": "ES", "coord": {"lon": -6.00205, "lat": 40.60136}}, {"id": 3115607, "name": "Navarredonda de la Rinconada", "country": "ES", "coord": {"lon": -6.01169, "lat": 40.606571}}, {"id": 6355766, "name": "Navarredondilla", "country": "ES", "coord": {"lon": -4.83094, "lat": 40.441029}}, {"id": 3115604, "name": "Navarredondilla", "country": "ES", "coord": {"lon": -4.82199, "lat": 40.454159}}, {"id": 6454511, "name": "Navarrenx", "country": "FR", "coord": {"lon": -0.7588, "lat": 43.321499}}, {"id": 2990870, "name": "Navarrenx", "country": "FR", "coord": {"lon": -0.75927, "lat": 43.32135}}, {"id": 2513306, "name": "Navarres", "country": "ES", "coord": {"lon": -0.69469, "lat": 39.101978}}, {"id": 6359092, "name": "Navarrete", "country": "ES", "coord": {"lon": -2.56381, "lat": 42.42812}}, {"id": 3115602, "name": "Navarrete", "country": "ES", "coord": {"lon": -2.56466, "lat": 42.430679}}, {"id": 6355767, "name": "Navarrevisca", "country": "ES", "coord": {"lon": -4.86407, "lat": 40.3578}}, {"id": 3115598, "name": "Navarrevisca", "country": "ES", "coord": {"lon": -4.89352, "lat": 40.36417}}, {"id": 3843392, "name": "Navarro", "country": "AR", "coord": {"lon": -63.220119, "lat": -29.179609}}, {"id": 3430457, "name": "Navarro", "country": "AR", "coord": {"lon": -59.276989, "lat": -35.005589}}, {"id": 4713849, "name": "Navarro County", "country": "US", "coord": {"lon": -96.466927, "lat": 32.050152}}, {"id": 6362044, "name": "Navarr\u00e9s", "country": "ES", "coord": {"lon": -0.7436, "lat": 39.083858}}, {"id": 3115593, "name": "Navas", "country": "ES", "coord": {"lon": 1.87763, "lat": 41.899979}}, {"id": 6356507, "name": "Navas de Bureba", "country": "ES", "coord": {"lon": -3.33374, "lat": 42.687382}}, {"id": 3115588, "name": "Navas de Bureba", "country": "ES", "coord": {"lon": -3.32698, "lat": 42.680901}}, {"id": 6357154, "name": "Navas de Estena", "country": "ES", "coord": {"lon": -4.53312, "lat": 39.47369}}, {"id": 2513300, "name": "Navas de Estena", "country": "ES", "coord": {"lon": -4.52155, "lat": 39.494808}}, {"id": 6355345, "name": "Navas de Jorquera", "country": "ES", "coord": {"lon": -1.72045, "lat": 39.279469}}, {"id": 2513299, "name": "Navas de Jorquera", "country": "ES", "coord": {"lon": -1.71667, "lat": 39.283329}}, {"id": 6360872, "name": "Navas de Oro", "country": "ES", "coord": {"lon": -4.42138, "lat": 41.208118}}, {"id": 3115584, "name": "Navas de Oro", "country": "ES", "coord": {"lon": -4.43754, "lat": 41.19627}}, {"id": 3115581, "name": "Navas de San Antonio", "country": "ES", "coord": {"lon": -4.33052, "lat": 40.760399}}, {"id": 6358513, "name": "Navas de San Juan", "country": "ES", "coord": {"lon": -3.35383, "lat": 38.235062}}, {"id": 6697035, "name": "Navas de San Juan", "country": "ES", "coord": {"lon": -3.31598, "lat": 38.183819}}, {"id": 2513295, "name": "Navas de Tolosa", "country": "ES", "coord": {"lon": -3.58668, "lat": 38.286362}}, {"id": 2513298, "name": "Navas del Madrono", "country": "ES", "coord": {"lon": -6.6526, "lat": 39.622898}}, {"id": 6355768, "name": "Navas del Marqu\u00e9s (Las)", "country": "ES", "coord": {"lon": -4.34626, "lat": 40.594971}}, {"id": 6359322, "name": "Navas del Rey", "country": "ES", "coord": {"lon": -4.27707, "lat": 40.37756}}, {"id": 3115585, "name": "Navas del Rey", "country": "ES", "coord": {"lon": -4.25117, "lat": 40.386101}}, {"id": 3115589, "name": "Navascues", "country": "ES", "coord": {"lon": -1.11744, "lat": 42.717579}}, {"id": 6359729, "name": "Navascu\u00e9s", "country": "ES", "coord": {"lon": -1.10434, "lat": 42.726589}}, {"id": 3115580, "name": "Navasfrias", "country": "ES", "coord": {"lon": -6.81975, "lat": 40.296791}}, {"id": 6360461, "name": "Navasfr\u00edas", "country": "ES", "coord": {"lon": -6.80482, "lat": 40.296711}}, {"id": 523198, "name": "Navashino", "country": "RU", "coord": {"lon": 42.200279, "lat": 55.529171}}, {"id": 4713866, "name": "Navasota", "country": "US", "coord": {"lon": -96.08773, "lat": 30.38798}}, {"id": 4481551, "name": "Navassa", "country": "US", "coord": {"lon": -78.007492, "lat": 34.255451}}, {"id": 6534088, "name": "Navata", "country": "ES", "coord": {"lon": 2.86016, "lat": 42.222099}}, {"id": 3115577, "name": "Navata", "country": "ES", "coord": {"lon": 2.8611, "lat": 42.22353}}, {"id": 6355769, "name": "Navatalgordo", "country": "ES", "coord": {"lon": -4.85154, "lat": 40.410149}}, {"id": 3115576, "name": "Navatalgordo", "country": "ES", "coord": {"lon": -4.87155, "lat": 40.415199}}, {"id": 1697863, "name": "Navatat", "country": "PH", "coord": {"lon": 120.380402, "lat": 15.8536}}, {"id": 6355770, "name": "Navatejares", "country": "ES", "coord": {"lon": -5.53518, "lat": 40.321991}}, {"id": 3115575, "name": "Navatejares", "country": "ES", "coord": {"lon": -5.5322, "lat": 40.336021}}, {"id": 3115574, "name": "Navatejera", "country": "ES", "coord": {"lon": -5.56435, "lat": 42.628422}}, {"id": 624401, "name": "Navayel\u2019nya", "country": "BY", "coord": {"lon": 25.583332, "lat": 53.466667}}, {"id": 3115573, "name": "Navaz", "country": "ES", "coord": {"lon": -1.6773, "lat": 42.892731}}, {"id": 3172363, "name": "Nave", "country": "IT", "coord": {"lon": 10.28997, "lat": 45.587479}}, {"id": 6535801, "name": "Nave San Rocco", "country": "IT", "coord": {"lon": 11.10508, "lat": 46.167709}}, {"id": 3456370, "name": "Navegantes", "country": "BR", "coord": {"lon": -48.654171, "lat": -26.89889}}, {"id": 6434070, "name": "Naveil", "country": "FR", "coord": {"lon": 1.03333, "lat": 47.799999}}, {"id": 2990866, "name": "Naveil", "country": "FR", "coord": {"lon": 1.03222, "lat": 47.795761}}, {"id": 5376285, "name": "Navelencia", "country": "US", "coord": {"lon": -119.385681, "lat": 36.683281}}, {"id": 1261660, "name": "Navelim", "country": "IN", "coord": {"lon": 73.98333, "lat": 15.53333}}, {"id": 3172360, "name": "Navelli", "country": "IT", "coord": {"lon": 13.7286, "lat": 42.23774}}, {"id": 2641861, "name": "Navenby", "country": "GB", "coord": {"lon": -0.52494, "lat": 53.1068}}, {"id": 6442037, "name": "Navenne", "country": "FR", "coord": {"lon": 6.16667, "lat": 47.599998}}, {"id": 2990865, "name": "Navenne", "country": "FR", "coord": {"lon": 6.16176, "lat": 47.60873}}, {"id": 2990861, "name": "Naves", "country": "FR", "coord": {"lon": 4.10836, "lat": 45.2939}}, {"id": 6428379, "name": "Naves", "country": "FR", "coord": {"lon": 1.76667, "lat": 45.316669}}, {"id": 2990860, "name": "Naves", "country": "FR", "coord": {"lon": 1.76708, "lat": 45.31395}}, {"id": 5101669, "name": "Navesink", "country": "US", "coord": {"lon": -74.035423, "lat": 40.399551}}, {"id": 6356829, "name": "Navezuelas", "country": "ES", "coord": {"lon": -5.42558, "lat": 39.501991}}, {"id": 2513288, "name": "Navezuelas", "country": "ES", "coord": {"lon": -5.43766, "lat": 39.509178}}, {"id": 6619347, "name": "Navi Mumbai", "country": "IN", "coord": {"lon": 73.015823, "lat": 19.03681}}, {"id": 6359944, "name": "Navia", "country": "ES", "coord": {"lon": -6.66208, "lat": 43.544601}}, {"id": 3115553, "name": "Navia", "country": "ES", "coord": {"lon": -6.71935, "lat": 43.535439}}, {"id": 6359195, "name": "Navia de Suarna", "country": "ES", "coord": {"lon": -6.96833, "lat": 42.984901}}, {"id": 3115550, "name": "Navia de Suarna", "country": "ES", "coord": {"lon": -7, "lat": 42.966671}}, {"id": 6362574, "name": "Navianos de Valverde", "country": "ES", "coord": {"lon": -5.8144, "lat": 41.95274}}, {"id": 3115547, "name": "Navianos de Valverde", "country": "ES", "coord": {"lon": -5.81781, "lat": 41.95319}}, {"id": 2155643, "name": "Navigator", "country": "AU", "coord": {"lon": 143.933334, "lat": -37.616669}}, {"id": 4261996, "name": "Navilleton", "country": "US", "coord": {"lon": -85.938583, "lat": 38.381729}}, {"id": 627318, "name": "Navinki", "country": "BY", "coord": {"lon": 27.549999, "lat": 53.933334}}, {"id": 3456368, "name": "Navirai", "country": "BR", "coord": {"lon": -54.190559, "lat": -23.065001}}, {"id": 2770909, "name": "Navis", "country": "AT", "coord": {"lon": 11.53333, "lat": 47.116669}}, {"id": 3319571, "name": "Navis", "country": "AT", "coord": {"lon": 11.53333, "lat": 47.116669}}, {"id": 523186, "name": "Navlya", "country": "RU", "coord": {"lon": 34.49889, "lat": 52.828056}}, {"id": 672486, "name": "Navodari", "country": "RO", "coord": {"lon": 28.6, "lat": 44.316669}}, {"id": 1513131, "name": "Navoiy", "country": "UZ", "coord": {"lon": 65.379173, "lat": 40.084438}}, {"id": 1484841, "name": "Navoiy Province", "country": "UZ", "coord": {"lon": 64, "lat": 42}}, {"id": 1538229, "name": "Navoiy Shahri", "country": "UZ", "coord": {"lon": 65.371201, "lat": 40.092941}}, {"id": 3995019, "name": "Navojoa", "country": "MX", "coord": {"lon": -109.433327, "lat": 27.1}}, {"id": 3995017, "name": "Navolato", "country": "MX", "coord": {"lon": -107.694443, "lat": 24.76722}}, {"id": 523161, "name": "Navoloki", "country": "RU", "coord": {"lon": 41.96344, "lat": 57.465721}}, {"id": 2135662, "name": "Navonda", "country": "VU", "coord": {"lon": 167.966675, "lat": -15.31667}}, {"id": 1697846, "name": "Navotas", "country": "PH", "coord": {"lon": 120.949997, "lat": 14.66667}}, {"id": 1697847, "name": "Navotas", "country": "PH", "coord": {"lon": 120.953331, "lat": 14.65444}}, {"id": 1697848, "name": "Navotas", "country": "PH", "coord": {"lon": 121.226799, "lat": 14.4167}}, {"id": 2297505, "name": "Navrongo", "country": "GH", "coord": {"lon": -1.0921, "lat": 10.89557}}, {"id": 3070010, "name": "Navsi u Jablunkova", "country": "CZ", "coord": {"lon": 18.759069, "lat": 49.5872}}, {"id": 616383, "name": "Navur", "country": "AM", "coord": {"lon": 45.341789, "lat": 40.86694}}, {"id": 5804540, "name": "Navy Yard City", "country": "US", "coord": {"lon": -122.664581, "lat": 47.553429}}, {"id": 6356170, "name": "Nav\u00e0s", "country": "ES", "coord": {"lon": 1.8742, "lat": 41.897678}}, {"id": 1261647, "name": "Nawa", "country": "IN", "coord": {"lon": 75, "lat": 27.01667}}, {"id": 166365, "name": "Nawa", "country": "SY", "coord": {"lon": 36.039902, "lat": 32.890442}}, {"id": 1261639, "name": "Nawabganj", "country": "IN", "coord": {"lon": 79.633331, "lat": 28.549999}}, {"id": 1261641, "name": "Nawabganj", "country": "IN", "coord": {"lon": 81.216667, "lat": 26.933331}}, {"id": 1261642, "name": "Nawabganj", "country": "IN", "coord": {"lon": 82.133331, "lat": 26.866671}}, {"id": 1337240, "name": "Nawabganj", "country": "BD", "coord": {"lon": 88.271019, "lat": 24.59112}}, {"id": 1261638, "name": "Nawabganj", "country": "IN", "coord": {"lon": 80.300003, "lat": 26.5}}, {"id": 1169116, "name": "Nawabshah", "country": "PK", "coord": {"lon": 68.409554, "lat": 26.248329}}, {"id": 1261631, "name": "Nawada", "country": "IN", "coord": {"lon": 85.533333, "lat": 24.883329}}, {"id": 7969491, "name": "Nawal", "country": "NP", "coord": {"lon": 84.102791, "lat": 28.64831}}, {"id": 1261613, "name": "Nawalgarh", "country": "IN", "coord": {"lon": 75.26667, "lat": 27.85}}, {"id": 1282991, "name": "Nawalpar\u0101s\u012b", "country": "NP", "coord": {"lon": 83.916672, "lat": 27.66667}}, {"id": 1261607, "name": "Nawanshahr", "country": "IN", "coord": {"lon": 74.533333, "lat": 32.76667}}, {"id": 2297503, "name": "Nawari", "country": "GH", "coord": {"lon": 0.26667, "lat": 10.21667}}, {"id": 1261598, "name": "Nawashahr", "country": "IN", "coord": {"lon": 76.133331, "lat": 31.116671}}, {"id": 7601771, "name": "Nawerewere Village", "country": "KI", "coord": {"lon": 173.139343, "lat": 1.36362}}, {"id": 764067, "name": "Nawojowa", "country": "PL", "coord": {"lon": 20.739269, "lat": 49.56686}}, {"id": 7446417, "name": "Nawu", "country": "CN", "coord": {"lon": 102.913368, "lat": 34.954029}}, {"id": 1818086, "name": "Naxi", "country": "CN", "coord": {"lon": 105.364883, "lat": 28.77422}}, {"id": 256632, "name": "Naxos", "country": "GR", "coord": {"lon": 25.37639, "lat": 37.10556}}, {"id": 2562683, "name": "Naxxar", "country": "MT", "coord": {"lon": 14.44361, "lat": 35.913609}}, {"id": 6435510, "name": "Nay", "country": "FR", "coord": {"lon": -1.36667, "lat": 49.23333}}, {"id": 2990851, "name": "Nay", "country": "FR", "coord": {"lon": -1.37238, "lat": 49.243679}}, {"id": 6454512, "name": "Nay", "country": "FR", "coord": {"lon": -0.26667, "lat": 43.183331}}, {"id": 2990852, "name": "Nay", "country": "FR", "coord": {"lon": -0.26667, "lat": 43.183331}}, {"id": 6611854, "name": "Nay Pyi Taw", "country": "MM", "coord": {"lon": 96.129723, "lat": 19.745001}}, {"id": 1261588, "name": "Naya Bazar", "country": "IN", "coord": {"lon": 88.26667, "lat": 27.133329}}, {"id": 1261580, "name": "Nayagarh", "country": "IN", "coord": {"lon": 85.099998, "lat": 20.133329}}, {"id": 1132034, "name": "Nayak", "country": "AF", "coord": {"lon": 66.952919, "lat": 34.734138}}, {"id": 1132046, "name": "Nayak", "country": "AF", "coord": {"lon": 66.774033, "lat": 32.5723}}, {"id": 1532612, "name": "Naydorf", "country": "KZ", "coord": {"lon": 72.26667, "lat": 54.299999}}, {"id": 6086424, "name": "Naylors Landing", "country": "CA", "coord": {"lon": -121.102966, "lat": 61.8335}}, {"id": 2155641, "name": "Nayook", "country": "AU", "coord": {"lon": 145.949997, "lat": -37.933331}}, {"id": 2128983, "name": "Nayoro", "country": "JP", "coord": {"lon": 142.457779, "lat": 44.350559}}, {"id": 1261567, "name": "Nayudupeta", "country": "IN", "coord": {"lon": 79.900002, "lat": 13.9}}, {"id": 6644137, "name": "Nayun", "country": "CN", "coord": {"lon": 99.561317, "lat": 22.331961}}, {"id": 3166910, "name": "Naz-Sciaves - Natz-Schabs", "country": "IT", "coord": {"lon": 11.66558, "lat": 46.768829}}, {"id": 6359730, "name": "Nazar", "country": "ES", "coord": {"lon": -2.28044, "lat": 42.639568}}, {"id": 3115543, "name": "Nazar", "country": "ES", "coord": {"lon": -2.27966, "lat": 42.63686}}, {"id": 122438, "name": "Nazarabad", "country": "IR", "coord": {"lon": 50.607498, "lat": 35.952099}}, {"id": 3456366, "name": "Nazare", "country": "BR", "coord": {"lon": -39.014439, "lat": -13.035}}, {"id": 2265552, "name": "Nazare", "country": "PT", "coord": {"lon": -9.06836, "lat": 39.60289}}, {"id": 3393972, "name": "Nazare da Mata", "country": "BR", "coord": {"lon": -35.227779, "lat": -7.74167}}, {"id": 3995010, "name": "Nazareno", "country": "MX", "coord": {"lon": -103.416672, "lat": 25.383329}}, {"id": 294098, "name": "Nazareth", "country": "IL", "coord": {"lon": 35.295559, "lat": 32.703609}}, {"id": 2790435, "name": "Nazareth", "country": "BE", "coord": {"lon": 3.61373, "lat": 50.95702}}, {"id": 2790433, "name": "Nazareth", "country": "BE", "coord": {"lon": 3.59426, "lat": 50.95686}}, {"id": 5202938, "name": "Nazareth", "country": "US", "coord": {"lon": -75.309624, "lat": 40.740379}}, {"id": 3393968, "name": "Nazarezinho", "country": "BR", "coord": {"lon": -38.324718, "lat": -6.91583}}, {"id": 523110, "name": "Nazarovo", "country": "RU", "coord": {"lon": 36.616669, "lat": 56.066666}}, {"id": 523112, "name": "Nazarovo", "country": "RU", "coord": {"lon": 38.616669, "lat": 55.783333}}, {"id": 523113, "name": "Nazarovo", "country": "RU", "coord": {"lon": 39.144348, "lat": 55.398029}}, {"id": 1497951, "name": "Nazarovo", "country": "RU", "coord": {"lon": 90.391388, "lat": 56.00639}}, {"id": 8010551, "name": "Nazar\u00e9", "country": "PT", "coord": {"lon": -9.04881, "lat": 39.585972}}, {"id": 8012383, "name": "Nazar\u00e9", "country": "PT", "coord": {"lon": -9.02847, "lat": 39.61227}}, {"id": 2410975, "name": "Nazar\u00e9", "country": "ST", "coord": {"lon": 6.71667, "lat": 0.36667}}, {"id": 3663186, "name": "Nazar\u00e9", "country": "BR", "coord": {"lon": -62.916672, "lat": -0.98333}}, {"id": 523094, "name": "Nazar\u2019yevo", "country": "RU", "coord": {"lon": 41.198334, "lat": 53.772499}}, {"id": 3995006, "name": "Nazas", "country": "MX", "coord": {"lon": -104.099998, "lat": 25.216669}}, {"id": 3995005, "name": "Nazas", "country": "MX", "coord": {"lon": -104.133331, "lat": 25.23333}}, {"id": 3934356, "name": "Nazca", "country": "PE", "coord": {"lon": -74.949997, "lat": -14.83333}}, {"id": 1855540, "name": "Naze", "country": "JP", "coord": {"lon": 129.483337, "lat": 28.366671}}, {"id": 2990848, "name": "Nazelles-Negron", "country": "FR", "coord": {"lon": 0.95, "lat": 47.433331}}, {"id": 6616642, "name": "Nazelles-N\u00e9gron", "country": "FR", "coord": {"lon": 0.9539, "lat": 47.432701}}, {"id": 523081, "name": "Nazhitsy", "country": "RU", "coord": {"lon": 38.853401, "lat": 55.791439}}, {"id": 303873, "name": "Nazilli", "country": "TR", "coord": {"lon": 28.32225, "lat": 37.916309}}, {"id": 523077, "name": "Nazimikha", "country": "RU", "coord": {"lon": 38.114445, "lat": 55.976665}}, {"id": 303872, "name": "Nazimiye", "country": "TR", "coord": {"lon": 39.82843, "lat": 39.179859}}, {"id": 7649128, "name": "Nazir Town", "country": "PK", "coord": {"lon": 73.483299, "lat": 33.306141}}, {"id": 1261563, "name": "Nazira", "country": "IN", "coord": {"lon": 94.73333, "lat": 26.91667}}, {"id": 523069, "name": "Naziya", "country": "RU", "coord": {"lon": 31.383329, "lat": 59.799999}}, {"id": 282540, "name": "Nazlat Isa", "country": "PS", "coord": {"lon": 35.05888, "lat": 32.415619}}, {"id": 523064, "name": "Nazran", "country": "RU", "coord": {"lon": 44.764999, "lat": 43.226109}}, {"id": 330186, "name": "Nazret", "country": "ET", "coord": {"lon": 39.26667, "lat": 8.55}}, {"id": 1497932, "name": "Nazyvayevsk", "country": "RU", "coord": {"lon": 71.352943, "lat": 55.569752}}, {"id": 6549889, "name": "Nazza", "country": "DE", "coord": {"lon": 10.3333, "lat": 51.099998}}, {"id": 2866832, "name": "Nazza", "country": "DE", "coord": {"lon": 10.33333, "lat": 51.099998}}, {"id": 3172352, "name": "Nazzano", "country": "IT", "coord": {"lon": 12.59628, "lat": 42.231129}}, {"id": 3456356, "name": "Naz\u00e1rio", "country": "BR", "coord": {"lon": -49.881672, "lat": -16.581671}}, {"id": 2139988, "name": "Na\u00efa", "country": "NC", "coord": {"lon": 166.25, "lat": -22.16667}}, {"id": 3115762, "name": "Na\u00f3n", "country": "ES", "coord": {"lon": -5.79444, "lat": 43.399231}}, {"id": 294097, "name": "Na\u1e95erat \u2018Illit", "country": "IL", "coord": {"lon": 35.32468, "lat": 32.70816}}, {"id": 7456685, "name": "Ncera", "country": "ID", "coord": {"lon": 118.744598, "lat": -8.6349}}, {"id": 175499, "name": "Nchelenge", "country": "ZM", "coord": {"lon": 28.733959, "lat": -9.34506}}, {"id": 925074, "name": "Nchesi", "country": "MW", "coord": {"lon": 33.783329, "lat": -13.98333}}, {"id": 2307502, "name": "Ncue", "country": "GQ", "coord": {"lon": 10.47066, "lat": 2.01643}}, {"id": 151872, "name": "Ndago", "country": "TZ", "coord": {"lon": 34.349998, "lat": -4.6}}, {"id": 2239076, "name": "Ndalatando", "country": "AO", "coord": {"lon": 14.91162, "lat": -9.29782}}, {"id": 1634282, "name": "Ndano", "country": "ID", "coord": {"lon": 118.540703, "lat": -8.496}}, {"id": 237379, "name": "Ndele", "country": "CF", "coord": {"lon": 20.64728, "lat": 8.41091}}, {"id": 2225325, "name": "Ndelele", "country": "CM", "coord": {"lon": 14.93333, "lat": 4.03333}}, {"id": 2397614, "name": "Ndende", "country": "GA", "coord": {"lon": 11.35813, "lat": -2.40077}}, {"id": 7569781, "name": "Ndewel", "country": "ID", "coord": {"lon": 120.046997, "lat": -8.5848}}, {"id": 2247813, "name": "Ndibene Dahra", "country": "SN", "coord": {"lon": -15.4766, "lat": 15.3338}}, {"id": 2225263, "name": "Ndikinimeki", "country": "CM", "coord": {"lon": 10.83333, "lat": 4.76667}}, {"id": 2247684, "name": "Ndioum", "country": "SN", "coord": {"lon": -14.64706, "lat": 16.51293}}, {"id": 2397674, "name": "Ndjole", "country": "GA", "coord": {"lon": 10.76488, "lat": -0.17827}}, {"id": 2247660, "name": "Ndofane", "country": "SN", "coord": {"lon": -15.93333, "lat": 13.91667}}, {"id": 901344, "name": "Ndola", "country": "ZM", "coord": {"lon": 28.636589, "lat": -12.95867}}, {"id": 2312096, "name": "Ndolo", "country": "CD", "coord": {"lon": 15.31667, "lat": -4.31667}}, {"id": 2595172, "name": "Ndom", "country": "CM", "coord": {"lon": 9.5628, "lat": 4.4978}}, {"id": 7337999, "name": "Ndona", "country": "ID", "coord": {"lon": 121.686203, "lat": -8.8338}}, {"id": 2594997, "name": "Ndongo", "country": "CM", "coord": {"lon": 9.3483, "lat": 4.0792}}, {"id": 7613710, "name": "Nduaria", "country": "ID", "coord": {"lon": 121.8283, "lat": -8.7121}}, {"id": 151785, "name": "Nduli", "country": "TZ", "coord": {"lon": 35.76667, "lat": -7.66667}}, {"id": 901298, "name": "Ndumbakahehu", "country": "ZM", "coord": {"lon": 24.216669, "lat": -11.33333}}, {"id": 151775, "name": "Ndungu", "country": "TZ", "coord": {"lon": 38.049999, "lat": -4.36667}}, {"id": 922001, "name": "Ndzuwani", "country": "KM", "coord": {"lon": 44.416672, "lat": -12.25}}, {"id": 408628, "name": "Nea Alikarnassos", "country": "GR", "coord": {"lon": 25.16667, "lat": 35.333328}}, {"id": 256627, "name": "Nea Ankhialos", "country": "GR", "coord": {"lon": 22.816669, "lat": 39.283329}}, {"id": 735025, "name": "Nea Apollonia", "country": "GR", "coord": {"lon": 23.450001, "lat": 40.633331}}, {"id": 256626, "name": "Nea Artaki", "country": "GR", "coord": {"lon": 23.633329, "lat": 38.51667}}, {"id": 735023, "name": "Nea Efesos", "country": "GR", "coord": {"lon": 22.496389, "lat": 40.23}}, {"id": 256622, "name": "Nea Erythraia", "country": "GR", "coord": {"lon": 23.816669, "lat": 38.099998}}, {"id": 256621, "name": "Nea Filadelfeia", "country": "GR", "coord": {"lon": 23.73333, "lat": 38.033329}}, {"id": 735021, "name": "Nea Fokaia", "country": "GR", "coord": {"lon": 23.4, "lat": 40.133331}}, {"id": 736450, "name": "Nea Ionia", "country": "GR", "coord": {"lon": 22.856939, "lat": 40.688889}}, {"id": 256614, "name": "Nea Ionia", "country": "GR", "coord": {"lon": 23.75, "lat": 38.033329}}, {"id": 735017, "name": "Nea Irakleitsa", "country": "GR", "coord": {"lon": 24.31583, "lat": 40.864441}}, {"id": 735018, "name": "Nea Iraklia", "country": "GR", "coord": {"lon": 23.26667, "lat": 41.183331}}, {"id": 735016, "name": "Nea Kallikratia", "country": "GR", "coord": {"lon": 23.066669, "lat": 40.316669}}, {"id": 735014, "name": "Nea Karvali", "country": "GR", "coord": {"lon": 24.51, "lat": 40.96167}}, {"id": 735015, "name": "Nea Karya", "country": "GR", "coord": {"lon": 24.70833, "lat": 40.907501}}, {"id": 256606, "name": "Nea Kios", "country": "GR", "coord": {"lon": 22.74144, "lat": 37.591019}}, {"id": 735004, "name": "Nea Magnisia", "country": "GR", "coord": {"lon": 22.846939, "lat": 40.6875}}, {"id": 256598, "name": "Nea Makri", "country": "GR", "coord": {"lon": 23.98333, "lat": 38.083328}}, {"id": 735003, "name": "Nea Malgara", "country": "GR", "coord": {"lon": 22.681669, "lat": 40.60944}}, {"id": 256596, "name": "Nea Manolas", "country": "GR", "coord": {"lon": 21.383329, "lat": 38.049999}}, {"id": 735002, "name": "Nea Mesimvria", "country": "GR", "coord": {"lon": 22.762501, "lat": 40.751389}}, {"id": 735001, "name": "Nea Michaniona", "country": "GR", "coord": {"lon": 22.8613, "lat": 40.46489}}, {"id": 734996, "name": "Nea Olinthos", "country": "GR", "coord": {"lon": 23.35, "lat": 40.299999}}, {"id": 256593, "name": "Nea Palatia", "country": "GR", "coord": {"lon": 23.799999, "lat": 38.316669}}, {"id": 734995, "name": "Nea Pella", "country": "GR", "coord": {"lon": 22.485559, "lat": 40.766109}}, {"id": 256592, "name": "Nea Peramos", "country": "GR", "coord": {"lon": 23.422951, "lat": 38.007629}}, {"id": 734994, "name": "Nea Peramos", "country": "GR", "coord": {"lon": 24.30361, "lat": 40.83889}}, {"id": 734992, "name": "Nea Playia", "country": "GR", "coord": {"lon": 23.200001, "lat": 40.26667}}, {"id": 734990, "name": "Nea Potidhaia", "country": "GR", "coord": {"lon": 23.33333, "lat": 40.200001}}, {"id": 734987, "name": "Nea Santa", "country": "GR", "coord": {"lon": 22.921631, "lat": 40.840839}}, {"id": 256580, "name": "Nea Selefkeia", "country": "GR", "coord": {"lon": 20.25861, "lat": 39.525558}}, {"id": 256575, "name": "Nea Smyrni", "country": "GR", "coord": {"lon": 23.716669, "lat": 37.950001}}, {"id": 256572, "name": "Nea Stira", "country": "GR", "coord": {"lon": 24.200001, "lat": 38.183331}}, {"id": 256571, "name": "Nea Tirins", "country": "GR", "coord": {"lon": 22.816669, "lat": 37.599998}}, {"id": 734979, "name": "Nea Triglia", "country": "GR", "coord": {"lon": 23.200001, "lat": 40.299999}}, {"id": 734978, "name": "Nea Vissa", "country": "GR", "coord": {"lon": 26.533331, "lat": 41.583328}}, {"id": 734977, "name": "Nea Zichni", "country": "GR", "coord": {"lon": 23.82972, "lat": 41.033058}}, {"id": 2962306, "name": "Neale", "country": "IE", "coord": {"lon": -9.23333, "lat": 53.566669}}, {"id": 3522781, "name": "Nealtican", "country": "MX", "coord": {"lon": -98.416672, "lat": 19.049999}}, {"id": 256589, "name": "Neapoli", "country": "GR", "coord": {"lon": 25.60972, "lat": 35.253891}}, {"id": 7299867, "name": "Neath", "country": "GB", "coord": {"lon": -3.79898, "lat": 51.65432}}, {"id": 2155634, "name": "Neath", "country": "AU", "coord": {"lon": 151.416672, "lat": -32.816669}}, {"id": 2641843, "name": "Neath", "country": "GB", "coord": {"lon": -3.80443, "lat": 51.66317}}, {"id": 3333245, "name": "Neath Port Talbot", "country": "GB", "coord": {"lon": -3.75, "lat": 51.666672}}, {"id": 672456, "name": "Neaua", "country": "RO", "coord": {"lon": 24.83333, "lat": 46.48333}}, {"id": 6430507, "name": "Neaufles-Saint-Martin", "country": "FR", "coord": {"lon": 1.73333, "lat": 49.283329}},