[{"id": 2812958, "name": "Weidenstetten", "country": "DE", "coord": {"lon": 9.9961, "lat": 48.552502}}, {"id": 2839426, "name": "Schierenbalken", "country": "DE", "coord": {"lon": 10.53333, "lat": 52.416672}}, {"id": 6552358, "name": "B\u00fcddenstedt", "country": "DE", "coord": {"lon": 11, "lat": 52.166698}}, {"id": 3208594, "name": "Bueddenstedt", "country": "DE", "coord": {"lon": 11.01877, "lat": 52.170349}}, {"id": 6552378, "name": "Wolsdorf", "country": "DE", "coord": {"lon": 10.95, "lat": 52.200001}}, {"id": 2806310, "name": "Wolsdorf", "country": "DE", "coord": {"lon": 10.93878, "lat": 52.190979}}, {"id": 6555398, "name": "Hildrizhausen", "country": "DE", "coord": {"lon": 8.96699, "lat": 48.624401}}, {"id": 2904784, "name": "Hildrizhausen", "country": "DE", "coord": {"lon": 8.96605, "lat": 48.624229}}, {"id": 2880231, "name": "Laubuseschbach", "country": "DE", "coord": {"lon": 8.33333, "lat": 50.400002}}, {"id": 2895055, "name": "Jelpke", "country": "DE", "coord": {"lon": 10.65, "lat": 52.383331}}, {"id": 2888850, "name": "Klein Gleidingen", "country": "DE", "coord": {"lon": 10.41667, "lat": 52.25}}, {"id": 2911917, "name": "Hain", "country": "DE", "coord": {"lon": 7.18333, "lat": 50.450001}}, {"id": 6553454, "name": "Werkhausen", "country": "DE", "coord": {"lon": 7.53333, "lat": 50.733299}}, {"id": 2810883, "name": "Werkhausen", "country": "DE", "coord": {"lon": 7.53333, "lat": 50.73333}}, {"id": 6551498, "name": "Schnakenbek", "country": "DE", "coord": {"lon": 10.5, "lat": 53.383301}}, {"id": 2837566, "name": "Schnakenbek", "country": "DE", "coord": {"lon": 10.5, "lat": 53.383331}}, {"id": 6551467, "name": "Kr\u00fczen", "country": "DE", "coord": {"lon": 10.5333, "lat": 53.400002}}, {"id": 2883191, "name": "Kruzen", "country": "DE", "coord": {"lon": 10.53333, "lat": 53.400002}}, {"id": 6552109, "name": "Kisdorf", "country": "DE", "coord": {"lon": 10.0167, "lat": 53.8167}}, {"id": 2890218, "name": "Kisdorf", "country": "DE", "coord": {"lon": 10.01667, "lat": 53.816669}}, {"id": 6551428, "name": "Elmenhorst", "country": "DE", "coord": {"lon": 10.53486, "lat": 53.545818}}, {"id": 2930853, "name": "Elmenhorst", "country": "DE", "coord": {"lon": 10.5352, "lat": 53.545609}}, {"id": 6547584, "name": "Sallgast", "country": "DE", "coord": {"lon": 13.8667, "lat": 51.583302}}, {"id": 2842258, "name": "Sallgast", "country": "DE", "coord": {"lon": 13.86667, "lat": 51.583328}}, {"id": 2898485, "name": "Hosena", "country": "DE", "coord": {"lon": 14.01667, "lat": 51.450001}}, {"id": 2864180, "name": "Neuseggebruch", "country": "DE", "coord": {"lon": 9.1, "lat": 52.299999}}, {"id": 2878759, "name": "Lentersdorf", "country": "DE", "coord": {"lon": 10.73333, "lat": 49.400002}}, {"id": 2873304, "name": "Markt Erlbach", "country": "DE", "coord": {"lon": 10.65, "lat": 49.48333}}, {"id": 2909364, "name": "Hasselsweiler", "country": "DE", "coord": {"lon": 6.38333, "lat": 50.98333}}, {"id": 2854772, "name": "Pesterwitz", "country": "DE", "coord": {"lon": 13.66667, "lat": 51.033329}}, {"id": 2951797, "name": "Beberstedt", "country": "DE", "coord": {"lon": 10.4, "lat": 51.299999}}, {"id": 6559292, "name": "Bockstadt", "country": "DE", "coord": {"lon": 10.88554, "lat": 50.442032}}, {"id": 2947226, "name": "Bockstadt", "country": "DE", "coord": {"lon": 10.88333, "lat": 50.400002}}, {"id": 2953636, "name": "Bachingen an der Brenz", "country": "DE", "coord": {"lon": 10.31281, "lat": 48.546268}}, {"id": 2862747, "name": "Niederweiler", "country": "DE", "coord": {"lon": 9.41667, "lat": 47.866669}}, {"id": 2871448, "name": "Meuschenmoos", "country": "DE", "coord": {"lon": 9.65, "lat": 47.75}}, {"id": 6557241, "name": "Breitenbrunn", "country": "DE", "coord": {"lon": 10.4, "lat": 48.133301}}, {"id": 2944638, "name": "Breitenbrunn", "country": "DE", "coord": {"lon": 10.4, "lat": 48.133331}}, {"id": 2923315, "name": "Gailingen", "country": "DE", "coord": {"lon": 8.75567, "lat": 47.697109}}, {"id": 6555551, "name": "Michelbach an der Bilz", "country": "DE", "coord": {"lon": 9.7625, "lat": 49.070301}}, {"id": 2871342, "name": "Michelbach an der Bilz", "country": "DE", "coord": {"lon": 9.7625, "lat": 49.070278}}, {"id": 2952535, "name": "Barmissen", "country": "DE", "coord": {"lon": 10.18333, "lat": 54.200001}}, {"id": 6552254, "name": "Wewelsfleth", "country": "DE", "coord": {"lon": 9.4, "lat": 53.849998}}, {"id": 2809861, "name": "Wewelsfleth", "country": "DE", "coord": {"lon": 9.4, "lat": 53.849998}}, {"id": 6551324, "name": "Gaushorn", "country": "DE", "coord": {"lon": 9.23333, "lat": 54.200001}}, {"id": 2922237, "name": "Gaushorn", "country": "DE", "coord": {"lon": 9.23333, "lat": 54.200001}}, {"id": 2881801, "name": "Lake", "country": "DE", "coord": {"lon": 9.13333, "lat": 52.916672}}, {"id": 2888922, "name": "Klein Fedderwarden", "country": "DE", "coord": {"lon": 8.36667, "lat": 53.583328}}, {"id": 6552583, "name": "Fl\u00f6geln", "country": "DE", "coord": {"lon": 8.81667, "lat": 53.666698}}, {"id": 2926154, "name": "Flogeln", "country": "DE", "coord": {"lon": 8.81667, "lat": 53.666672}}, {"id": 2858873, "name": "Oberstrich", "country": "DE", "coord": {"lon": 8.53333, "lat": 53.700001}}, {"id": 2951465, "name": "Behrensdorf", "country": "DE", "coord": {"lon": 10.6049, "lat": 54.350399}}, {"id": 6551823, "name": "D\u00e4tgen", "country": "DE", "coord": {"lon": 9.93333, "lat": 54.1833}}, {"id": 2938787, "name": "Datgen", "country": "DE", "coord": {"lon": 9.93333, "lat": 54.183331}}, {"id": 6551499, "name": "Sch\u00f6nberg", "country": "DE", "coord": {"lon": 10.4344, "lat": 53.674999}}, {"id": 2836945, "name": "Schonberg", "country": "DE", "coord": {"lon": 10.42671, "lat": 53.683189}}, {"id": 6551842, "name": "Gokels", "country": "DE", "coord": {"lon": 9.46667, "lat": 54.116699}}, {"id": 2919460, "name": "Gokels", "country": "DE", "coord": {"lon": 9.46667, "lat": 54.116669}}, {"id": 6552259, "name": "Wrist", "country": "DE", "coord": {"lon": 9.76667, "lat": 53.9333}}, {"id": 2805994, "name": "Wrist", "country": "DE", "coord": {"lon": 9.76667, "lat": 53.933331}}, {"id": 2888614, "name": "Klein Krempdorf", "country": "DE", "coord": {"lon": 9.46667, "lat": 53.833328}}, {"id": 2863428, "name": "Niederfullbach", "country": "DE", "coord": {"lon": 10.98333, "lat": 50.216671}}, {"id": 6556347, "name": "Hettenshausen", "country": "DE", "coord": {"lon": 11.5, "lat": 48.5}}, {"id": 2905222, "name": "Hettenshausen", "country": "DE", "coord": {"lon": 11.5, "lat": 48.5}}, {"id": 2926671, "name": "Finsterwald", "country": "DE", "coord": {"lon": 11.71743, "lat": 47.753811}}, {"id": 2908816, "name": "Hauserd\u00f6rfl", "country": "DE", "coord": {"lon": 11.7, "lat": 47.76667}}, {"id": 2814154, "name": "Warbsen", "country": "DE", "coord": {"lon": 9.51667, "lat": 51.900002}}, {"id": 6554871, "name": "Partenheim", "country": "DE", "coord": {"lon": 8.08222, "lat": 49.8839}}, {"id": 2849025, "name": "Reichertshausen", "country": "DE", "coord": {"lon": 11.55843, "lat": 47.898819}}, {"id": 2906216, "name": "Herbertshofen", "country": "DE", "coord": {"lon": 10.85, "lat": 48.533329}}, {"id": 2859802, "name": "Obermedlingen", "country": "DE", "coord": {"lon": 10.31852, "lat": 48.567551}}, {"id": 2922251, "name": "Gaulzhofen", "country": "DE", "coord": {"lon": 10.98333, "lat": 48.48333}}, {"id": 2835080, "name": "Schwarzeck", "country": "DE", "coord": {"lon": 12.9, "lat": 47.616669}}, {"id": 2814637, "name": "Wallenfels", "country": "DE", "coord": {"lon": 11.46667, "lat": 50.26667}}, {"id": 2941511, "name": "Burg", "country": "DE", "coord": {"lon": 7.11667, "lat": 50.01667}}, {"id": 6554329, "name": "Heidweiler", "country": "DE", "coord": {"lon": 6.75, "lat": 49.916698}}, {"id": 2907703, "name": "Heidweiler", "country": "DE", "coord": {"lon": 6.75, "lat": 49.916672}}, {"id": 2958513, "name": "Algenrodt", "country": "DE", "coord": {"lon": 7.28333, "lat": 49.716671}}, {"id": 2896757, "name": "Idar", "country": "DE", "coord": {"lon": 7.3, "lat": 49.716671}}, {"id": 6554785, "name": "Rascheid", "country": "DE", "coord": {"lon": 6.93333, "lat": 49.716702}}, {"id": 2850300, "name": "Rascheid", "country": "DE", "coord": {"lon": 6.93333, "lat": 49.716671}}, {"id": 6554309, "name": "Dierscheid", "country": "DE", "coord": {"lon": 6.75, "lat": 49.900002}}, {"id": 2937263, "name": "Dierscheid", "country": "DE", "coord": {"lon": 6.75, "lat": 49.900002}}, {"id": 6554731, "name": "F\u00f6hren", "country": "DE", "coord": {"lon": 6.76667, "lat": 49.849998}}, {"id": 2925977, "name": "Fohren", "country": "DE", "coord": {"lon": 6.76667, "lat": 49.849998}}, {"id": 2939276, "name": "Dalum", "country": "DE", "coord": {"lon": 7.73333, "lat": 52.549999}}, {"id": 6554941, "name": "Dreisen", "country": "DE", "coord": {"lon": 8.01056, "lat": 49.603298}}, {"id": 2935095, "name": "Dreisen", "country": "DE", "coord": {"lon": 8.01056, "lat": 49.603329}}, {"id": 2939905, "name": "Colmnitz", "country": "DE", "coord": {"lon": 13.51667, "lat": 50.900002}}, {"id": 2834550, "name": "Schweimnitz", "country": "DE", "coord": {"lon": 13.21667, "lat": 51.166672}}, {"id": 6553179, "name": "Gr\u00e4venwiesbach", "country": "DE", "coord": {"lon": 8.45, "lat": 50.400002}}, {"id": 2917868, "name": "Gravenwiesbach", "country": "DE", "coord": {"lon": 8.4569, "lat": 50.39024}}, {"id": 6554492, "name": "Pr\u00fcmzurlay", "country": "DE", "coord": {"lon": 6.43333, "lat": 49.866699}}, {"id": 2851818, "name": "Prumzurlay", "country": "DE", "coord": {"lon": 6.43333, "lat": 49.866669}}, {"id": 2927477, "name": "Felchow", "country": "DE", "coord": {"lon": 14.11151, "lat": 53.03368}}, {"id": 2891315, "name": "Kettenham", "country": "DE", "coord": {"lon": 12.18899, "lat": 47.995979}}, {"id": 2913731, "name": "Gumpertshausen", "country": "DE", "coord": {"lon": 11.58208, "lat": 47.964069}}, {"id": 2929853, "name": "Eppendorf", "country": "DE", "coord": {"lon": 9.96667, "lat": 53.583328}}, {"id": 6552100, "name": "Heidmoor", "country": "DE", "coord": {"lon": 9.85, "lat": 53.833302}}, {"id": 3208299, "name": "Heidmoor", "country": "DE", "coord": {"lon": 9.85, "lat": 53.833328}}, {"id": 6551968, "name": "Jagel", "country": "DE", "coord": {"lon": 9.5371, "lat": 54.452202}}, {"id": 2895445, "name": "Jagel", "country": "DE", "coord": {"lon": 9.53759, "lat": 54.45652}}, {"id": 2919910, "name": "Glienick", "country": "DE", "coord": {"lon": 13.38333, "lat": 52.25}}, {"id": 2901353, "name": "Hohenweiden", "country": "DE", "coord": {"lon": 11.93333, "lat": 51.416672}}, {"id": 6555245, "name": "Hochdorf-Assenheim", "country": "DE", "coord": {"lon": 8.28167, "lat": 49.419399}}, {"id": 3272464, "name": "Hochdorf-Assenheim", "country": "DE", "coord": {"lon": 8.28167, "lat": 49.419441}}, {"id": 6555861, "name": "Gaienhofen", "country": "DE", "coord": {"lon": 8.98333, "lat": 47.6833}}, {"id": 2923333, "name": "Gaienhofen", "country": "DE", "coord": {"lon": 8.98333, "lat": 47.683331}}, {"id": 2849235, "name": "Rehungen", "country": "DE", "coord": {"lon": 10.51667, "lat": 51.383331}}, {"id": 6554190, "name": "Astert", "country": "DE", "coord": {"lon": 7.78333, "lat": 50.700001}}, {"id": 2954979, "name": "Astert", "country": "DE", "coord": {"lon": 7.78333, "lat": 50.700001}}, {"id": 2828718, "name": "Steinb\u00e4chle", "country": "DE", "coord": {"lon": 7.95, "lat": 48.316669}}, {"id": 2827741, "name": "Steinperf", "country": "DE", "coord": {"lon": 8.46667, "lat": 50.816669}}, {"id": 2848576, "name": "Reisensburg", "country": "DE", "coord": {"lon": 10.30397, "lat": 48.461079}}, {"id": 6555844, "name": "Immendingen", "country": "DE", "coord": {"lon": 8.7045, "lat": 47.9338}}, {"id": 2896288, "name": "Immendingen", "country": "DE", "coord": {"lon": 8.73333, "lat": 47.933331}}, {"id": 2933606, "name": "Eckersdorf", "country": "DE", "coord": {"lon": 13.63333, "lat": 50.966671}}, {"id": 2927515, "name": "Feilberg", "country": "DE", "coord": {"lon": 10.46667, "lat": 53.633331}}, {"id": 6552132, "name": "Schmalensee", "country": "DE", "coord": {"lon": 10.2667, "lat": 54.083302}}, {"id": 2838087, "name": "Schmalensee", "country": "DE", "coord": {"lon": 10.26667, "lat": 54.083328}}, {"id": 6556126, "name": "K\u00f6nigsdorf", "country": "DE", "coord": {"lon": 11.4833, "lat": 47.8167}}, {"id": 2885898, "name": "Konigsdorf", "country": "DE", "coord": {"lon": 11.48063, "lat": 47.81546}}, {"id": 2944888, "name": "Bredentin", "country": "DE", "coord": {"lon": 12.1962, "lat": 53.853439}}, {"id": 6556871, "name": "M\u00f6hrendorf", "country": "DE", "coord": {"lon": 11.0094, "lat": 49.6511}}, {"id": 2870143, "name": "Mohrendorf", "country": "DE", "coord": {"lon": 11, "lat": 49.633331}}, {"id": 6556430, "name": "Hohenfurch", "country": "DE", "coord": {"lon": 10.9, "lat": 47.849998}}, {"id": 2901757, "name": "Hohenfurch", "country": "DE", "coord": {"lon": 10.9, "lat": 47.849998}}, {"id": 2811564, "name": "Welfesholz", "country": "DE", "coord": {"lon": 11.56667, "lat": 51.633331}}, {"id": 6553530, "name": "Rehbach", "country": "DE", "coord": {"lon": 7.63333, "lat": 49.849998}}, {"id": 2849443, "name": "Rehbach", "country": "DE", "coord": {"lon": 7.63333, "lat": 49.849998}}, {"id": 2930934, "name": "Ellingen", "country": "DE", "coord": {"lon": 10.96783, "lat": 49.06076}}, {"id": 2818726, "name": "Unterschur", "country": "DE", "coord": {"lon": 9.21667, "lat": 50.083328}}, {"id": 2940339, "name": "Canow", "country": "DE", "coord": {"lon": 12.9, "lat": 53.200001}}, {"id": 2899413, "name": "Hommersum", "country": "DE", "coord": {"lon": 6.03333, "lat": 51.683331}}, {"id": 6552137, "name": "Sieversh\u00fctten", "country": "DE", "coord": {"lon": 10.1, "lat": 53.849998}}, {"id": 2832280, "name": "Sievershutten", "country": "DE", "coord": {"lon": 10.1, "lat": 53.849998}}, {"id": 2955411, "name": "Arrach", "country": "DE", "coord": {"lon": 12.48333, "lat": 49.083328}}, {"id": 2925770, "name": "F\u00f6rstgen", "country": "DE", "coord": {"lon": 12.78594, "lat": 51.18951}}, {"id": 6554719, "name": "Ayl", "country": "DE", "coord": {"lon": 6.55, "lat": 49.633301}}, {"id": 2953828, "name": "Ayl", "country": "DE", "coord": {"lon": 6.55, "lat": 49.633331}}, {"id": 2881948, "name": "Lageltshausen", "country": "DE", "coord": {"lon": 11.66956, "lat": 48.382118}}, {"id": 6548641, "name": "Krauschwitz", "country": "DE", "coord": {"lon": 14.7, "lat": 51.516701}}, {"id": 2884656, "name": "Krauschwitz", "country": "DE", "coord": {"lon": 14.7, "lat": 51.51667}}, {"id": 2824183, "name": "Tannenbaum", "country": "DE", "coord": {"lon": 10.1, "lat": 53.700001}}, {"id": 2910875, "name": "Haenigsen", "country": "DE", "coord": {"lon": 10.1, "lat": 52.48333}}, {"id": 6550043, "name": "Stepfershausen", "country": "DE", "coord": {"lon": 10.3, "lat": 50.599998}}, {"id": 2827414, "name": "Stepfershausen", "country": "DE", "coord": {"lon": 10.3, "lat": 50.599998}}, {"id": 2849503, "name": "Regelsbach", "country": "DE", "coord": {"lon": 10.95, "lat": 49.366669}}, {"id": 6548809, "name": "Gohrau", "country": "DE", "coord": {"lon": 12.4833, "lat": 51.8167}}, {"id": 2919491, "name": "Gohrau", "country": "DE", "coord": {"lon": 12.48333, "lat": 51.816669}}, {"id": 6556250, "name": "Unterammergau", "country": "DE", "coord": {"lon": 11.0333, "lat": 47.616699}}, {"id": 2820020, "name": "Unterammergau", "country": "DE", "coord": {"lon": 11.02718, "lat": 47.616581}}, {"id": 2955690, "name": "Arbing", "country": "DE", "coord": {"lon": 12.55, "lat": 48.333328}}, {"id": 2927074, "name": "Fessenheim", "country": "DE", "coord": {"lon": 10.61667, "lat": 48.866669}}, {"id": 2957001, "name": "Altmannstein", "country": "DE", "coord": {"lon": 11.65, "lat": 48.900002}}, {"id": 2875129, "name": "Lundenberg", "country": "DE", "coord": {"lon": 9, "lat": 54.549999}}, {"id": 2891368, "name": "Kessin", "country": "DE", "coord": {"lon": 13.31667, "lat": 53.73333}}, {"id": 6548292, "name": "L\u00fctow", "country": "DE", "coord": {"lon": 13.8833, "lat": 54.016701}}, {"id": 2874877, "name": "Lutow", "country": "DE", "coord": {"lon": 13.88333, "lat": 54.01667}}, {"id": 6552739, "name": "Kirchtimke", "country": "DE", "coord": {"lon": 9.15, "lat": 53.25}}, {"id": 2890353, "name": "Kirchtimke", "country": "DE", "coord": {"lon": 9.15, "lat": 53.25}}, {"id": 2881849, "name": "Laileh\u00e4user", "country": "DE", "coord": {"lon": 7.88333, "lat": 47.833328}}, {"id": 6555901, "name": "Wittlingen", "country": "DE", "coord": {"lon": 7.65, "lat": 47.650002}}, {"id": 2807238, "name": "Wittlingen", "country": "DE", "coord": {"lon": 7.65, "lat": 47.650002}}, {"id": 6554156, "name": "Moschheim", "country": "DE", "coord": {"lon": 7.83333, "lat": 50.483299}}, {"id": 2869094, "name": "Moschheim", "country": "DE", "coord": {"lon": 7.83333, "lat": 50.48333}}, {"id": 6556993, "name": "Burglauer", "country": "DE", "coord": {"lon": 10.1833, "lat": 50.266701}}, {"id": 2941204, "name": "Burglauer", "country": "DE", "coord": {"lon": 10.18333, "lat": 50.26667}}, {"id": 2855467, "name": "Pappenheim", "country": "DE", "coord": {"lon": 10.97431, "lat": 48.93383}}, {"id": 2866902, "name": "Naumburgerhof", "country": "DE", "coord": {"lon": 7.65, "lat": 49.650002}}, {"id": 6551365, "name": "Pahlen", "country": "DE", "coord": {"lon": 9.3, "lat": 54.266701}}, {"id": 2855704, "name": "Pahlen", "country": "DE", "coord": {"lon": 9.3, "lat": 54.26667}}, {"id": 2922595, "name": "Garbenteich", "country": "DE", "coord": {"lon": 8.75, "lat": 50.533329}}, {"id": 6554288, "name": "Zehnhausen bei Wallmerod", "country": "DE", "coord": {"lon": 7.93333, "lat": 50.466702}}, {"id": 2805041, "name": "Zehnhausen bei Wallmerod", "country": "DE", "coord": {"lon": 7.93333, "lat": 50.466671}}, {"id": 6554123, "name": "Deesen", "country": "DE", "coord": {"lon": 7.7, "lat": 50.516701}}, {"id": 2938589, "name": "Deesen", "country": "DE", "coord": {"lon": 7.7, "lat": 50.51667}}, {"id": 6554278, "name": "Waldm\u00fchlen", "country": "DE", "coord": {"lon": 8.06667, "lat": 50.583302}}, {"id": 2814847, "name": "Waldmuhlen", "country": "DE", "coord": {"lon": 8.06667, "lat": 50.583328}}, {"id": 6554241, "name": "Marzhausen", "country": "DE", "coord": {"lon": 7.75, "lat": 50.6833}}, {"id": 2873061, "name": "Marzhausen", "country": "DE", "coord": {"lon": 7.75, "lat": 50.683331}}, {"id": 2850702, "name": "Ramersbach", "country": "DE", "coord": {"lon": 7.1, "lat": 50.48333}}, {"id": 2920557, "name": "Giesenbach", "country": "DE", "coord": {"lon": 11.61508, "lat": 48.385132}}, {"id": 2894060, "name": "Kainsbach", "country": "DE", "coord": {"lon": 11.4832, "lat": 49.47036}}, {"id": 6554721, "name": "Bekond", "country": "DE", "coord": {"lon": 6.8, "lat": 49.849998}}, {"id": 2951275, "name": "Bekond", "country": "DE", "coord": {"lon": 6.8, "lat": 49.849998}}, {"id": 2852887, "name": "P\u00f6lert", "country": "DE", "coord": {"lon": 6.91667, "lat": 49.700001}}, {"id": 6551302, "name": "Barlt", "country": "DE", "coord": {"lon": 9.05, "lat": 54.016701}}, {"id": 2952552, "name": "Barlt", "country": "DE", "coord": {"lon": 9.05, "lat": 54.01667}}, {"id": 6557040, "name": "Himmelstadt", "country": "DE", "coord": {"lon": 9.80167, "lat": 49.923901}}, {"id": 2904499, "name": "Himmelstadt", "country": "DE", "coord": {"lon": 9.80167, "lat": 49.923889}}, {"id": 2824331, "name": "T\u00e4le", "country": "DE", "coord": {"lon": 9.65449, "lat": 48.926762}}, {"id": 2906732, "name": "Helmern", "country": "DE", "coord": {"lon": 8.76667, "lat": 51.566669}}, {"id": 6556929, "name": "Dittenheim", "country": "DE", "coord": {"lon": 10.8, "lat": 49.049999}}, {"id": 2936750, "name": "Dittenheim", "country": "DE", "coord": {"lon": 10.8, "lat": 49.049999}}, {"id": 2812656, "name": "Weikersdorf", "country": "DE", "coord": {"lon": 10.38333, "lat": 49.116669}}, {"id": 2906990, "name": "Heldrungen", "country": "DE", "coord": {"lon": 11.21667, "lat": 51.299999}}, {"id": 2956435, "name": "Ammern", "country": "DE", "coord": {"lon": 10.45, "lat": 51.23333}}, {"id": 2953409, "name": "Bad Liebenstein", "country": "DE", "coord": {"lon": 10.36667, "lat": 50.816669}}, {"id": 6549111, "name": "Wimmelburg", "country": "DE", "coord": {"lon": 11.5167, "lat": 51.516701}}, {"id": 2808359, "name": "Wimmelburg", "country": "DE", "coord": {"lon": 11.51667, "lat": 51.51667}}, {"id": 2842124, "name": "Salzmunde", "country": "DE", "coord": {"lon": 11.83333, "lat": 51.533329}}, {"id": 2814187, "name": "Wansleben", "country": "DE", "coord": {"lon": 11.75, "lat": 51.466671}}, {"id": 2892082, "name": "Kaufbach", "country": "DE", "coord": {"lon": 13.56667, "lat": 51.049999}}, {"id": 2846527, "name": "Rinsdorf", "country": "DE", "coord": {"lon": 8.05, "lat": 50.816669}}, {"id": 2913532, "name": "Gunzenhof", "country": "DE", "coord": {"lon": 11.83333, "lat": 49.200001}}, {"id": 6557238, "name": "Benningen", "country": "DE", "coord": {"lon": 10.2167, "lat": 47.966702}}, {"id": 2951014, "name": "Benningen", "country": "DE", "coord": {"lon": 10.21667, "lat": 47.966671}}, {"id": 2887695, "name": "Klinglbach", "country": "DE", "coord": {"lon": 12.8, "lat": 49.01667}}, {"id": 2909618, "name": "Hasenmahd", "country": "DE", "coord": {"lon": 10.5, "lat": 47.700001}}, {"id": 2808077, "name": "Wineden", "country": "DE", "coord": {"lon": 10.41667, "lat": 47.933331}}, {"id": 2821513, "name": "Traunwalchen", "country": "DE", "coord": {"lon": 12.6, "lat": 47.933331}}, {"id": 2950749, "name": "Berg", "country": "DE", "coord": {"lon": 12.96667, "lat": 48.25}}, {"id": 2806458, "name": "W\u00f6lkham", "country": "DE", "coord": {"lon": 12.55, "lat": 48.116669}}, {"id": 6554061, "name": "Lollschied", "country": "DE", "coord": {"lon": 7.86667, "lat": 50.266701}}, {"id": 2876018, "name": "Lollschied", "country": "DE", "coord": {"lon": 7.86667, "lat": 50.26667}}, {"id": 2864192, "name": "Neuseddin", "country": "DE", "coord": {"lon": 12.98893, "lat": 52.2878}}, {"id": 2863708, "name": "Niebede", "country": "DE", "coord": {"lon": 12.78826, "lat": 52.541698}}, {"id": 2847944, "name": "Retzow", "country": "DE", "coord": {"lon": 12.76114, "lat": 53.321239}}, {"id": 6548949, "name": "Lebien", "country": "DE", "coord": {"lon": 12.9333, "lat": 51.716702}}, {"id": 2879800, "name": "Lebien", "country": "DE", "coord": {"lon": 12.93333, "lat": 51.716671}}, {"id": 2923238, "name": "Galenbeck", "country": "DE", "coord": {"lon": 13.7, "lat": 53.616669}}, {"id": 6548321, "name": "Spantekow", "country": "DE", "coord": {"lon": 13.5333, "lat": 53.783298}}, {"id": 2830807, "name": "Spantekow", "country": "DE", "coord": {"lon": 13.53333, "lat": 53.783329}}, {"id": 2914795, "name": "Gr\u00f6st", "country": "DE", "coord": {"lon": 11.85, "lat": 51.26667}}, {"id": 2948304, "name": "Bischofferode", "country": "DE", "coord": {"lon": 10.71667, "lat": 51.566669}}, {"id": 6550326, "name": "Meura", "country": "DE", "coord": {"lon": 11.2, "lat": 50.583302}}, {"id": 2871458, "name": "Meura", "country": "DE", "coord": {"lon": 11.2, "lat": 50.583328}}, {"id": 2834706, "name": "Schwarzm\u00fchle", "country": "DE", "coord": {"lon": 11.08333, "lat": 50.583328}}, {"id": 2806629, "name": "Wolfsfelde", "country": "DE", "coord": {"lon": 11.63555, "lat": 52.079079}}, {"id": 2810295, "name": "Westerh\u00fcsen", "country": "DE", "coord": {"lon": 11.67589, "lat": 52.064838}}, {"id": 2833478, "name": "Sehma", "country": "DE", "coord": {"lon": 13, "lat": 50.533329}}, {"id": 6553757, "name": "Kehrig", "country": "DE", "coord": {"lon": 7.21667, "lat": 50.283298}}, {"id": 2891899, "name": "Kehrig", "country": "DE", "coord": {"lon": 7.21667, "lat": 50.283329}}, {"id": 6553393, "name": "Gebhardshain", "country": "DE", "coord": {"lon": 7.81667, "lat": 50.75}}, {"id": 2922174, "name": "Gebhardshain", "country": "DE", "coord": {"lon": 7.81667, "lat": 50.75}}, {"id": 6554920, "name": "Quirnheim", "country": "DE", "coord": {"lon": 8.12639, "lat": 49.5844}}, {"id": 2851320, "name": "Quirnheim", "country": "DE", "coord": {"lon": 8.12639, "lat": 49.584438}}, {"id": 6555160, "name": "Bedesbach", "country": "DE", "coord": {"lon": 7.46667, "lat": 49.5667}}, {"id": 2951632, "name": "Bedesbach", "country": "DE", "coord": {"lon": 7.46667, "lat": 49.566669}}, {"id": 6554983, "name": "Sch\u00f6nborn", "country": "DE", "coord": {"lon": 7.76667, "lat": 49.633301}}, {"id": 2836915, "name": "Schonborn", "country": "DE", "coord": {"lon": 7.76667, "lat": 49.633331}}, {"id": 6553503, "name": "Jeckenbach", "country": "DE", "coord": {"lon": 7.6, "lat": 49.716702}}, {"id": 2895106, "name": "Jeckenbach", "country": "DE", "coord": {"lon": 7.6, "lat": 49.716671}}, {"id": 2860085, "name": "Oberkestert", "country": "DE", "coord": {"lon": 7.65, "lat": 50.183331}}, {"id": 2841611, "name": "Sankt Goar", "country": "DE", "coord": {"lon": 7.71667, "lat": 50.150002}}, {"id": 6554580, "name": "Nimsreuland", "country": "DE", "coord": {"lon": 6.45, "lat": 50.133301}}, {"id": 2862402, "name": "Nimsreuland", "country": "DE", "coord": {"lon": 6.45, "lat": 50.133331}}, {"id": 6554509, "name": "Trimport", "country": "DE", "coord": {"lon": 6.58333, "lat": 49.916698}}, {"id": 2821118, "name": "Trimport", "country": "DE", "coord": {"lon": 6.58333, "lat": 49.916672}}, {"id": 2858582, "name": "Oberwei\u00dfenbrunn", "country": "DE", "coord": {"lon": 9.95336, "lat": 50.406929}}, {"id": 6555960, "name": "Zimmern unter der Burg", "country": "DE", "coord": {"lon": 8.71928, "lat": 48.22044}}, {"id": 2804157, "name": "Zimmern unter der Burg", "country": "DE", "coord": {"lon": 8.71928, "lat": 48.220531}}, {"id": 6555818, "name": "Zimmern ob Rottweil", "country": "DE", "coord": {"lon": 8.5576, "lat": 48.1684}}, {"id": 2804159, "name": "Zimmern ob Rottweil", "country": "DE", "coord": {"lon": 8.59436, "lat": 48.166599}}, {"id": 6554380, "name": "Wallscheid", "country": "DE", "coord": {"lon": 6.88333, "lat": 50.099998}}, {"id": 2814522, "name": "Wallscheid", "country": "DE", "coord": {"lon": 6.88333, "lat": 50.099998}}, {"id": 2928070, "name": "Faistenoy", "country": "DE", "coord": {"lon": 10.43333, "lat": 47.633331}}, {"id": 2936177, "name": "D\u00f6pshofen", "country": "DE", "coord": {"lon": 10.70339, "lat": 48.277199}}, {"id": 6557244, "name": "Ettringen", "country": "DE", "coord": {"lon": 10.65, "lat": 48.099998}}, {"id": 3208331, "name": "Ettringen", "country": "DE", "coord": {"lon": 10.65, "lat": 48.099998}}, {"id": 2891749, "name": "Kellmunz", "country": "DE", "coord": {"lon": 10.12811, "lat": 48.12159}}, {"id": 2818705, "name": "Unterschweinbach", "country": "DE", "coord": {"lon": 11.17996, "lat": 48.251801}}, {"id": 6556518, "name": "Wurmsham", "country": "DE", "coord": {"lon": 12.3333, "lat": 48.349998}}, {"id": 2805657, "name": "Wurmsham", "country": "DE", "coord": {"lon": 12.33333, "lat": 48.349998}}, {"id": 2883652, "name": "Kronsdorf", "country": "DE", "coord": {"lon": 11.76667, "lat": 48.5}}, {"id": 2909097, "name": "Haun", "country": "DE", "coord": {"lon": 12.3276, "lat": 48.232849}}, {"id": 2882417, "name": "Kupferberg", "country": "DE", "coord": {"lon": 11.58333, "lat": 50.133331}}, {"id": 6556860, "name": "Windelsbach", "country": "DE", "coord": {"lon": 10.3, "lat": 49.400002}}, {"id": 2808251, "name": "Windelsbach", "country": "DE", "coord": {"lon": 10.3, "lat": 49.400002}}, {"id": 2901689, "name": "Hohenh\u00f6rn", "country": "DE", "coord": {"lon": 9.05, "lat": 54.583328}}, {"id": 6551950, "name": "Brebel", "country": "DE", "coord": {"lon": 9.75, "lat": 54.633301}}, {"id": 2944975, "name": "Brebel", "country": "DE", "coord": {"lon": 9.75, "lat": 54.633331}}, {"id": 6551795, "name": "Arpsdorf", "country": "DE", "coord": {"lon": 9.86667, "lat": 54.033298}}, {"id": 2955415, "name": "Arpsdorf", "country": "DE", "coord": {"lon": 9.86667, "lat": 54.033329}}, {"id": 6548411, "name": "Dreschvitz", "country": "DE", "coord": {"lon": 13.3167, "lat": 54.400002}}, {"id": 2935023, "name": "Dreschvitz", "country": "DE", "coord": {"lon": 13.29414, "lat": 54.403149}}, {"id": 2875559, "name": "Lubtheen", "country": "DE", "coord": {"lon": 11.08333, "lat": 53.299999}}, {"id": 2821604, "name": "Tramm", "country": "DE", "coord": {"lon": 11.06667, "lat": 53.883331}}, {"id": 6551438, "name": "Grinau", "country": "DE", "coord": {"lon": 10.55, "lat": 53.783298}}, {"id": 2917287, "name": "Grinau", "country": "DE", "coord": {"lon": 10.55, "lat": 53.783329}}, {"id": 6551480, "name": "L\u00fctau", "country": "DE", "coord": {"lon": 10.55, "lat": 53.4333}}, {"id": 2874958, "name": "Lutau", "country": "DE", "coord": {"lon": 10.55, "lat": 53.433331}}, {"id": 6551424, "name": "Dassendorf", "country": "DE", "coord": {"lon": 10.3833, "lat": 53.5}}, {"id": 2938805, "name": "Dassendorf", "country": "DE", "coord": {"lon": 10.38333, "lat": 53.5}}, {"id": 2946406, "name": "B\u00f6nstrup", "country": "DE", "coord": {"lon": 9.63333, "lat": 54.783329}}, {"id": 2926358, "name": "Flatzby", "country": "DE", "coord": {"lon": 9.63333, "lat": 54.716671}}, {"id": 3208263, "name": "S\u00fcderteil", "country": "DE", "coord": {"lon": 8.91667, "lat": 53.683331}}, {"id": 2907413, "name": "Heimburg", "country": "DE", "coord": {"lon": 10.91667, "lat": 51.816669}}, {"id": 2951161, "name": "Belsdorf", "country": "DE", "coord": {"lon": 11.15413, "lat": 52.19614}}, {"id": 6547437, "name": "Wawern", "country": "DE", "coord": {"lon": 6.55, "lat": 49.650002}}, {"id": 2813581, "name": "Wawern", "country": "DE", "coord": {"lon": 6.55, "lat": 49.650002}}, {"id": 2949786, "name": "Be\u00dflich", "country": "DE", "coord": {"lon": 6.6, "lat": 49.799999}}, {"id": 2845755, "name": "Rohr", "country": "DE", "coord": {"lon": 10.28333, "lat": 47.666672}}, {"id": 2871803, "name": "Merkendorf", "country": "DE", "coord": {"lon": 10.7, "lat": 49.200001}}, {"id": 6550005, "name": "Dillst\u00e4dt", "country": "DE", "coord": {"lon": 10.5333, "lat": 50.583302}}, {"id": 2936966, "name": "Dillstadt", "country": "DE", "coord": {"lon": 10.53333, "lat": 50.583328}}, {"id": 6555778, "name": "Bad Peterstal-Griesbach", "country": "DE", "coord": {"lon": 8.21667, "lat": 48.4333}}, {"id": 3206151, "name": "Bad Peterstal-Griesbach", "country": "DE", "coord": {"lon": 8.21667, "lat": 48.433331}}, {"id": 2912177, "name": "H\u00e4hnlein", "country": "DE", "coord": {"lon": 8.57639, "lat": 49.739719}}, {"id": 2809483, "name": "Wieling", "country": "DE", "coord": {"lon": 11.26648, "lat": 47.954521}}, {"id": 6556263, "name": "Vilgertshofen", "country": "DE", "coord": {"lon": 10.9167, "lat": 47.950001}}, {"id": 2817239, "name": "Vilgertshofen", "country": "DE", "coord": {"lon": 10.91667, "lat": 47.950001}}, {"id": 6551396, "name": "Windbergen", "country": "DE", "coord": {"lon": 9.11667, "lat": 54.049999}}, {"id": 2808275, "name": "Windbergen", "country": "DE", "coord": {"lon": 9.11667, "lat": 54.049999}}, {"id": 3209084, "name": "Krems I", "country": "DE", "coord": {"lon": 10.25, "lat": 53.849998}}, {"id": 6549950, "name": "Menteroda", "country": "DE", "coord": {"lon": 10.55, "lat": 51.299999}}, {"id": 2871884, "name": "Menteroda", "country": "DE", "coord": {"lon": 10.55, "lat": 51.299999}}, {"id": 6554330, "name": "Hetzerath", "country": "DE", "coord": {"lon": 6.81667, "lat": 49.883301}}, {"id": 2905178, "name": "Hetzerath", "country": "DE", "coord": {"lon": 6.81667, "lat": 49.883331}}, {"id": 6554671, "name": "\u00dcdersdorf", "country": "DE", "coord": {"lon": 6.8, "lat": 50.150002}}, {"id": 2820496, "name": "Udersdorf", "country": "DE", "coord": {"lon": 6.8, "lat": 50.150002}}, {"id": 6554384, "name": "Breit", "country": "DE", "coord": {"lon": 6.9, "lat": 49.783298}}, {"id": 2944793, "name": "Breit", "country": "DE", "coord": {"lon": 6.9, "lat": 49.783329}}, {"id": 2919583, "name": "Godendorf", "country": "DE", "coord": {"lon": 6.5, "lat": 49.816669}}, {"id": 2901674, "name": "Hohenjesar", "country": "DE", "coord": {"lon": 14.4, "lat": 52.433331}}, {"id": 2929311, "name": "Ernst-Th\u00e4lmann-Siedlung", "country": "DE", "coord": {"lon": 14.63937, "lat": 52.228588}}, {"id": 6555672, "name": "Neulu\u00dfheim", "country": "DE", "coord": {"lon": 8.51833, "lat": 49.2981}}, {"id": 2864577, "name": "Neulussheim", "country": "DE", "coord": {"lon": 8.51833, "lat": 49.298061}}, {"id": 2827433, "name": "Stennweiler", "country": "DE", "coord": {"lon": 7.11399, "lat": 49.391201}}, {"id": 2945803, "name": "B\u00f6thel", "country": "DE", "coord": {"lon": 9.03333, "lat": 52.51667}}, {"id": 6552846, "name": "Riede", "country": "DE", "coord": {"lon": 8.95, "lat": 52.966702}}, {"id": 2847271, "name": "Riede", "country": "DE", "coord": {"lon": 8.95, "lat": 52.966671}}, {"id": 6555140, "name": "Rathsweiler", "country": "DE", "coord": {"lon": 7.46667, "lat": 49.599998}}, {"id": 2850176, "name": "Rathsweiler", "country": "DE", "coord": {"lon": 7.46667, "lat": 49.599998}}, {"id": 2811377, "name": "Weltersbach", "country": "DE", "coord": {"lon": 7.51667, "lat": 49.450001}}, {"id": 6554951, "name": "Gundersweiler", "country": "DE", "coord": {"lon": 7.78333, "lat": 49.599998}}, {"id": 2913677, "name": "Gundersweiler", "country": "DE", "coord": {"lon": 7.78333, "lat": 49.599998}}, {"id": 2847899, "name": "Reuschbach", "country": "DE", "coord": {"lon": 7.48333, "lat": 49.48333}}, {"id": 6555091, "name": "E\u00dfweiler", "country": "DE", "coord": {"lon": 7.56667, "lat": 49.549999}}, {"id": 2928743, "name": "Essweiler", "country": "DE", "coord": {"lon": 7.56667, "lat": 49.549999}}, {"id": 2957211, "name": "Altferchau", "country": "DE", "coord": {"lon": 11.02736, "lat": 52.602421}}, {"id": 2875464, "name": "L\u00fcdelsen", "country": "DE", "coord": {"lon": 10.93333, "lat": 52.683331}}, {"id": 6554863, "name": "M\u00f6lsheim", "country": "DE", "coord": {"lon": 8.16944, "lat": 49.646702}}, {"id": 2869961, "name": "Molsheim", "country": "DE", "coord": {"lon": 8.16944, "lat": 49.646671}}, {"id": 2844406, "name": "Rotensee", "country": "DE", "coord": {"lon": 9.73333, "lat": 50.833328}}, {"id": 6553255, "name": "Friedewald", "country": "DE", "coord": {"lon": 9.8666, "lat": 50.882801}}, {"id": 2924703, "name": "Friedewald", "country": "DE", "coord": {"lon": 9.86667, "lat": 50.883331}}, {"id": 2809896, "name": "Wetzendorf", "country": "DE", "coord": {"lon": 11.65, "lat": 51.283329}}, {"id": 2947768, "name": "Bliederstedt", "country": "DE", "coord": {"lon": 10.85, "lat": 51.26667}}, {"id": 2946993, "name": "B\u00f6hla", "country": "DE", "coord": {"lon": 13.79411, "lat": 51.35688}}, {"id": 2912106, "name": "Haida", "country": "DE", "coord": {"lon": 13.46667, "lat": 51.48333}}, {"id": 6547571, "name": "Schlepzig", "country": "DE", "coord": {"lon": 13.9, "lat": 52.033298}}, {"id": 2838640, "name": "Schlepzig", "country": "DE", "coord": {"lon": 13.9, "lat": 52.033329}}, {"id": 2851031, "name": "Radensdorf", "country": "DE", "coord": {"lon": 14.18333, "lat": 51.650002}}, {"id": 6550506, "name": "Lindenkreuz", "country": "DE", "coord": {"lon": 11.9167, "lat": 50.849998}}, {"id": 2877259, "name": "Lindenkreuz", "country": "DE", "coord": {"lon": 11.91667, "lat": 50.849998}}, {"id": 2953244, "name": "Bahren", "country": "DE", "coord": {"lon": 11.63333, "lat": 50.650002}}, {"id": 2838129, "name": "Schm\u00e4hingen", "country": "DE", "coord": {"lon": 10.51667, "lat": 48.816669}}, {"id": 2818341, "name": "Unterzeitlbach", "country": "DE", "coord": {"lon": 11.26159, "lat": 48.364319}}, {"id": 2889736, "name": "Kleinberghofen", "country": "DE", "coord": {"lon": 11.27596, "lat": 48.355518}}, {"id": 2933566, "name": "Eckhofen", "country": "DE", "coord": {"lon": 11.27463, "lat": 48.35117}}, {"id": 6547947, "name": "Klein Rogahn", "country": "DE", "coord": {"lon": 11.35, "lat": 53.599998}}, {"id": 2888316, "name": "Klein Rogahn", "country": "DE", "coord": {"lon": 11.34579, "lat": 53.605339}}, {"id": 2865212, "name": "Neuhattendorf", "country": "DE", "coord": {"lon": 9.3, "lat": 50.783329}}, {"id": 2830866, "name": "Spaden", "country": "DE", "coord": {"lon": 8.63285, "lat": 53.57452}}, {"id": 6554713, "name": "Sch\u00fcller", "country": "DE", "coord": {"lon": 6.58333, "lat": 50.333302}}, {"id": 2835950, "name": "Schuller", "country": "DE", "coord": {"lon": 6.58333, "lat": 50.333328}}, {"id": 6550068, "name": "D\u00f6llst\u00e4dt", "country": "DE", "coord": {"lon": 10.8167, "lat": 51.083302}}, {"id": 2936331, "name": "Dollstadt", "country": "DE", "coord": {"lon": 10.81667, "lat": 51.083328}}, {"id": 2848833, "name": "Reine", "country": "DE", "coord": {"lon": 9.17556, "lat": 52.05138}}, {"id": 2953796, "name": "Baars", "country": "DE", "coord": {"lon": 11.21667, "lat": 52.75}}, {"id": 2815382, "name": "Wahn", "country": "DE", "coord": {"lon": 7.3, "lat": 50.833328}}, {"id": 2927219, "name": "Felsen", "country": "DE", "coord": {"lon": 8.21667, "lat": 52.366669}}, {"id": 2884315, "name": "Krettenhof", "country": "DE", "coord": {"lon": 9.66996, "lat": 48.746571}}, {"id": 2900924, "name": "Hohlstedt", "country": "DE", "coord": {"lon": 11.16589, "lat": 51.458389}}, {"id": 2823107, "name": "Thalham", "country": "DE", "coord": {"lon": 12.28333, "lat": 48.26667}}, {"id": 2830790, "name": "Sparneck", "country": "DE", "coord": {"lon": 11.83333, "lat": 50.166672}}, {"id": 2839062, "name": "Schirnrod", "country": "DE", "coord": {"lon": 10.98333, "lat": 50.450001}}, {"id": 2827149, "name": "Stick", "country": "DE", "coord": {"lon": 8.26667, "lat": 53.566669}}, {"id": 2807023, "name": "Wohmbrechts", "country": "DE", "coord": {"lon": 9.85, "lat": 47.650002}}, {"id": 6549761, "name": "Buhla", "country": "DE", "coord": {"lon": 10.4333, "lat": 51.4333}}, {"id": 2941965, "name": "Buhla", "country": "DE", "coord": {"lon": 10.43333, "lat": 51.433331}}, {"id": 2891088, "name": "Kienbaum", "country": "DE", "coord": {"lon": 13.95, "lat": 52.450001}}, {"id": 6555547, "name": "B\u00fchlertann", "country": "DE", "coord": {"lon": 9.90861, "lat": 49.041698}}, {"id": 2941926, "name": "Buhlertann", "country": "DE", "coord": {"lon": 9.90861, "lat": 49.041672}}, {"id": 6552755, "name": "Tarmstedt", "country": "DE", "coord": {"lon": 9.07951, "lat": 53.224739}}, {"id": 2823989, "name": "Tarmstedt", "country": "DE", "coord": {"lon": 9.07763, "lat": 53.225052}}, {"id": 6556130, "name": "Sachsenkam", "country": "DE", "coord": {"lon": 11.65, "lat": 47.799999}}, {"id": 2842507, "name": "Sachsenkam", "country": "DE", "coord": {"lon": 11.64396, "lat": 47.805431}}, {"id": 6553752, "name": "Gierschnach", "country": "DE", "coord": {"lon": 7.34676, "lat": 50.261688}}, {"id": 2920595, "name": "Gierschnach", "country": "DE", "coord": {"lon": 7.35, "lat": 50.26667}}, {"id": 2919730, "name": "Gmein", "country": "DE", "coord": {"lon": 12.16255, "lat": 47.80151}}, {"id": 2943405, "name": "Bruckner", "country": "DE", "coord": {"lon": 11.41299, "lat": 47.834419}}, {"id": 6557276, "name": "Ederheim", "country": "DE", "coord": {"lon": 10.4667, "lat": 48.8167}}, {"id": 2933385, "name": "Ederheim", "country": "DE", "coord": {"lon": 10.46667, "lat": 48.816669}}, {"id": 2835496, "name": "Schwabhausen", "country": "DE", "coord": {"lon": 11.35729, "lat": 48.401569}}, {"id": 2820023, "name": "Unteralting", "country": "DE", "coord": {"lon": 11.16667, "lat": 48.116669}}, {"id": 2878878, "name": "Lengefeld", "country": "DE", "coord": {"lon": 13.2, "lat": 50.716671}}, {"id": 2929012, "name": "Escherode", "country": "DE", "coord": {"lon": 9.66667, "lat": 51.316669}}, {"id": 6552511, "name": "Holenberg", "country": "DE", "coord": {"lon": 9.58333, "lat": 51.916698}}, {"id": 2900732, "name": "Holenberg", "country": "DE", "coord": {"lon": 9.58333, "lat": 51.916672}}, {"id": 2931276, "name": "Elberfeld", "country": "DE", "coord": {"lon": 7.13333, "lat": 51.26667}}, {"id": 2857966, "name": "Oeding", "country": "DE", "coord": {"lon": 6.8, "lat": 51.933331}}, {"id": 2810920, "name": "Werderthau", "country": "DE", "coord": {"lon": 12, "lat": 51.633331}}, {"id": 2842060, "name": "Samswegen", "country": "DE", "coord": {"lon": 11.56174, "lat": 52.26059}}, {"id": 2915049, "name": "Gro\u00dfschwarzlosen", "country": "DE", "coord": {"lon": 11.75743, "lat": 52.503471}}, {"id": 2826387, "name": "Stormsdorf", "country": "DE", "coord": {"lon": 12.67479, "lat": 54.14484}}, {"id": 2929159, "name": "Eschbach", "country": "DE", "coord": {"lon": 8.18333, "lat": 47.633331}}, {"id": 6555558, "name": "Unterm\u00fcnkheim", "country": "DE", "coord": {"lon": 9.7337, "lat": 49.152599}}, {"id": 2819030, "name": "Untermunkheim", "country": "DE", "coord": {"lon": 9.73384, "lat": 49.15255}}, {"id": 2803686, "name": "Zunsweier", "country": "DE", "coord": {"lon": 7.94689, "lat": 48.423851}}, {"id": 2875388, "name": "Ludwigschorgast", "country": "DE", "coord": {"lon": 11.56667, "lat": 50.133331}}, {"id": 6556878, "name": "Puschendorf", "country": "DE", "coord": {"lon": 10.83303, "lat": 49.524151}}, {"id": 2851634, "name": "Puschendorf", "country": "DE", "coord": {"lon": 10.83192, "lat": 49.523979}}, {"id": 2911765, "name": "Hainstadt", "country": "DE", "coord": {"lon": 9.0425, "lat": 49.836109}}, {"id": 2911287, "name": "Marienthal", "country": "DE", "coord": {"lon": 10.08333, "lat": 53.566669}}, {"id": 2880132, "name": "Laufeld", "country": "DE", "coord": {"lon": 6.86667, "lat": 50.083328}}, {"id": 2920989, "name": "Geroda", "country": "DE", "coord": {"lon": 9.89551, "lat": 50.28056}}, {"id": 2821555, "name": "Trappstadt", "country": "DE", "coord": {"lon": 10.58333, "lat": 50.316669}}, {"id": 2841256, "name": "Satzkorn", "country": "DE", "coord": {"lon": 13, "lat": 52.466671}}, {"id": 2889753, "name": "Kleinbeeren", "country": "DE", "coord": {"lon": 13.35, "lat": 52.366669}}, {"id": 2933042, "name": "Eggesin", "country": "DE", "coord": {"lon": 14.08333, "lat": 53.683331}}, {"id": 6548086, "name": "Penkow", "country": "DE", "coord": {"lon": 12.4833, "lat": 53.450001}}, {"id": 2854958, "name": "Penkow", "country": "DE", "coord": {"lon": 12.48333, "lat": 53.450001}}, {"id": 6552429, "name": "Werlaburgdorf", "country": "DE", "coord": {"lon": 10.5333, "lat": 52.049999}}, {"id": 2810874, "name": "Werlaburgdorf", "country": "DE", "coord": {"lon": 10.53726, "lat": 52.049961}}, {"id": 6554047, "name": "Kaltenholzhausen", "country": "DE", "coord": {"lon": 8.1, "lat": 50.299999}}, {"id": 2893546, "name": "Kaltenholzhausen", "country": "DE", "coord": {"lon": 8.1, "lat": 50.299999}}, {"id": 3221027, "name": "Landkreis Hameln-Pyrmont", "country": "DE", "coord": {"lon": 9.40111, "lat": 52.111111}}, {"id": 6557418, "name": "Hessisch Oldendorf, Stadt", "country": "DE", "coord": {"lon": 9.2344, "lat": 52.17355}}, {"id": 2950986, "name": "Bensen", "country": "DE", "coord": {"lon": 9.32825, "lat": 52.174461}}, {"id": 2831586, "name": "Soldorf", "country": "DE", "coord": {"lon": 9.32568, "lat": 52.30785}}, {"id": 2846040, "name": "Rodenberg", "country": "DE", "coord": {"lon": 9.35, "lat": 52.316669}}, {"id": 2809925, "name": "Wettmar", "country": "DE", "coord": {"lon": 9.91954, "lat": 52.51215}}, {"id": 2806194, "name": "Woquard", "country": "DE", "coord": {"lon": 7.1, "lat": 53.433331}}, {"id": 6554742, "name": "Hinzenburg", "country": "DE", "coord": {"lon": 6.73333, "lat": 49.666698}}, {"id": 2903874, "name": "Hinzenburg", "country": "DE", "coord": {"lon": 6.73333, "lat": 49.666672}}, {"id": 6554525, "name": "Brandscheid", "country": "DE", "coord": {"lon": 6.31667, "lat": 50.216702}}, {"id": 2945216, "name": "Brandscheid", "country": "DE", "coord": {"lon": 6.31667, "lat": 50.216671}}, {"id": 6554743, "name": "Hinzert-P\u00f6lert", "country": "DE", "coord": {"lon": 6.9, "lat": 49.700001}}, {"id": 3207523, "name": "Hinzert-Polert", "country": "DE", "coord": {"lon": 6.9, "lat": 49.700001}}, {"id": 2848988, "name": "Reicholzried", "country": "DE", "coord": {"lon": 10.25, "lat": 47.816669}}, {"id": 6557226, "name": "Ro\u00dfhaupten", "country": "DE", "coord": {"lon": 10.7167, "lat": 47.650002}}, {"id": 2844702, "name": "Rosshaupten", "country": "DE", "coord": {"lon": 10.71667, "lat": 47.650002}}, {"id": 2940613, "name": "Buttenheim", "country": "DE", "coord": {"lon": 11.03002, "lat": 49.80365}}, {"id": 6556733, "name": "Gerach", "country": "DE", "coord": {"lon": 10.80535, "lat": 50.032108}}, {"id": 2921223, "name": "Gerach", "country": "DE", "coord": {"lon": 10.8, "lat": 50.033329}}, {"id": 6556559, "name": "Geratskirchen", "country": "DE", "coord": {"lon": 12.6667, "lat": 48.333302}}, {"id": 2921200, "name": "Geratskirchen", "country": "DE", "coord": {"lon": 12.66667, "lat": 48.333328}}, {"id": 6556966, "name": "Oerlenbach", "country": "DE", "coord": {"lon": 10.1342, "lat": 50.143299}}, {"id": 2857075, "name": "Oerlenbach", "country": "DE", "coord": {"lon": 10.13333, "lat": 50.150002}}, {"id": 2958062, "name": "Altbessingen", "country": "DE", "coord": {"lon": 9.97971, "lat": 50.028141}}, {"id": 2953179, "name": "Baindt", "country": "DE", "coord": {"lon": 9.73333, "lat": 47.633331}}, {"id": 6553493, "name": "Hargesheim", "country": "DE", "coord": {"lon": 7.83333, "lat": 49.866699}}, {"id": 2910488, "name": "Hargesheim", "country": "DE", "coord": {"lon": 7.83333, "lat": 49.866669}}, {"id": 6551293, "name": "Gimbsheim", "country": "DE", "coord": {"lon": 8.375, "lat": 49.777802}}, {"id": 2920377, "name": "Gimbsheim", "country": "DE", "coord": {"lon": 8.375, "lat": 49.777779}}, {"id": 6553550, "name": "Traisen", "country": "DE", "coord": {"lon": 7.81667, "lat": 49.8167}}, {"id": 2821622, "name": "Traisen", "country": "DE", "coord": {"lon": 7.81667, "lat": 49.816669}}, {"id": 6553499, "name": "Horbach", "country": "DE", "coord": {"lon": 7.51667, "lat": 49.8167}}, {"id": 2899110, "name": "Horbach", "country": "DE", "coord": {"lon": 7.51667, "lat": 49.816669}}, {"id": 6549797, "name": "K\u00fcllstedt", "country": "DE", "coord": {"lon": 10.2833, "lat": 51.283298}}, {"id": 2882597, "name": "Kullstedt", "country": "DE", "coord": {"lon": 10.28333, "lat": 51.283329}}, {"id": 6550067, "name": "Dachwig", "country": "DE", "coord": {"lon": 10.85, "lat": 51.0667}}, {"id": 2939510, "name": "Dachwig", "country": "DE", "coord": {"lon": 10.85, "lat": 51.066669}}, {"id": 2824710, "name": "Sulzthal", "country": "DE", "coord": {"lon": 10.03333, "lat": 50.133331}}, {"id": 6548524, "name": "Obersch\u00f6na", "country": "DE", "coord": {"lon": 13.2667, "lat": 50.900002}}, {"id": 2859119, "name": "Oberschona", "country": "DE", "coord": {"lon": 13.26667, "lat": 50.900002}}, {"id": 2920768, "name": "Geusa", "country": "DE", "coord": {"lon": 11.93333, "lat": 51.333328}}, {"id": 6554916, "name": "Neidenfels", "country": "DE", "coord": {"lon": 8.04639, "lat": 49.388901}}, {"id": 2866608, "name": "Neidenfels", "country": "DE", "coord": {"lon": 8.04639, "lat": 49.388889}}, {"id": 6555243, "name": "He\u00dfheim", "country": "DE", "coord": {"lon": 8.30778, "lat": 49.545799}}, {"id": 2905299, "name": "Hessheim", "country": "DE", "coord": {"lon": 8.30778, "lat": 49.54583}}, {"id": 6556261, "name": "Obermeitingen", "country": "DE", "coord": {"lon": 10.8, "lat": 48.150002}}, {"id": 2859792, "name": "Obermeitingen", "country": "DE", "coord": {"lon": 10.8, "lat": 48.150002}}, {"id": 2842052, "name": "Sand", "country": "DE", "coord": {"lon": 10.91667, "lat": 48.51667}}, {"id": 2820662, "name": "Twielenfleth", "country": "DE", "coord": {"lon": 9.55, "lat": 53.599998}}, {"id": 2955033, "name": "Assel", "country": "DE", "coord": {"lon": 9.43333, "lat": 53.683331}}, {"id": 6552698, "name": "V\u00f6gelsen", "country": "DE", "coord": {"lon": 10.35, "lat": 53.283298}}, {"id": 2816874, "name": "Vogelsen", "country": "DE", "coord": {"lon": 10.35, "lat": 53.283329}}, {"id": 6551978, "name": "Meggerdorf", "country": "DE", "coord": {"lon": 9.4, "lat": 54.349998}}, {"id": 2872463, "name": "Meggerdorf", "country": "DE", "coord": {"lon": 9.4, "lat": 54.349998}}, {"id": 6551907, "name": "Remmels", "country": "DE", "coord": {"lon": 9.65, "lat": 54.116699}}, {"id": 2848302, "name": "Remmels", "country": "DE", "coord": {"lon": 9.65, "lat": 54.116669}}, {"id": 6552001, "name": "S\u00fcderstapel", "country": "DE", "coord": {"lon": 9.21667, "lat": 54.349998}}, {"id": 2825077, "name": "Suderstapel", "country": "DE", "coord": {"lon": 9.21667, "lat": 54.349998}}, {"id": 6556424, "name": "Bernried", "country": "DE", "coord": {"lon": 11.3, "lat": 47.866699}}, {"id": 2949976, "name": "Bernried", "country": "DE", "coord": {"lon": 11.29386, "lat": 47.866039}}, {"id": 6556386, "name": "Feldafing", "country": "DE", "coord": {"lon": 11.3, "lat": 47.950001}}, {"id": 2927464, "name": "Feldafing", "country": "DE", "coord": {"lon": 11.3, "lat": 47.950001}}, {"id": 2804790, "name": "Zemmin", "country": "DE", "coord": {"lon": 13.2593, "lat": 53.92223}}, {"id": 2820522, "name": "\u00dcckeritz", "country": "DE", "coord": {"lon": 13.18497, "lat": 53.922539}}, {"id": 2874823, "name": "Lutterhausen", "country": "DE", "coord": {"lon": 9.85, "lat": 51.650002}}, {"id": 6557022, "name": "Faulbach", "country": "DE", "coord": {"lon": 9.44417, "lat": 49.785301}}, {"id": 2927726, "name": "Faulbach", "country": "DE", "coord": {"lon": 9.44417, "lat": 49.785278}}, {"id": 6557070, "name": "Sennfeld", "country": "DE", "coord": {"lon": 10.2667, "lat": 50.033298}}, {"id": 2833010, "name": "Sennfeld", "country": "DE", "coord": {"lon": 10.25986, "lat": 50.038952}}, {"id": 2890243, "name": "Kirschfurt", "country": "DE", "coord": {"lon": 9.31806, "lat": 49.74361}}, {"id": 6556904, "name": "Gollhofen", "country": "DE", "coord": {"lon": 10.1252, "lat": 49.581402}}, {"id": 2919230, "name": "Gollhofen", "country": "DE", "coord": {"lon": 10.2, "lat": 49.566669}}, {"id": 6557048, "name": "Roden", "country": "DE", "coord": {"lon": 9.62639, "lat": 49.895599}}, {"id": 2846072, "name": "Roden", "country": "DE", "coord": {"lon": 9.62639, "lat": 49.895561}}, {"id": 2933654, "name": "Eckenhagen", "country": "DE", "coord": {"lon": 7.7, "lat": 50.98333}}, {"id": 2817563, "name": "Verna", "country": "DE", "coord": {"lon": 9.33333, "lat": 50.98333}}, {"id": 2941271, "name": "Burgheim", "country": "DE", "coord": {"lon": 11.01667, "lat": 48.700001}}, {"id": 2845011, "name": "Rosengarten", "country": "DE", "coord": {"lon": 9.81204, "lat": 53.520889}}, {"id": 2846032, "name": "Koeln Rodenkirchen", "country": "DE", "coord": {"lon": 6.98333, "lat": 50.883331}}, {"id": 6555313, "name": "Wolfsheim", "country": "DE", "coord": {"lon": 8.03944, "lat": 49.8722}}, {"id": 2806596, "name": "Wolfsheim", "country": "DE", "coord": {"lon": 8.03944, "lat": 49.872219}}, {"id": 2909344, "name": "Hassenroth", "country": "DE", "coord": {"lon": 8.935, "lat": 49.789169}}, {"id": 6551716, "name": "B\u00f6neb\u00fcttel", "country": "DE", "coord": {"lon": 10.0667, "lat": 54.083302}}, {"id": 2946482, "name": "Bonebuttel", "country": "DE", "coord": {"lon": 10.06667, "lat": 54.083328}}, {"id": 6555391, "name": "Bundenthal", "country": "DE", "coord": {"lon": 7.80849, "lat": 49.09549}}, {"id": 2941690, "name": "Bundenthal", "country": "DE", "coord": {"lon": 7.80839, "lat": 49.09549}}, {"id": 6549948, "name": "Katharinenberg", "country": "DE", "coord": {"lon": 10.2667, "lat": 51.1833}}, {"id": 2892409, "name": "Katharinenberg", "country": "DE", "coord": {"lon": 10.26667, "lat": 51.183331}}, {"id": 6552736, "name": "Hipstedt", "country": "DE", "coord": {"lon": 8.96667, "lat": 53.483299}}, {"id": 2903841, "name": "Hipstedt", "country": "DE", "coord": {"lon": 8.96667, "lat": 53.48333}}, {"id": 6552863, "name": "Leezdorf", "country": "DE", "coord": {"lon": 7.30442, "lat": 53.545399}}, {"id": 2879668, "name": "Leezdorf", "country": "DE", "coord": {"lon": 7.3, "lat": 53.549999}}, {"id": 6552866, "name": "Rechtsupweg", "country": "DE", "coord": {"lon": 7.32481, "lat": 53.527802}}, {"id": 2849694, "name": "Rechtsupweg", "country": "DE", "coord": {"lon": 7.33333, "lat": 53.533329}}, {"id": 6552350, "name": "Waake", "country": "DE", "coord": {"lon": 10.05, "lat": 51.549999}}, {"id": 2815807, "name": "Waake", "country": "DE", "coord": {"lon": 10.05713, "lat": 51.55637}}, {"id": 2957880, "name": "Altenau", "country": "DE", "coord": {"lon": 10.45, "lat": 51.799999}}, {"id": 2952875, "name": "Bantow", "country": "DE", "coord": {"lon": 13.2232, "lat": 54.344582}}, {"id": 6547928, "name": "D\u00fcmmer", "country": "DE", "coord": {"lon": 11.2, "lat": 53.583302}}, {"id": 2934643, "name": "Dummer", "country": "DE", "coord": {"lon": 11.2, "lat": 53.583328}}, {"id": 2919339, "name": "Goldenbow", "country": "DE", "coord": {"lon": 10.96467, "lat": 53.436649}}, {"id": 2850946, "name": "Raduhn", "country": "DE", "coord": {"lon": 11.68333, "lat": 53.48333}}, {"id": 6551415, "name": "Breitenfelde", "country": "DE", "coord": {"lon": 10.626, "lat": 53.603401}}, {"id": 2944608, "name": "Breitenfelde", "country": "DE", "coord": {"lon": 10.63333, "lat": 53.599998}}, {"id": 2939372, "name": "Dahmsdorf", "country": "DE", "coord": {"lon": 10.55, "lat": 53.866669}}, {"id": 6551824, "name": "Damendorf", "country": "DE", "coord": {"lon": 9.73333, "lat": 54.416698}}, {"id": 2939230, "name": "Damendorf", "country": "DE", "coord": {"lon": 9.73333, "lat": 54.416672}}, {"id": 6551753, "name": "Lutterbek", "country": "DE", "coord": {"lon": 10.2833, "lat": 54.400002}}, {"id": 2874828, "name": "Lutterbek", "country": "DE", "coord": {"lon": 10.28333, "lat": 54.400002}}, {"id": 2844422, "name": "Rotenhahn", "country": "DE", "coord": {"lon": 10.03333, "lat": 54.25}}, {"id": 2901682, "name": "Hohenhorst", "country": "DE", "coord": {"lon": 10, "lat": 54.166672}}, {"id": 6552063, "name": "Wanderup", "country": "DE", "coord": {"lon": 9.33333, "lat": 54.6833}}, {"id": 2814312, "name": "Wanderup", "country": "DE", "coord": {"lon": 9.33333, "lat": 54.683331}}, {"id": 6551956, "name": "Ekenis", "country": "DE", "coord": {"lon": 9.85, "lat": 54.633301}}, {"id": 2931314, "name": "Ekenis", "country": "DE", "coord": {"lon": 9.85, "lat": 54.633331}}, {"id": 6551560, "name": "Joldelund", "country": "DE", "coord": {"lon": 9.13333, "lat": 54.650002}}, {"id": 2894734, "name": "Joldelund", "country": "DE", "coord": {"lon": 9.13333, "lat": 54.650002}}, {"id": 2826553, "name": "St\u00f6lln", "country": "DE", "coord": {"lon": 12.98333, "lat": 48.25}}, {"id": 2873278, "name": "Marktzeuln", "country": "DE", "coord": {"lon": 11.16692, "lat": 50.166729}}, {"id": 6556268, "name": "Schwifting", "country": "DE", "coord": {"lon": 10.9333, "lat": 48.049999}}, {"id": 2834196, "name": "Schwifting", "country": "DE", "coord": {"lon": 10.92762, "lat": 48.045551}}, {"id": 2959664, "name": "Achselschwang", "country": "DE", "coord": {"lon": 11.05, "lat": 48.033329}}, {"id": 2922806, "name": "Gallmannsweil", "country": "DE", "coord": {"lon": 9, "lat": 47.916672}}, {"id": 6557298, "name": "Tagmersheim", "country": "DE", "coord": {"lon": 10.9667, "lat": 48.8167}}, {"id": 2824379, "name": "Tagmersheim", "country": "DE", "coord": {"lon": 10.96667, "lat": 48.816669}}, {"id": 6557299, "name": "Tapfheim", "country": "DE", "coord": {"lon": 10.6833, "lat": 48.666698}}, {"id": 2824005, "name": "Tapfheim", "country": "DE", "coord": {"lon": 10.68333, "lat": 48.666672}}, {"id": 2933891, "name": "Eberstall", "country": "DE", "coord": {"lon": 10.44319, "lat": 48.363781}}, {"id": 6557185, "name": "Bellenberg", "country": "DE", "coord": {"lon": 10.1, "lat": 48.25}}, {"id": 2951232, "name": "Bellenberg", "country": "DE", "coord": {"lon": 10.09094, "lat": 48.257259}}, {"id": 6556016, "name": "Kanzach", "country": "DE", "coord": {"lon": 9.56667, "lat": 48.083302}}, {"id": 2893186, "name": "Kanzach", "country": "DE", "coord": {"lon": 9.55888, "lat": 48.077961}}, {"id": 6555759, "name": "Schluchsee", "country": "DE", "coord": {"lon": 8.18333, "lat": 47.8167}}, {"id": 2838208, "name": "Schluchsee", "country": "DE", "coord": {"lon": 8.18333, "lat": 47.816669}}, {"id": 6555549, "name": "Fichtenberg", "country": "DE", "coord": {"lon": 9.71213, "lat": 48.986031}}, {"id": 2926960, "name": "Fichtenberg", "country": "DE", "coord": {"lon": 9.71199, "lat": 48.986012}}, {"id": 6554376, "name": "Talling", "country": "DE", "coord": {"lon": 6.95, "lat": 49.766701}}, {"id": 2824297, "name": "Talling", "country": "DE", "coord": {"lon": 6.95, "lat": 49.76667}}, {"id": 6554300, "name": "Brauneberg", "country": "DE", "coord": {"lon": 6.98333, "lat": 49.916698}}, {"id": 2945103, "name": "Brauneberg", "country": "DE", "coord": {"lon": 6.98333, "lat": 49.916672}}, {"id": 6554504, "name": "Sefferweich", "country": "DE", "coord": {"lon": 6.51667, "lat": 50.0667}}, {"id": 2833539, "name": "Sefferweich", "country": "DE", "coord": {"lon": 6.51667, "lat": 50.066669}}, {"id": 2935151, "name": "Dreik\u00f6nigzug", "country": "DE", "coord": {"lon": 7.48333, "lat": 49.533329}}, {"id": 2893647, "name": "Kaltenbach", "country": "DE", "coord": {"lon": 7.75, "lat": 49.200001}}, {"id": 2841689, "name": "Sangerhof", "country": "DE", "coord": {"lon": 7.38333, "lat": 49.466671}}, {"id": 6553938, "name": "Niederburg", "country": "DE", "coord": {"lon": 7.7, "lat": 50.116699}}, {"id": 2863555, "name": "Niederburg", "country": "DE", "coord": {"lon": 7.7, "lat": 50.116669}}, {"id": 2859840, "name": "Oberl\u00fctter", "country": "DE", "coord": {"lon": 9.8, "lat": 50.48333}}, {"id": 2814885, "name": "Waldkatzenbach", "country": "DE", "coord": {"lon": 9.05722, "lat": 49.465561}}, {"id": 6554936, "name": "Breunigweiler", "country": "DE", "coord": {"lon": 7.96667, "lat": 49.5667}}, {"id": 2944166, "name": "Breunigweiler", "country": "DE", "coord": {"lon": 7.96667, "lat": 49.566669}}, {"id": 2862742, "name": "Niederweimar", "country": "DE", "coord": {"lon": 8.73327, "lat": 50.76252}}, {"id": 2909194, "name": "Hatzfeld", "country": "DE", "coord": {"lon": 8.55, "lat": 51}}, {"id": 2867037, "name": "Nassau", "country": "DE", "coord": {"lon": 7.8, "lat": 50.316669}}, {"id": 6553663, "name": "Brachtendorf", "country": "DE", "coord": {"lon": 7.23333, "lat": 50.233299}}, {"id": 2945615, "name": "Brachtendorf", "country": "DE", "coord": {"lon": 7.23333, "lat": 50.23333}}, {"id": 2867514, "name": "Munstermaifeld", "country": "DE", "coord": {"lon": 7.36667, "lat": 50.25}}, {"id": 6553319, "name": "Kottenborn", "country": "DE", "coord": {"lon": 6.9, "lat": 50.349998}}, {"id": 2885180, "name": "Kottenborn", "country": "DE", "coord": {"lon": 6.9, "lat": 50.349998}}, {"id": 2910135, "name": "Harthau", "country": "DE", "coord": {"lon": 12.91667, "lat": 50.783329}}, {"id": 2924395, "name": "Friesen", "country": "DE", "coord": {"lon": 12.26667, "lat": 50.633331}}, {"id": 2817411, "name": "Vielau", "country": "DE", "coord": {"lon": 12.55, "lat": 50.683331}}, {"id": 2912320, "name": "Hahneberg", "country": "DE", "coord": {"lon": 14.05, "lat": 51.183331}}, {"id": 6548612, "name": "Guttau", "country": "DE", "coord": {"lon": 14.5667, "lat": 51.25}}, {"id": 2913328, "name": "Guttau", "country": "DE", "coord": {"lon": 14.56667, "lat": 51.25}}, {"id": 6550500, "name": "Kauern", "country": "DE", "coord": {"lon": 12.0833, "lat": 50.716702}}, {"id": 2892089, "name": "Kauern", "country": "DE", "coord": {"lon": 12.08333, "lat": 50.716671}}, {"id": 2895008, "name": "Jerichow", "country": "DE", "coord": {"lon": 12.03333, "lat": 52.5}}, {"id": 2866583, "name": "Neinstedt", "country": "DE", "coord": {"lon": 11.08333, "lat": 51.75}}, {"id": 2820797, "name": "Tundersleben", "country": "DE", "coord": {"lon": 11.33446, "lat": 52.193401}}, {"id": 2805727, "name": "W\u00fcrchwitz", "country": "DE", "coord": {"lon": 12.22744, "lat": 51.019051}}, {"id": 2824383, "name": "Tagewerben", "country": "DE", "coord": {"lon": 11.95, "lat": 51.23333}}, {"id": 6549804, "name": "Niederorschel", "country": "DE", "coord": {"lon": 10.42667, "lat": 51.369438}}, {"id": 2863012, "name": "Niederorschel", "country": "DE", "coord": {"lon": 10.43333, "lat": 51.366669}}, {"id": 2936280, "name": "Dommitzsch", "country": "DE", "coord": {"lon": 12.88333, "lat": 51.650002}}, {"id": 2888164, "name": "Kleinstorkwitz", "country": "DE", "coord": {"lon": 12.33333, "lat": 51.166672}}, {"id": 2864226, "name": "Neu Schloen", "country": "DE", "coord": {"lon": 12.78333, "lat": 53.533329}}, {"id": 2953316, "name": "Bad Wilsnack", "country": "DE", "coord": {"lon": 11.95, "lat": 52.950001}}, {"id": 2852567, "name": "Portz", "country": "DE", "coord": {"lon": 6.48333, "lat": 49.583328}}, {"id": 2820838, "name": "T\u00fcddern", "country": "DE", "coord": {"lon": 5.90232, "lat": 51.01429}}, {"id": 2820026, "name": "Unteraltenbernheim", "country": "DE", "coord": {"lon": 10.51667, "lat": 49.466671}}, {"id": 2887175, "name": "Knielingen", "country": "DE", "coord": {"lon": 8.34257, "lat": 49.032021}}, {"id": 2804979, "name": "Zeilsheim", "country": "DE", "coord": {"lon": 8.5, "lat": 50.099998}}, {"id": 6551514, "name": "Wentorf bei Hamburg", "country": "DE", "coord": {"lon": 10.2455, "lat": 53.5084}}, {"id": 2811031, "name": "Wentorf bei Hamburg", "country": "DE", "coord": {"lon": 10.25, "lat": 53.5}}, {"id": 2859550, "name": "Obernhausen", "country": "DE", "coord": {"lon": 9.76513, "lat": 52.919868}}, {"id": 2931821, "name": "Eimersleben", "country": "DE", "coord": {"lon": 11.20056, "lat": 52.221909}}, {"id": 6555522, "name": "Kirchardt", "country": "DE", "coord": {"lon": 8.992, "lat": 49.206902}}, {"id": 2890769, "name": "Kirchardt", "country": "DE", "coord": {"lon": 8.99167, "lat": 49.205002}}, {"id": 2953419, "name": "Bad Konig", "country": "DE", "coord": {"lon": 9.00861, "lat": 49.743061}}, {"id": 6554088, "name": "Prath", "country": "DE", "coord": {"lon": 7.68333, "lat": 50.1833}}, {"id": 2852313, "name": "Prath", "country": "DE", "coord": {"lon": 7.68333, "lat": 50.183331}}, {"id": 6555448, "name": "Offstein", "country": "DE", "coord": {"lon": 8.23806, "lat": 49.606098}}, {"id": 2857765, "name": "Offstein", "country": "DE", "coord": {"lon": 8.23806, "lat": 49.60611}}, {"id": 2928415, "name": "Eulowitz", "country": "DE", "coord": {"lon": 14.46667, "lat": 51.116669}}, {"id": 6548584, "name": "Bockau", "country": "DE", "coord": {"lon": 12.7, "lat": 50.549999}}, {"id": 2947403, "name": "Bockau", "country": "DE", "coord": {"lon": 12.7, "lat": 50.549999}}, {"id": 2882673, "name": "Kuhschnappel", "country": "DE", "coord": {"lon": 12.64432, "lat": 50.806568}}, {"id": 2820326, "name": "Uhlst\u00e4dt", "country": "DE", "coord": {"lon": 11.46667, "lat": 50.75}}, {"id": 2925902, "name": "Forderstedt", "country": "DE", "coord": {"lon": 11.63333, "lat": 51.900002}}, {"id": 6557018, "name": "Wiesenbronn", "country": "DE", "coord": {"lon": 10.3, "lat": 49.75}}, {"id": 2809264, "name": "Wiesenbronn", "country": "DE", "coord": {"lon": 10.3, "lat": 49.75}}, {"id": 6555035, "name": "Hauptstuhl", "country": "DE", "coord": {"lon": 7.48333, "lat": 49.400002}}, {"id": 2908999, "name": "Hauptstuhl", "country": "DE", "coord": {"lon": 7.48333, "lat": 49.400002}}, {"id": 2859285, "name": "Oberriexingen", "country": "DE", "coord": {"lon": 9.03333, "lat": 48.933331}}, {"id": 6553445, "name": "Schutzbach", "country": "DE", "coord": {"lon": 7.9, "lat": 50.75}}, {"id": 2835583, "name": "Schutzbach", "country": "DE", "coord": {"lon": 7.9, "lat": 50.75}}, {"id": 6547981, "name": "Vellahn", "country": "DE", "coord": {"lon": 10.9667, "lat": 53.400002}}, {"id": 2817696, "name": "Vellahn", "country": "DE", "coord": {"lon": 10.96667, "lat": 53.400002}}, {"id": 6547969, "name": "Rastow", "country": "DE", "coord": {"lon": 11.4333, "lat": 53.450001}}, {"id": 2850238, "name": "Rastow", "country": "DE", "coord": {"lon": 11.43145, "lat": 53.457088}}, {"id": 2841323, "name": "Satower H\u00fctte", "country": "DE", "coord": {"lon": 12.38829, "lat": 53.423859}}, {"id": 6554709, "name": "Retterath", "country": "DE", "coord": {"lon": 7.01667, "lat": 50.266701}}, {"id": 2847982, "name": "Retterath", "country": "DE", "coord": {"lon": 7.01667, "lat": 50.26667}}, {"id": 6556949, "name": "Heinrichsthal", "country": "DE", "coord": {"lon": 9.35, "lat": 50.0667}}, {"id": 2907211, "name": "Heinrichsthal", "country": "DE", "coord": {"lon": 9.35, "lat": 50.066669}}, {"id": 2833174, "name": "Sellnrod", "country": "DE", "coord": {"lon": 9.08333, "lat": 50.583328}}, {"id": 6556569, "name": "Stubenberg", "country": "DE", "coord": {"lon": 13.0833, "lat": 48.3167}}, {"id": 2825519, "name": "Stubenberg", "country": "DE", "coord": {"lon": 13.08333, "lat": 48.316669}}, {"id": 2859196, "name": "Obersayn", "country": "DE", "coord": {"lon": 7.86667, "lat": 50.549999}}, {"id": 6554228, "name": "Kirburg", "country": "DE", "coord": {"lon": 7.93333, "lat": 50.6833}}, {"id": 2890776, "name": "Kirburg", "country": "DE", "coord": {"lon": 7.93333, "lat": 50.683331}}, {"id": 6547794, "name": "Rukieten", "country": "DE", "coord": {"lon": 12.15, "lat": 53.900002}}, {"id": 2843166, "name": "Rukieten", "country": "DE", "coord": {"lon": 12.15483, "lat": 53.89888}}, {"id": 2928979, "name": "Eschlkam", "country": "DE", "coord": {"lon": 12.91667, "lat": 49.299999}}, {"id": 2834051, "name": "Sedlitz", "country": "DE", "coord": {"lon": 14.06667, "lat": 51.549999}}, {"id": 2915203, "name": "Gro\u00dfopitz", "country": "DE", "coord": {"lon": 13.6, "lat": 51}}, {"id": 2951631, "name": "Bedheim", "country": "DE", "coord": {"lon": 10.65, "lat": 50.400002}}, {"id": 2837074, "name": "Schonau im Schwarzwald", "country": "DE", "coord": {"lon": 7.89445, "lat": 47.786228}}, {"id": 6553792, "name": "Alken", "country": "DE", "coord": {"lon": 7.45, "lat": 50.25}}, {"id": 2958486, "name": "Alken", "country": "DE", "coord": {"lon": 7.45, "lat": 50.25}}, {"id": 6552580, "name": "Drangstedt", "country": "DE", "coord": {"lon": 8.76667, "lat": 53.616699}}, {"id": 2935334, "name": "Drangstedt", "country": "DE", "coord": {"lon": 8.75576, "lat": 53.61359}}, {"id": 2930846, "name": "Elmenthal", "country": "DE", "coord": {"lon": 10.4, "lat": 50.799999}}, {"id": 6549933, "name": "Marolterode", "country": "DE", "coord": {"lon": 10.6833, "lat": 51.233299}}, {"id": 2873227, "name": "Marolterode", "country": "DE", "coord": {"lon": 10.68333, "lat": 51.23333}}, {"id": 3208751, "name": "Uetz-Paaren", "country": "DE", "coord": {"lon": 12.93333, "lat": 52.466671}}, {"id": 2855783, "name": "Paaren", "country": "DE", "coord": {"lon": 12.93333, "lat": 52.48333}}, {"id": 2826487, "name": "Stolzenhagen", "country": "DE", "coord": {"lon": 13.43843, "lat": 52.778049}}, {"id": 6554626, "name": "Darscheid", "country": "DE", "coord": {"lon": 6.88333, "lat": 50.216702}}, {"id": 2938894, "name": "Darscheid", "country": "DE", "coord": {"lon": 6.88333, "lat": 50.216671}}, {"id": 6554093, "name": "Rettert", "country": "DE", "coord": {"lon": 7.93333, "lat": 50.233299}}, {"id": 2847971, "name": "Rettert", "country": "DE", "coord": {"lon": 7.93333, "lat": 50.23333}}, {"id": 6551552, "name": "Hattstedt", "country": "DE", "coord": {"lon": 9.03333, "lat": 54.533298}}, {"id": 2909222, "name": "Hattstedt", "country": "DE", "coord": {"lon": 9.03333, "lat": 54.533329}}, {"id": 6554160, "name": "Niederelbert", "country": "DE", "coord": {"lon": 7.81667, "lat": 50.416698}}, {"id": 2863487, "name": "Niederelbert", "country": "DE", "coord": {"lon": 7.81667, "lat": 50.416672}}, {"id": 2955495, "name": "Arnoldsgr\u00fcn", "country": "DE", "coord": {"lon": 12.26667, "lat": 50.400002}}, {"id": 6552242, "name": "Schlotfeld", "country": "DE", "coord": {"lon": 9.58233, "lat": 53.95583}}, {"id": 2838242, "name": "Schlotfeld", "country": "DE", "coord": {"lon": 9.58231, "lat": 53.956188}}, {"id": 2855016, "name": "Peking", "country": "DE", "coord": {"lon": 11.11667, "lat": 52.083328}}, {"id": 2881378, "name": "Langdorf", "country": "DE", "coord": {"lon": 13.35, "lat": 48.900002}}, {"id": 2904816, "name": "Hilbersdorf", "country": "DE", "coord": {"lon": 12.95, "lat": 50.849998}}, {"id": 2872533, "name": "Medingen", "country": "DE", "coord": {"lon": 13.78333, "lat": 51.183331}}, {"id": 2927656, "name": "Faulungen", "country": "DE", "coord": {"lon": 10.26667, "lat": 51.200001}}, {"id": 2831877, "name": "Sinnleithen", "country": "DE", "coord": {"lon": 11.70499, "lat": 49.561409}}, {"id": 2866102, "name": "Neubrunn", "country": "DE", "coord": {"lon": 9.67111, "lat": 49.729721}}, {"id": 2819602, "name": "Untereuerheim", "country": "DE", "coord": {"lon": 10.36667, "lat": 50.01667}}, {"id": 2809969, "name": "Wetterfeld", "country": "DE", "coord": {"lon": 12.55, "lat": 49.23333}}, {"id": 2902624, "name": "H\u00f6fenneusig", "country": "DE", "coord": {"lon": 10.88333, "lat": 50.01667}}, {"id": 2928640, "name": "Etterschlag", "country": "DE", "coord": {"lon": 11.20116, "lat": 48.086681}}, {"id": 2830604, "name": "Spernsdorf", "country": "DE", "coord": {"lon": 12.83333, "lat": 51.066669}}, {"id": 2920409, "name": "Gillersheim", "country": "DE", "coord": {"lon": 10.1, "lat": 51.633331}}, {"id": 2824621, "name": "S\u00fcnnerschau", "country": "DE", "coord": {"lon": 9.88333, "lat": 54.700001}}, {"id": 2818277, "name": "Uphusum", "country": "DE", "coord": {"lon": 8.91667, "lat": 54.633331}}, {"id": 2843149, "name": "R\u00fcllschau", "country": "DE", "coord": {"lon": 9.53333, "lat": 54.783329}}, {"id": 6551294, "name": "P\u00f6litz", "country": "DE", "coord": {"lon": 10.3833, "lat": 53.783298}}, {"id": 2852877, "name": "Politz", "country": "DE", "coord": {"lon": 10.38333, "lat": 53.783329}}, {"id": 2907340, "name": "Heinde", "country": "DE", "coord": {"lon": 10.03333, "lat": 52.099998}}, {"id": 2921996, "name": "Gehren", "country": "DE", "coord": {"lon": 11, "lat": 50.650002}}, {"id": 2835403, "name": "Schwaighausen", "country": "DE", "coord": {"lon": 10.78333, "lat": 49.400002}}, {"id": 2875728, "name": "L\u00f6tzschen", "country": "DE", "coord": {"lon": 13.74304, "lat": 51.27969}}, {"id": 2957827, "name": "Altenbergen", "country": "DE", "coord": {"lon": 10.61667, "lat": 50.833328}}, {"id": 2866239, "name": "Neubau", "country": "DE", "coord": {"lon": 7.76667, "lat": 49.666672}}, {"id": 6555147, "name": "Rutsweiler an der Lauter", "country": "DE", "coord": {"lon": 7.61667, "lat": 49.5667}}, {"id": 2842785, "name": "Rutsweiler an der Lauter", "country": "DE", "coord": {"lon": 7.61667, "lat": 49.566669}}, {"id": 6555144, "name": "Rothselberg", "country": "DE", "coord": {"lon": 7.6, "lat": 49.549999}}, {"id": 2843858, "name": "Rothselberg", "country": "DE", "coord": {"lon": 7.6, "lat": 49.549999}}, {"id": 6555940, "name": "Hirrlingen", "country": "DE", "coord": {"lon": 8.88751, "lat": 48.412399}}, {"id": 2903817, "name": "Hirrlingen", "country": "DE", "coord": {"lon": 8.88742, "lat": 48.412449}}, {"id": 2849502, "name": "Regelsbach", "country": "DE", "coord": {"lon": 7.95, "lat": 48.26667}}, {"id": 6551736, "name": "Honigsee", "country": "DE", "coord": {"lon": 10.1833, "lat": 54.233299}}, {"id": 2899352, "name": "Honigsee", "country": "DE", "coord": {"lon": 10.18333, "lat": 54.23333}}, {"id": 2866455, "name": "Nesse", "country": "DE", "coord": {"lon": 8.61667, "lat": 53.450001}}, {"id": 2896915, "name": "H\u00fcttenwohld", "country": "DE", "coord": {"lon": 10.13333, "lat": 54.116669}}, {"id": 6551858, "name": "Hohn", "country": "DE", "coord": {"lon": 9.5, "lat": 54.299999}}, {"id": 2900899, "name": "Hohn", "country": "DE", "coord": {"lon": 9.5, "lat": 54.299999}}, {"id": 6552257, "name": "Winseldorf", "country": "DE", "coord": {"lon": 9.60647, "lat": 53.944309}}, {"id": 2807848, "name": "Winseldorf", "country": "DE", "coord": {"lon": 9.60632, "lat": 53.944309}}, {"id": 6551728, "name": "Grebin", "country": "DE", "coord": {"lon": 10.5, "lat": 54.200001}}, {"id": 2917846, "name": "Grebin", "country": "DE", "coord": {"lon": 10.5, "lat": 54.200001}}, {"id": 6552229, "name": "Oldendorf", "country": "DE", "coord": {"lon": 9.45858, "lat": 53.953411}}, {"id": 2857429, "name": "Oldendorf", "country": "DE", "coord": {"lon": 9.45858, "lat": 53.953411}}, {"id": 6553935, "name": "Nannhausen", "country": "DE", "coord": {"lon": 7.48333, "lat": 49.966702}}, {"id": 2867104, "name": "Nannhausen", "country": "DE", "coord": {"lon": 7.48333, "lat": 49.966671}}, {"id": 6553979, "name": "Wahlbach", "country": "DE", "coord": {"lon": 7.6, "lat": 50}}, {"id": 2815456, "name": "Wahlbach", "country": "DE", "coord": {"lon": 7.6, "lat": 50}}, {"id": 6553951, "name": "Ravengiersburg", "country": "DE", "coord": {"lon": 7.48333, "lat": 49.9333}}, {"id": 2849816, "name": "Ravengiersburg", "country": "DE", "coord": {"lon": 7.48333, "lat": 49.933331}}, {"id": 2955731, "name": "Appenhofen", "country": "DE", "coord": {"lon": 8.08278, "lat": 49.140282}}, {"id": 2896007, "name": "Ingenheim", "country": "DE", "coord": {"lon": 8.08139, "lat": 49.134998}}, {"id": 2828939, "name": "Stein", "country": "DE", "coord": {"lon": 7.93333, "lat": 49.150002}}, {"id": 2879019, "name": "Leitheim", "country": "DE", "coord": {"lon": 10.9, "lat": 48.75}}, {"id": 2834439, "name": "Schweinspoint", "country": "DE", "coord": {"lon": 10.95, "lat": 48.75}}, {"id": 2906562, "name": "Hemmelte", "country": "DE", "coord": {"lon": 7.96667, "lat": 52.783329}}, {"id": 2910324, "name": "Harrenst\u00e4tte", "country": "DE", "coord": {"lon": 7.61667, "lat": 52.866669}}, {"id": 6555167, "name": "Birkenh\u00f6rdt", "country": "DE", "coord": {"lon": 7.93333, "lat": 49.116699}}, {"id": 2948552, "name": "Birkenhordt", "country": "DE", "coord": {"lon": 7.93333, "lat": 49.116669}}, {"id": 6555138, "name": "Pfeffelbach", "country": "DE", "coord": {"lon": 7.33333, "lat": 49.533298}}, {"id": 2854151, "name": "Pfeffelbach", "country": "DE", "coord": {"lon": 7.33333, "lat": 49.533329}}, {"id": 2917606, "name": "Gre\u00dfthal", "country": "DE", "coord": {"lon": 10.03867, "lat": 50.076859}}, {"id": 3209190, "name": "Neundorf", "country": "DE", "coord": {"lon": 12.08333, "lat": 50.48333}}, {"id": 2960513, "name": "District de Grevenmacher", "country": "LU", "coord": {"lon": 6.41667, "lat": 49.666672}}, {"id": 2959966, "name": "Wollefsmillen", "country": "LU", "coord": {"lon": 6.49, "lat": 49.716389}}, {"id": 2940518, "name": "Buttstadt", "country": "DE", "coord": {"lon": 11.41667, "lat": 51.116669}}, {"id": 2834222, "name": "Schwiegershausen", "country": "DE", "coord": {"lon": 10.21667, "lat": 51.683331}}, {"id": 3220999, "name": "Werra-Mei\u00dfner-Kreis", "country": "DE", "coord": {"lon": 9.93806, "lat": 51.207779}}, {"id": 2851286, "name": "Raakow", "country": "DE", "coord": {"lon": 14.21667, "lat": 51.650002}}, {"id": 6552120, "name": "Negernb\u00f6tel", "country": "DE", "coord": {"lon": 10.25, "lat": 53.983299}}, {"id": 2866657, "name": "Negernbotel", "country": "DE", "coord": {"lon": 10.25, "lat": 53.98333}}, {"id": 2841423, "name": "Sarching", "country": "DE", "coord": {"lon": 12.23333, "lat": 49.01667}}, {"id": 2874857, "name": "Lutten", "country": "DE", "coord": {"lon": 8.34309, "lat": 52.762581}}, {"id": 2852594, "name": "Porrendeich", "country": "DE", "coord": {"lon": 8.94806, "lat": 54.423302}}, {"id": 2824442, "name": "Taaken", "country": "DE", "coord": {"lon": 9.2, "lat": 53.150002}}, {"id": 2864166, "name": "Neuses", "country": "DE", "coord": {"lon": 9.855, "lat": 49.507221}}, {"id": 6553700, "name": "Landkern", "country": "DE", "coord": {"lon": 7.15, "lat": 50.200001}}, {"id": 2881541, "name": "Landkern", "country": "DE", "coord": {"lon": 7.15, "lat": 50.200001}}, {"id": 2877569, "name": "Lindach", "country": "DE", "coord": {"lon": 10.58333, "lat": 49.400002}}, {"id": 6549946, "name": "Weberstedt", "country": "DE", "coord": {"lon": 10.5, "lat": 51.099998}}, {"id": 2813539, "name": "Weberstedt", "country": "DE", "coord": {"lon": 10.5, "lat": 51.099998}}, {"id": 2852814, "name": "P\u00f6lsfeld", "country": "DE", "coord": {"lon": 11.35, "lat": 51.533329}}, {"id": 6555080, "name": "Breitenbach", "country": "DE", "coord": {"lon": 7.26667, "lat": 49.4333}}, {"id": 2944716, "name": "Breitenbach", "country": "DE", "coord": {"lon": 7.26667, "lat": 49.433331}}, {"id": 6554134, "name": "G\u00f6rgeshausen", "country": "DE", "coord": {"lon": 7.95, "lat": 50.416698}}, {"id": 2919024, "name": "Gorgeshausen", "country": "DE", "coord": {"lon": 7.95, "lat": 50.416672}}, {"id": 6554218, "name": "Hellenhahn-Schellenberg", "country": "DE", "coord": {"lon": 8.01667, "lat": 50.599998}}, {"id": 2906851, "name": "Hellenhahn-Schellenberg", "country": "DE", "coord": {"lon": 8.01667, "lat": 50.599998}}, {"id": 6556744, "name": "Priesendorf", "country": "DE", "coord": {"lon": 10.7167, "lat": 49.900002}}, {"id": 2852082, "name": "Priesendorf", "country": "DE", "coord": {"lon": 10.71667, "lat": 49.900002}}, {"id": 6549991, "name": "Westgreu\u00dfen", "country": "DE", "coord": {"lon": 10.9167, "lat": 51.25}}, {"id": 2810143, "name": "Westgreussen", "country": "DE", "coord": {"lon": 10.91667, "lat": 51.25}}, {"id": 2853918, "name": "Pf\u00fctzthal", "country": "DE", "coord": {"lon": 11.81667, "lat": 51.533329}}, {"id": 2935020, "name": "Kreisfreie Stadt Dresden", "country": "DE", "coord": {"lon": 13.73333, "lat": 51.049999}}, {"id": 6551127, "name": "Dresden, Stadt", "country": "DE", "coord": {"lon": 13.75, "lat": 51.049999}}, {"id": 2919039, "name": "Gorbitz", "country": "DE", "coord": {"lon": 13.66667, "lat": 51.049999}}, {"id": 2878282, "name": "Leutewitz", "country": "DE", "coord": {"lon": 13.68333, "lat": 51.049999}}, {"id": 2885253, "name": "Kothaich", "country": "DE", "coord": {"lon": 12.81173, "lat": 47.943569}}, {"id": 2924964, "name": "Fresdorf", "country": "DE", "coord": {"lon": 13.07545, "lat": 52.27026}}, {"id": 2938699, "name": "Dautzschen", "country": "DE", "coord": {"lon": 13.01667, "lat": 51.633331}}, {"id": 6547996, "name": "Cammin", "country": "DE", "coord": {"lon": 13.3, "lat": 53.4333}}, {"id": 2940364, "name": "Cammin", "country": "DE", "coord": {"lon": 13.3, "lat": 53.433331}}, {"id": 2953904, "name": "Authausen", "country": "DE", "coord": {"lon": 12.67925, "lat": 51.592861}}, {"id": 6549203, "name": "Edersleben", "country": "DE", "coord": {"lon": 11.2833, "lat": 51.416698}}, {"id": 2933372, "name": "Edersleben", "country": "DE", "coord": {"lon": 11.28333, "lat": 51.416672}}, {"id": 6550108, "name": "Wangenheim", "country": "DE", "coord": {"lon": 10.6167, "lat": 51.016701}}, {"id": 2814273, "name": "Wangenheim", "country": "DE", "coord": {"lon": 10.61667, "lat": 51.01667}}, {"id": 6550170, "name": "Gompertshausen", "country": "DE", "coord": {"lon": 10.6333, "lat": 50.299999}}, {"id": 2919129, "name": "Gompertshausen", "country": "DE", "coord": {"lon": 10.63333, "lat": 50.299999}}, {"id": 2823139, "name": "Thalebra", "country": "DE", "coord": {"lon": 10.78333, "lat": 51.299999}}, {"id": 2822383, "name": "Tiefengruben", "country": "DE", "coord": {"lon": 9.64788, "lat": 50.473679}}, {"id": 2924285, "name": "Frohndorf", "country": "DE", "coord": {"lon": 11.18333, "lat": 51.166672}}, {"id": 2852949, "name": "Pohrsdorf", "country": "DE", "coord": {"lon": 13.53333, "lat": 51}}, {"id": 6554137, "name": "Heilberscheid", "country": "DE", "coord": {"lon": 7.88333, "lat": 50.416698}}, {"id": 2907670, "name": "Heilberscheid", "country": "DE", "coord": {"lon": 7.88333, "lat": 50.416672}}, {"id": 2887064, "name": "Knopp", "country": "DE", "coord": {"lon": 7.5, "lat": 49.333328}}, {"id": 6554938, "name": "Dannenfels", "country": "DE", "coord": {"lon": 7.95, "lat": 49.633301}}, {"id": 2938985, "name": "Dannenfels", "country": "DE", "coord": {"lon": 7.95, "lat": 49.633331}}, {"id": 2891458, "name": "Kesselbach", "country": "DE", "coord": {"lon": 8.2, "lat": 50.216671}}, {"id": 6553934, "name": "Mutterschied", "country": "DE", "coord": {"lon": 7.56667, "lat": 49.983299}}, {"id": 2867315, "name": "Mutterschied", "country": "DE", "coord": {"lon": 7.56667, "lat": 49.98333}}, {"id": 2936756, "name": "Dittelsheim", "country": "DE", "coord": {"lon": 8.22639, "lat": 49.746391}}, {"id": 6555599, "name": "T\u00e4ferrot", "country": "DE", "coord": {"lon": 9.83847, "lat": 48.849689}}, {"id": 2824393, "name": "Taferrot", "country": "DE", "coord": {"lon": 9.83824, "lat": 48.84972}}, {"id": 2959365, "name": "Affaltern", "country": "DE", "coord": {"lon": 10.73333, "lat": 48.48333}}, {"id": 2959008, "name": "Aich", "country": "DE", "coord": {"lon": 12.19598, "lat": 47.90052}}, {"id": 6551679, "name": "Ellerhoop", "country": "DE", "coord": {"lon": 9.76667, "lat": 53.733299}}, {"id": 2931000, "name": "Ellerhoop", "country": "DE", "coord": {"lon": 9.76667, "lat": 53.73333}}, {"id": 6551429, "name": "Escheburg", "country": "DE", "coord": {"lon": 10.3167, "lat": 53.466702}}, {"id": 2929123, "name": "Escheburg", "country": "DE", "coord": {"lon": 10.31667, "lat": 53.466671}}, {"id": 2854580, "name": "Petschow", "country": "DE", "coord": {"lon": 12.2925, "lat": 54.036758}}, {"id": 6551812, "name": "Bovenau", "country": "DE", "coord": {"lon": 9.83333, "lat": 54.333302}}, {"id": 2945729, "name": "Bovenau", "country": "DE", "coord": {"lon": 9.83333, "lat": 54.333328}}, {"id": 6552552, "name": "Br\u00f6ckel", "country": "DE", "coord": {"lon": 10.2167, "lat": 52.516701}}, {"id": 2943998, "name": "Broeckel", "country": "DE", "coord": {"lon": 10.21505, "lat": 52.51627}}, {"id": 3208257, "name": "Siedlung Kuhstedt", "country": "DE", "coord": {"lon": 8.91667, "lat": 53.383331}}, {"id": 6552741, "name": "Klein Meckelsen", "country": "DE", "coord": {"lon": 9.45, "lat": 53.299999}}, {"id": 2888511, "name": "Klein Meckelsen", "country": "DE", "coord": {"lon": 9.45, "lat": 53.299999}}, {"id": 2954961, "name": "Athenstedt", "country": "DE", "coord": {"lon": 10.91667, "lat": 51.933331}}, {"id": 2925255, "name": "Frechenrieden", "country": "DE", "coord": {"lon": 10.36667, "lat": 47.966671}}, {"id": 2914560, "name": "Grubweidach", "country": "DE", "coord": {"lon": 10.8, "lat": 47.700001}}, {"id": 2918505, "name": "Graach", "country": "DE", "coord": {"lon": 7.06667, "lat": 49.933331}}, {"id": 6553884, "name": "B\u00fcchenbeuren", "country": "DE", "coord": {"lon": 7.26667, "lat": 49.916698}}, {"id": 2942559, "name": "Buchenbeuren", "country": "DE", "coord": {"lon": 7.26667, "lat": 49.916672}}, {"id": 6696267, "name": "Bollendorf-Pont", "country": "LU", "coord": {"lon": 6.35787, "lat": 49.848469}}, {"id": 2956742, "name": "Alt Zeschdorf", "country": "DE", "coord": {"lon": 14.43333, "lat": 52.433331}}, {"id": 6547646, "name": "Rauen", "country": "DE", "coord": {"lon": 14.0167, "lat": 52.333302}}, {"id": 2850058, "name": "Rauen", "country": "DE", "coord": {"lon": 14.01667, "lat": 52.333328}}, {"id": 2900065, "name": "Holvede", "country": "DE", "coord": {"lon": 9.63333, "lat": 53.366669}}, {"id": 6547808, "name": "Alt Tellin", "country": "DE", "coord": {"lon": 13.25, "lat": 53.849998}}, {"id": 2956801, "name": "Alt Tellin", "country": "DE", "coord": {"lon": 13.25, "lat": 53.849998}}, {"id": 2858859, "name": "Obersulzbach", "country": "DE", "coord": {"lon": 7.65, "lat": 49.51667}}, {"id": 2847649, "name": "Rheindiebach", "country": "DE", "coord": {"lon": 7.78333, "lat": 50.033329}}, {"id": 6553555, "name": "Warmsroth", "country": "DE", "coord": {"lon": 7.78333, "lat": 49.950001}}, {"id": 2814065, "name": "Warmsroth", "country": "DE", "coord": {"lon": 7.78333, "lat": 49.950001}}, {"id": 6553559, "name": "Windesheim", "country": "DE", "coord": {"lon": 7.81667, "lat": 49.900002}}, {"id": 2808219, "name": "Windesheim", "country": "DE", "coord": {"lon": 7.81667, "lat": 49.900002}}, {"id": 2938966, "name": "Dannigkow", "country": "DE", "coord": {"lon": 11.88333, "lat": 52.083328}}, {"id": 6551061, "name": "Alt Tucheband", "country": "DE", "coord": {"lon": 14.5301, "lat": 52.5214}}, {"id": 2956789, "name": "Alt Tucheband", "country": "DE", "coord": {"lon": 14.51225, "lat": 52.537319}}, {"id": 2854348, "name": "Pfaffenrod", "country": "DE", "coord": {"lon": 9.47133, "lat": 50.489239}}, {"id": 6547636, "name": "Neupetershain", "country": "DE", "coord": {"lon": 14.1667, "lat": 51.599998}}, {"id": 2864377, "name": "Neupetershain", "country": "DE", "coord": {"lon": 14.16667, "lat": 51.599998}}, {"id": 2895187, "name": "J\u00e4nschwalde Ost", "country": "DE", "coord": {"lon": 14.54287, "lat": 51.87466}}, {"id": 2916859, "name": "Gro\u00df D\u00f6bbern", "country": "DE", "coord": {"lon": 14.33333, "lat": 51.650002}}, {"id": 2898986, "name": "H\u00f6rlitz", "country": "DE", "coord": {"lon": 13.95, "lat": 51.51667}}, {"id": 6547625, "name": "Altd\u00f6bern", "country": "DE", "coord": {"lon": 14.0333, "lat": 51.650002}}, {"id": 2958036, "name": "Altdobern", "country": "DE", "coord": {"lon": 14.03333, "lat": 51.650002}}, {"id": 6550524, "name": "Teichwolframsdorf", "country": "DE", "coord": {"lon": 12.25, "lat": 50.716702}}, {"id": 2823625, "name": "Teichwolframsdorf", "country": "DE", "coord": {"lon": 12.25, "lat": 50.716671}}, {"id": 2885669, "name": "Konzenberg", "country": "DE", "coord": {"lon": 10.43333, "lat": 48.450001}}, {"id": 2875196, "name": "Luisenfels", "country": "DE", "coord": {"lon": 13.36667, "lat": 48.916672}}, {"id": 2822728, "name": "Thie\u00dfen", "country": "DE", "coord": {"lon": 12.67633, "lat": 51.917912}}, {"id": 6548095, "name": "Stuer", "country": "DE", "coord": {"lon": 12.3333, "lat": 53.383301}}, {"id": 2825460, "name": "Stuer", "country": "DE", "coord": {"lon": 12.3373, "lat": 53.378929}}, {"id": 2914105, "name": "Grunsfeld", "country": "DE", "coord": {"lon": 9.74389, "lat": 49.60833}}, {"id": 2932241, "name": "Eichfeld", "country": "DE", "coord": {"lon": 11.26667, "lat": 50.716671}}, {"id": 2842601, "name": "Sabel", "country": "DE", "coord": {"lon": 13.33333, "lat": 53.466671}}, {"id": 6553527, "name": "Pfaffen-Schwabenheim", "country": "DE", "coord": {"lon": 7.95, "lat": 49.849998}}, {"id": 2854346, "name": "Pfaffen-Schwabenheim", "country": "DE", "coord": {"lon": 7.95, "lat": 49.849998}}, {"id": 2847415, "name": "Riding", "country": "DE", "coord": {"lon": 12, "lat": 48.383331}}, {"id": 2957208, "name": "Altfranken", "country": "DE", "coord": {"lon": 13.65, "lat": 51.033329}}, {"id": 2866666, "name": "Negenborn", "country": "DE", "coord": {"lon": 9.91667, "lat": 51.833328}}, {"id": 6550225, "name": "Witzleben", "country": "DE", "coord": {"lon": 11.1167, "lat": 50.8167}}, {"id": 2807163, "name": "Witzleben", "country": "DE", "coord": {"lon": 11.11667, "lat": 50.816669}}, {"id": 2913279, "name": "Gymnich", "country": "DE", "coord": {"lon": 6.73333, "lat": 50.833328}}, {"id": 6552734, "name": "Hemslingen", "country": "DE", "coord": {"lon": 9.6, "lat": 53.083302}}, {"id": 2906500, "name": "Hemslingen", "country": "DE", "coord": {"lon": 9.6, "lat": 53.083328}}, {"id": 2856200, "name": "Ostseebad Ahrenshoop", "country": "DE", "coord": {"lon": 12.42425, "lat": 54.383461}}, {"id": 6548187, "name": "Hanshagen", "country": "DE", "coord": {"lon": 11.15, "lat": 53.799999}}, {"id": 2910777, "name": "Hanshagen", "country": "DE", "coord": {"lon": 11.15, "lat": 53.799999}}, {"id": 2856197, "name": "Ostseebad Boltenhagen", "country": "DE", "coord": {"lon": 11.20193, "lat": 53.987789}}, {"id": 2851874, "name": "Proseken", "country": "DE", "coord": {"lon": 11.36667, "lat": 53.916672}}, {"id": 6554041, "name": "Holzappel", "country": "DE", "coord": {"lon": 7.853, "lat": 50.338902}}, {"id": 2900027, "name": "Holzappel", "country": "DE", "coord": {"lon": 7.9, "lat": 50.349998}}, {"id": 2882623, "name": "Kuckuk", "country": "DE", "coord": {"lon": 12.26667, "lat": 53.200001}}, {"id": 6553329, "name": "Oberd\u00fcrenbach", "country": "DE", "coord": {"lon": 7.16667, "lat": 50.466702}}, {"id": 2861038, "name": "Oberdurenbach", "country": "DE", "coord": {"lon": 7.16667, "lat": 50.466671}}, {"id": 6556512, "name": "Postau", "country": "DE", "coord": {"lon": 12.3333, "lat": 48.650002}}, {"id": 2852509, "name": "Postau", "country": "DE", "coord": {"lon": 12.33333, "lat": 48.650002}}, {"id": 2936775, "name": "Distelkamp", "country": "DE", "coord": {"lon": 7.56667, "lat": 50.900002}}, {"id": 2807265, "name": "Wittichenau", "country": "DE", "coord": {"lon": 14.24403, "lat": 51.38496}}, {"id": 2848610, "name": "Reisch", "country": "DE", "coord": {"lon": 10.91603, "lat": 48.043491}}, {"id": 6552961, "name": "Beckeln", "country": "DE", "coord": {"lon": 8.58333, "lat": 52.866699}}, {"id": 2951711, "name": "Beckeln", "country": "DE", "coord": {"lon": 8.58333, "lat": 52.866669}}, {"id": 6556447, "name": "Wessobrunn", "country": "DE", "coord": {"lon": 11.0333, "lat": 47.883301}}, {"id": 2810581, "name": "Wessobrunn", "country": "DE", "coord": {"lon": 11.03333, "lat": 47.883331}}, {"id": 6552418, "name": "Kissenbr\u00fcck", "country": "DE", "coord": {"lon": 10.5833, "lat": 52.116699}}, {"id": 2890204, "name": "Kissenbruck", "country": "DE", "coord": {"lon": 10.58996, "lat": 52.109558}}, {"id": 6552415, "name": "Hedeper", "country": "DE", "coord": {"lon": 10.6833, "lat": 52.0667}}, {"id": 2908379, "name": "Hedeper", "country": "DE", "coord": {"lon": 10.68333, "lat": 52.066669}}, {"id": 6554032, "name": "G\u00fcckingen", "country": "DE", "coord": {"lon": 8.01667, "lat": 50.400002}}, {"id": 2913905, "name": "Guckingen", "country": "DE", "coord": {"lon": 8.01667, "lat": 50.400002}}, {"id": 6548731, "name": "Schwepnitz", "country": "DE", "coord": {"lon": 13.9667, "lat": 51.333302}}, {"id": 2834296, "name": "Schwepnitz", "country": "DE", "coord": {"lon": 13.96667, "lat": 51.333328}}, {"id": 2928372, "name": "Eutzsch", "country": "DE", "coord": {"lon": 12.63333, "lat": 51.816669}}, {"id": 6550112, "name": "W\u00f6lfis", "country": "DE", "coord": {"lon": 10.7833, "lat": 50.8167}}, {"id": 2806788, "name": "Wolfis", "country": "DE", "coord": {"lon": 10.78333, "lat": 50.816669}}, {"id": 2811119, "name": "Wenigenlupnitz", "country": "DE", "coord": {"lon": 10.43333, "lat": 50.98333}}, {"id": 2843932, "name": "Rotheul", "country": "DE", "coord": {"lon": 11.23333, "lat": 50.283329}}, {"id": 6552809, "name": "Nottensdorf", "country": "DE", "coord": {"lon": 9.6, "lat": 53.483299}}, {"id": 2861743, "name": "Nottensdorf", "country": "DE", "coord": {"lon": 9.6, "lat": 53.48333}}, {"id": 6552683, "name": "Melbeck", "country": "DE", "coord": {"lon": 10.4267, "lat": 53.169899}}, {"id": 2872117, "name": "Melbeck", "country": "DE", "coord": {"lon": 10.4, "lat": 53.183331}}, {"id": 2888064, "name": "Klein Vollb\u00fcttel", "country": "DE", "coord": {"lon": 10.49091, "lat": 52.416451}}, {"id": 2826889, "name": "Stockau", "country": "DE", "coord": {"lon": 12, "lat": 49.933331}}, {"id": 2811314, "name": "Wendefurth", "country": "DE", "coord": {"lon": 10.91667, "lat": 51.73333}}, {"id": 6555432, "name": "Reichenbach an der Fils", "country": "DE", "coord": {"lon": 9.4534, "lat": 48.708}}, {"id": 2849118, "name": "Reichenbach an der Fils", "country": "DE", "coord": {"lon": 9.46429, "lat": 48.71011}}, {"id": 6547899, "name": "Mistorf", "country": "DE", "coord": {"lon": 12.15, "lat": 53.883301}}, {"id": 2870926, "name": "Mistorf", "country": "DE", "coord": {"lon": 12.14453, "lat": 53.88451}}, {"id": 2806451, "name": "Wolkshausen", "country": "DE", "coord": {"lon": 9.9775, "lat": 49.627499}}, {"id": 6548017, "name": "Pragsdorf", "country": "DE", "coord": {"lon": 13.4, "lat": 53.533298}}, {"id": 2852358, "name": "Pragsdorf", "country": "DE", "coord": {"lon": 13.4, "lat": 53.533329}}, {"id": 3208101, "name": "Rabenau", "country": "DE", "coord": {"lon": 8.86667, "lat": 50.683331}}, {"id": 2958360, "name": "Allertshausen", "country": "DE", "coord": {"lon": 8.84932, "lat": 50.657951}}, {"id": 6552395, "name": "Lahstedt", "country": "DE", "coord": {"lon": 10.23248, "lat": 52.248348}}, {"id": 2959474, "name": "Adenstedt", "country": "DE", "coord": {"lon": 10.16667, "lat": 52.25}}, {"id": 2876931, "name": "Lippborg", "country": "DE", "coord": {"lon": 8.03333, "lat": 51.666672}}, {"id": 2814656, "name": "Wallen", "country": "DE", "coord": {"lon": 7.95, "lat": 52.5}}, {"id": 6554387, "name": "L\u00f6tzbeuren", "country": "DE", "coord": {"lon": 7.21667, "lat": 49.9333}}, {"id": 2875734, "name": "Lotzbeuren", "country": "DE", "coord": {"lon": 7.21667, "lat": 49.933331}}, {"id": 6554755, "name": "K\u00f6werich", "country": "DE", "coord": {"lon": 6.88333, "lat": 49.833302}}, {"id": 2885055, "name": "Kowerich", "country": "DE", "coord": {"lon": 6.88333, "lat": 49.833328}}, {"id": 6557293, "name": "Munningen", "country": "DE", "coord": {"lon": 10.6, "lat": 48.916698}}, {"id": 2867568, "name": "Munningen", "country": "DE", "coord": {"lon": 10.6, "lat": 48.916672}}, {"id": 2844056, "name": "Rothenburg ob der Tauber", "country": "DE", "coord": {"lon": 10.18333, "lat": 49.383331}}, {"id": 6556861, "name": "Wittelshofen", "country": "DE", "coord": {"lon": 10.4833, "lat": 49.0667}}, {"id": 2807365, "name": "Wittelshofen", "country": "DE", "coord": {"lon": 10.48333, "lat": 49.066669}}, {"id": 2818503, "name": "Untervierau", "country": "DE", "coord": {"lon": 12.76667, "lat": 49.150002}}, {"id": 2855037, "name": "Peising", "country": "DE", "coord": {"lon": 12.06667, "lat": 48.916672}}, {"id": 2843437, "name": "Rudendorf", "country": "DE", "coord": {"lon": 10.75, "lat": 50}}, {"id": 2846587, "name": "Ringschnait", "country": "DE", "coord": {"lon": 9.88333, "lat": 48.083328}}, {"id": 6553470, "name": "Bockenau", "country": "DE", "coord": {"lon": 7.68333, "lat": 49.833302}}, {"id": 2947370, "name": "Bockenau", "country": "DE", "coord": {"lon": 7.68333, "lat": 49.833328}}, {"id": 2895995, "name": "Ingersleben", "country": "DE", "coord": {"lon": 10.93333, "lat": 50.916672}}, {"id": 2811387, "name": "Welsleben", "country": "DE", "coord": {"lon": 11.65, "lat": 52}}, {"id": 2892988, "name": "Karbach", "country": "DE", "coord": {"lon": 9.63889, "lat": 49.8675}}, {"id": 2857253, "name": "Omersbach", "country": "DE", "coord": {"lon": 9.2, "lat": 50.116669}}, {"id": 6548512, "name": "Eppendorf", "country": "DE", "coord": {"lon": 13.2501, "lat": 50.7999}}, {"id": 2929855, "name": "Eppendorf", "country": "DE", "coord": {"lon": 13.23333, "lat": 50.799999}}, {"id": 6548520, "name": "Leubsdorf", "country": "DE", "coord": {"lon": 13.1667, "lat": 50.799999}}, {"id": 2878382, "name": "Leubsdorf", "country": "DE", "coord": {"lon": 13.16667, "lat": 50.799999}}, {"id": 2947882, "name": "Bleddin", "country": "DE", "coord": {"lon": 12.78333, "lat": 51.783329}}, {"id": 2955999, "name": "Annaburg", "country": "DE", "coord": {"lon": 13.03333, "lat": 51.73333}}, {"id": 2849537, "name": "Reesen", "country": "DE", "coord": {"lon": 11.93333, "lat": 52.283329}}, {"id": 6554033, "name": "Gutenacker", "country": "DE", "coord": {"lon": 7.91667, "lat": 50.3167}}, {"id": 2913417, "name": "Gutenacker", "country": "DE", "coord": {"lon": 7.91667, "lat": 50.316669}}, {"id": 2950111, "name": "Bermoll", "country": "DE", "coord": {"lon": 8.45, "lat": 50.650002}}, {"id": 2864252, "name": "Neus\u00e4\u00df", "country": "DE", "coord": {"lon": 10.83333, "lat": 48.400002}}, {"id": 6557301, "name": "Wolferstadt", "country": "DE", "coord": {"lon": 10.7833, "lat": 48.916698}}, {"id": 2806847, "name": "Wolferstadt", "country": "DE", "coord": {"lon": 10.78333, "lat": 48.916672}}, {"id": 6551879, "name": "Luhnstedt", "country": "DE", "coord": {"lon": 9.7, "lat": 54.166698}}, {"id": 2875221, "name": "Luhnstedt", "country": "DE", "coord": {"lon": 9.7, "lat": 54.166672}}, {"id": 6552139, "name": "Stocksee", "country": "DE", "coord": {"lon": 10.35, "lat": 54.099998}}, {"id": 2826679, "name": "Stocksee", "country": "DE", "coord": {"lon": 10.35, "lat": 54.099998}}, {"id": 2804904, "name": "Zell", "country": "DE", "coord": {"lon": 11.44732, "lat": 47.981071}}, {"id": 2868862, "name": "M\u00fcden", "country": "DE", "coord": {"lon": 7.33947, "lat": 50.184978}}, {"id": 6547579, "name": "Crinitz", "country": "DE", "coord": {"lon": 13.7667, "lat": 51.733299}}, {"id": 2939745, "name": "Crinitz", "country": "DE", "coord": {"lon": 13.76667, "lat": 51.73333}}, {"id": 2871223, "name": "Miel", "country": "DE", "coord": {"lon": 6.91667, "lat": 50.666672}}, {"id": 6554080, "name": "Obertiefenbach", "country": "DE", "coord": {"lon": 7.88333, "lat": 50.233299}}, {"id": 2858784, "name": "Obertiefenbach", "country": "DE", "coord": {"lon": 7.88333, "lat": 50.23333}}, {"id": 6553519, "name": "Neu-Bamberg", "country": "DE", "coord": {"lon": 7.91667, "lat": 49.799999}}, {"id": 2866264, "name": "Neu-Bamberg", "country": "DE", "coord": {"lon": 7.91667, "lat": 49.799999}}, {"id": 2905157, "name": "Hetzwege", "country": "DE", "coord": {"lon": 9.4, "lat": 53.183331}}, {"id": 2847266, "name": "Riedelbach", "country": "DE", "coord": {"lon": 8.3921, "lat": 50.301701}}, {"id": 2945778, "name": "Bottendorf", "country": "DE", "coord": {"lon": 8.8, "lat": 51.01667}}, {"id": 2805028, "name": "Zehren", "country": "DE", "coord": {"lon": 13.4, "lat": 51.200001}}, {"id": 6554050, "name": "Kehlbach", "country": "DE", "coord": {"lon": 7.76667, "lat": 50.266701}}, {"id": 2891948, "name": "Kehlbach", "country": "DE", "coord": {"lon": 7.75884, "lat": 50.25922}}, {"id": 2913046, "name": "Habenhausen", "country": "DE", "coord": {"lon": 8.85352, "lat": 53.045132}}, {"id": 2906599, "name": "Hemelingen", "country": "DE", "coord": {"lon": 8.89635, "lat": 53.050449}}, {"id": 6552680, "name": "Kirchgellersen", "country": "DE", "coord": {"lon": 10.3, "lat": 53.233299}}, {"id": 2890511, "name": "Kirchgellersen", "country": "DE", "coord": {"lon": 10.3, "lat": 53.23333}}, {"id": 6552489, "name": "Sibbesse", "country": "DE", "coord": {"lon": 9.9, "lat": 52.049999}}, {"id": 2832819, "name": "Sibbesse", "country": "DE", "coord": {"lon": 9.9, "lat": 52.049999}}, {"id": 2834604, "name": "Schwei", "country": "DE", "coord": {"lon": 8.36667, "lat": 53.400002}}, {"id": 6552994, "name": "Rieste", "country": "DE", "coord": {"lon": 8.01667, "lat": 52.483299}}, {"id": 2846853, "name": "Rieste", "country": "DE", "coord": {"lon": 8.01667, "lat": 52.48333}}, {"id": 2934739, "name": "Dudendorf", "country": "DE", "coord": {"lon": 12.58432, "lat": 54.090912}}, {"id": 2917623, "name": "Gresenhorst", "country": "DE", "coord": {"lon": 12.42597, "lat": 54.151131}}, {"id": 6548346, "name": "Doms\u00fchl", "country": "DE", "coord": {"lon": 11.7667, "lat": 53.483299}}, {"id": 2936271, "name": "Domsuhl", "country": "DE", "coord": {"lon": 11.77099, "lat": 53.487228}}, {"id": 6548397, "name": "Wessin", "country": "DE", "coord": {"lon": 11.7333, "lat": 53.5667}}, {"id": 2810590, "name": "Wessin", "country": "DE", "coord": {"lon": 11.73333, "lat": 53.566669}}, {"id": 6551503, "name": "Siebenb\u00e4umen", "country": "DE", "coord": {"lon": 10.5333, "lat": 53.75}}, {"id": 2832734, "name": "Siebenbaumen", "country": "DE", "coord": {"lon": 10.53333, "lat": 53.75}}, {"id": 6551506, "name": "Sirksfelde", "country": "DE", "coord": {"lon": 10.5, "lat": 53.666698}}, {"id": 2831828, "name": "Sirksfelde", "country": "DE", "coord": {"lon": 10.5, "lat": 53.666672}}, {"id": 6551362, "name": "Offenb\u00fcttel", "country": "DE", "coord": {"lon": 9.35, "lat": 54.166698}}, {"id": 2857797, "name": "Offenbuttel", "country": "DE", "coord": {"lon": 9.35, "lat": 54.166672}}, {"id": 6551388, "name": "Welmb\u00fcttel", "country": "DE", "coord": {"lon": 9.25, "lat": 54.200001}}, {"id": 2811439, "name": "Welmbuttel", "country": "DE", "coord": {"lon": 9.25, "lat": 54.200001}}, {"id": 6551547, "name": "Goldebek", "country": "DE", "coord": {"lon": 9.15, "lat": 54.6833}}, {"id": 2919347, "name": "Goldebek", "country": "DE", "coord": {"lon": 9.15, "lat": 54.683331}}, {"id": 2856790, "name": "Ostenau", "country": "DE", "coord": {"lon": 9.18333, "lat": 54.616669}}, {"id": 2915163, "name": "Gro\u00df Quern", "country": "DE", "coord": {"lon": 9.71667, "lat": 54.75}}, {"id": 2899747, "name": "Holzh\u00e4user", "country": "DE", "coord": {"lon": 13.2623, "lat": 48.43404}}, {"id": 2837850, "name": "Schmidmuhlen", "country": "DE", "coord": {"lon": 11.92429, "lat": 49.268978}}, {"id": 2880878, "name": "Langenvils", "country": "DE", "coord": {"lon": 12.13333, "lat": 48.450001}}, {"id": 2886376, "name": "Kollbach", "country": "DE", "coord": {"lon": 11.5, "lat": 48.400002}}, {"id": 6555797, "name": "Ringsheim", "country": "DE", "coord": {"lon": 7.77909, "lat": 48.248001}}, {"id": 2846584, "name": "Ringsheim", "country": "DE", "coord": {"lon": 7.77823, "lat": 48.24765}}, {"id": 6555575, "name": "Adelmannsfelden", "country": "DE", "coord": {"lon": 10.00443, "lat": 48.954819}}, {"id": 2959530, "name": "Adelmannsfelden", "country": "DE", "coord": {"lon": 10.00466, "lat": 48.954762}}, {"id": 6555086, "name": "Dunzweiler", "country": "DE", "coord": {"lon": 7.3, "lat": 49.416698}}, {"id": 2934529, "name": "Dunzweiler", "country": "DE", "coord": {"lon": 7.30548, "lat": 49.415859}}, {"id": 6555123, "name": "Medard", "country": "DE", "coord": {"lon": 7.61667, "lat": 49.666698}}, {"id": 2872562, "name": "Medard", "country": "DE", "coord": {"lon": 7.61667, "lat": 49.666672}},