[{"id": 6552001, "name": "S\u00fcderstapel", "country": "DE", "coord": {"lon": 9.21667, "lat": 54.349998}}, {"id": 3208263, "name": "S\u00fcderteil", "country": "DE", "coord": {"lon": 8.91667, "lat": 53.683331}}, {"id": 2825057, "name": "S\u00fcderw\u00f6hrden", "country": "DE", "coord": {"lon": 9, "lat": 54.166672}}, {"id": 2825056, "name": "S\u00fcderzollhaus", "country": "DE", "coord": {"lon": 9.28333, "lat": 54.650002}}, {"id": 2825050, "name": "S\u00fcdfelde", "country": "DE", "coord": {"lon": 8.88333, "lat": 52.366669}}, {"id": 2825006, "name": "S\u00fcdkampen", "country": "DE", "coord": {"lon": 9.41667, "lat": 52.849998}}, {"id": 2825005, "name": "S\u00fcdkirchen", "country": "DE", "coord": {"lon": 7.55, "lat": 51.716671}}, {"id": 2825003, "name": "S\u00fcdlengern", "country": "DE", "coord": {"lon": 8.63333, "lat": 52.200001}}, {"id": 6553092, "name": "S\u00fcdlohn", "country": "DE", "coord": {"lon": 6.86667, "lat": 51.9333}}, {"id": 2824951, "name": "S\u00fcggerath", "country": "DE", "coord": {"lon": 6.15, "lat": 50.966671}}, {"id": 2029155, "name": "S\u00fchbaatar Aymag", "country": "MN", "coord": {"lon": 113.5, "lat": 46.25}}, {"id": 2824927, "name": "S\u00fckow", "country": "DE", "coord": {"lon": 11.79828, "lat": 53.080921}}, {"id": 2824920, "name": "S\u00fclbeck", "country": "DE", "coord": {"lon": 10.55974, "lat": 53.265411}}, {"id": 749262, "name": "S\u00fcleymanlar Mahallesi", "country": "TR", "coord": {"lon": 31.41044, "lat": 41.290192}}, {"id": 6552143, "name": "S\u00fclfeld", "country": "DE", "coord": {"lon": 10.2333, "lat": 53.799999}}, {"id": 2824893, "name": "S\u00fclldorf", "country": "DE", "coord": {"lon": 11.565, "lat": 52.025139}}, {"id": 6554508, "name": "S\u00fclm", "country": "DE", "coord": {"lon": 6.56667, "lat": 49.916698}}, {"id": 6547977, "name": "S\u00fclstorf", "country": "DE", "coord": {"lon": 11.3667, "lat": 53.516701}}, {"id": 2824876, "name": "S\u00fclte", "country": "DE", "coord": {"lon": 11.43333, "lat": 53.51667}}, {"id": 2824860, "name": "S\u00fclz", "country": "DE", "coord": {"lon": 6.92156, "lat": 50.91819}}, {"id": 2824750, "name": "S\u00fclzenbr\u00fccken", "country": "DE", "coord": {"lon": 10.9, "lat": 50.883331}}, {"id": 6550044, "name": "S\u00fclzfeld", "country": "DE", "coord": {"lon": 10.3624, "lat": 50.522701}}, {"id": 300147, "name": "S\u00fcl\u00fcn", "country": "TR", "coord": {"lon": 30.567499, "lat": 38.696941}}, {"id": 6556692, "name": "S\u00fcnching", "country": "DE", "coord": {"lon": 12.35, "lat": 48.883301}}, {"id": 2824623, "name": "S\u00fcnna", "country": "DE", "coord": {"lon": 10, "lat": 50.799999}}, {"id": 2824621, "name": "S\u00fcnnerschau", "country": "DE", "coord": {"lon": 9.88333, "lat": 54.700001}}, {"id": 6549442, "name": "S\u00fcplingen", "country": "DE", "coord": {"lon": 11.3333, "lat": 52.283298}}, {"id": 6552373, "name": "S\u00fcpplingen", "country": "DE", "coord": {"lon": 10.9167, "lat": 52.233299}}, {"id": 6552374, "name": "S\u00fcpplingenburg", "country": "DE", "coord": {"lon": 10.9167, "lat": 52.25}}, {"id": 2824600, "name": "S\u00fcptitz", "country": "DE", "coord": {"lon": 12.93333, "lat": 51.549999}}, {"id": 7670424, "name": "S\u00fcri", "country": "CH", "coord": {"lon": 7.26945, "lat": 46.92067}}, {"id": 2824573, "name": "S\u00fcrth", "country": "DE", "coord": {"lon": 7, "lat": 50.866669}}, {"id": 6551665, "name": "S\u00fcsel", "country": "DE", "coord": {"lon": 10.7167, "lat": 54.0667}}, {"id": 2824555, "name": "S\u00fcssau", "country": "DE", "coord": {"lon": 11.06667, "lat": 54.283329}}, {"id": 6552464, "name": "S\u00fcstedt", "country": "DE", "coord": {"lon": 8.91667, "lat": 52.866699}}, {"id": 2824556, "name": "S\u00fc\u00df", "country": "DE", "coord": {"lon": 9.96667, "lat": 50.98333}}, {"id": 2824554, "name": "S\u00fc\u00dfbach", "country": "DE", "coord": {"lon": 12.4, "lat": 48.599998}}, {"id": 2824540, "name": "S\u00fc\u00dfenborn", "country": "DE", "coord": {"lon": 11.38333, "lat": 50.98333}}, {"id": 1257921, "name": "S\u0101barmat\u012b", "country": "IN", "coord": {"lon": 72.666664, "lat": 23.083332}}, {"id": 1403303, "name": "S\u0101d\u0101b\u0101d", "country": "PK", "coord": {"lon": 68.787567, "lat": 27.709869}}, {"id": 1257531, "name": "S\u0101mbre", "country": "IN", "coord": {"lon": 74.616669, "lat": 15.86667}}, {"id": 1188909, "name": "S\u0101m\u0101ir", "country": "BD", "coord": {"lon": 90.416672, "lat": 23.799999}}, {"id": 1257568, "name": "S\u0101m\u0101lji", "country": "IN", "coord": {"lon": 73.383331, "lat": 23.683332}}, {"id": 1282813, "name": "S\u0101nkhu", "country": "NP", "coord": {"lon": 85.449997, "lat": 27.716667}}, {"id": 290118, "name": "S\u0101r", "country": "BH", "coord": {"lon": 50.481941, "lat": 26.19417}}, {"id": 117067, "name": "S\u0101rems\u0101ql\u016b", "country": "IR", "coord": {"lon": 48.3703, "lat": 36.759701}}, {"id": 1257073, "name": "S\u0101son", "country": "IN", "coord": {"lon": 84.050003, "lat": 21.549999}}, {"id": 349852, "name": "S\u0101\u1e29il \u0162ah\u0163\u0101", "country": "EG", "coord": {"lon": 31.5, "lat": 26.76667}}, {"id": 617467, "name": "S\u0103lcu\u0163a", "country": "MD", "coord": {"lon": 29.24444, "lat": 46.595001}}, {"id": 617441, "name": "S\u0103n\u0103t\u0103uca", "country": "MD", "coord": {"lon": 28.68222, "lat": 48.012218}}, {"id": 617461, "name": "S\u0103rata-Galben\u0103", "country": "MD", "coord": {"lon": 28.514999, "lat": 46.727501}}, {"id": 7533043, "name": "S\u0119dzisz\u00f3w Ma\u0142opolski", "country": "PL", "coord": {"lon": 21.707001, "lat": 50.067501}}, {"id": 101927, "name": "S\u012bd\u012b \u1e28amzah", "country": "SA", "coord": {"lon": 39.615921, "lat": 24.506149}}, {"id": 7533041, "name": "S\u0142awa", "country": "PL", "coord": {"lon": 16.0243, "lat": 51.893799}}, {"id": 7531098, "name": "S\u0142awatycze", "country": "PL", "coord": {"lon": 23.553329, "lat": 51.78614}}, {"id": 758967, "name": "S\u0142awek", "country": "PL", "coord": {"lon": 21.25, "lat": 52.349998}}, {"id": 7531556, "name": "S\u0142awk\u00f3w", "country": "PL", "coord": {"lon": 19.34746, "lat": 50.29179}}, {"id": 758970, "name": "S\u0142aw\u0119cin", "country": "PL", "coord": {"lon": 21.355961, "lat": 49.75238}}, {"id": 7533445, "name": "S\u0142omniki", "country": "PL", "coord": {"lon": 20.076799, "lat": 50.239899}}, {"id": 758879, "name": "S\u0142otwiny", "country": "PL", "coord": {"lon": 20.950899, "lat": 49.436951}}, {"id": 7533444, "name": "S\u0142ubice", "country": "PL", "coord": {"lon": 14.5899, "lat": 52.359001}}, {"id": 3085484, "name": "S\u0142up", "country": "PL", "coord": {"lon": 16.648479, "lat": 51.236279}}, {"id": 7532659, "name": "S\u0142upca", "country": "PL", "coord": {"lon": 17.868601, "lat": 52.290699}}, {"id": 7530942, "name": "S\u0142upsk", "country": "PL", "coord": {"lon": 17.02787, "lat": 54.460602}}, {"id": 7532359, "name": "S\u0142upsk", "country": "PL", "coord": {"lon": 17.0278, "lat": 54.460499}}, {"id": 2127985, "name": "S\u014dbetsu", "country": "JP", "coord": {"lon": 140.886108, "lat": 42.555828}}, {"id": 1979031, "name": "S\u014flman", "country": "KR", "coord": {"lon": 128.928329, "lat": 35.175282}}, {"id": 1895287, "name": "S\u014fnbawi", "country": "KR", "coord": {"lon": 128.335556, "lat": 36.63139}}, {"id": 1886130, "name": "S\u014fny\u014fl-li", "country": "KR", "coord": {"lon": 126.625832, "lat": 35.896389}}, {"id": 1255588, "name": "S\u016bbed\u0101rganj", "country": "IN", "coord": {"lon": 81.800003, "lat": 25.433331}}, {"id": 286239, "name": "S\u016br Y\u0101l B\u016b Rash\u012bd", "country": "OM", "coord": {"lon": 57.263611, "lat": 23.881109}}, {"id": 1123537, "name": "S\u016brk\u012b", "country": "AF", "coord": {"lon": 69.140411, "lat": 33.357159}}, {"id": 726612, "name": "S\u016drnitsa", "country": "BG", "coord": {"lon": 24.033331, "lat": 41.73333}}, {"id": 485342, "name": "S\u201dyanovo", "country": "RU", "coord": {"lon": 37.419109, "lat": 54.990738}}, {"id": 817080, "name": "S\u201dyanovo Vtoroye", "country": "RU", "coord": {"lon": 37.248611, "lat": 55.03278}}, {"id": 7645381, "name": "Ta", "country": "FM", "coord": {"lon": 153.647995, "lat": 5.2842}}, {"id": 1821935, "name": "Ta Khmau", "country": "KH", "coord": {"lon": 104.949997, "lat": 11.48333}}, {"id": 7626984, "name": "Ta Municipality", "country": "FM", "coord": {"lon": 153.6465, "lat": 5.2842}}, {"id": 1605742, "name": "Ta Phraya", "country": "TH", "coord": {"lon": 102.805412, "lat": 14.00308}}, {"id": 2562320, "name": "Ta Xbiex", "country": "MT", "coord": {"lon": 14.49444, "lat": 35.89917}}, {"id": 2045548, "name": "Ta-pa-hu-t\u2019un", "country": "CN", "coord": {"lon": 124.023888, "lat": 47.261669}}, {"id": 7378284, "name": "Taa", "country": "ID", "coord": {"lon": 118.841103, "lat": -8.5184}}, {"id": 2147692, "name": "Taabinga", "country": "AU", "coord": {"lon": 151.833328, "lat": -26.58333}}, {"id": 2824442, "name": "Taaken", "country": "DE", "coord": {"lon": 9.2, "lat": 53.150002}}, {"id": 1685148, "name": "Taal", "country": "PH", "coord": {"lon": 120.933327, "lat": 13.9}}, {"id": 1685146, "name": "Taal", "country": "PH", "coord": {"lon": 120.923111, "lat": 13.87992}}, {"id": 6552002, "name": "Taarstedt", "country": "DE", "coord": {"lon": 9.68333, "lat": 54.5667}}, {"id": 2824441, "name": "Taarstedt", "country": "DE", "coord": {"lon": 9.68333, "lat": 54.566669}}, {"id": 2611828, "name": "Taastrup", "country": "DK", "coord": {"lon": 12.29216, "lat": 55.65173}}, {"id": 3044221, "name": "Tab", "country": "HU", "coord": {"lon": 18.032009, "lat": 46.73135}}, {"id": 1685125, "name": "Tabaan", "country": "PH", "coord": {"lon": 120.51667, "lat": 16.299999}}, {"id": 1685118, "name": "Tabaco", "country": "PH", "coord": {"lon": 123.716667, "lat": 13.33333}}, {"id": 1685117, "name": "Tabaco", "country": "PH", "coord": {"lon": 123.733612, "lat": 13.35861}}, {"id": 1689433, "name": "Tabaco", "country": "PH", "coord": {"lon": 120.934898, "lat": 15.6414}}, {"id": 3650896, "name": "Tabacundo", "country": "EC", "coord": {"lon": -78.199997, "lat": 0.05}}, {"id": 2415161, "name": "Tabako", "country": "GN", "coord": {"lon": -9.2, "lat": 11.41667}}, {"id": 2450534, "name": "Tabakor", "country": "ML", "coord": {"lon": -0.01917, "lat": 16.21944}}, {"id": 101633, "name": "Tabalah", "country": "SA", "coord": {"lon": 42.400002, "lat": 19.950001}}, {"id": 1685102, "name": "Tabalong", "country": "PH", "coord": {"lon": 123.812309, "lat": 9.62157}}, {"id": 3691638, "name": "Tabalosos", "country": "PE", "coord": {"lon": -76.683327, "lat": -6.35}}, {"id": 6432479, "name": "Tabanac", "country": "FR", "coord": {"lon": -0.41667, "lat": 44.716671}}, {"id": 2973597, "name": "Tabanac", "country": "FR", "coord": {"lon": -0.40513, "lat": 44.720589}}, {"id": 1625708, "name": "Tabanan", "country": "ID", "coord": {"lon": 115.125221, "lat": -8.5413}}, {"id": 6360117, "name": "Tabanera de Cerrato", "country": "ES", "coord": {"lon": -4.10496, "lat": 42.008301}}, {"id": 3108464, "name": "Tabanera de Cerrato", "country": "ES", "coord": {"lon": -4.12361, "lat": 42.024689}}, {"id": 6360118, "name": "Tabanera de Valdavia", "country": "ES", "coord": {"lon": -4.70532, "lat": 42.654999}}, {"id": 3108462, "name": "Tabanera de Valdavia", "country": "ES", "coord": {"lon": -4.69414, "lat": 42.647282}}, {"id": 3108463, "name": "Tabanera del Monte", "country": "ES", "coord": {"lon": -4.06581, "lat": 40.938469}}, {"id": 6360920, "name": "Tabanera la Luenga", "country": "ES", "coord": {"lon": -4.24505, "lat": 41.09557}}, {"id": 3108461, "name": "Tabanera la Luenga", "country": "ES", "coord": {"lon": -4.23937, "lat": 41.09647}}, {"id": 1685071, "name": "Tabango", "country": "PH", "coord": {"lon": 124.373001, "lat": 11.3077}}, {"id": 299982, "name": "Tabanl\u0131", "country": "TR", "coord": {"lon": 41.689919, "lat": 38.755638}}, {"id": 3189229, "name": "Tabanovic", "country": "RS", "coord": {"lon": 19.64139, "lat": 44.81361}}, {"id": 2532270, "name": "Tabant", "country": "MA", "coord": {"lon": -6.41049, "lat": 31.65255}}, {"id": 3447205, "name": "Tabapu\u00e3", "country": "BR", "coord": {"lon": -49.03167, "lat": -20.96417}}, {"id": 3573650, "name": "Tabaquite", "country": "TT", "coord": {"lon": -61.299999, "lat": 10.38333}}, {"id": 3108458, "name": "Tabara", "country": "ES", "coord": {"lon": -5.9642, "lat": 41.824581}}, {"id": 3492557, "name": "Tabara Arriba", "country": "DO", "coord": {"lon": -70.879784, "lat": 18.57}}, {"id": 2464871, "name": "Tabarka", "country": "TN", "coord": {"lon": 8.75801, "lat": 36.954418}}, {"id": 2824437, "name": "Tabarz", "country": "DE", "coord": {"lon": 10.51667, "lat": 50.883331}}, {"id": 113659, "name": "Tabas", "country": "IR", "coord": {"lon": 56.92437, "lat": 33.59586}}, {"id": 588454, "name": "Tabasalu", "country": "EE", "coord": {"lon": 24.53306, "lat": 59.430279}}, {"id": 3982729, "name": "Tabasco", "country": "MX", "coord": {"lon": -102.916672, "lat": 21.866671}}, {"id": 3662075, "name": "Tabatinga", "country": "BR", "coord": {"lon": -69.938057, "lat": -4.2525}}, {"id": 3447200, "name": "Tabatinga", "country": "BR", "coord": {"lon": -48.6875, "lat": -21.716669}}, {"id": 3626595, "name": "Tabay", "country": "VE", "coord": {"lon": -71.07843, "lat": 8.6311}}, {"id": 2510747, "name": "Tabayesco", "country": "ES", "coord": {"lon": -13.46667, "lat": 29.116671}}, {"id": 2147688, "name": "Tabbimoble", "country": "AU", "coord": {"lon": 153.266663, "lat": -29.200001}}, {"id": 2147687, "name": "Tabbita", "country": "AU", "coord": {"lon": 145.850006, "lat": -34.099998}}, {"id": 2824435, "name": "Tabeckendorf", "country": "DE", "coord": {"lon": 12.93333, "lat": 48.599998}}, {"id": 3108452, "name": "Tabeir\u00f3s", "country": "ES", "coord": {"lon": -8.45938, "lat": 42.659359}}, {"id": 6554796, "name": "Taben-Rodt", "country": "DE", "coord": {"lon": 6.58333, "lat": 49.549999}}, {"id": 2824431, "name": "Taben-Rodt", "country": "DE", "coord": {"lon": 6.58333, "lat": 49.549999}}, {"id": 6160919, "name": "Taber", "country": "CA", "coord": {"lon": -112.15181, "lat": 49.816738}}, {"id": 6360551, "name": "Tabera de Abajo", "country": "ES", "coord": {"lon": -6.01994, "lat": 40.92815}}, {"id": 3108450, "name": "Tabera de Abajo", "country": "ES", "coord": {"lon": -6.00227, "lat": 40.91021}}, {"id": 2669788, "name": "Taberg", "country": "SE", "coord": {"lon": 14.08333, "lat": 57.683331}}, {"id": 6355600, "name": "Tabernas", "country": "ES", "coord": {"lon": -2.36265, "lat": 37.048222}}, {"id": 2510746, "name": "Tabernas", "country": "ES", "coord": {"lon": -2.39084, "lat": 37.049919}}, {"id": 6355601, "name": "Taberno", "country": "ES", "coord": {"lon": -2.05506, "lat": 37.48069}}, {"id": 6941410, "name": "Taberno", "country": "ES", "coord": {"lon": -2.07736, "lat": 37.4688}}, {"id": 2824428, "name": "Tabertshauserschwaig", "country": "DE", "coord": {"lon": 12.88333, "lat": 48.73333}}, {"id": 2532214, "name": "Tabia", "country": "MA", "coord": {"lon": -6.79985, "lat": 32.03009}}, {"id": 2532230, "name": "Tabia", "country": "MA", "coord": {"lon": -8.87688, "lat": 30.03462}}, {"id": 1685006, "name": "Tabiauan", "country": "PH", "coord": {"lon": 121.893547, "lat": 6.02806}}, {"id": 1685003, "name": "Tabid", "country": "PH", "coord": {"lon": 123.783058, "lat": 8.10889}}, {"id": 2147682, "name": "Tabilk", "country": "AU", "coord": {"lon": 145.166672, "lat": -36.849998}}, {"id": 1684990, "name": "Tabina", "country": "PH", "coord": {"lon": 123.408096, "lat": 7.4669}}, {"id": 1684989, "name": "Tabinay", "country": "PH", "coord": {"lon": 120.956596, "lat": 13.4871}}, {"id": 1625693, "name": "Tabing", "country": "ID", "coord": {"lon": 100.342789, "lat": -0.87203}}, {"id": 1684986, "name": "Tabing", "country": "PH", "coord": {"lon": 124.349998, "lat": 11.4}}, {"id": 3667629, "name": "Tabio", "country": "CO", "coord": {"lon": -74.093643, "lat": 4.91726}}, {"id": 1684977, "name": "Tabio", "country": "PH", "coord": {"lon": 120.800003, "lat": 16.85}}, {"id": 3387082, "name": "Tabira", "country": "BR", "coord": {"lon": -37.53944, "lat": -7.59083}}, {"id": 793956, "name": "Tabivere", "country": "EE", "coord": {"lon": 26.59556, "lat": 58.554169}}, {"id": 7522309, "name": "Tabivere vald", "country": "EE", "coord": {"lon": 26.622919, "lat": 58.582119}}, {"id": 1684967, "name": "Tablac", "country": "PH", "coord": {"lon": 120.48333, "lat": 17.216669}}, {"id": 3108433, "name": "Tablado", "country": "ES", "coord": {"lon": -3.90668, "lat": 43.11887}}, {"id": 1957367, "name": "Tablas", "country": "PH", "coord": {"lon": 122.174721, "lat": 6.62917}}, {"id": 2147657, "name": "Table Top", "country": "AU", "coord": {"lon": 147, "lat": -35.966671}}, {"id": 3360687, "name": "Table View", "country": "ZA", "coord": {"lon": 18.4881, "lat": -33.81913}}, {"id": 3573645, "name": "Tableland", "country": "TT", "coord": {"lon": -61.26667, "lat": 10.26667}}, {"id": 7839395, "name": "Tablelands", "country": "AU", "coord": {"lon": 144.007156, "lat": -17.31041}}, {"id": 2364041, "name": "Tabligbo", "country": "TG", "coord": {"lon": 1.5, "lat": 6.58333}}, {"id": 6359218, "name": "Taboada", "country": "ES", "coord": {"lon": -7.7481, "lat": 42.709911}}, {"id": 3108426, "name": "Taboada", "country": "ES", "coord": {"lon": -8.21667, "lat": 42.683331}}, {"id": 3108425, "name": "Taboada", "country": "ES", "coord": {"lon": -7.82298, "lat": 42.699001}}, {"id": 6359895, "name": "Taboadela", "country": "ES", "coord": {"lon": -7.82769, "lat": 42.247971}}, {"id": 3108422, "name": "Taboadela", "country": "ES", "coord": {"lon": -7.82719, "lat": 42.24234}}, {"id": 3447186, "name": "Taboao da Serra", "country": "BR", "coord": {"lon": -46.791672, "lat": -23.62611}}, {"id": 1684938, "name": "Taboc", "country": "PH", "coord": {"lon": 124.797501, "lat": 8.87833}}, {"id": 1684914, "name": "Tabogon", "country": "PH", "coord": {"lon": 124.028198, "lat": 10.9412}}, {"id": 1684892, "name": "Tabon", "country": "PH", "coord": {"lon": 120.912804, "lat": 15.2746}}, {"id": 1684899, "name": "Tabon", "country": "PH", "coord": {"lon": 123.325996, "lat": 10.3019}}, {"id": 1684901, "name": "Tabon", "country": "PH", "coord": {"lon": 123.456299, "lat": 9.8042}}, {"id": 1684902, "name": "Tabon", "country": "PH", "coord": {"lon": 117.994598, "lat": 9.23877}}, {"id": 1684877, "name": "Tabonoc", "country": "PH", "coord": {"lon": 124.800003, "lat": 10.35}}, {"id": 1684765, "name": "Tabonok", "country": "PH", "coord": {"lon": 123.876602, "lat": 10.8512}}, {"id": 1684871, "name": "Tabontabon", "country": "PH", "coord": {"lon": 124.961113, "lat": 11.04083}}, {"id": 2110099, "name": "Tabonuea Village", "country": "KI", "coord": {"lon": 172.82312, "lat": 3.09612}}, {"id": 2147642, "name": "Tabooba", "country": "AU", "coord": {"lon": 152.949997, "lat": -28.133329}}, {"id": 3064379, "name": "Tabor", "country": "CZ", "coord": {"lon": 14.6578, "lat": 49.41441}}, {"id": 2147640, "name": "Tabor", "country": "AU", "coord": {"lon": 142.199997, "lat": -37.833328}}, {"id": 3189227, "name": "Tabor", "country": "SI", "coord": {"lon": 15.01833, "lat": 46.236111}}, {"id": 4878195, "name": "Tabor", "country": "US", "coord": {"lon": -95.671387, "lat": 40.898331}}, {"id": 4494408, "name": "Tabor City", "country": "US", "coord": {"lon": -78.876694, "lat": 34.148781}}, {"id": 149658, "name": "Tabora", "country": "TZ", "coord": {"lon": 32.799999, "lat": -5.01667}}, {"id": 149653, "name": "Tabora Region", "country": "TZ", "coord": {"lon": 32.833328, "lat": -5.5}}, {"id": 3044211, "name": "Taborfalva", "country": "HU", "coord": {"lon": 19.478371, "lat": 47.099419}}, {"id": 1490364, "name": "Tabory", "country": "RU", "coord": {"lon": 64.549469, "lat": 58.519821}}, {"id": 1514829, "name": "Taboshar", "country": "TJ", "coord": {"lon": 69.641273, "lat": 40.568642}}, {"id": 3427885, "name": "Tabossi", "country": "AR", "coord": {"lon": -59.934769, "lat": -31.80135}}, {"id": 2281120, "name": "Tabou", "country": "CI", "coord": {"lon": -7.3528, "lat": 4.42295}}, {"id": 2532195, "name": "Tabouda", "country": "MA", "coord": {"lon": -5.1403, "lat": 34.719231}}, {"id": 1681655, "name": "Taboy Norte", "country": "PH", "coord": {"lon": 120.636902, "lat": 16.0271}}, {"id": 8023961, "name": "Tabrik", "country": "ID", "coord": {"lon": 108.1371, "lat": -7.361}}, {"id": 113646, "name": "Tabriz", "country": "IR", "coord": {"lon": 46.291901, "lat": 38.080002}}, {"id": 35056, "name": "Tabr\u012bz J\u0101n\u012b", "country": "IR", "coord": {"lon": 46.23333, "lat": 38.133331}}, {"id": 1684857, "name": "Tabu", "country": "PH", "coord": {"lon": 122.709801, "lat": 9.8923}}, {"id": 1684853, "name": "Tabuan", "country": "PH", "coord": {"lon": 122.850563, "lat": 9.51556}}, {"id": 1684842, "name": "Tabuating", "country": "PH", "coord": {"lon": 120.938599, "lat": 15.3891}}, {"id": 8011294, "name": "Tabua\u00e7as", "country": "PT", "coord": {"lon": -8.1837, "lat": 41.62991}}, {"id": 8010668, "name": "Tabua\u00e7o", "country": "PT", "coord": {"lon": -7.56735, "lat": 41.095551}}, {"id": 1684828, "name": "Tabuc Pontevedra", "country": "PH", "coord": {"lon": 122.816673, "lat": 11.48333}}, {"id": 1684821, "name": "Tabuelan", "country": "PH", "coord": {"lon": 123.868896, "lat": 10.8209}}, {"id": 6362935, "name": "Tabuenca", "country": "ES", "coord": {"lon": -1.52232, "lat": 41.682819}}, {"id": 3108417, "name": "Tabuenca", "country": "ES", "coord": {"lon": -1.54335, "lat": 41.695}}, {"id": 1684818, "name": "Tabug", "country": "PH", "coord": {"lon": 120.548798, "lat": 18.0343}}, {"id": 101628, "name": "Tabuk", "country": "SA", "coord": {"lon": 36.583328, "lat": 28.383329}}, {"id": 1684803, "name": "Tabuk", "country": "PH", "coord": {"lon": 121.444298, "lat": 17.4189}}, {"id": 2147637, "name": "Tabulam", "country": "AU", "coord": {"lon": 152.566666, "lat": -28.9}}, {"id": 3386984, "name": "Tabuleiro do Norte", "country": "BR", "coord": {"lon": -38.130562, "lat": -5.24667}}, {"id": 1684876, "name": "Tabunok", "country": "PH", "coord": {"lon": 124.012222, "lat": 10.77861}}, {"id": 1490356, "name": "Tabuny", "country": "RU", "coord": {"lon": 78.789597, "lat": 52.777302}}, {"id": 691959, "name": "Taburishche", "country": "UA", "coord": {"lon": 33.25, "lat": 49.049999}}, {"id": 2464855, "name": "Tabursuq", "country": "TN", "coord": {"lon": 9.24751, "lat": 36.456921}}, {"id": 1851323, "name": "Tabuse", "country": "JP", "coord": {"lon": 132.066666, "lat": 33.950001}}, {"id": 7521902, "name": "Tabwakea Village", "country": "KI", "coord": {"lon": -157.487732, "lat": 2.01643}}, {"id": 2669772, "name": "Taby", "country": "SE", "coord": {"lon": 18.06872, "lat": 59.443901}}, {"id": 1684746, "name": "Tacadang", "country": "PH", "coord": {"lon": 120.640503, "lat": 16.7264}}, {"id": 3386971, "name": "Tacaimb\u00f3", "country": "BR", "coord": {"lon": -36.293331, "lat": -8.31611}}, {"id": 3982693, "name": "Tacambaro de Codallos", "country": "MX", "coord": {"lon": -101.466667, "lat": 19.23333}}, {"id": 3601080, "name": "Tacamiche", "country": "HN", "coord": {"lon": -87.916672, "lat": 15.45}}, {"id": 3588612, "name": "Tacana", "country": "GT", "coord": {"lon": -92.083328, "lat": 15.23333}}, {"id": 3834867, "name": "Tacanas", "country": "AR", "coord": {"lon": -64.809288, "lat": -27.13752}}, {"id": 3386966, "name": "Tacaratu", "country": "BR", "coord": {"lon": -38.14917, "lat": -9.10528}}, {"id": 3621375, "name": "Tacares", "country": "CR", "coord": {"lon": -84.2901, "lat": 10.02998}}, {"id": 3646062, "name": "Tacarigua", "country": "VE", "coord": {"lon": -67.919823, "lat": 10.08621}}, {"id": 1625659, "name": "Taccipi", "country": "ID", "coord": {"lon": 120.184196, "lat": -4.5066}}, {"id": 3165996, "name": "Taceno", "country": "IT", "coord": {"lon": 9.36394, "lat": 46.02449}}, {"id": 1925231, "name": "Tacheng", "country": "CN", "coord": {"lon": 116.093727, "lat": 28.506729}}, {"id": 6556417, "name": "Tacherting", "country": "DE", "coord": {"lon": 12.5667, "lat": 48.083302}}, {"id": 2824420, "name": "Tacherting", "country": "DE", "coord": {"lon": 12.56667, "lat": 48.083328}}, {"id": 1851319, "name": "Tachiarai", "country": "JP", "coord": {"lon": 130.616669, "lat": 33.400002}}, {"id": 1851307, "name": "Tachikawa", "country": "JP", "coord": {"lon": 139.41806, "lat": 35.69278}}, {"id": 2824419, "name": "Taching am See", "country": "DE", "coord": {"lon": 12.73333, "lat": 47.966671}}, {"id": 3064373, "name": "Tachov", "country": "CZ", "coord": {"lon": 12.63365, "lat": 49.79528}}, {"id": 3447094, "name": "Taciba", "country": "BR", "coord": {"lon": -51.284721, "lat": -22.389721}}, {"id": 3386961, "name": "Tacima", "country": "BR", "coord": {"lon": -35.637218, "lat": -6.48833}}, {"id": 739161, "name": "Tacir", "country": "TR", "coord": {"lon": 29.739719, "lat": 40.525558}}, {"id": 6551925, "name": "Tackesdorf", "country": "DE", "coord": {"lon": 9.48333, "lat": 54.1833}}, {"id": 2824412, "name": "Tackesdorf", "country": "DE", "coord": {"lon": 9.48333, "lat": 54.183331}}, {"id": 1684717, "name": "Tacligan", "country": "PH", "coord": {"lon": 121.062599, "lat": 13.3975}}, {"id": 1684711, "name": "Tacloban City", "country": "PH", "coord": {"lon": 125, "lat": 11.25}}, {"id": 1684706, "name": "Taclobo", "country": "PH", "coord": {"lon": 122.586014, "lat": 12.30744}}, {"id": 3928128, "name": "Tacna", "country": "PE", "coord": {"lon": -70.248329, "lat": -18.00556}}, {"id": 3834843, "name": "Taco Pozo", "country": "AR", "coord": {"lon": -63.283329, "lat": -25.616671}}, {"id": 2973582, "name": "Tacoignieres", "country": "FR", "coord": {"lon": 1.67501, "lat": 48.836189}}, {"id": 6424400, "name": "Tacoigni\u00e8res", "country": "FR", "coord": {"lon": 1.68333, "lat": 48.833328}}, {"id": 5812944, "name": "Tacoma", "country": "US", "coord": {"lon": -122.44429, "lat": 47.25288}}, {"id": 6360643, "name": "Tacoronte", "country": "ES", "coord": {"lon": -16.41292, "lat": 28.493839}}, {"id": 2510725, "name": "Tacoronte", "country": "ES", "coord": {"lon": -16.41016, "lat": 28.476879}}, {"id": 3516439, "name": "Tacotalpa", "country": "MX", "coord": {"lon": -92.816673, "lat": 17.6}}, {"id": 3588603, "name": "Tactic", "country": "GT", "coord": {"lon": -90.300003, "lat": 15.33333}}, {"id": 3982668, "name": "Tacualeche", "country": "MX", "coord": {"lon": -102.416672, "lat": 22.816669}}, {"id": 3440034, "name": "Tacuarembo", "country": "UY", "coord": {"lon": -55.98333, "lat": -31.73333}}, {"id": 3427877, "name": "Tacuarend\u00ed", "country": "AR", "coord": {"lon": -59.30212, "lat": -28.417789}}, {"id": 3834826, "name": "Tacuar\u00ed", "country": "AR", "coord": {"lon": -60.308559, "lat": -34.211491}}, {"id": 3436880, "name": "Tacuati", "country": "PY", "coord": {"lon": -56.583328, "lat": -23.450001}}, {"id": 3626547, "name": "Tacuato", "country": "VE", "coord": {"lon": -69.83548, "lat": 11.70922}}, {"id": 1684190, "name": "Tacub", "country": "PH", "coord": {"lon": 124.108063, "lat": 8.1875}}, {"id": 3583065, "name": "Tacuba", "country": "SV", "coord": {"lon": -89.929718, "lat": 13.90111}}, {"id": 3834822, "name": "Tacural", "country": "AR", "coord": {"lon": -61.591919, "lat": -30.846319}}, {"id": 1684682, "name": "Tacurong", "country": "PH", "coord": {"lon": 124.683327, "lat": 6.68333}}, {"id": 1684681, "name": "Tacurong", "country": "PH", "coord": {"lon": 124.676392, "lat": 6.6925}}, {"id": 3447088, "name": "Tacuru", "country": "BR", "coord": {"lon": -55.015831, "lat": -23.6325}}, {"id": 665636, "name": "Tacuta", "country": "RO", "coord": {"lon": 27.683331, "lat": 46.916672}}, {"id": 7429821, "name": "Tadabliro", "country": "ID", "coord": {"lon": 122.216202, "lat": -8.6847}}, {"id": 1851292, "name": "Tadami", "country": "JP", "coord": {"lon": 139.316666, "lat": 37.349998}}, {"id": 3165995, "name": "Tadasuni", "country": "IT", "coord": {"lon": 8.88353, "lat": 40.109951}}, {"id": 2636335, "name": "Tadcaster", "country": "GB", "coord": {"lon": -1.26344, "lat": 53.883221}}, {"id": 6429164, "name": "Taden", "country": "FR", "coord": {"lon": -2.01667, "lat": 48.48333}}, {"id": 2973579, "name": "Taden", "country": "FR", "coord": {"lon": -2.01946, "lat": 48.4753}}, {"id": 1255265, "name": "Tadepalle", "country": "IN", "coord": {"lon": 80.599998, "lat": 16.48333}}, {"id": 1255264, "name": "Tadepallegudem", "country": "IN", "coord": {"lon": 81.5, "lat": 16.83333}}, {"id": 1684672, "name": "Tadian", "country": "PH", "coord": {"lon": 120.820297, "lat": 16.9956}}, {"id": 1793738, "name": "Tadianjie", "country": "CN", "coord": {"lon": 102.159172, "lat": 24.248329}}, {"id": 163811, "name": "Tadif", "country": "SY", "coord": {"lon": 37.530899, "lat": 36.348141}}, {"id": 2138285, "name": "Tadine", "country": "NC", "coord": {"lon": 167.883331, "lat": -21.549999}}, {"id": 2478876, "name": "Tadjenanet", "country": "DZ", "coord": {"lon": 5.9867, "lat": 36.121288}}, {"id": 220782, "name": "Tadjoura", "country": "DJ", "coord": {"lon": 42.884441, "lat": 11.78528}}, {"id": 2960046, "name": "Tadler", "country": "LU", "coord": {"lon": 5.99556, "lat": 49.911388}}, {"id": 2636333, "name": "Tadley", "country": "GB", "coord": {"lon": -1.1285, "lat": 51.350449}}, {"id": 2478831, "name": "Tadmait", "country": "DZ", "coord": {"lon": 3.90045, "lat": 36.744129}}, {"id": 6161048, "name": "Tadmore", "country": "CA", "coord": {"lon": -102.484253, "lat": 51.833279}}, {"id": 163808, "name": "Tadmur", "country": "SY", "coord": {"lon": 38.280548, "lat": 34.560768}}, {"id": 3667579, "name": "Tado", "country": "CO", "coord": {"lon": -76.564873, "lat": 5.26598}}, {"id": 7414991, "name": "Tado", "country": "ID", "coord": {"lon": 120.595596, "lat": -8.7016}}, {"id": 1851282, "name": "Tadotsu", "country": "JP", "coord": {"lon": 133.75, "lat": 34.275002}}, {"id": 1793737, "name": "Tadou", "country": "CN", "coord": {"lon": 118.229721, "lat": 26.371571}}, {"id": 6639665, "name": "Tadoussac", "country": "CA", "coord": {"lon": -69.716667, "lat": 48.150002}}, {"id": 1255254, "name": "Tadpatri", "country": "IN", "coord": {"lon": 78.01667, "lat": 14.91667}}, {"id": 2531994, "name": "Tadrart", "country": "MA", "coord": {"lon": -9.45951, "lat": 30.774771}}, {"id": 7871593, "name": "Tadten", "country": "AT", "coord": {"lon": 17.001209, "lat": 47.750771}}, {"id": 2763960, "name": "Tadten", "country": "AT", "coord": {"lon": 16.98333, "lat": 47.76667}}, {"id": 2636331, "name": "Tadworth", "country": "GB", "coord": {"lon": -0.23586, "lat": 51.291119}}, {"id": 1835515, "name": "Taebaek", "country": "KR", "coord": {"lon": 128.988907, "lat": 37.1759}}, {"id": 1835327, "name": "Taegu-gwangy\u014fksi", "country": "KR", "coord": {"lon": 128.550003, "lat": 35.799999}}, {"id": 1835224, "name": "Taej\u014fn-gwangy\u014fksi", "country": "KR", "coord": {"lon": 127.416672, "lat": 36.333328}}, {"id": 1835096, "name": "Taesal-li", "country": "KR", "coord": {"lon": 126.454201, "lat": 36.971401}}, {"id": 6359774, "name": "Tafalla", "country": "ES", "coord": {"lon": -1.70558, "lat": 42.52475}}, {"id": 3108412, "name": "Tafalla", "country": "ES", "coord": {"lon": -1.67446, "lat": 42.526859}}, {"id": 1793729, "name": "Tafang", "country": "CN", "coord": {"lon": 117.664223, "lat": 29.78064}}, {"id": 163806, "name": "Tafas", "country": "SY", "coord": {"lon": 36.06694, "lat": 32.735641}}, {"id": 2134739, "name": "Tafea Province", "country": "VU", "coord": {"lon": 169.5, "lat": -19.5}}, {"id": 1804463, "name": "Tafeng", "country": "CN", "coord": {"lon": 112.189873, "lat": 25.354071}}, {"id": 2824393, "name": "Taferrot", "country": "DE", "coord": {"lon": 9.83824, "lat": 48.84972}}, {"id": 2658433, "name": "Tafers", "country": "CH", "coord": {"lon": 7.21852, "lat": 46.814831}}, {"id": 281690, "name": "Taffuh", "country": "PS", "coord": {"lon": 35.04966, "lat": 31.538549}}, {"id": 3834813, "name": "Tafi Viejo", "country": "AR", "coord": {"lon": -65.259209, "lat": -26.73201}}, {"id": 3834814, "name": "Tafi del Valle", "country": "AR", "coord": {"lon": -65.709831, "lat": -26.852751}}, {"id": 2510723, "name": "Tafira Baja", "country": "ES", "coord": {"lon": -15.44952, "lat": 28.07115}}, {"id": 2294938, "name": "Tafo", "country": "GH", "coord": {"lon": -1.61275, "lat": 6.73453}}, {"id": 2531877, "name": "Tafraout", "country": "MA", "coord": {"lon": -8.9747, "lat": 29.724489}}, {"id": 113636, "name": "Tafresh", "country": "IR", "coord": {"lon": 50.013, "lat": 34.692001}}, {"id": 113632, "name": "Taft", "country": "IR", "coord": {"lon": 54.20882, "lat": 31.747101}}, {"id": 1684659, "name": "Taft", "country": "PH", "coord": {"lon": 125.418892, "lat": 11.90111}}, {"id": 4174700, "name": "Taft", "country": "US", "coord": {"lon": -81.365067, "lat": 28.429729}}, {"id": 4735458, "name": "Taft", "country": "US", "coord": {"lon": -97.398598, "lat": 27.97891}}, {"id": 5400877, "name": "Taft", "country": "US", "coord": {"lon": -119.456512, "lat": 35.142471}}, {"id": 5400890, "name": "Taft Heights", "country": "US", "coord": {"lon": -119.472618, "lat": 35.134689}}, {"id": 7262653, "name": "Taft Mosswood", "country": "US", "coord": {"lon": -121.283157, "lat": 37.913849}}, {"id": 4735467, "name": "Taft Southwest (historical)", "country": "US", "coord": {"lon": -97.403053, "lat": 27.973909}}, {"id": 602426, "name": "Taftea", "country": "SE", "coord": {"lon": 20.48333, "lat": 63.833328}}, {"id": 5881192, "name": "Tafuna", "country": "AS", "coord": {"lon": -170.720001, "lat": -14.33583}}, {"id": 7648250, "name": "Tafunsak", "country": "FM", "coord": {"lon": 162.985321, "lat": 5.3671}}, {"id": 7626934, "name": "Tafunsak Municipality", "country": "FM", "coord": {"lon": 162.96965, "lat": 5.34993}}, {"id": 1851279, "name": "Taga", "country": "JP", "coord": {"lon": 136.286255, "lat": 35.226341}}, {"id": 665628, "name": "Taga", "country": "RO", "coord": {"lon": 24.049999, "lat": 46.950001}}, {"id": 1123424, "name": "Tagab", "country": "AF", "coord": {"lon": 69.64917, "lat": 34.855011}}, {"id": 1684629, "name": "Tagakpan", "country": "PH", "coord": {"lon": 125.429169, "lat": 7.11278}}, {"id": 6356295, "name": "Tagamanent", "country": "ES", "coord": {"lon": 2.26649, "lat": 41.740101}}, {"id": 3108411, "name": "Tagamanent", "country": "ES", "coord": {"lon": 2.2672, "lat": 41.737469}}, {"id": 1684610, "name": "Tagana-an", "country": "PH", "coord": {"lon": 125.585564, "lat": 9.69722}}, {"id": 1684606, "name": "Taganak", "country": "PH", "coord": {"lon": 118.300003, "lat": 6.08333}}, {"id": 484907, "name": "Taganrog", "country": "RU", "coord": {"lon": 38.896881, "lat": 47.236172}}, {"id": 484912, "name": "Taganskiy", "country": "RU", "coord": {"lon": 37.666668, "lat": 55.733334}}, {"id": 484910, "name": "Tagan\u2019kovo", "country": "RU", "coord": {"lon": 37.070332, "lat": 55.685928}}, {"id": 1684583, "name": "Tagapul-an", "country": "PH", "coord": {"lon": 124.150002, "lat": 12.05}}, {"id": 1684577, "name": "Tagas", "country": "PH", "coord": {"lon": 123.716667, "lat": 13.16667}}, {"id": 1684348, "name": "Tagasilay", "country": "PH", "coord": {"lon": 122.258614, "lat": 7.3025}}, {"id": 1123343, "name": "Tagaw-Bay", "country": "AF", "coord": {"lon": 66.061638, "lat": 35.699409}}, {"id": 1851273, "name": "Tagawa", "country": "JP", "coord": {"lon": 130.800003, "lat": 33.633331}}, {"id": 1684552, "name": "Tagaytay City", "country": "PH", "coord": {"lon": 120.933723, "lat": 14.10594}}, {"id": 1684538, "name": "Tagbacan Ibaba", "country": "PH", "coord": {"lon": 122.363892, "lat": 13.63222}}, {"id": 1684542, "name": "Tagbak", "country": "PH", "coord": {"lon": 120.088722, "lat": 13.84166}}, {"id": 1684497, "name": "Tagbilaran City", "country": "PH", "coord": {"lon": 123.85556, "lat": 9.6475}}, {"id": 1684495, "name": "Tagbilaran City", "country": "PH", "coord": {"lon": 123.849998, "lat": 9.65}}, {"id": 1684491, "name": "Tagbina", "country": "PH", "coord": {"lon": 126.171387, "lat": 8.45194}}, {"id": 1684759, "name": "Tagbita", "country": "PH", "coord": {"lon": 117.339897, "lat": 8.67532}}, {"id": 1684466, "name": "Tagbubungang Diot", "country": "PH", "coord": {"lon": 124.402802, "lat": 11.1257}}, {"id": 1684463, "name": "Tagburos", "country": "PH", "coord": {"lon": 118.731941, "lat": 9.82861}}, {"id": 1684462, "name": "Tagcatong", "country": "PH", "coord": {"lon": 125.256943, "lat": 9.00222}}, {"id": 1684454, "name": "Tagdanua", "country": "PH", "coord": {"lon": 125.884102, "lat": 7.2043}}, {"id": 6293970, "name": "Tagelswangen", "country": "CH", "coord": {"lon": 8.67284, "lat": 47.430698}}, {"id": 2658432, "name": "Tagerwilen", "country": "CH", "coord": {"lon": 9.13167, "lat": 47.655941}}, {"id": 2824383, "name": "Tagewerben", "country": "DE", "coord": {"lon": 11.95, "lat": 51.23333}}, {"id": 2147629, "name": "Taggerty", "country": "AU", "coord": {"lon": 145.716675, "lat": -37.333328}}, {"id": 3165993, "name": "Taggia", "country": "IT", "coord": {"lon": 7.85454, "lat": 43.848518}}, {"id": 2568012, "name": "Taghazout", "country": "MA", "coord": {"lon": -9.71115, "lat": 30.542589}}, {"id": 2961292, "name": "Taghmon", "country": "IE", "coord": {"lon": -6.6475, "lat": 52.321671}}, {"id": 7800877, "name": "Taghring", "country": "NP", "coord": {"lon": 84.381828, "lat": 28.370001}}, {"id": 6161091, "name": "Tagish", "country": "CA", "coord": {"lon": -134.271729, "lat": 60.313309}}, {"id": 2210394, "name": "Tagiura", "country": "LY", "coord": {"lon": 13.35056, "lat": 32.881672}}, {"id": 1684422, "name": "Tagkawayan Sabang", "country": "PH", "coord": {"lon": 122.528893, "lat": 13.99111}}, {"id": 3245, "name": "Taglag", "country": "IR", "coord": {"lon": 44.98333, "lat": 38.450001}}, {"id": 3108408, "name": "Tagle", "country": "ES", "coord": {"lon": -4.07846, "lat": 43.42345}}, {"id": 3165991, "name": "Tagliacozzo", "country": "IT", "coord": {"lon": 13.25469, "lat": 42.069328}}, {"id": 2658431, "name": "Tagliada", "country": "CH", "coord": {"lon": 9.06024, "lat": 46.206619}}, {"id": 3165986, "name": "Taglio", "country": "IT", "coord": {"lon": 12.21083, "lat": 45.022221}}, {"id": 3165981, "name": "Taglio di Po", "country": "IT", "coord": {"lon": 12.20417, "lat": 45.004719}}, {"id": 6535060, "name": "Tagliolo Monferrato", "country": "IT", "coord": {"lon": 8.66585, "lat": 44.638351}}, {"id": 8199694, "name": "Tagliuno", "country": "IT", "coord": {"lon": 9.90864, "lat": 45.642551}}, {"id": 6557298, "name": "Tagmersheim", "country": "DE", "coord": {"lon": 10.9667, "lat": 48.8167}}, {"id": 2824379, "name": "Tagmersheim", "country": "DE", "coord": {"lon": 10.96667, "lat": 48.816669}}, {"id": 1958747, "name": "Tagnanan", "country": "PH", "coord": {"lon": 125.842216, "lat": 7.28361}}, {"id": 1684395, "name": "Tago", "country": "PH", "coord": {"lon": 126.231667, "lat": 9.02111}}, {"id": 2961288, "name": "Tagoat", "country": "IE", "coord": {"lon": -6.38028, "lat": 52.242779}}, {"id": 1220401, "name": "Tagob", "country": "TJ", "coord": {"lon": 68.898468, "lat": 38.838268}}, {"id": 7921852, "name": "Tagog", "country": "ID", "coord": {"lon": 107.993103, "lat": -7.1206}}, {"id": 8028866, "name": "Tagog", "country": "ID", "coord": {"lon": 108.139702, "lat": -7.121}}, {"id": 1684382, "name": "Tagoloan", "country": "PH", "coord": {"lon": 124.783333, "lat": 8.51667}}, {"id": 1684379, "name": "Tagoloan", "country": "PH", "coord": {"lon": 124.756943, "lat": 8.53889}}, {"id": 1625609, "name": "Tagolu", "country": "ID", "coord": {"lon": 120.773102, "lat": -1.4393}}, {"id": 2973569, "name": "Tagon", "country": "FR", "coord": {"lon": -0.98978, "lat": 44.65427}}, {"id": 6951046, "name": "Tagoo", "country": "GR", "coord": {"lon": 25.329, "lat": 37.453999}}, {"id": 3044195, "name": "Tagoszt\u00e1ly", "country": "HU", "coord": {"lon": 18.950001, "lat": 47.166672}}, {"id": 1684364, "name": "Tagoytoy", "country": "PH", "coord": {"lon": 123.678001, "lat": 13.4158}}, {"id": 601475, "name": "Tagta", "country": "TM", "coord": {"lon": 59.916401, "lat": 41.65041}}, {"id": 6319623, "name": "Taguatinga", "country": "BR", "coord": {"lon": -46.571098, "lat": -12.38568}}, {"id": 3447075, "name": "Taguatinga", "country": "BR", "coord": {"lon": -46.436111, "lat": -12.40389}}, {"id": 1684322, "name": "Tagudin", "country": "PH", "coord": {"lon": 120.466667, "lat": 16.933331}}, {"id": 1684320, "name": "Tagudin", "country": "PH", "coord": {"lon": 120.444199, "lat": 16.935499}}, {"id": 1684321, "name": "Tagudin", "country": "PH", "coord": {"lon": 119.953903, "lat": 16.080601}}, {"id": 1684309, "name": "Taguig", "country": "PH", "coord": {"lon": 121.066673, "lat": 14.53333}}, {"id": 1684308, "name": "Taguig", "country": "PH", "coord": {"lon": 121.079201, "lat": 14.5243}}, {"id": 1684300, "name": "Taguing", "country": "PH", "coord": {"lon": 121.75885, "lat": 17.944691}}, {"id": 1684292, "name": "Taguisa", "country": "PH", "coord": {"lon": 124.035828, "lat": 6.69833}}, {"id": 1958505, "name": "Taguitic", "country": "PH", "coord": {"lon": 123.631203, "lat": 7.9387}}, {"id": 1684269, "name": "Tagum", "country": "PH", "coord": {"lon": 125.807777, "lat": 7.44778}}, {"id": 1684268, "name": "Tagum Norte", "country": "PH", "coord": {"lon": 124.389252, "lat": 10.07454}}, {"id": 1684245, "name": "Tagusao", "country": "PH", "coord": {"lon": 117.814102, "lat": 9.19238}}, {"id": 1123410, "name": "Tag\u0101b-e M\u0101\u2019\u012bch", "country": "AF", "coord": {"lon": 63.271191, "lat": 34.479198}}, {"id": 7024903, "name": "Tag\u016bg", "country": "SD", "coord": {"lon": 36.364799, "lat": 15.4071}}, {"id": 6355602, "name": "Tahal", "country": "ES", "coord": {"lon": -2.29781, "lat": 37.212299}}, {"id": 2510716, "name": "Tahal", "country": "ES", "coord": {"lon": -2.2847, "lat": 37.22797}}, {"id": 2531480, "name": "Tahala", "country": "MA", "coord": {"lon": -4.42795, "lat": 34.04845}}, {"id": 2147622, "name": "Tahara", "country": "AU", "coord": {"lon": 141.699997, "lat": -37.73333}}, {"id": 1851259, "name": "Tahara", "country": "JP", "coord": {"lon": 137.266663, "lat": 34.666672}}, {"id": 3516427, "name": "Tahdzi\u00fa", "country": "MX", "coord": {"lon": -88.949997, "lat": 20.200001}}, {"id": 2034615, "name": "Tahe", "country": "CN", "coord": {"lon": 124.73333, "lat": 52.333328}}, {"id": 2478554, "name": "Taher", "country": "DZ", "coord": {"lon": 5.89788, "lat": 36.763039}}, {"id": 2510715, "name": "Tahiche", "country": "ES", "coord": {"lon": -13.54451, "lat": 29.019119}}, {"id": 1515247, "name": "Tahilt", "country": "MN", "coord": {"lon": 96.645699, "lat": 45.3466}}, {"id": 3044191, "name": "Tahitotfalu", "country": "HU", "coord": {"lon": 19.1, "lat": 47.75}}, {"id": 4552707, "name": "Tahlequah", "country": "US", "coord": {"lon": -94.969963, "lat": 35.915371}}, {"id": 6161128, "name": "Tahltan", "country": "CA", "coord": {"lon": -131.003876, "lat": 58.016361}}, {"id": 3516425, "name": "Tahmek", "country": "MX", "coord": {"lon": -89.26667, "lat": 20.883329}}, {"id": 2147618, "name": "Tahmoor", "country": "AU", "coord": {"lon": 150.583328, "lat": -34.216671}}, {"id": 5400943, "name": "Tahoe Vista", "country": "US", "coord": {"lon": -120.051018, "lat": 39.23991}}, {"id": 5532037, "name": "Tahoka", "country": "US", "coord": {"lon": -101.79377, "lat": 33.166759}}, {"id": 5400946, "name": "Tahoma", "country": "US", "coord": {"lon": -120.128242, "lat": 39.06741}}, {"id": 2439374, "name": "Tahoua", "country": "NE", "coord": {"lon": 5.5, "lat": 16}}, {"id": 2439376, "name": "Tahoua", "country": "NE", "coord": {"lon": 5.2692, "lat": 14.8888}}, {"id": 1336421, "name": "Tahsil", "country": "PK", "coord": {"lon": 61.75, "lat": 25.058332}}, {"id": 1337313, "name": "Tahsil", "country": "PK", "coord": {"lon": 62.327221, "lat": 25.118891}}, {"id": 6161139, "name": "Tahsis", "country": "CA", "coord": {"lon": -126.669701, "lat": 49.91629}}, {"id": 1333002, "name": "Tahs\u012bl", "country": "PK", "coord": {"lon": 71.982498, "lat": 34.00972}}, {"id": 347634, "name": "Tahta", "country": "EG", "coord": {"lon": 31.50214, "lat": 26.7693}}, {"id": 8074071, "name": "Tahunan", "country": "ID", "coord": {"lon": 111.553001, "lat": -6.885}}, {"id": 7871084, "name": "Tai", "country": "GU", "coord": {"lon": 144.791245, "lat": 13.4417}}, {"id": 1835518, "name": "Taian", "country": "KR", "coord": {"lon": 126.297783, "lat": 36.75639}}, {"id": 1793724, "name": "Taian", "country": "CN", "coord": {"lon": 117.120003, "lat": 36.18528}}, {"id": 3447072, "name": "Taia\u00e7u", "country": "BR", "coord": {"lon": -48.512501, "lat": -21.14444}}, {"id": 1793718, "name": "Taibai", "country": "CN", "coord": {"lon": 117.689369, "lat": 29.087271}}, {"id": 1899328, "name": "Taibai", "country": "CN", "coord": {"lon": 106.162323, "lat": 34.057911}}, {"id": 7367789, "name": "Taibai", "country": "CN", "coord": {"lon": 107.963333, "lat": 34.360569}}, {"id": 1793707, "name": "Taibao", "country": "CN", "coord": {"lon": 112.178711, "lat": 24.696569}}, {"id": 1668347, "name": "Taibao", "country": "TW", "coord": {"lon": 120.332222, "lat": 23.45944}}, {"id": 3165978, "name": "Taibon", "country": "IT", "coord": {"lon": 12.00333, "lat": 46.298889}}, {"id": 6542191, "name": "Taibon Agordino", "country": "IT", "coord": {"lon": 12.0097, "lat": 46.301121}}, {"id": 1910172, "name": "Taichen", "country": "CN", "coord": {"lon": 113.921898, "lat": 33.76926}}, {"id": 1790959, "name": "Taicheng", "country": "CN", "coord": {"lon": 113.227997, "lat": 38.731022}}, {"id": 1668399, "name": "Taichung", "country": "TW", "coord": {"lon": 120.683899, "lat": 24.1469}}, {"id": 2733706, "name": "Taide", "country": "PT", "coord": {"lon": -8.23512, "lat": 41.555691}}, {"id": 2824373, "name": "Taiding", "country": "DE", "coord": {"lon": 12.66252, "lat": 48.803299}}, {"id": 107968, "name": "Taif", "country": "SA", "coord": {"lon": 40.415829, "lat": 21.270281}}, {"id": 1928134, "name": "Taifu", "country": "CN", "coord": {"lon": 111.585617, "lat": 29.28912}}, {"id": 6943556, "name": "Taigum", "country": "AU", "coord": {"lon": 153.044434, "lat": -27.342649}}, {"id": 1793684, "name": "Taihe", "country": "CN", "coord": {"lon": 105.384537, "lat": 30.871229}}, {"id": 1793687, "name": "Taihe", "country": "CN", "coord": {"lon": 116.611053, "lat": 27.052719}}, {"id": 6647609, "name": "Taihe", "country": "CN", "coord": {"lon": 113.011269, "lat": 23.73209}}, {"id": 1793683, "name": "Taihe Chengguanzhen", "country": "CN", "coord": {"lon": 115.648857, "lat": 33.16552}}, {"id": 1899315, "name": "Taijing", "country": "CN", "coord": {"lon": 105.548889, "lat": 34.563332}}, {"id": 2034602, "name": "Taijitun", "country": "CN", "coord": {"lon": 120.87204, "lat": 41.057369}}, {"id": 2034600, "name": "Taikang", "country": "CN", "coord": {"lon": 124.416672, "lat": 46.833328}}, {"id": 2127931, "name": "Taiki", "country": "JP", "coord": {"lon": 143.274719, "lat": 42.490559}}, {"id": 2034599, "name": "Tailai", "country": "CN", "coord": {"lon": 123.400002, "lat": 46.383331}}, {"id": 2060703, "name": "Tailem Bend", "country": "AU", "coord": {"lon": 139.449997, "lat": -35.26667}}, {"id": 2824370, "name": "Tailfingen", "country": "DE", "coord": {"lon": 9.01667, "lat": 48.25}}, {"id": 7658299, "name": "Tailing", "country": "CN", "coord": {"lon": 114.111237, "lat": 27.068649}}, {"id": 6454804, "name": "Taillades", "country": "FR", "coord": {"lon": 5.1, "lat": 43.833328}}, {"id": 2973564, "name": "Taillades", "country": "FR", "coord": {"lon": 5.09216, "lat": 43.835918}}, {"id": 6439318, "name": "Taillebois", "country": "FR", "coord": {"lon": -0.43333, "lat": 48.799999}}, {"id": 2973556, "name": "Taillebois", "country": "FR", "coord": {"lon": -0.42777, "lat": 48.801979}}, {"id": 6430004, "name": "Taillecourt", "country": "FR", "coord": {"lon": 6.85, "lat": 47.5}}, {"id": 2973551, "name": "Taillecourt", "country": "FR", "coord": {"lon": 6.85442, "lat": 47.495209}}, {"id": 2973541, "name": "Tailleville", "country": "FR", "coord": {"lon": -0.40959, "lat": 49.30579}}, {"id": 1793650, "name": "Taimei", "country": "CN", "coord": {"lon": 114.473442, "lat": 23.32258}}, {"id": 2824366, "name": "Taimering", "country": "DE", "coord": {"lon": 12.31667, "lat": 48.916672}}, {"id": 2636321, "name": "Tain", "country": "GB", "coord": {"lon": -4.05991, "lat": 57.809029}}, {"id": 1668352, "name": "Tainan", "country": "TW", "coord": {"lon": 120.188759, "lat": 23.000019}}, {"id": 1668355, "name": "Tainan", "country": "TW", "coord": {"lon": 120.213333, "lat": 22.990829}}, {"id": 1548565, "name": "Tainan", "country": "CN", "coord": {"lon": 120.26944, "lat": 32.762051}}, {"id": 3165975, "name": "Taino", "country": "IT", "coord": {"lon": 8.61654, "lat": 45.762489}}, {"id": 4980356, "name": "Tainter Corner", "country": "US", "coord": {"lon": -70.365341, "lat": 44.587559}}, {"id": 5275391, "name": "Tainter Lake", "country": "US", "coord": {"lon": -91.847679, "lat": 44.989128}}, {"id": 6445760, "name": "Taintrux", "country": "FR", "coord": {"lon": 6.9, "lat": 48.25}}, {"id": 2973530, "name": "Taintrux", "country": "FR", "coord": {"lon": 6.89963, "lat": 48.249439}}, {"id": 6540235, "name": "Taio", "country": "IT", "coord": {"lon": 11.07207, "lat": 46.32251}}, {"id": 3447059, "name": "Taiobeiras", "country": "BR", "coord": {"lon": -42.233059, "lat": -15.80778}}, {"id": 2733705, "name": "Taipa", "country": "PT", "coord": {"lon": -8.53326, "lat": 40.598282}}, {"id": 2182017, "name": "Taipa", "country": "NZ", "coord": {"lon": 173.466675, "lat": -34.98333}}, {"id": 635151, "name": "Taipalsaari", "country": "FI", "coord": {"lon": 28.08333, "lat": 61.25}}, {"id": 635150, "name": "Taipalsaari", "country": "FI", "coord": {"lon": 28.049999, "lat": 61.150002}}, {"id": 6538395, "name": "Taipana", "country": "IT", "coord": {"lon": 13.34093, "lat": 46.248531}}, {"id": 3165974, "name": "Taipana", "country": "IT", "coord": {"lon": 13.34222, "lat": 46.247501}}, {"id": 1668341, "name": "Taipei", "country": "TW", "coord": {"lon": 121.531853, "lat": 25.04776}}, {"id": 7280290, "name": "Taipei", "country": "TW", "coord": {"lon": 121.651611, "lat": 25.025881}}, {"id": 1665148, "name": "Taipei", "country": "TW", "coord": {"lon": 121.581749, "lat": 24.94702}}, {"id": 1734586, "name": "Taiping", "country": "MY", "coord": {"lon": 100.73333, "lat": 4.85}}, {"id": 1793642, "name": "Taiping", "country": "CN", "coord": {"lon": 107.359169, "lat": 22.411671}}, {"id": 1793565, "name": "Taiping", "country": "CN", "coord": {"lon": 109.922783, "lat": 29.83194}}, {"id": 1793591, "name": "Taiping", "country": "CN", "coord": {"lon": 106.037712, "lat": 28.140829}}, {"id": 1793601, "name": "Taiping", "country": "CN", "coord": {"lon": 113.483513, "lat": 23.441219}}, {"id": 1793624, "name": "Taiping", "country": "CN", "coord": {"lon": 118.418694, "lat": 26.445669}}, {"id": 1793627, "name": "Taiping", "country": "CN", "coord": {"lon": 114.061523, "lat": 24.947229}}, {"id": 1793630, "name": "Taiping", "country": "CN", "coord": {"lon": 112.557831, "lat": 24.255289}}, {"id": 1793631, "name": "Taiping", "country": "CN", "coord": {"lon": 117.015106, "lat": 23.9006}}, {"id": 1793632, "name": "Taiping", "country": "CN", "coord": {"lon": 112.878639, "lat": 23.67136}}, {"id": 1898310, "name": "Taiping", "country": "CN", "coord": {"lon": 120.698334, "lat": 31.434719}}, {"id": 1999689, "name": "Taiping", "country": "CN", "coord": {"lon": 108.736107, "lat": 34.505829}}, {"id": 6422080, "name": "Taiping", "country": "CN", "coord": {"lon": 112.123062, "lat": 25.66111}}, {"id": 6824435, "name": "Taiping", "country": "CN", "coord": {"lon": 102.588341, "lat": 24.952499}}, {"id": 7328868, "name": "Taiping", "country": "CN", "coord": {"lon": 115.713676, "lat": 28.80476}}, {"id": 7374589, "name": "Taiping", "country": "CN", "coord": {"lon": 105.696762, "lat": 32.95409}}, {"id": 7653970, "name": "Taiping", "country": "CN", "coord": {"lon": 113.920891, "lat": 31.4552}}, {"id": 8016934, "name": "Taiping", "country": "CN", "coord": {"lon": 111.079376, "lat": 29.97555}}, {"id": 1793590, "name": "Taipingguan", "country": "CN", "coord": {"lon": 116.429672, "lat": 29.75242}}, {"id": 6825107, "name": "Taipingguan", "country": "CN", "coord": {"lon": 102.791237, "lat": 24.83003}}, {"id": 7635419, "name": "Taipinghu", "country": "CN", "coord": {"lon": 118.039742, "lat": 30.36727}}, {"id": 1793581, "name": "Taipingqiao", "country": "CN", "coord": {"lon": 111.337181, "lat": 29.06188}}, {"id": 6421804, "name": "Taipingxu", "country": "CN", "coord": {"lon": 112.328056, "lat": 25.47444}}, {"id": 1975112, "name": "Taipingyan", "country": "CN", "coord": {"lon": 118.090202, "lat": 24.46172}}, {"id": 2034558, "name": "Taipingzhuang", "country": "CN", "coord": {"lon": 126.199997, "lat": 45.616669}}, {"id": 1793560, "name": "Taipingzhuang", "country": "CN", "coord": {"lon": 112.136009, "lat": 39.047939}}, {"id": 2034562, "name": "Taipingzhuang", "country": "CN", "coord": {"lon": 122.808151, "lat": 40.16914}}, {"id": 3386957, "name": "Taipu", "country": "BR", "coord": {"lon": -35.596668, "lat": -5.62167}}, {"id": 8135630, "name": "Taiqing", "country": "CN", "coord": {"lon": 111.313362, "lat": 29.875351}}, {"id": 827689, "name": "Tair", "country": "RU", "coord": {"lon": 47.848541, "lat": 56.2672}}, {"id": 1707434, "name": "Tairan Camp", "country": "PH", "coord": {"lon": 121.8395, "lat": 6.6402}}, {"id": 2182010, "name": "Tairua", "country": "NZ", "coord": {"lon": 175.850006, "lat": -37.01667}}, {"id": 1835447, "name": "Taisen-ri", "country": "KR", "coord": {"lon": 126.597717, "lat": 36.349312}}, {"id": 1793700, "name": "Taishan", "country": "CN", "coord": {"lon": 112.7799, "lat": 22.25135}}, {"id": 7407750, "name": "Taishan", "country": "CN", "coord": {"lon": 106.457611, "lat": 33.772968}}, {"id": 7658358, "name": "Taishan", "country": "CN", "coord": {"lon": 114.269608, "lat": 27.4436}}, {"id": 2034555, "name": "Taishang", "country": "CN", "coord": {"lon": 125.842163, "lat": 41.298679}}, {"id": 7055895, "name": "Taishanmiao", "country": "CN", "coord": {"lon": 112.643127, "lat": 33.39637}}, {"id": 7069527, "name": "Taishanmiao", "country": "CN", "coord": {"lon": 113.208344, "lat": 32.86924}}, {"id": 7373126, "name": "Taishi", "country": "CN", "coord": {"lon": 105.45163, "lat": 33.616562}}, {"id": 7373270, "name": "Taishihe", "country": "CN", "coord": {"lon": 105.181221, "lat": 33.70578}}, {"id": 6436040, "name": "Taissy", "country": "FR", "coord": {"lon": 4.1, "lat": 49.216671}}, {"id": 2973524, "name": "Taissy", "country": "FR", "coord": {"lon": 4.09406, "lat": 49.215092}}, {"id": 2824361, "name": "Taiting", "country": "DE", "coord": {"lon": 11.05328, "lat": 48.40345}}, {"id": 1668295, "name": "Taitung", "country": "TW", "coord": {"lon": 121.144569, "lat": 22.759911}}, {"id": 6949678, "name": "Taitung City", "country": "TW", "coord": {"lon": 121.144402, "lat": 22.758301}}, {"id": 635142, "name": "Taivalkoski", "country": "FI", "coord": {"lon": 28.25, "lat": 65.5}}, {"id": 635141, "name": "Taivalkoski", "country": "FI", "coord": {"lon": 28.25, "lat": 65.566673}}, {"id": 635133, "name": "Taivassalo", "country": "FI", "coord": {"lon": 21.58333, "lat": 60.583328}}, {"id": 635130, "name": "Taivassalo", "country": "FI", "coord": {"lon": 21.61639, "lat": 60.560848}}, {"id": 1668284, "name": "Taiwan", "country": "TW", "coord": {"lon": 121, "lat": 24}}, {"id": 7280291, "name": "Taiwan", "country": "TW", "coord": {"lon": 120.705406, "lat": 24.15114}}, {"id": 1910150, "name": "Taiwei", "country": "CN", "coord": {"lon": 113.75769, "lat": 33.62973}}, {"id": 1793536, "name": "Taixi", "country": "CN", "coord": {"lon": 118.247299, "lat": 26.101919}}, {"id": 1793533, "name": "Taixing", "country": "CN", "coord": {"lon": 120.013611, "lat": 32.166672}}, {"id": 1793529, "name": "Taiyang", "country": "CN", "coord": {"lon": 119.296112, "lat": 30.185261}}, {"id": 1793530, "name": "Taiyang", "country": "CN", "coord": {"lon": 115.268059, "lat": 28.19721}}, {"id": 1793531, "name": "Taiyang", "country": "CN", "coord": {"lon": 116.477798, "lat": 28.062099}}, {"id": 7407867, "name": "Taiyang", "country": "CN", "coord": {"lon": 106.294891, "lat": 34.078819}}, {"id": 7372230, "name": "Taiyangling", "country": "CN", "coord": {"lon": 106.00312, "lat": 33.03648}}, {"id": 2053203, "name": "Taiyangsheng", "country": "CN", "coord": {"lon": 122.3601, "lat": 40.370461}}, {"id": 1793517, "name": "Taiyigong", "country": "CN", "coord": {"lon": 109.001602, "lat": 34.026169}}, {"id": 1522035, "name": "Taiynsha", "country": "KZ", "coord": {"lon": 69.763893, "lat": 53.847778}}, {"id": 1793513, "name": "Taiyu", "country": "CN", "coord": {"lon": 108.059807, "lat": 34.93272}}, {"id": 7330568, "name": "Taiyu", "country": "CN", "coord": {"lon": 104.531616, "lat": 33.788738}}, {"id": 1793511, "name": "Taiyuan", "country": "CN", "coord": {"lon": 112.56028, "lat": 37.869438}}, {"id": 1552307, "name": "Taiyuan", "country": "CN", "coord": {"lon": 118.400482, "lat": 30.71093}}, {"id": 1924132, "name": "Taiyuan", "country": "CN", "coord": {"lon": 117.507782, "lat": 28.009171}}, {"id": 1793505, "name": "Taizhou", "country": "CN", "coord": {"lon": 119.910629, "lat": 32.493328}}, {"id": 1793498, "name": "Taizi", "country": "CN", "coord": {"lon": 115.183327, "lat": 30.033331}}, {"id": 6426132, "name": "Taizy", "country": "FR", "coord": {"lon": 4.26667, "lat": 49.51667}}, {"id": 2973518, "name": "Taizy", "country": "FR", "coord": {"lon": 4.25998, "lat": 49.520351}}, {"id": 70225, "name": "Taizz", "country": "YE", "coord": {"lon": 44.020908, "lat": 13.57952}}, {"id": 3447063, "name": "Tai\u00f3", "country": "BR", "coord": {"lon": -49.998058, "lat": -27.11639}}, {"id": 3447047, "name": "Tai\u00fava", "country": "BR", "coord": {"lon": -48.451672, "lat": -21.12389}}, {"id": 6361207, "name": "Tajahuerce", "country": "ES", "coord": {"lon": -2.15802, "lat": 41.75021}}, {"id": 3108402, "name": "Tajahuerce", "country": "ES", "coord": {"lon": -2.15069, "lat": 41.73991}}, {"id": 1684210, "name": "Tajao", "country": "PH", "coord": {"lon": 123.583504, "lat": 10.3148}}, {"id": 2464809, "name": "Tajerouine", "country": "TN", "coord": {"lon": 8.55276, "lat": 35.891739}}, {"id": 1793493, "name": "Taji", "country": "CN", "coord": {"lon": 119.159172, "lat": 32.950829}}, {"id": 5400963, "name": "Tajiguas", "country": "US", "coord": {"lon": -120.108482, "lat": 34.46666}}, {"id": 1851193, "name": "Tajimi", "country": "JP", "coord": {"lon": 137.133331, "lat": 35.316669}}, {"id": 1625559, "name": "Tajinan", "country": "ID", "coord": {"lon": 112.682404, "lat": -8.0497}}, {"id": 7037081, "name": "Tajinan", "country": "ID", "coord": {"lon": 112.682404, "lat": -8.0497}}, {"id": 3108398, "name": "Tajonar", "country": "ES", "coord": {"lon": -1.6081, "lat": 42.76878}}, {"id": 1255224, "name": "Tajpur", "country": "IN", "coord": {"lon": 78.48333, "lat": 29.16667}}, {"id": 6361208, "name": "Tajueco", "country": "ES", "coord": {"lon": -2.84637, "lat": 41.53717}}, {"id": 3108396, "name": "Tajueco", "country": "ES", "coord": {"lon": -2.84845, "lat": 41.536411}}, {"id": 3588588, "name": "Tajumulco", "country": "GT", "coord": {"lon": -91.883331, "lat": 15.08333}}, {"id": 7783025, "name": "Tajur", "country": "ID", "coord": {"lon": 106.077698, "lat": -6.5294}}, {"id": 8018890, "name": "Tajurdesa", "country": "ID", "coord": {"lon": 108.007797, "lat": -7.2045}}, {"id": 757109, "name": "Taj\u0119cina", "country": "PL", "coord": {"lon": 22.01111, "lat": 50.124649}}, {"id": 1150490, "name": "Tak", "country": "TH", "coord": {"lon": 99.128983, "lat": 16.86968}}, {"id": 1605957, "name": "Tak Bai", "country": "TH", "coord": {"lon": 102.054611, "lat": 6.25947}}, {"id": 1604606, "name": "Tak Fa", "country": "TH", "coord": {"lon": 100.495216, "lat": 15.34917}}, {"id": 7569949, "name": "Taka", "country": "ID", "coord": {"lon": 121.113998, "lat": -8.8406}}, {"id": 113508, "name": "Takab", "country": "IR", "coord": {"lon": 47.1133, "lat": 36.400902}}, {"id": 2110901, "name": "Takado", "country": "JP", "coord": {"lon": 140.716675, "lat": 36.716671}}, {"id": 2110893, "name": "Takahagi", "country": "JP", "coord": {"lon": 140.716675, "lat": 36.716671}}, {"id": 1851155, "name": "Takahama", "country": "JP", "coord": {"lon": 136.983337, "lat": 34.916672}}, {"id": 1851141, "name": "Takaharu", "country": "JP", "coord": {"lon": 131.016663, "lat": 31.91667}}, {"id": 1851137, "name": "Takahashi", "country": "JP", "coord": {"lon": 133.616669, "lat": 34.783329}}, {"id": 2110891, "name": "Takahata", "country": "JP", "coord": {"lon": 140.191116, "lat": 38.002499}}, {"id": 2322592, "name": "Takai", "country": "NG", "coord": {"lon": 9.11667, "lat": 11.58333}}, {"id": 1851125, "name": "Takaishi", "country": "JP", "coord": {"lon": 135.433334, "lat": 34.51667}}, {"id": 1851114, "name": "Takaj\u014dmachi", "country": "JP", "coord": {"lon": 138.383331, "lat": 34.966671}}, {"id": 2181997, "name": "Takaka", "country": "NZ", "coord": {"lon": 172.800003, "lat": -40.849998}}, {"id": 1851099, "name": "Takamatsu", "country": "JP", "coord": {"lon": 136.716675, "lat": 36.76667}}, {"id": 1851100, "name": "Takamatsu-shi", "country": "JP", "coord": {"lon": 134.043335, "lat": 34.340279}}, {"id": 1851079, "name": "Takamori", "country": "JP", "coord": {"lon": 131.116669, "lat": 32.816669}}, {"id": 1851068, "name": "Takanabe", "country": "JP", "coord": {"lon": 131.5, "lat": 32.133331}}, {"id": 2181991, "name": "Takanini", "country": "NZ", "coord": {"lon": 174.916672, "lat": -37.033329}}, {"id": 6231568, "name": "Takanini", "country": "NZ", "coord": {"lon": 174.900192, "lat": -37.048199}}, {"id": 2127910, "name": "Takanosu", "country": "JP", "coord": {"lon": 140.369446, "lat": 40.221939}}, {"id": 1851032, "name": "Takaoka", "country": "JP", "coord": {"lon": 137.016663, "lat": 36.75}}, {"id": 2181988, "name": "Takapau", "country": "NZ", "coord": {"lon": 176.350006, "lat": -40.033329}}, {"id": 2207740, "name": "Takapuna", "country": "NZ", "coord": {"lon": 174.775833, "lat": -36.791672}}, {"id": 1851012, "name": "Takarazuka", "country": "JP", "coord": {"lon": 135.356964, "lat": 34.799358}}, {"id": 1851009, "name": "Takasago", "country": "JP", "coord": {"lon": 134.800003, "lat": 34.75}}, {"id": 1851002, "name": "Takasaki", "country": "JP", "coord": {"lon": 139.016663, "lat": 36.333328}}, {"id": 1850943, "name": "Takata", "country": "JP", "coord": {"lon": 136.233337, "lat": 35.433331}}, {"id": 1907243, "name": "Takata", "country": "JP", "coord": {"lon": 139.423065, "lat": 35.33889}}, {"id": 1850940, "name": "Takatach\u014d", "country": "JP", "coord": {"lon": 136.933334, "lat": 35.133331}}, {"id": 1850924, "name": "Takatorich\u014d", "country": "JP", "coord": {"lon": 135.133331, "lat": 34.650002}}, {"id": 1850916, "name": "Takatsu", "country": "JP", "coord": {"lon": 131.783325, "lat": 34.683331}}, {"id": 1850910, "name": "Takatsuki", "country": "JP", "coord": {"lon": 135.616776, "lat": 34.848331}}, {"id": 179634, "name": "Takaungu", "country": "KE", "coord": {"lon": 39.856621, "lat": -3.68367}}, {"id": 1850892, "name": "Takayama", "country": "JP", "coord": {"lon": 137.25, "lat": 36.133331}}, {"id": 1850878, "name": "Takedamachi", "country": "JP", "coord": {"lon": 131.399994, "lat": 32.966671}}, {"id": 1850872, "name": "Takefu", "country": "JP", "coord": {"lon": 136.16687, "lat": 35.903931}}, {"id": 1850860, "name": "Takehara", "country": "JP", "coord": {"lon": 132.916672, "lat": 34.338329}}, {"id": 2636315, "name": "Takeley", "country": "GB", "coord": {"lon": 0.26583, "lat": 51.870892}}, {"id": 1850837, "name": "Takenouchi", "country": "JP", "coord": {"lon": 137.300003, "lat": 36.700001}}, {"id": 1850834, "name": "Takeo", "country": "JP", "coord": {"lon": 130.016663, "lat": 33.200001}}, {"id": 8140962, "name": "Takerharjo", "country": "ID", "coord": {"lon": 112.411598, "lat": -6.9407}}, {"id": 113491, "name": "Takestan", "country": "IR", "coord": {"lon": 49.6959, "lat": 36.069599}}, {"id": 1850822, "name": "Taketomi", "country": "JP", "coord": {"lon": 124.08506, "lat": 24.330669}}, {"id": 1850818, "name": "Taketoyo", "country": "JP", "coord": {"lon": 136.916672, "lat": 34.849998}}, {"id": 1821940, "name": "Takev", "country": "KH", "coord": {"lon": 104.783333, "lat": 10.98333}}, {"id": 1255213, "name": "Takhatgarh", "country": "IN", "coord": {"lon": 73, "lat": 25.33333}}, {"id": 1255212, "name": "Takhatpur", "country": "IN", "coord": {"lon": 81.866669, "lat": 22.15}}, {"id": 1605912, "name": "Takhli", "country": "TH", "coord": {"lon": 100.343781, "lat": 15.26336}}, {"id": 515921, "name": "Takhtamukay", "country": "RU", "coord": {"lon": 38.995831, "lat": 44.921501}}, {"id": 2015707, "name": "Takhtamygda", "country": "RU", "coord": {"lon": 123.566673, "lat": 54.099998}}, {"id": 1255211, "name": "Taki", "country": "IN", "coord": {"lon": 88.921387, "lat": 22.586109}}, {"id": 2127896, "name": "Takikawa", "country": "JP", "coord": {"lon": 141.906387, "lat": 43.55278}}, {"id": 1186675, "name": "Takipur", "country": "BD", "coord": {"lon": 88.616669, "lat": 24.433331}}, {"id": 2127883, "name": "Takko", "country": "JP", "coord": {"lon": 141.151672, "lat": 40.336109}}, {"id": 6161240, "name": "Takla Landing", "country": "CA", "coord": {"lon": -125.970169, "lat": 55.483131}}, {"id": 2464804, "name": "Taklisah", "country": "TN", "coord": {"lon": 10.63333, "lat": 36.783329}}, {"id": 2110850, "name": "Tako", "country": "JP", "coord": {"lon": 140.466675, "lat": 35.73333}}, {"id": 1625532, "name": "Takokak", "country": "ID", "coord": {"lon": 107.003601, "lat": -7.0513}}, {"id": 4370890, "name": "Takoma Park", "country": "US", "coord": {"lon": -77.007477, "lat": 38.97789}}, {"id": 2294915, "name": "Takoradi", "country": "GH", "coord": {"lon": -1.75536, "lat": 4.88447}}, {"id": 2015701, "name": "Taksimo", "country": "RU", "coord": {"lon": 114.87944, "lat": 56.34444}}, {"id": 484849, "name": "Taksino", "country": "RU", "coord": {"lon": 36.166668, "lat": 56.316666}}, {"id": 3044181, "name": "Taksony", "country": "HU", "coord": {"lon": 19.06694, "lat": 47.329681}}, {"id": 715009, "name": "Taktaharkany", "country": "HU", "coord": {"lon": 21.133329, "lat": 48.083328}}, {"id": 7594929, "name": "Taktalachuk", "country": "RU", "coord": {"lon": 53.942902, "lat": 55.874699}}, {"id": 715005, "name": "Taktaszada", "country": "HU", "coord": {"lon": 21.183331, "lat": 48.116669}}, {"id": 1150452, "name": "Takua Pa", "country": "TH", "coord": {"lon": 98.343826, "lat": 8.8705}}, {"id": 1150447, "name": "Takua Thung", "country": "TH", "coord": {"lon": 98.451233, "lat": 8.38373}}, {"id": 1684191, "name": "Takub", "country": "PH", "coord": {"lon": 125.422501, "lat": 6.85639}}, {"id": 2322552, "name": "Takum", "country": "NG", "coord": {"lon": 9.98333, "lat": 7.26667}}, {"id": 2147608, "name": "Takura", "country": "AU", "coord": {"lon": 152.716675, "lat": -25.33333}}, {"id": 2592493, "name": "Takurza", "country": "NG", "coord": {"lon": 8.53179, "lat": 12.06425}}, {"id": 798134, "name": "Takushin", "country": "RU", "coord": {"lon": 45.726391, "lat": 48.740559}}, {"id": 2294893, "name": "Takwaim", "country": "GH", "coord": {"lon": -2.0852, "lat": 7.44159}}, {"id": 7670426, "name": "Tal", "country": "CH", "coord": {"lon": 7.77983, "lat": 47.020279}}, {"id": 1164076, "name": "Tal", "country": "PK", "coord": {"lon": 72.243851, "lat": 35.47908}}, {"id": 1255187, "name": "Tal", "country": "IN", "coord": {"lon": 75.383331, "lat": 23.716669}}, {"id": 1683931, "name": "Tal I Mun Doc", "country": "PH", "coord": {"lon": 120.684898, "lat": 15.2121}}, {"id": 3982616, "name": "Tala", "country": "MX", "coord": {"lon": -103.699997, "lat": 20.66667}}, {"id": 347612, "name": "Tala", "country": "EG", "coord": {"lon": 30.942921, "lat": 30.68025}}, {"id": 3440021, "name": "Tala", "country": "UY", "coord": {"lon": -55.76667, "lat": -34.349998}}, {"id": 146045, "name": "Tala", "country": "CY", "coord": {"lon": 32.433331, "lat": 34.837502}}, {"id": 1684177, "name": "Tala", "country": "PH", "coord": {"lon": 122.583328, "lat": 13.28333}}, {"id": 3834780, "name": "Tala Ca\u00f1ada", "country": "AR", "coord": {"lon": -64.969879, "lat": -31.357389}}, {"id": 1957322, "name": "Talabaan", "country": "PH", "coord": {"lon": 122.172218, "lat": 6.94111}}, {"id": 1684154, "name": "Talaban", "country": "PH", "coord": {"lon": 122.86972, "lat": 10.1275}}, {"id": 620833, "name": "Talachyn", "country": "BY", "coord": {"lon": 29.69171, "lat": 54.409679}}, {"id": 6291330, "name": "Talacker", "country": "CH", "coord": {"lon": 8.5579, "lat": 47.42445}}, {"id": 1684139, "name": "Talacogon", "country": "PH", "coord": {"lon": 125.800003, "lat": 8.41667}}, {"id": 1684137, "name": "Talacogon", "country": "PH", "coord": {"lon": 125.784172, "lat": 8.45611}}, {"id": 4032323, "name": "Talafo\u2018ou", "country": "TO", "coord": {"lon": -175.100006, "lat": -21.133329}}, {"id": 7780886, "name": "Talaga", "country": "ID", "coord": {"lon": 105.999702, "lat": -6.3209}}, {"id": 1684122, "name": "Talaga", "country": "PH", "coord": {"lon": 120.585732, "lat": 15.38506}}, {"id": 1684128, "name": "Talaga", "country": "PH", "coord": {"lon": 120.93618, "lat": 13.73646}}, {"id": 7781691, "name": "Talagabakti", "country": "ID", "coord": {"lon": 106.0093, "lat": -6.2081}}, {"id": 7911684, "name": "Talagajaya", "country": "ID", "coord": {"lon": 107.872704, "lat": -7.4158}}, {"id": 1164069, "name": "Talagang", "country": "PK", "coord": {"lon": 72.415833, "lat": 32.929729}}, {"id": 3870306, "name": "Talagante", "country": "CL", "coord": {"lon": -70.933327, "lat": -33.666672}}, {"id": 6767620, "name": "Talagasari", "country": "ID", "coord": {"lon": 106.200302, "lat": -6.4954}}, {"id": 7914908, "name": "Talagasari", "country": "ID", "coord": {"lon": 107.923103, "lat": -7.4205}}, {"id": 1714416, "name": "Talagutong", "country": "PH", "coord": {"lon": 125.667778, "lat": 6.26444}}, {"id": 1684100, "name": "Talahib Payap", "country": "PH", "coord": {"lon": 121.136391, "lat": 13.66083}}, {"id": 1684103, "name": "Talahiban Uno", "country": "PH", "coord": {"lon": 121.388062, "lat": 13.80694}}, {"id": 1684095, "name": "Talaibon", "country": "PH", "coord": {"lon": 121.139801, "lat": 13.8378}}, {"id": 3667547, "name": "Talaigua Viejo", "country": "CO", "coord": {"lon": -74.585442, "lat": 9.31206}}, {"id": 6432481, "name": "Talais", "country": "FR", "coord": {"lon": -1.05, "lat": 45.466671}}, {"id": 2973513, "name": "Talais", "country": "FR", "coord": {"lon": -1.05485, "lat": 45.470348}}, {"id": 1255175, "name": "Talaja", "country": "IN", "coord": {"lon": 72.050003, "lat": 21.35}}, {"id": 1684086, "name": "Talakag", "country": "PH", "coord": {"lon": 124.600281, "lat": 8.23361}}, {"id": 2015686, "name": "Talakan", "country": "RU", "coord": {"lon": 130.366669, "lat": 50.316669}}, {"id": 691942, "name": "Talalayivka", "country": "UA", "coord": {"lon": 31.920851, "lat": 50.957829}}, {"id": 1684077, "name": "Talalora", "country": "PH", "coord": {"lon": 124.836197, "lat": 11.5293}}, {"id": 6356296, "name": "Talamanca", "country": "ES", "coord": {"lon": 1.94051, "lat": 41.730141}}, {"id": 3108390, "name": "Talamanca", "country": "ES", "coord": {"lon": 1.97791, "lat": 41.7374}}, {"id": 6359364, "name": "Talamanca de Jarama", "country": "ES", "coord": {"lon": -3.48846, "lat": 40.7435}}, {"id": 3108389, "name": "Talamanca de Jarama", "country": "ES", "coord": {"lon": -3.50889, "lat": 40.743252}}, {"id": 6362936, "name": "Talamantes", "country": "ES", "coord": {"lon": -1.67076, "lat": 41.722252}}, {"id": 3108388, "name": "Talamantes", "country": "ES", "coord": {"lon": -1.67856, "lat": 41.730511}}, {"id": 1164064, "name": "Talamba", "country": "PK", "coord": {"lon": 72.240112, "lat": 30.527081}}, {"id": 3165972, "name": "Talamello", "country": "IT", "coord": {"lon": 12.28484, "lat": 43.905659}}, {"id": 6535138, "name": "Talamona", "country": "IT", "coord": {"lon": 9.61294, "lat": 46.138489}}, {"id": 3165969, "name": "Talana", "country": "IT", "coord": {"lon": 9.49654, "lat": 40.042061}}, {"id": 1684062, "name": "Talang", "country": "PH", "coord": {"lon": 120.837502, "lat": 15.0228}}, {"id": 1965687, "name": "Talang Suko", "country": "ID", "coord": {"lon": 112.686829, "lat": -8.14075}}, {"id": 3601072, "name": "Talanga", "country": "HN", "coord": {"lon": -87.083328, "lat": 14.4}}, {"id": 1965623, "name": "Talangagung", "country": "ID", "coord": {"lon": 112.554001, "lat": -8.1254}}, {"id": 8070153, "name": "Talangbanteng", "country": "ID", "coord": {"lon": 108.703499, "lat": -7.4453}}, {"id": 1625493, "name": "Talangbetutu", "country": "ID", "coord": {"lon": 104.683327, "lat": -2.88333}}, {"id": 6437885, "name": "Talange", "country": "FR", "coord": {"lon": 6.1748, "lat": 49.236301}}, {"id": 2973511, "name": "Talange", "country": "FR", "coord": {"lon": 6.17282, "lat": 49.236698}}, {"id": 8076090, "name": "Talangkembar", "country": "ID", "coord": {"lon": 111.858704, "lat": -6.9573}}, {"id": 1684052, "name": "Talangnan", "country": "PH", "coord": {"lon": 123.334396, "lat": 9.634}}, {"id": 7666931, "name": "Talangrebo", "country": "ID", "coord": {"lon": 105.095627, "lat": -5.16626}}, {"id": 6428901, "name": "Talant", "country": "FR", "coord": {"lon": 5.0057, "lat": 47.336399}}, {"id": 2973510, "name": "Talant", "country": "FR", "coord": {"lon": 5.00888, "lat": 47.336941}}, {"id": 1518598, "name": "Talapker", "country": "KZ", "coord": {"lon": 74.550003, "lat": 43.883331}}, {"id": 3691582, "name": "Talara", "country": "PE", "coord": {"lon": -81.271942, "lat": -4.57722}}, {"id": 3108383, "name": "Talarn", "country": "ES", "coord": {"lon": 0.90068, "lat": 42.185749}}, {"id": 6355992, "name": "Talarrubias", "country": "ES", "coord": {"lon": -5.22143, "lat": 39.1488}}, {"id": 2510700, "name": "Talarrubias", "country": "ES", "coord": {"lon": -5.23422, "lat": 39.036968}}, {"id": 1527299, "name": "Talas", "country": "KG", "coord": {"lon": 72.241943, "lat": 42.522221}}, {"id": 7649203, "name": "Talas", "country": "KG", "coord": {"lon": 72.656776, "lat": 42.354729}}, {"id": 299900, "name": "Talas", "country": "TR", "coord": {"lon": 35.553799, "lat": 38.6908}}, {"id": 1527297, "name": "Talas Oblasty", "country": "KG", "coord": {"lon": 72, "lat": 42.333328}}, {"id": 2322529, "name": "Talata Mafara", "country": "NG", "coord": {"lon": 6.05971, "lat": 12.57317}}, {"id": 2510699, "name": "Talavan", "country": "ES", "coord": {"lon": -6.28146, "lat": 39.717152}}, {"id": 1684016, "name": "Talavera", "country": "PH", "coord": {"lon": 120.919197, "lat": 15.5883}}, {"id": 1684019, "name": "Talavera", "country": "PH", "coord": {"lon": 120.933327, "lat": 15.61667}}, {"id": 6358944, "name": "Talavera", "country": "ES", "coord": {"lon": 1.35438, "lat": 41.593079}}, {"id": 3928043, "name": "Talavera", "country": "PE", "coord": {"lon": -73.429169, "lat": -13.65306}}, {"id": 2510692, "name": "Talavera La Real", "country": "ES", "coord": {"lon": -6.76856, "lat": 38.877941}}, {"id": 6361825, "name": "Talavera de la Reina", "country": "ES", "coord": {"lon": -4.83319, "lat": 39.960541}}, {"id": 2510693, "name": "Talavera de la Reina", "country": "ES", "coord": {"lon": -4.83076, "lat": 39.963482}}, {"id": 6355993, "name": "Talavera la Real", "country": "ES", "coord": {"lon": -6.72675, "lat": 38.85722}}, {"id": 6356873, "name": "Talav\u00e1n", "country": "ES", "coord": {"lon": -6.27047, "lat": 39.682659}}, {"id": 1227300, "name": "Talawakele", "country": "LK", "coord": {"lon": 80.658096, "lat": 6.9371}}, {"id": 1625439, "name": "Talawi", "country": "ID", "coord": {"lon": 100.739792, "lat": -0.59745}}, {"id": 1684010, "name": "Talay", "country": "PH", "coord": {"lon": 123.265701, "lat": 9.2896}}, {"id": 2120769, "name": "Talaya", "country": "RU", "coord": {"lon": 152.75, "lat": 61.383331}}, {"id": 1684007, "name": "Talayan", "country": "PH", "coord": {"lon": 124.381943, "lat": 6.98056}}, {"id": 2510689, "name": "Talayuela", "country": "ES", "coord": {"lon": -5.60982, "lat": 39.987011}}, {"id": 2510688, "name": "Talayuelas", "country": "ES", "coord": {"lon": -2.23333, "lat": 39.683331}}, {"id": 6357532, "name": "Talayuelas", "country": "ES", "coord": {"lon": -1.27537, "lat": 39.827969}}, {"id": 2510687, "name": "Talayuelas", "country": "ES", "coord": {"lon": -1.28333, "lat": 39.849998}}, {"id": 8071846, "name": "Talazhskiy Aviagorodok", "country": "RU", "coord": {"lon": 40.701801, "lat": 64.590401}}, {"id": 1255146, "name": "Talbahat", "country": "IN", "coord": {"lon": 78.433327, "lat": 25.049999}}, {"id": 2147592, "name": "Talbingo", "country": "AU", "coord": {"lon": 148.300003, "lat": -35.566669}}, {"id": 2147591, "name": "Talbot", "country": "AU", "coord": {"lon": 143.699997, "lat": -37.166672}}, {"id": 4370904, "name": "Talbot County", "country": "US", "coord": {"lon": -76.083, "lat": 38.766781}}, {"id": 4225613, "name": "Talbotton", "country": "US", "coord": {"lon": -84.539368, "lat": 32.677639}}, {"id": 3870294, "name": "Talca", "country": "CL", "coord": {"lon": -71.666672, "lat": -35.433331}}, {"id": 3870282, "name": "Talcahuano", "country": "CL", "coord": {"lon": -73.116669, "lat": -36.716671}}, {"id": 1255143, "name": "Talcher", "country": "IN", "coord": {"lon": 85.216667, "lat": 20.950001}}, {"id": 2015646, "name": "Taldan", "country": "RU", "coord": {"lon": 124.800003, "lat": 53.666672}}, {"id": 484826, "name": "Taldom", "country": "RU", "coord": {"lon": 37.533329, "lat": 56.73333}}, {"id": 1484165, "name": "Taldykuduk", "country": "KZ", "coord": {"lon": 73.008331, "lat": 49.663891}}, {"id": 1518543, "name": "Taldyqorghan", "country": "KZ", "coord": {"lon": 77.916672, "lat": 45}}, {"id": 1518542, "name": "Taldyqorghan", "country": "KZ", "coord": {"lon": 78.373894, "lat": 45.01556}}, {"id": 665611, "name": "Talea", "country": "RO", "coord": {"lon": 25.549999, "lat": 45.216671}}, {"id": 1255134, "name": "Talegaon Dabhade", "country": "IN", "coord": {"lon": 73.683327, "lat": 18.716669}}, {"id": 6534515, "name": "Taleggio", "country": "IT", "coord": {"lon": 9.56485, "lat": 45.893379}}, {"id": 7858489, "name": "Talegong Dua", "country": "ID", "coord": {"lon": 107.511902, "lat": -7.2997}}, {"id": 1255131, "name": "Taleigao", "country": "IN", "coord": {"lon": 73.800003, "lat": 15.46667}}, {"id": 1255130, "name": "Talen", "country": "IN", "coord": {"lon": 76.716667, "lat": 23.566669}}, {"id": 6432482, "name": "Talence", "country": "FR", "coord": {"lon": -0.6, "lat": 44.816669}}, {"id": 2973495, "name": "Talence", "country": "FR", "coord": {"lon": -0.59543, "lat": 44.804771}}, {"id": 6432876, "name": "Talensac", "country": "FR", "coord": {"lon": -1.93333, "lat": 48.099998}}, {"id": 2973492, "name": "Talensac", "country": "FR", "coord": {"lon": -1.92829, "lat": 48.108471}}, {"id": 5755890, "name": "Talent", "country": "US", "coord": {"lon": -122.788651, "lat": 42.245682}}, {"id": 6357059, "name": "Tales", "country": "ES", "coord": {"lon": -0.29853, "lat": 39.944439}}, {"id": 2510686, "name": "Tales", "country": "ES", "coord": {"lon": -0.3, "lat": 39.933331}}, {"id": 281675, "name": "Talfit", "country": "PS", "coord": {"lon": 35.290939, "lat": 32.086639}}, {"id": 2147577, "name": "Talgai", "country": "AU", "coord": {"lon": 151.766663, "lat": -28.01667}}, {"id": 2147575, "name": "Talgarno", "country": "AU", "coord": {"lon": 147.166672, "lat": -36.083328}}, {"id": 1518518, "name": "Talghar", "country": "KZ", "coord": {"lon": 77.23278, "lat": 43.30444}}, {"id": 1255127, "name": "Talgram", "country": "IN", "coord": {"lon": 79.650002, "lat": 27.049999}}, {"id": 8010839, "name": "Talhadas", "country": "PT", "coord": {"lon": -8.33169, "lat": 40.665649}}, {"id": 1164045, "name": "Talhar", "country": "PK", "coord": {"lon": 68.816673, "lat": 24.883329}}, {"id": 2824320, "name": "Talheim", "country": "DE", "coord": {"lon": 8.63852, "lat": 47.816559}}, {"id": 6555533, "name": "Talheim", "country": "DE", "coord": {"lon": 9.19306, "lat": 49.083302}}, {"id": 2824316, "name": "Talheim", "country": "DE", "coord": {"lon": 9.19306, "lat": 49.083328}}, {"id": 6555852, "name": "Talheim", "country": "DE", "coord": {"lon": 8.66667, "lat": 48.016701}}, {"id": 2824319, "name": "Talheim", "country": "DE", "coord": {"lon": 8.66667, "lat": 48.01667}}, {"id": 320635, "name": "Taliban", "country": "TR", "coord": {"lon": 41.412209, "lat": 37.981251}}, {"id": 1683961, "name": "Talibon", "country": "PH", "coord": {"lon": 124.324997, "lat": 10.14917}}, {"id": 7463809, "name": "Talibura", "country": "ID", "coord": {"lon": 122.525497, "lat": -8.5246}}, {"id": 7955603, "name": "Talichaur", "country": "NP", "coord": {"lon": 82.193932, "lat": 29.273291}}, {"id": 2510685, "name": "Taliga", "country": "ES", "coord": {"lon": -7.01713, "lat": 38.52861}}, {"id": 1683949, "name": "Taligaman", "country": "PH", "coord": {"lon": 125.65583, "lat": 8.90444}}, {"id": 4552725, "name": "Talihina", "country": "US", "coord": {"lon": -95.048019, "lat": 34.751492}}, {"id": 1255122, "name": "Talikota", "country": "IN", "coord": {"lon": 76.316673, "lat": 16.48333}}, {"id": 616187, "name": "Talin", "country": "AM", "coord": {"lon": 43.873871, "lat": 40.384281}}, {"id": 2053290, "name": "Taling", "country": "CN", "coord": {"lon": 123.109459, "lat": 40.05175}}, {"id": 1605843, "name": "Taling Chan", "country": "TH", "coord": {"lon": 100.456703, "lat": 13.77698}}, {"id": 2531014, "name": "Taliouine", "country": "MA", "coord": {"lon": -7.91262, "lat": 30.529169}}, {"id": 1683911, "name": "Talipan", "country": "PH", "coord": {"lon": 121.683327, "lat": 13.93333}}, {"id": 1683900, "name": "Talipao", "country": "PH", "coord": {"lon": 121.116112, "lat": 5.97639}}, {"id": 1255121, "name": "Taliparamba", "country": "IN", "coord": {"lon": 75.349998, "lat": 12.05}}, {"id": 1957660, "name": "Talipaw", "country": "PH", "coord": {"lon": 121.094437, "lat": 5.91}}, {"id": 1683890, "name": "Talisay", "country": "PH", "coord": {"lon": 121, "lat": 14.06667}}, {"id": 1683860, "name": "Talisay", "country": "PH", "coord": {"lon": 121.021942, "lat": 14.0925}}, {"id": 1683877, "name": "Talisay", "country": "PH", "coord": {"lon": 122.966393, "lat": 10.73722}}, {"id": 1683892, "name": "Talisay", "country": "PH", "coord": {"lon": 123.816673, "lat": 10.3}}, {"id": 1683881, "name": "Talisay", "country": "PH", "coord": {"lon": 123.849442, "lat": 10.24472}}, {"id": 1683859, "name": "Talisay", "country": "PH", "coord": {"lon": 122.9226, "lat": 14.1343}}, {"id": 1683861, "name": "Talisay", "country": "PH", "coord": {"lon": 121.20639, "lat": 13.97083}}, {"id": 1683862, "name": "Talisay", "country": "PH", "coord": {"lon": 120.62326, "lat": 13.91484}}, {"id": 1683865, "name": "Talisay", "country": "PH", "coord": {"lon": 122.623611, "lat": 13.18056}}, {"id": 1683871, "name": "Talisay", "country": "PH", "coord": {"lon": 124.061897, "lat": 11.2434}}, {"id": 1683883, "name": "Talisay", "country": "PH", "coord": {"lon": 125.615562, "lat": 9.81889}}, {"id": 1683886, "name": "Talisay", "country": "PH", "coord": {"lon": 126.099983, "lat": 6.71973}}, {"id": 1683852, "name": "Talisayan", "country": "PH", "coord": {"lon": 124.699997, "lat": 10.95}}, {"id": 1683855, "name": "Talisayan", "country": "PH", "coord": {"lon": 124.880913, "lat": 9.0003}}, {"id": 1683856, "name": "Talisayan", "country": "PH", "coord": {"lon": 121.927223, "lat": 6.98722}}, {"id": 1683818, "name": "Talitay", "country": "PH", "coord": {"lon": 124.699997, "lat": 7.03333}}, {"id": 1490277, "name": "Talitsa", "country": "RU", "coord": {"lon": 60.021301, "lat": 56.880402}}, {"id": 1490281, "name": "Talitsa", "country": "RU", "coord": {"lon": 63.73254, "lat": 57.010948}}, {"id": 484770, "name": "Talitsy", "country": "RU", "coord": {"lon": 42.334438, "lat": 56.528889}}, {"id": 484771, "name": "Talitsy", "country": "RU", "coord": {"lon": 37.966667, "lat": 56.116669}}, {"id": 484769, "name": "Talitsy", "country": "RU", "coord": {"lon": 41, "lat": 57.066666}}, {"id": 1625420, "name": "Taliwang", "country": "ID", "coord": {"lon": 116.853203, "lat": -8.7449}}, {"id": 6427663, "name": "Talizat", "country": "FR", "coord": {"lon": 3.05, "lat": 45.116669}}, {"id": 2973488, "name": "Talizat", "country": "FR", "coord": {"lon": 3.04671, "lat": 45.11417}}, {"id": 6551510, "name": "Talkau", "country": "DE", "coord": {"lon": 10.5667, "lat": 53.5667}}, {"id": 2824303, "name": "Talkau", "country": "DE", "coord": {"lon": 10.56667, "lat": 53.566669}}, {"id": 347591, "name": "Talkha", "country": "EG", "coord": {"lon": 31.377871, "lat": 31.0539}}, {"id": 163750, "name": "Tall Abyad", "country": "SY", "coord": {"lon": 38.97681, "lat": 36.681568}}, {"id": 6786700, "name": "Tall Daghsh", "country": "IQ", "coord": {"lon": 42.240959, "lat": 36.138069}}, {"id": 163747, "name": "Tall Daman", "country": "SY", "coord": {"lon": 37.253502, "lat": 35.80761}}, {"id": 163596, "name": "Tall Daww", "country": "SY", "coord": {"lon": 36.488731, "lat": 34.921181}}, {"id": 163568, "name": "Tall Hamis", "country": "SY", "coord": {"lon": 41.397968, "lat": 36.75621}}, {"id": 163533, "name": "Tall Kalakh", "country": "SY", "coord": {"lon": 36.259949, "lat": 34.668419}}, {"id": 448955, "name": "Tall Raml", "country": "IQ", "coord": {"lon": 44.272221, "lat": 33.258331}}, {"id": 163476, "name": "Tall Rifat", "country": "SY", "coord": {"lon": 37.096722, "lat": 36.473621}}, {"id": 163470, "name": "Tall Salhab", "country": "SY", "coord": {"lon": 36.384609, "lat": 35.258839}}, {"id": 163434, "name": "Tall Tamr", "country": "SY", "coord": {"lon": 40.370789, "lat": 36.65556}}, {"id": 7031355, "name": "Tall al Khal\u012bfah", "country": "JO", "coord": {"lon": 35.001839, "lat": 29.557159}}, {"id": 448961, "name": "Tall \u2018Al\u0101w\u012b", "country": "IQ", "coord": {"lon": 44.552891, "lat": 31.59358}}, {"id": 3165963, "name": "Talla", "country": "IT", "coord": {"lon": 11.78714, "lat": 43.601849}}, {"id": 4568367, "name": "Tallaboa", "country": "PR", "coord": {"lon": -66.716293, "lat": 17.99497}}, {"id": 4568368, "name": "Tallaboa Alta", "country": "PR", "coord": {"lon": -66.700172, "lat": 18.051069}}, {"id": 4092788, "name": "Talladega", "country": "US", "coord": {"lon": -86.105797, "lat": 33.43594}}, {"id": 4092795, "name": "Talladega County", "country": "US", "coord": {"lon": -86.183311, "lat": 33.366779}}, {"id": 2961284, "name": "Tallaght", "country": "IE", "coord": {"lon": -6.37344, "lat": 53.2859}}, {"id": 4174715, "name": "Tallahassee", "country": "US", "coord": {"lon": -84.280731, "lat": 30.438259}}, {"id": 2147569, "name": "Tallandoon", "country": "AU", "coord": {"lon": 147.199997, "lat": -36.450001}}, {"id": 2147567, "name": "Tallangatta", "country": "AU", "coord": {"lon": 147.25, "lat": -36.200001}}, {"id": 2961283, "name": "Tallanstown", "country": "IE", "coord": {"lon": -6.54639, "lat": 53.922779}}, {"id": 4225658, "name": "Tallapoosa", "country": "US", "coord": {"lon": -85.28801, "lat": 33.744549}}, {"id": 6425650, "name": "Tallard", "country": "FR", "coord": {"lon": 6.05, "lat": 44.466671}}, {"id": 2973485, "name": "Tallard", "country": "FR", "coord": {"lon": 6.05504, "lat": 44.461281}}, {"id": 2147564, "name": "Tallarook", "country": "AU", "coord": {"lon": 145.100006, "lat": -37.099998}}, {"id": 4092853, "name": "Tallassee", "country": "US", "coord": {"lon": -85.893288, "lat": 32.535969}}, {"id": 2147562, "name": "Tallawang", "country": "AU", "coord": {"lon": 149.449997, "lat": -32.200001}}, {"id": 163779, "name": "Tallbisah", "country": "SY", "coord": {"lon": 36.73093, "lat": 34.84063}}, {"id": 2824301, "name": "Talle", "country": "DE", "coord": {"lon": 8.90845, "lat": 52.095539}}, {"id": 2147558, "name": "Tallebudgera", "country": "AU", "coord": {"lon": 153.433334, "lat": -28.15}}, {"id": 6454495, "name": "Tallende", "country": "FR", "coord": {"lon": 3.13333, "lat": 45.666672}}, {"id": 2973483, "name": "Tallende", "country": "FR", "coord": {"lon": 3.12799, "lat": 45.671261}}, {"id": 2147554, "name": "Tallimba", "country": "AU", "coord": {"lon": 146.883331, "lat": -34}}, {"id": 6554376, "name": "Talling", "country": "DE", "coord": {"lon": 6.95, "lat": 49.766701}}, {"id": 2824297, "name": "Talling", "country": "DE", "coord": {"lon": 6.95, "lat": 49.76667}}, {"id": 588409, "name": "Tallinn", "country": "EE", "coord": {"lon": 24.753531, "lat": 59.436958}}, {"id": 862995, "name": "Tallinna linn", "country": "EE", "coord": {"lon": 24.73823, "lat": 59.471691}}, {"id": 5173623, "name": "Tallmadge", "country": "US", "coord": {"lon": -81.44178, "lat": 41.101452}}, {"id": 6443059, "name": "Talloires", "country": "FR", "coord": {"lon": 6.21667, "lat": 45.849998}}, {"id": 2973480, "name": "Talloires", "country": "FR", "coord": {"lon": 6.21416, "lat": 45.840359}}, {"id": 2147551, "name": "Tallong", "country": "AU", "coord": {"lon": 150.083328, "lat": -34.716671}}, {"id": 2961282, "name": "Tallow", "country": "IE", "coord": {"lon": -8.00806, "lat": 52.092781}}, {"id": 4343103, "name": "Tallulah", "country": "US", "coord": {"lon": -91.186783, "lat": 32.408482}}, {"id": 281662, "name": "Talluzah", "country": "PS", "coord": {"lon": 35.29496, "lat": 32.270561}}, {"id": 715001, "name": "Tallya", "country": "HU", "coord": {"lon": 21.23333, "lat": 48.23333}}, {"id": 2147545, "name": "Tallygaroopna", "country": "AU", "coord": {"lon": 145.433334, "lat": -36.25}}, {"id": 5400996, "name": "Talmage", "country": "US", "coord": {"lon": -123.167778, "lat": 39.133228}}, {"id": 2147542, "name": "Talmalmo", "country": "AU", "coord": {"lon": 147.5, "lat": -35.950001}}, {"id": 6444759, "name": "Talmas", "country": "FR", "coord": {"lon": 2.33333, "lat": 50.033329}}, {"id": 2973476, "name": "Talmas", "country": "FR", "coord": {"lon": 2.32554, "lat": 50.030491}}, {"id": 3165959, "name": "Talmassons", "country": "IT", "coord": {"lon": 13.12028, "lat": 45.929722}}, {"id": 293436, "name": "Talme Menashe", "country": "IL", "coord": {"lon": 34.849998, "lat": 31.950001}}, {"id": 1490266, "name": "Talmenka", "country": "RU", "coord": {"lon": 83.567703, "lat": 53.818298}}, {"id": 2530978, "name": "Talmest", "country": "MA", "coord": {"lon": -9.33, "lat": 31.809999}}, {"id": 8199392, "name": "Talmon", "country": "IL", "coord": {"lon": 35.135391, "lat": 31.93927}}, {"id": 6617859, "name": "Talmont-Saint-Hilaire", "country": "FR", "coord": {"lon": -1.6174, "lat": 46.466999}}, {"id": 1490256, "name": "Talnakh", "country": "RU", "coord": {"lon": 88.397202, "lat": 69.486504}}, {"id": 1683800, "name": "Taloc", "country": "PH", "coord": {"lon": 122.896667, "lat": 10.57222}}, {"id": 1255104, "name": "Taloda", "country": "IN", "coord": {"lon": 74.216667, "lat": 21.566669}}, {"id": 366487, "name": "Talodi", "country": "SD", "coord": {"lon": 30.3797, "lat": 10.63246}}, {"id": 7869842, "name": "Talofofo Mayors Office", "country": "GU", "coord": {"lon": 144.75589, "lat": 13.3548}}, {"id": 4038652, "name": "Talofofo Municipality", "country": "GU", "coord": {"lon": 144.758804, "lat": 13.35522}}, {"id": 4038647, "name": "Talofofo Village", "country": "GU", "coord": {"lon": 144.758347, "lat": 13.35513}}, {"id": 4552740, "name": "Taloga", "country": "US", "coord": {"lon": -98.963707, "lat": 36.038651}}, {"id": 1625411, "name": "Talok", "country": "ID", "coord": {"lon": 112.701111, "lat": -8.18669}}, {"id": 6866208, "name": "Talok", "country": "ID", "coord": {"lon": 111.746902, "lat": -7.1255}}, {"id": 7375390, "name": "Talok", "country": "ID", "coord": {"lon": 111.304802, "lat": -7.0293}}, {"id": 8075245, "name": "Talok", "country": "ID", "coord": {"lon": 111.710701, "lat": -6.9775}}, {"id": 1683784, "name": "Talokgangan", "country": "PH", "coord": {"lon": 122.845001, "lat": 11.00778}}, {"id": 1645275, "name": "Taloko", "country": "ID", "coord": {"lon": 118.316498, "lat": -8.4012}}, {"id": 1683779, "name": "Talomo", "country": "PH", "coord": {"lon": 125.722778, "lat": 7.52861}}, {"id": 1683771, "name": "Talon", "country": "PH", "coord": {"lon": 122.681107, "lat": 11.56}}, {"id": 1123004, "name": "Taloqan", "country": "AF", "coord": {"lon": 69.534508, "lat": 36.73605}}, {"id": 1683747, "name": "Talospatang", "country": "PH", "coord": {"lon": 120.4496, "lat": 15.9179}}, {"id": 484747, "name": "Talovaya", "country": "RU", "coord": {"lon": 40.73, "lat": 51.114441}}, {"id": 484725, "name": "Talovskiy", "country": "RU", "coord": {"lon": 41.281113, "lat": 48.212502}}, {"id": 484720, "name": "Talovyy", "country": "RU", "coord": {"lon": 40.109428, "lat": 47.807652}}, {"id": 1683737, "name": "Taloy", "country": "PH", "coord": {"lon": 120.5, "lat": 16.33333}}, {"id": 1683738, "name": "Taloy", "country": "PH", "coord": {"lon": 120.466667, "lat": 15.95}}, {"id": 6161366, "name": "Taloyoak", "country": "CA", "coord": {"lon": -93.521118, "lat": 69.537216}}, {"id": 3982589, "name": "Talpa de Allende", "country": "MX", "coord": {"lon": -104.816673, "lat": 20.383329}}, {"id": 665588, "name": "Talpa-Trivalea", "country": "RO", "coord": {"lon": 25.283331, "lat": 44.283329}}, {"id": 3573638, "name": "Talparo", "country": "TT", "coord": {"lon": -61.26667, "lat": 10.5}}, {"id": 7298011, "name": "Talsarnau", "country": "GB", "coord": {"lon": -4.06944, "lat": 52.906712}}, {"id": 2636290, "name": "Talsarnau", "country": "GB", "coord": {"lon": -4.06492, "lat": 52.903439}}, {"id": 1515229, "name": "Talshand", "country": "MN", "coord": {"lon": 97.98333, "lat": 45.333328}}, {"id": 1518511, "name": "Talshyq", "country": "KZ", "coord": {"lon": 71.87722, "lat": 53.637218}}, {"id": 454970, "name": "Talsi", "country": "LV", "coord": {"lon": 22.581369, "lat": 57.245621}}, {"id": 454968, "name": "Talsu Rajons", "country": "LV", "coord": {"lon": 22.58333, "lat": 57.333328}}, {"id": 3870243, "name": "Taltal", "country": "CL", "coord": {"lon": -70.48333, "lat": -25.4}}, {"id": 1683733, "name": "Taltal", "country": "PH", "coord": {"lon": 119.945503, "lat": 15.5878}}, {"id": 2824291, "name": "Taltitz", "country": "DE", "coord": {"lon": 12.11595, "lat": 50.437721}}, {"id": 4735524, "name": "Talty", "country": "US", "coord": {"lon": -96.385536, "lat": 32.683189}}, {"id": 1683801, "name": "Talubatib", "country": "PH", "coord": {"lon": 122.785301, "lat": 14.1825}}, {"id": 1683718, "name": "Talugtug", "country": "PH", "coord": {"lon": 120.811096, "lat": 15.7778}}, {"id": 1683713, "name": "Taluksangay", "country": "PH", "coord": {"lon": 122.183891, "lat": 6.95417}}, {"id": 1625386, "name": "Talun", "country": "ID", "coord": {"lon": 112.285004, "lat": -8.0906}}, {"id": 7035389, "name": "Talun", "country": "ID", "coord": {"lon": 112.285004, "lat": -8.0906}}, {"id": 7921527, "name": "Talun", "country": "ID", "coord": {"lon": 107.9347, "lat": -7.0548}}, {"id": 8022588, "name": "Talun", "country": "ID", "coord": {"lon": 108.126999, "lat": -7.385}}, {"id": 8076520, "name": "Talun", "country": "ID", "coord": {"lon": 111.9179, "lat": -6.9535}}, {"id": 7920884, "name": "Taluncemara", "country": "ID", "coord": {"lon": 107.907799, "lat": -7.2196}}, {"id": 5401000, "name": "Talus", "country": "US", "coord": {"lon": -117.972862, "lat": 36.086891}}, {"id": 1683701, "name": "Talusan", "country": "PH", "coord": {"lon": 122.81028, "lat": 7.42667}}, {"id": 1683690, "name": "Taluya", "country": "PH", "coord": {"lon": 125.172783, "lat": 5.81167}}, {"id": 6441795, "name": "Taluyers", "country": "FR", "coord": {"lon": 4.7222, "lat": 45.6399}}, {"id": 2973457, "name": "Taluyers", "country": "FR", "coord": {"lon": 4.72194, "lat": 45.639912}}, {"id": 1255082, "name": "Talwandi Bhai", "country": "IN", "coord": {"lon": 74.933327, "lat": 30.85}}, {"id": 1255076, "name": "Talwara", "country": "IN", "coord": {"lon": 75.866669, "lat": 31.94861}}, {"id": 2147532, "name": "Talwood", "country": "AU", "coord": {"lon": 149.5, "lat": -28.5}}, {"id": 2530906, "name": "Talzemt", "country": "MA", "coord": {"lon": -4.19, "lat": 33.59}}, {"id": 1567148, "name": "Tam Ky", "country": "VN", "coord": {"lon": 108.48333, "lat": 15.56667}}, {"id": 4878229, "name": "Tama", "country": "US", "coord": {"lon": -92.576859, "lat": 41.96666}}, {"id": 7563722, "name": "Tamaau", "country": "ID", "coord": {"lon": 119.555702, "lat": -9.5904}}, {"id": 665578, "name": "Tamadau Mare", "country": "RO", "coord": {"lon": 26.549999, "lat": 44.466671}}, {"id": 2510675, "name": "Tamaduste", "country": "ES", "coord": {"lon": -17.894699, "lat": 27.822269}}, {"id": 1850762, "name": "Tamagawa", "country": "JP", "coord": {"lon": 139.666672, "lat": 38.033329}}, {"id": 2464770, "name": "Tamaghzah", "country": "TN", "coord": {"lon": 7.94313, "lat": 34.388489}}, {"id": 3588554, "name": "Tamahu", "country": "GT", "coord": {"lon": -90.166672, "lat": 15.33333}}, {"id": 3108366, "name": "Tamajon", "country": "ES", "coord": {"lon": -3.24743, "lat": 40.999142}}, {"id": 6358029, "name": "Tamaj\u00f3n", "country": "ES", "coord": {"lon": -3.2251, "lat": 41.03516}}, {"id": 6232217, "name": "Tamaki", "country": "NZ", "coord": {"lon": 174.860184, "lat": -36.888199}}, {"id": 484674, "name": "Tamala", "country": "RU", "coord": {"lon": 43.25145, "lat": 52.54097}}, {"id": 3667528, "name": "Tamalameque", "country": "CO", "coord": {"lon": -73.812286, "lat": 8.85221}}, {"id": 2294877, "name": "Tamale", "country": "GH", "coord": {"lon": -0.8393, "lat": 9.40078}}, {"id": 3516410, "name": "Tamalin", "country": "MX", "coord": {"lon": -97.800003, "lat": 21.35}}, {"id": 2478226, "name": "Tamalous", "country": "DZ", "coord": {"lon": 6.64018, "lat": 36.837631}}, {"id": 7262659, "name": "Tamalpais-Homestead Valley", "country": "US", "coord": {"lon": -122.536247, "lat": 37.878342}}, {"id": 6360553, "name": "Tamames", "country": "ES", "coord": {"lon": -6.07936, "lat": 40.663559}}, {"id": 3108363, "name": "Tamames", "country": "ES", "coord": {"lon": -6.10536, "lat": 40.657249}}, {"id": 1850746, "name": "Tamamura", "country": "JP", "coord": {"lon": 139.116669, "lat": 36.299999}}, {"id": 484670, "name": "Taman", "country": "RU", "coord": {"lon": 36.716091, "lat": 45.2117}}, {"id": 7037437, "name": "Taman", "country": "ID", "coord": {"lon": 113.2173, "lat": -8.0196}}, {"id": 8080524, "name": "Taman", "country": "ID", "coord": {"lon": 112.314903, "lat": -6.9776}}, {"id": 7855804, "name": "Taman Khalidi Baru", "country": "MY", "coord": {"lon": 102.562302, "lat": 2.0327}}, {"id": 7796608, "name": "Taman Labu Jaya", "country": "MY", "coord": {"lon": 101.933296, "lat": 2.719}}, {"id": 1732741, "name": "Taman Senai", "country": "MY", "coord": {"lon": 103.641899, "lat": 1.6006}}, {"id": 1850745, "name": "Tamana", "country": "JP", "coord": {"lon": 130.566666, "lat": 32.916672}}, {"id": 7456525, "name": "Tamanaimahu", "country": "ID", "coord": {"lon": 119.6008, "lat": -9.6379}}, {"id": 7579501, "name": "Tamanan", "country": "ID", "coord": {"lon": 111.893204, "lat": -8.0234}}, {"id": 7579608, "name": "Tamanan", "country": "ID", "coord": {"lon": 111.902603, "lat": -8.0722}}, {"id": 2530843, "name": "Tamanar", "country": "MA", "coord": {"lon": -9.67802, "lat": 31.00087}}, {"id": 7085015, "name": "Tamanbumigora", "country": "ID", "coord": {"lon": 116.306999, "lat": -8.7751}}, {"id": 3386931, "name": "Tamandare", "country": "BR", "coord": {"lon": -35.104721, "lat": -8.75972}}, {"id": 3427840, "name": "Tamanguey\u00fa", "country": "AR", "coord": {"lon": -58.740608, "lat": -38.204819}}, {"id": 3583041, "name": "Tamanique", "country": "SV", "coord": {"lon": -89.42028, "lat": 13.59833}}, {"id": 7847311, "name": "Tamanjaya Satu", "country": "ID", "coord": {"lon": 106.528297, "lat": -7.2262}}, {"id": 1850742, "name": "Tamano", "country": "JP", "coord": {"lon": 133.949997, "lat": 34.48333}}, {"id": 2478216, "name": "Tamanrasset", "country": "DZ", "coord": {"lon": 5.52278, "lat": 22.785}}, {"id": 7084546, "name": "Tamansari", "country": "ID", "coord": {"lon": 114.944504, "lat": -8.1963}}, {"id": 7406190, "name": "Tamansari", "country": "ID", "coord": {"lon": 113.723198, "lat": -8.281}}, {"id": 8022710, "name": "Tamansari", "country": "ID", "coord": {"lon": 108.1931, "lat": -7.423}}, {"id": 5215142, "name": "Tamaqua", "country": "US", "coord": {"lon": -75.969368, "lat": 40.79731}}, {"id": 3667516, "name": "Tamara", "country": "CO", "coord": {"lon": -72.16333, "lat": 5.82972}}, {"id": 3601039, "name": "Tamara", "country": "HN", "coord": {"lon": -87.333328, "lat": 14.15}}, {"id": 4174738, "name": "Tamarac", "country": "US", "coord": {"lon": -80.249771, "lat": 26.21286}}, {"id": 2510667, "name": "Tamaraceite", "country": "ES", "coord": {"lon": -15.47218, "lat": 28.09894}}, {"id": 1850736, "name": "Tamarai", "country": "JP", "coord": {"lon": 131.383331, "lat": 32.950001}}, {"id": 2147526, "name": "Tamaree", "country": "AU", "coord": {"lon": 152.666672, "lat": -26.133329}}, {"id": 933982, "name": "Tamarin", "country": "MU", "coord": {"lon": 57.37056, "lat": -20.32556}}, {"id": 3108360, "name": "Tamarit de Llitera / Tamarite de Litera", "country": "ES", "coord": {"lon": 0.42214, "lat": 41.869099}},