[{"id": 3069934, "name": "Nejdek", "country": "CZ", "coord": {"lon": 12.72936, "lat": 50.322418}}, {"id": 3069938, "name": "Nehvizdy", "country": "CZ", "coord": {"lon": 14.72993, "lat": 50.130562}}, {"id": 3069952, "name": "Nedvedice", "country": "CZ", "coord": {"lon": 16.334061, "lat": 49.45702}}, {"id": 3069960, "name": "Nedasov", "country": "CZ", "coord": {"lon": 18.07036, "lat": 49.10778}}, {"id": 3069966, "name": "Nedakonice", "country": "CZ", "coord": {"lon": 17.381411, "lat": 49.03159}}, {"id": 3069980, "name": "Nechanice", "country": "CZ", "coord": {"lon": 15.63276, "lat": 50.23737}}, {"id": 3070010, "name": "Navsi u Jablunkova", "country": "CZ", "coord": {"lon": 18.759069, "lat": 49.5872}}, {"id": 3070030, "name": "Nasavrky", "country": "CZ", "coord": {"lon": 15.80461, "lat": 49.844501}}, {"id": 3070045, "name": "Napajedla", "country": "CZ", "coord": {"lon": 17.51194, "lat": 49.171558}}, {"id": 3070054, "name": "Namest na Hane", "country": "CZ", "coord": {"lon": 17.06539, "lat": 49.602131}}, {"id": 3070055, "name": "Namest nad Oslavou", "country": "CZ", "coord": {"lon": 16.158489, "lat": 49.20726}}, {"id": 3070071, "name": "Naklo", "country": "CZ", "coord": {"lon": 17.12969, "lat": 49.654621}}, {"id": 3070129, "name": "Naceradec", "country": "CZ", "coord": {"lon": 14.90633, "lat": 49.61018}}, {"id": 3070136, "name": "Myto", "country": "CZ", "coord": {"lon": 13.73461, "lat": 49.78904}}, {"id": 3070190, "name": "Mutenice", "country": "CZ", "coord": {"lon": 17.029169, "lat": 48.904129}}, {"id": 3070204, "name": "Mukarov", "country": "CZ", "coord": {"lon": 14.74155, "lat": 49.99115}}, {"id": 3070223, "name": "Mseno", "country": "CZ", "coord": {"lon": 14.6325, "lat": 50.438091}}, {"id": 3070251, "name": "Mrakov", "country": "CZ", "coord": {"lon": 12.9512, "lat": 49.403141}}, {"id": 3070264, "name": "Moutnice", "country": "CZ", "coord": {"lon": 16.73741, "lat": 49.04924}}, {"id": 3070271, "name": "Mosty u Jablunkova", "country": "CZ", "coord": {"lon": 18.754169, "lat": 49.52737}}, {"id": 3070276, "name": "Mostkovice", "country": "CZ", "coord": {"lon": 17.05212, "lat": 49.472149}}, {"id": 3070282, "name": "Mostek", "country": "CZ", "coord": {"lon": 15.69622, "lat": 50.486229}}, {"id": 3070299, "name": "Morkov", "country": "CZ", "coord": {"lon": 18.059681, "lat": 49.536839}}, {"id": 3070306, "name": "Moravsky Zizkov", "country": "CZ", "coord": {"lon": 16.9314, "lat": 48.832851}}, {"id": 3070308, "name": "Moravsky Pisek", "country": "CZ", "coord": {"lon": 17.332689, "lat": 48.990162}}, {"id": 3070310, "name": "Moravsky Krumlov", "country": "CZ", "coord": {"lon": 16.311689, "lat": 49.048931}}, {"id": 3070314, "name": "Moravsky Beroun", "country": "CZ", "coord": {"lon": 17.44212, "lat": 49.793739}}, {"id": 3070323, "name": "Moravske Budejovice", "country": "CZ", "coord": {"lon": 15.80864, "lat": 49.05209}}, {"id": 3070329, "name": "Moravska Nova Ves", "country": "CZ", "coord": {"lon": 17.01371, "lat": 48.80304}}, {"id": 3070339, "name": "Moravka", "country": "CZ", "coord": {"lon": 18.52471, "lat": 49.596069}}, {"id": 3070344, "name": "Moravicany", "country": "CZ", "coord": {"lon": 16.960421, "lat": 49.756939}}, {"id": 3070354, "name": "Moravany", "country": "CZ", "coord": {"lon": 15.94071, "lat": 50.00095}}, {"id": 3070356, "name": "Moravany", "country": "CZ", "coord": {"lon": 16.580259, "lat": 49.1478}}, {"id": 3070383, "name": "Mokre Lazce", "country": "CZ", "coord": {"lon": 18.029539, "lat": 49.904621}}, {"id": 3070404, "name": "Mohelno", "country": "CZ", "coord": {"lon": 16.19022, "lat": 49.11412}}, {"id": 3070409, "name": "Mohelnice", "country": "CZ", "coord": {"lon": 16.91946, "lat": 49.776981}}, {"id": 3070416, "name": "Modrice", "country": "CZ", "coord": {"lon": 16.60446, "lat": 49.119282}}, {"id": 3070447, "name": "Mnisek", "country": "CZ", "coord": {"lon": 15.0563, "lat": 50.831631}}, {"id": 3070452, "name": "Mnichovice", "country": "CZ", "coord": {"lon": 14.70907, "lat": 49.936008}}, {"id": 3070537, "name": "Mlade Buky", "country": "CZ", "coord": {"lon": 15.83348, "lat": 50.60643}}, {"id": 3070542, "name": "Mlada Vozice", "country": "CZ", "coord": {"lon": 14.80857, "lat": 49.533131}}, {"id": 3070557, "name": "Mistrice", "country": "CZ", "coord": {"lon": 17.535971, "lat": 49.086681}}, {"id": 3070575, "name": "Mirovice", "country": "CZ", "coord": {"lon": 14.03582, "lat": 49.515549}}, {"id": 3070580, "name": "Mirotice", "country": "CZ", "coord": {"lon": 14.03697, "lat": 49.429081}}, {"id": 3070584, "name": "Mirosov", "country": "CZ", "coord": {"lon": 13.65807, "lat": 49.68782}}, {"id": 3070593, "name": "Miroslav", "country": "CZ", "coord": {"lon": 16.312519, "lat": 48.94767}}, {"id": 3070603, "name": "Miretice", "country": "CZ", "coord": {"lon": 15.88472, "lat": 49.841259}}, {"id": 3070622, "name": "Mimon", "country": "CZ", "coord": {"lon": 14.72474, "lat": 50.658691}}, {"id": 3070640, "name": "Milotice", "country": "CZ", "coord": {"lon": 17.14241, "lat": 48.95528}}, {"id": 3070661, "name": "Milin", "country": "CZ", "coord": {"lon": 14.046, "lat": 49.63192}}, {"id": 3070666, "name": "Milikov", "country": "CZ", "coord": {"lon": 18.719431, "lat": 49.585651}}, {"id": 3070715, "name": "Mikulovice", "country": "CZ", "coord": {"lon": 17.32155, "lat": 50.298538}}, {"id": 3070724, "name": "Mikulcice", "country": "CZ", "coord": {"lon": 17.051069, "lat": 48.816429}}, {"id": 3070725, "name": "Mikulasovice", "country": "CZ", "coord": {"lon": 14.36368, "lat": 50.965069}}, {"id": 3070774, "name": "Mezimesti", "country": "CZ", "coord": {"lon": 16.242069, "lat": 50.624611}}, {"id": 3070792, "name": "Mezibori", "country": "CZ", "coord": {"lon": 13.5987, "lat": 50.621151}}, {"id": 3070800, "name": "Metylovice", "country": "CZ", "coord": {"lon": 18.339109, "lat": 49.606659}}, {"id": 3070814, "name": "Mesto Touskov", "country": "CZ", "coord": {"lon": 13.25108, "lat": 49.775871}}, {"id": 3070816, "name": "Mesto Libava", "country": "CZ", "coord": {"lon": 17.52013, "lat": 49.721619}}, {"id": 3070819, "name": "Mesto Albrechtice", "country": "CZ", "coord": {"lon": 17.57481, "lat": 50.162941}}, {"id": 3070822, "name": "Mestec Kralove", "country": "CZ", "coord": {"lon": 15.29758, "lat": 50.20718}}, {"id": 3070823, "name": "Mestecko Trnavka", "country": "CZ", "coord": {"lon": 16.72744, "lat": 49.709259}}, {"id": 3070834, "name": "Mesice", "country": "CZ", "coord": {"lon": 14.51992, "lat": 50.19799}}, {"id": 3070844, "name": "Merklin", "country": "CZ", "coord": {"lon": 12.8635, "lat": 50.328079}}, {"id": 3070845, "name": "Merklin", "country": "CZ", "coord": {"lon": 13.1979, "lat": 49.560429}}, {"id": 3070847, "name": "Merin", "country": "CZ", "coord": {"lon": 15.88381, "lat": 49.393211}}, {"id": 3070853, "name": "Menin", "country": "CZ", "coord": {"lon": 16.694241, "lat": 49.082401}}, {"id": 3070886, "name": "Medlov", "country": "CZ", "coord": {"lon": 17.062611, "lat": 49.78754}}, {"id": 3070899, "name": "Meclov", "country": "CZ", "coord": {"lon": 12.88082, "lat": 49.505562}}, {"id": 3070902, "name": "Mecin", "country": "CZ", "coord": {"lon": 13.40289, "lat": 49.480091}}, {"id": 3070906, "name": "Mecholupy", "country": "CZ", "coord": {"lon": 13.53737, "lat": 50.266659}}, {"id": 3070995, "name": "Markvartovice", "country": "CZ", "coord": {"lon": 18.236019, "lat": 49.905949}}, {"id": 3071046, "name": "Manetin", "country": "CZ", "coord": {"lon": 13.23319, "lat": 49.991772}}, {"id": 3071099, "name": "Malsice", "country": "CZ", "coord": {"lon": 14.57868, "lat": 49.363911}}, {"id": 3071110, "name": "Malonty", "country": "CZ", "coord": {"lon": 14.57678, "lat": 48.686111}}, {"id": 3071213, "name": "Mala Strana", "country": "CZ", "coord": {"lon": 14.40449, "lat": 50.087742}}, {"id": 3071223, "name": "Mala Skala", "country": "CZ", "coord": {"lon": 15.19543, "lat": 50.646309}}, {"id": 3071289, "name": "Machov", "country": "CZ", "coord": {"lon": 16.276899, "lat": 50.499271}}, {"id": 3071302, "name": "Lysice", "country": "CZ", "coord": {"lon": 16.537161, "lat": 49.451599}}, {"id": 3071330, "name": "Luzice", "country": "CZ", "coord": {"lon": 17.071039, "lat": 48.840981}}, {"id": 3071333, "name": "Luzec nad Vltavou", "country": "CZ", "coord": {"lon": 14.40022, "lat": 50.321381}}, {"id": 3071339, "name": "Luze", "country": "CZ", "coord": {"lon": 16.0285, "lat": 49.89341}}, {"id": 3071350, "name": "Lutin", "country": "CZ", "coord": {"lon": 17.135719, "lat": 49.558449}}, {"id": 3071374, "name": "Lukov", "country": "CZ", "coord": {"lon": 17.729589, "lat": 49.290272}}, {"id": 3071381, "name": "Lukavice", "country": "CZ", "coord": {"lon": 16.482071, "lat": 50.060291}}, {"id": 3071388, "name": "Lukavec", "country": "CZ", "coord": {"lon": 14.99041, "lat": 49.565411}}, {"id": 3071390, "name": "Luka nad Jihlavou", "country": "CZ", "coord": {"lon": 15.70194, "lat": 49.374031}}, {"id": 3071407, "name": "Luhacovice", "country": "CZ", "coord": {"lon": 17.757469, "lat": 49.099819}}, {"id": 3071429, "name": "Ludgerovice", "country": "CZ", "coord": {"lon": 18.24008, "lat": 49.890419}}, {"id": 3071447, "name": "Lucany nad Nisou", "country": "CZ", "coord": {"lon": 15.22046, "lat": 50.74136}}, {"id": 3071448, "name": "Luby", "country": "CZ", "coord": {"lon": 12.40595, "lat": 50.25248}}, {"id": 3071467, "name": "Lubenec", "country": "CZ", "coord": {"lon": 13.31319, "lat": 50.132069}}, {"id": 3071480, "name": "Lovosice", "country": "CZ", "coord": {"lon": 14.05103, "lat": 50.515041}}, {"id": 3071529, "name": "Louka", "country": "CZ", "coord": {"lon": 17.489269, "lat": 48.915169}}, {"id": 3071532, "name": "Loucovice", "country": "CZ", "coord": {"lon": 14.25747, "lat": 48.62019}}, {"id": 3071533, "name": "Loucovice", "country": "CZ", "coord": {"lon": 14.24976, "lat": 48.620899}}, {"id": 3071536, "name": "Loucna nad Desnou", "country": "CZ", "coord": {"lon": 17.090521, "lat": 50.074329}}, {"id": 3071571, "name": "Loucen", "country": "CZ", "coord": {"lon": 15.02049, "lat": 50.28537}}, {"id": 3071579, "name": "Lostice", "country": "CZ", "coord": {"lon": 16.928921, "lat": 49.744701}}, {"id": 3071602, "name": "Lom u Mostu", "country": "CZ", "coord": {"lon": 13.65729, "lat": 50.593281}}, {"id": 3071606, "name": "Lomnice nad Popelkou", "country": "CZ", "coord": {"lon": 15.37341, "lat": 50.530621}}, {"id": 3071607, "name": "Lomnice nad Luznici", "country": "CZ", "coord": {"lon": 14.71727, "lat": 49.084679}}, {"id": 3071609, "name": "Lomnice", "country": "CZ", "coord": {"lon": 12.63267, "lat": 50.211739}}, {"id": 3071611, "name": "Lomnice", "country": "CZ", "coord": {"lon": 16.413589, "lat": 49.404621}}, {"id": 3071627, "name": "Loket", "country": "CZ", "coord": {"lon": 12.75405, "lat": 50.186001}}, {"id": 3071643, "name": "Lodenice", "country": "CZ", "coord": {"lon": 14.15785, "lat": 49.994862}}, {"id": 3071645, "name": "Lochovice", "country": "CZ", "coord": {"lon": 13.98126, "lat": 49.85318}}, {"id": 3071664, "name": "Litvinovice", "country": "CZ", "coord": {"lon": 14.45146, "lat": 48.96207}}, {"id": 3071669, "name": "Litovel", "country": "CZ", "coord": {"lon": 17.076151, "lat": 49.70121}}, {"id": 3071675, "name": "Litomysl", "country": "CZ", "coord": {"lon": 16.312981, "lat": 49.868092}}, {"id": 3071709, "name": "Lisov", "country": "CZ", "coord": {"lon": 14.60838, "lat": 49.015968}}, {"id": 3071759, "name": "Lipuvka", "country": "CZ", "coord": {"lon": 16.553129, "lat": 49.339329}}, {"id": 3071762, "name": "Liptal", "country": "CZ", "coord": {"lon": 17.92177, "lat": 49.290508}}, {"id": 3071771, "name": "Lipovec", "country": "CZ", "coord": {"lon": 16.80583, "lat": 49.383942}}, {"id": 3071782, "name": "Lipov", "country": "CZ", "coord": {"lon": 17.46171, "lat": 48.904949}}, {"id": 3071791, "name": "Lipnik nad Becvou", "country": "CZ", "coord": {"lon": 17.585939, "lat": 49.52721}}, {"id": 3071839, "name": "Lipa", "country": "CZ", "coord": {"lon": 15.54465, "lat": 49.55418}}, {"id": 3071863, "name": "Lidecko", "country": "CZ", "coord": {"lon": 18.0513, "lat": 49.20303}}, {"id": 3071874, "name": "Lichnov", "country": "CZ", "coord": {"lon": 17.6264, "lat": 50.007858}}, {"id": 3071881, "name": "Libusin", "country": "CZ", "coord": {"lon": 14.05458, "lat": 50.16819}}, {"id": 3071895, "name": "Libouchec", "country": "CZ", "coord": {"lon": 14.04071, "lat": 50.758541}}, {"id": 3071911, "name": "Libochovice", "country": "CZ", "coord": {"lon": 14.04439, "lat": 50.406261}}, {"id": 3071937, "name": "Libis", "country": "CZ", "coord": {"lon": 14.5024, "lat": 50.27417}}, {"id": 3071951, "name": "Libeznice", "country": "CZ", "coord": {"lon": 14.49357, "lat": 50.191978}}, {"id": 3071955, "name": "Libesice", "country": "CZ", "coord": {"lon": 14.28906, "lat": 50.568859}}, {"id": 3071980, "name": "Libcice nad Vltavou", "country": "CZ", "coord": {"lon": 14.36385, "lat": 50.197781}}, {"id": 3071990, "name": "Liban", "country": "CZ", "coord": {"lon": 15.21684, "lat": 50.37542}}, {"id": 3072111, "name": "Lhenice", "country": "CZ", "coord": {"lon": 14.1498, "lat": 48.994789}}, {"id": 3072130, "name": "Letovice", "country": "CZ", "coord": {"lon": 16.57357, "lat": 49.547089}}, {"id": 3072133, "name": "Letonice", "country": "CZ", "coord": {"lon": 16.959129, "lat": 49.177261}}, {"id": 3072134, "name": "Letohrad", "country": "CZ", "coord": {"lon": 16.498791, "lat": 50.035801}}, {"id": 3072155, "name": "Lestina", "country": "CZ", "coord": {"lon": 16.927481, "lat": 49.86879}}, {"id": 3072184, "name": "Lesna", "country": "CZ", "coord": {"lon": 17.93004, "lat": 49.52055}}, {"id": 3072221, "name": "Lenesice", "country": "CZ", "coord": {"lon": 13.7659, "lat": 50.37516}}, {"id": 3072224, "name": "Lelekovice", "country": "CZ", "coord": {"lon": 16.578739, "lat": 49.291439}}, {"id": 3072232, "name": "Lednice", "country": "CZ", "coord": {"lon": 16.803391, "lat": 48.799919}}, {"id": 3072234, "name": "Ledenice", "country": "CZ", "coord": {"lon": 14.61886, "lat": 48.933289}}, {"id": 3072235, "name": "Ledec nad Sazavou", "country": "CZ", "coord": {"lon": 15.27772, "lat": 49.695171}}, {"id": 3072265, "name": "Lazne Kynzvart", "country": "CZ", "coord": {"lon": 12.62474, "lat": 50.010578}}, {"id": 3072268, "name": "Lazne Belohrad", "country": "CZ", "coord": {"lon": 15.58269, "lat": 50.428741}}, {"id": 3072319, "name": "Lanzhot", "country": "CZ", "coord": {"lon": 16.966949, "lat": 48.72443}}, {"id": 3072325, "name": "Lany", "country": "CZ", "coord": {"lon": 13.95041, "lat": 50.12471}}, {"id": 3072332, "name": "Lanskroun", "country": "CZ", "coord": {"lon": 16.6119, "lat": 49.91217}}, {"id": 3072394, "name": "Kynsperk nad Ohri", "country": "CZ", "coord": {"lon": 12.53027, "lat": 50.118931}}, {"id": 3072407, "name": "Kyjov", "country": "CZ", "coord": {"lon": 17.12253, "lat": 49.010181}}, {"id": 3072449, "name": "Kvasiny", "country": "CZ", "coord": {"lon": 16.263229, "lat": 50.212502}}, {"id": 3072451, "name": "Kvasice", "country": "CZ", "coord": {"lon": 17.46974, "lat": 49.242229}}, {"id": 3072476, "name": "Kurim", "country": "CZ", "coord": {"lon": 16.531441, "lat": 49.298519}}, {"id": 3072483, "name": "Kunzak", "country": "CZ", "coord": {"lon": 15.19028, "lat": 49.121189}}, {"id": 3072484, "name": "Kunvald", "country": "CZ", "coord": {"lon": 16.49996, "lat": 50.129269}}, {"id": 3072486, "name": "Kunstat", "country": "CZ", "coord": {"lon": 16.51722, "lat": 49.506451}}, {"id": 3072527, "name": "Kuncina", "country": "CZ", "coord": {"lon": 16.62763, "lat": 49.794552}}, {"id": 3072531, "name": "Kuncice pod Ondrejnikem", "country": "CZ", "coord": {"lon": 18.261129, "lat": 49.550701}}, {"id": 3072581, "name": "Kryry", "country": "CZ", "coord": {"lon": 13.4266, "lat": 50.17437}}, {"id": 3072605, "name": "Krumvir", "country": "CZ", "coord": {"lon": 16.910271, "lat": 48.98901}}, {"id": 3072638, "name": "Krouna", "country": "CZ", "coord": {"lon": 16.026739, "lat": 49.7724}}, {"id": 3072661, "name": "Krmelin", "country": "CZ", "coord": {"lon": 18.235411, "lat": 49.729141}}, {"id": 3072675, "name": "Krizova", "country": "CZ", "coord": {"lon": 15.85207, "lat": 49.688412}}, {"id": 3072693, "name": "Krizanov", "country": "CZ", "coord": {"lon": 16.1096, "lat": 49.38858}}, {"id": 3072717, "name": "Krinec", "country": "CZ", "coord": {"lon": 15.13782, "lat": 50.264488}}, {"id": 3072748, "name": "Kresice", "country": "CZ", "coord": {"lon": 14.2145, "lat": 50.522591}}, {"id": 3072760, "name": "Krepice", "country": "CZ", "coord": {"lon": 16.719891, "lat": 48.999859}}, {"id": 3072771, "name": "Krenovice", "country": "CZ", "coord": {"lon": 16.829321, "lat": 49.142159}}, {"id": 3072781, "name": "Kremze", "country": "CZ", "coord": {"lon": 14.30568, "lat": 48.904968}}, {"id": 3072889, "name": "Krasna Lipa", "country": "CZ", "coord": {"lon": 14.50999, "lat": 50.913029}}, {"id": 3072890, "name": "Krasna Lipa", "country": "CZ", "coord": {"lon": 13.3575, "lat": 50.48378}}, {"id": 3072894, "name": "Krasna Hora nad Vltavou", "country": "CZ", "coord": {"lon": 14.27742, "lat": 49.60461}}, {"id": 3072927, "name": "Kraluv Dvur", "country": "CZ", "coord": {"lon": 14.03445, "lat": 49.94981}}, {"id": 3072954, "name": "Kralice na Hane", "country": "CZ", "coord": {"lon": 17.180479, "lat": 49.462959}}, {"id": 3073000, "name": "Kozmice", "country": "CZ", "coord": {"lon": 18.15584, "lat": 49.9128}}, {"id": 3073008, "name": "Kozlovice", "country": "CZ", "coord": {"lon": 18.256559, "lat": 49.590401}}, {"id": 3073025, "name": "Kozlany", "country": "CZ", "coord": {"lon": 13.54107, "lat": 49.993889}}, {"id": 3073052, "name": "Kovarska", "country": "CZ", "coord": {"lon": 13.05388, "lat": 50.43821}}, {"id": 3073059, "name": "Kovarov", "country": "CZ", "coord": {"lon": 14.27809, "lat": 49.517601}}, {"id": 3073082, "name": "Kout na Sumave", "country": "CZ", "coord": {"lon": 13.00208, "lat": 49.40255}}, {"id": 3073130, "name": "Kostice", "country": "CZ", "coord": {"lon": 16.978689, "lat": 48.746849}}, {"id": 3073149, "name": "Kostelec nad Orlici", "country": "CZ", "coord": {"lon": 16.21319, "lat": 50.122669}}, {"id": 3073151, "name": "Kostelec nad Labem", "country": "CZ", "coord": {"lon": 14.58552, "lat": 50.226528}}, {"id": 3073152, "name": "Kostelec nad Cernymi Lesy", "country": "CZ", "coord": {"lon": 14.85922, "lat": 49.99403}}, {"id": 3073170, "name": "Kostany", "country": "CZ", "coord": {"lon": 13.75554, "lat": 50.655071}}, {"id": 3073172, "name": "Kostalov", "country": "CZ", "coord": {"lon": 15.40403, "lat": 50.571651}}, {"id": 3073178, "name": "Kosova Hora", "country": "CZ", "coord": {"lon": 14.47173, "lat": 49.65414}}, {"id": 3073190, "name": "Kosmonosy", "country": "CZ", "coord": {"lon": 14.93, "lat": 50.438499}}, {"id": 3073222, "name": "Korycany", "country": "CZ", "coord": {"lon": 17.16433, "lat": 49.106392}}, {"id": 3073241, "name": "Korenov", "country": "CZ", "coord": {"lon": 15.36532, "lat": 50.759258}}, {"id": 3073261, "name": "Kopidlno", "country": "CZ", "coord": {"lon": 15.27029, "lat": 50.330849}}, {"id": 3073299, "name": "Konice", "country": "CZ", "coord": {"lon": 16.889111, "lat": 49.590302}}, {"id": 3073322, "name": "Komorni Lhotka", "country": "CZ", "coord": {"lon": 18.527769, "lat": 49.658112}}, {"id": 3073345, "name": "Komarov", "country": "CZ", "coord": {"lon": 13.85636, "lat": 49.806499}}, {"id": 3073369, "name": "Kolinec", "country": "CZ", "coord": {"lon": 13.439, "lat": 49.29895}}, {"id": 3073389, "name": "Kokory", "country": "CZ", "coord": {"lon": 17.375441, "lat": 49.49482}}, {"id": 3073407, "name": "Kojetin", "country": "CZ", "coord": {"lon": 17.302071, "lat": 49.351791}}, {"id": 3073483, "name": "Kobyli", "country": "CZ", "coord": {"lon": 16.89159, "lat": 48.932861}}, {"id": 3073493, "name": "Koberice", "country": "CZ", "coord": {"lon": 18.05212, "lat": 49.985481}}, {"id": 3073523, "name": "Knezpole", "country": "CZ", "coord": {"lon": 17.51671, "lat": 49.098549}}, {"id": 3073526, "name": "Knezmost", "country": "CZ", "coord": {"lon": 15.03829, "lat": 50.48917}}, {"id": 3073535, "name": "Knezice", "country": "CZ", "coord": {"lon": 15.67216, "lat": 49.270779}}, {"id": 3073541, "name": "Knezdub", "country": "CZ", "coord": {"lon": 17.39546, "lat": 48.886662}}, {"id": 3073582, "name": "Klobuky", "country": "CZ", "coord": {"lon": 13.98748, "lat": 50.29401}}, {"id": 3073583, "name": "Klobouky", "country": "CZ", "coord": {"lon": 16.86298, "lat": 48.99609}}, {"id": 3073599, "name": "Klimkovice", "country": "CZ", "coord": {"lon": 18.125851, "lat": 49.78809}}, {"id": 3076586, "name": "Okres Doma\u017elice", "country": "CZ", "coord": {"lon": 12.91667, "lat": 49.5}}, {"id": 3073644, "name": "Klenci pod Cerchovem", "country": "CZ", "coord": {"lon": 12.81473, "lat": 49.434841}}, {"id": 3073652, "name": "Klecany", "country": "CZ", "coord": {"lon": 14.41148, "lat": 50.175991}}, {"id": 3073672, "name": "Klaster", "country": "CZ", "coord": {"lon": 12.87623, "lat": 49.967621}}, {"id": 3073692, "name": "Kladruby", "country": "CZ", "coord": {"lon": 12.97991, "lat": 49.715302}}, {"id": 3073731, "name": "Kelc", "country": "CZ", "coord": {"lon": 17.815331, "lat": 49.478439}}, {"id": 3073739, "name": "Kdyne", "country": "CZ", "coord": {"lon": 13.03968, "lat": 49.39077}}, {"id": 3073752, "name": "Kaznejov", "country": "CZ", "coord": {"lon": 13.38295, "lat": 49.893131}}, {"id": 3073754, "name": "Katovice", "country": "CZ", "coord": {"lon": 13.83035, "lat": 49.273479}}, {"id": 3073780, "name": "Kasejovice", "country": "CZ", "coord": {"lon": 13.7406, "lat": 49.4627}}, {"id": 3073792, "name": "Karolinka", "country": "CZ", "coord": {"lon": 18.240061, "lat": 49.35128}}, {"id": 3073811, "name": "Karlovice", "country": "CZ", "coord": {"lon": 17.445629, "lat": 50.10564}}, {"id": 3073838, "name": "Karlin", "country": "CZ", "coord": {"lon": 14.44711, "lat": 50.09272}}, {"id": 3073850, "name": "Kardasova Recice", "country": "CZ", "coord": {"lon": 14.85315, "lat": 49.18478}}, {"id": 3073862, "name": "Kaplice", "country": "CZ", "coord": {"lon": 14.49628, "lat": 48.738491}}, {"id": 3073892, "name": "Kamenny Ujezd", "country": "CZ", "coord": {"lon": 14.44638, "lat": 48.89753}}, {"id": 3073893, "name": "Kamenny Privoz", "country": "CZ", "coord": {"lon": 14.50339, "lat": 49.862991}}, {"id": 3073899, "name": "Kamenne Zehrovice", "country": "CZ", "coord": {"lon": 14.01809, "lat": 50.126968}}, {"id": 3073928, "name": "Kamenicky Senov", "country": "CZ", "coord": {"lon": 14.47287, "lat": 50.77359}}, {"id": 3073936, "name": "Kamenice nad Lipou", "country": "CZ", "coord": {"lon": 15.07519, "lat": 49.303028}}, {"id": 3073944, "name": "Kamenice", "country": "CZ", "coord": {"lon": 14.58242, "lat": 49.901508}}, {"id": 3073948, "name": "Kamenice", "country": "CZ", "coord": {"lon": 15.78023, "lat": 49.366589}}, {"id": 3074004, "name": "Kajov", "country": "CZ", "coord": {"lon": 14.25859, "lat": 48.810822}}, {"id": 3074031, "name": "Kacice", "country": "CZ", "coord": {"lon": 13.98815, "lat": 50.162609}}, {"id": 3074049, "name": "Josefuv Dul", "country": "CZ", "coord": {"lon": 15.23146, "lat": 50.78191}}, {"id": 3074099, "name": "Jistebnik", "country": "CZ", "coord": {"lon": 18.13063, "lat": 49.754002}}, {"id": 3074102, "name": "Jistebnice", "country": "CZ", "coord": {"lon": 14.5276, "lat": 49.485531}}, {"id": 3074119, "name": "Jirikov", "country": "CZ", "coord": {"lon": 14.5691, "lat": 50.99514}}, {"id": 3074161, "name": "Jindrichov", "country": "CZ", "coord": {"lon": 17.51903, "lat": 50.251839}}, {"id": 3074166, "name": "Jince", "country": "CZ", "coord": {"lon": 13.97867, "lat": 49.78624}}, {"id": 3074170, "name": "Jimramov", "country": "CZ", "coord": {"lon": 16.22632, "lat": 49.637192}}, {"id": 3074178, "name": "Jilove u Prahy", "country": "CZ", "coord": {"lon": 14.49333, "lat": 49.895451}}, {"id": 3074181, "name": "Jilove", "country": "CZ", "coord": {"lon": 14.10383, "lat": 50.760818}}, {"id": 3074239, "name": "Jevisovice", "country": "CZ", "coord": {"lon": 15.98992, "lat": 48.987358}}, {"id": 3074241, "name": "Jevicko", "country": "CZ", "coord": {"lon": 16.71125, "lat": 49.632198}}, {"id": 3074280, "name": "Jesenik nad Odrou", "country": "CZ", "coord": {"lon": 17.90526, "lat": 49.611938}}, {"id": 3074284, "name": "Jesenice", "country": "CZ", "coord": {"lon": 13.46948, "lat": 50.097031}}, {"id": 3074286, "name": "Jesenice", "country": "CZ", "coord": {"lon": 14.5135, "lat": 49.96814}}, {"id": 3074322, "name": "Jenec", "country": "CZ", "coord": {"lon": 14.21482, "lat": 50.087299}}, {"id": 3074331, "name": "Jemnice", "country": "CZ", "coord": {"lon": 15.56994, "lat": 49.018978}}, {"id": 3074360, "name": "Jedovnice", "country": "CZ", "coord": {"lon": 16.755951, "lat": 49.344528}}, {"id": 3074373, "name": "Jedlova", "country": "CZ", "coord": {"lon": 16.30608, "lat": 49.660999}}, {"id": 3074398, "name": "Javornik", "country": "CZ", "coord": {"lon": 17.00272, "lat": 50.39077}}, {"id": 3074444, "name": "Jarosov nad Nezarkou", "country": "CZ", "coord": {"lon": 15.06734, "lat": 49.189892}}, {"id": 3074452, "name": "Jaroslavice", "country": "CZ", "coord": {"lon": 16.233509, "lat": 48.756569}}, {"id": 3074459, "name": "Jaromerice nad Rokytnou", "country": "CZ", "coord": {"lon": 15.89331, "lat": 49.094082}}, {"id": 3074461, "name": "Jaromerice", "country": "CZ", "coord": {"lon": 16.75185, "lat": 49.625561}}, {"id": 3074482, "name": "Janov nad Nisou", "country": "CZ", "coord": {"lon": 15.16913, "lat": 50.772041}}, {"id": 3074491, "name": "Janovice nad Uhlavou", "country": "CZ", "coord": {"lon": 13.21813, "lat": 49.34515}}, {"id": 3074500, "name": "Janovice", "country": "CZ", "coord": {"lon": 18.406019, "lat": 49.62141}}, {"id": 3074558, "name": "Jalubi", "country": "CZ", "coord": {"lon": 17.427879, "lat": 49.116261}}, {"id": 3074577, "name": "Jakartovice", "country": "CZ", "coord": {"lon": 17.684, "lat": 49.9151}}, {"id": 3074593, "name": "Jablunkov", "country": "CZ", "coord": {"lon": 18.76458, "lat": 49.576721}}, {"id": 3074594, "name": "Jablunka", "country": "CZ", "coord": {"lon": 17.950211, "lat": 49.383549}}, {"id": 3074597, "name": "Jablonne v Podjestedi", "country": "CZ", "coord": {"lon": 14.76052, "lat": 50.765282}}, {"id": 3074598, "name": "Jablonne nad Orlici", "country": "CZ", "coord": {"lon": 16.60059, "lat": 50.02964}}, {"id": 3074604, "name": "Jablonec nad Jizerou", "country": "CZ", "coord": {"lon": 15.42959, "lat": 50.703468}}, {"id": 3074614, "name": "Ivanovice na Hane", "country": "CZ", "coord": {"lon": 17.09343, "lat": 49.30542}}, {"id": 3074621, "name": "Hyskov", "country": "CZ", "coord": {"lon": 14.05055, "lat": 49.990719}}, {"id": 3074636, "name": "Hvozdna", "country": "CZ", "coord": {"lon": 17.751631, "lat": 49.248482}}, {"id": 3074676, "name": "Hustopece Nad Becvou", "country": "CZ", "coord": {"lon": 17.86994, "lat": 49.530529}}, {"id": 3074677, "name": "Hustopece", "country": "CZ", "coord": {"lon": 16.737619, "lat": 48.940849}}, {"id": 3074686, "name": "Husinec", "country": "CZ", "coord": {"lon": 13.98697, "lat": 49.054958}}, {"id": 3074731, "name": "Hulin", "country": "CZ", "coord": {"lon": 17.463739, "lat": 49.316891}}, {"id": 3074733, "name": "Hukvaldy", "country": "CZ", "coord": {"lon": 18.221889, "lat": 49.62381}}, {"id": 3074737, "name": "Hudlice", "country": "CZ", "coord": {"lon": 13.97063, "lat": 49.96096}}, {"id": 3074763, "name": "Hrusovany u Brna", "country": "CZ", "coord": {"lon": 16.59429, "lat": 49.038631}}, {"id": 3074764, "name": "Hrusovany nad Jevisovkou", "country": "CZ", "coord": {"lon": 16.40271, "lat": 48.82991}}, {"id": 3074773, "name": "Hrusky", "country": "CZ", "coord": {"lon": 16.974039, "lat": 48.792721}}, {"id": 3074795, "name": "Hroznova Lhota", "country": "CZ", "coord": {"lon": 17.416969, "lat": 48.907841}}, {"id": 3074797, "name": "Hroznetin", "country": "CZ", "coord": {"lon": 12.8718, "lat": 50.309399}}, {"id": 3074805, "name": "Hronov", "country": "CZ", "coord": {"lon": 16.182301, "lat": 50.479679}}, {"id": 3074807, "name": "Hromnice", "country": "CZ", "coord": {"lon": 13.44146, "lat": 49.849072}}, {"id": 3074808, "name": "Hrochuv Tynec", "country": "CZ", "coord": {"lon": 15.91054, "lat": 49.959461}}, {"id": 3074817, "name": "Hrob", "country": "CZ", "coord": {"lon": 13.72676, "lat": 50.659191}}, {"id": 3074853, "name": "Hrebec", "country": "CZ", "coord": {"lon": 14.16446, "lat": 50.135948}}, {"id": 3074864, "name": "Hrdejovice", "country": "CZ", "coord": {"lon": 14.47857, "lat": 49.018929}}, {"id": 3074889, "name": "Hranice", "country": "CZ", "coord": {"lon": 12.17577, "lat": 50.304588}}, {"id": 3074909, "name": "Hradistko", "country": "CZ", "coord": {"lon": 14.40935, "lat": 49.868279}}, {"id": 3074944, "name": "Hradek nad Nisou", "country": "CZ", "coord": {"lon": 14.84455, "lat": 50.852791}}, {"id": 3074954, "name": "Hradek", "country": "CZ", "coord": {"lon": 13.65296, "lat": 49.713161}}, {"id": 3074955, "name": "Hradek", "country": "CZ", "coord": {"lon": 18.7372, "lat": 49.616611}}, {"id": 3074956, "name": "Hradek", "country": "CZ", "coord": {"lon": 13.4985, "lat": 49.261269}}, {"id": 3074961, "name": "Hradec nad Svitavou", "country": "CZ", "coord": {"lon": 16.480579, "lat": 49.71143}}, {"id": 3074975, "name": "Hradec", "country": "CZ", "coord": {"lon": 17.87842, "lat": 49.870419}}, {"id": 3075005, "name": "Hrabyne", "country": "CZ", "coord": {"lon": 18.054831, "lat": 49.882488}}, {"id": 3075023, "name": "Hovorany", "country": "CZ", "coord": {"lon": 16.99346, "lat": 48.954929}}, {"id": 3075025, "name": "Hovezi", "country": "CZ", "coord": {"lon": 18.060619, "lat": 49.30365}}, {"id": 3075042, "name": "Hostoun", "country": "CZ", "coord": {"lon": 12.77147, "lat": 49.559711}}, {"id": 3075043, "name": "Hostomice", "country": "CZ", "coord": {"lon": 13.80803, "lat": 50.5877}}, {"id": 3075044, "name": "Hostomice", "country": "CZ", "coord": {"lon": 14.0456, "lat": 49.82526}}, {"id": 3075049, "name": "Hostka", "country": "CZ", "coord": {"lon": 14.335, "lat": 50.48859}}, {"id": 3075058, "name": "Hostinne", "country": "CZ", "coord": {"lon": 15.72334, "lat": 50.540661}}, {"id": 3075079, "name": "Hosteradice", "country": "CZ", "coord": {"lon": 16.25931, "lat": 48.950062}}, {"id": 3075086, "name": "Hostavice", "country": "CZ", "coord": {"lon": 14.55822, "lat": 50.092831}}, {"id": 3075091, "name": "Hostalkova", "country": "CZ", "coord": {"lon": 17.86944, "lat": 49.354671}}, {"id": 3075112, "name": "Horsovsky Tyn", "country": "CZ", "coord": {"lon": 12.94405, "lat": 49.529652}}, {"id": 3075119, "name": "Horovice", "country": "CZ", "coord": {"lon": 13.90268, "lat": 49.835972}}, {"id": 3075179, "name": "Horni Terlicko", "country": "CZ", "coord": {"lon": 18.482901, "lat": 49.75177}}, {"id": 3075187, "name": "Horni Sucha", "country": "CZ", "coord": {"lon": 18.48189, "lat": 49.797798}}, {"id": 3075191, "name": "Horni Stropnice", "country": "CZ", "coord": {"lon": 14.73502, "lat": 48.761238}}, {"id": 3075193, "name": "Horni Stepanov", "country": "CZ", "coord": {"lon": 16.790779, "lat": 49.549011}}, {"id": 3075206, "name": "Horni Sloupnice", "country": "CZ", "coord": {"lon": 16.339479, "lat": 49.921379}}, {"id": 3075208, "name": "Horni Slavkov", "country": "CZ", "coord": {"lon": 12.80758, "lat": 50.13863}}, {"id": 3075257, "name": "Horni Pocernice", "country": "CZ", "coord": {"lon": 14.61036, "lat": 50.112099}}, {"id": 3075259, "name": "Horni Pocaply", "country": "CZ", "coord": {"lon": 14.38993, "lat": 50.4244}}, {"id": 3075262, "name": "Horni Plana", "country": "CZ", "coord": {"lon": 14.03257, "lat": 48.767361}}, {"id": 3075289, "name": "Horni Mostenice", "country": "CZ", "coord": {"lon": 17.45879, "lat": 49.412128}}, {"id": 3075296, "name": "Horni Mesto", "country": "CZ", "coord": {"lon": 17.211121, "lat": 49.908451}}, {"id": 3075316, "name": "Horni Lidec", "country": "CZ", "coord": {"lon": 18.060989, "lat": 49.18121}}, {"id": 3075319, "name": "Horni Libina", "country": "CZ", "coord": {"lon": 17.07262, "lat": 49.88987}}, {"id": 3075356, "name": "Horni Jiretin", "country": "CZ", "coord": {"lon": 13.54717, "lat": 50.57309}}, {"id": 3075361, "name": "Horni Jeleni", "country": "CZ", "coord": {"lon": 16.08396, "lat": 50.049011}}, {"id": 3075422, "name": "Horni Cermna", "country": "CZ", "coord": {"lon": 16.607719, "lat": 49.970531}}, {"id": 3075423, "name": "Horni Cerekev", "country": "CZ", "coord": {"lon": 15.32769, "lat": 49.320259}}, {"id": 3075433, "name": "Horni Briza", "country": "CZ", "coord": {"lon": 13.35558, "lat": 49.840118}}, {"id": 3075436, "name": "Horni Branna", "country": "CZ", "coord": {"lon": 15.57146, "lat": 50.608261}}, {"id": 3075447, "name": "Horni Bludovice", "country": "CZ", "coord": {"lon": 18.436769, "lat": 49.749649}}, {"id": 3075454, "name": "Horni Becva", "country": "CZ", "coord": {"lon": 18.288589, "lat": 49.432159}}, {"id": 3075471, "name": "Horka nad Moravou", "country": "CZ", "coord": {"lon": 17.210699, "lat": 49.640091}}, {"id": 3075493, "name": "Horice", "country": "CZ", "coord": {"lon": 15.63183, "lat": 50.366089}}, {"id": 3075522, "name": "Horazdovice", "country": "CZ", "coord": {"lon": 13.701, "lat": 49.32069}}, {"id": 3075562, "name": "Holysov", "country": "CZ", "coord": {"lon": 13.10129, "lat": 49.593609}}, {"id": 3075587, "name": "Holoubkov", "country": "CZ", "coord": {"lon": 13.69246, "lat": 49.775982}}, {"id": 3075599, "name": "Holice", "country": "CZ", "coord": {"lon": 15.9859, "lat": 50.06601}}, {"id": 3075606, "name": "Holesov", "country": "CZ", "coord": {"lon": 17.57832, "lat": 49.333309}}, {"id": 3075620, "name": "Holasovice", "country": "CZ", "coord": {"lon": 17.80847, "lat": 49.998428}}, {"id": 3075643, "name": "Hodslavice", "country": "CZ", "coord": {"lon": 18.02367, "lat": 49.538559}}, {"id": 3075656, "name": "Hodonice", "country": "CZ", "coord": {"lon": 16.16337, "lat": 48.8368}}, {"id": 3075663, "name": "Hodkovicky", "country": "CZ", "coord": {"lon": 14.41741, "lat": 50.028091}}, {"id": 3075664, "name": "Hodkovice nad Mohelkou", "country": "CZ", "coord": {"lon": 15.08985, "lat": 50.665859}}, {"id": 3075690, "name": "Hnevotin", "country": "CZ", "coord": {"lon": 17.179541, "lat": 49.572048}}, {"id": 3075691, "name": "Hnevosice", "country": "CZ", "coord": {"lon": 18.008289, "lat": 50.002991}}, {"id": 3075715, "name": "Hluk", "country": "CZ", "coord": {"lon": 17.52668, "lat": 48.988121}}, {"id": 3075716, "name": "Hlucin", "country": "CZ", "coord": {"lon": 18.191959, "lat": 49.897949}}, {"id": 3075731, "name": "Hluboka nad Vltavou", "country": "CZ", "coord": {"lon": 14.43427, "lat": 49.05225}}, {"id": 3075744, "name": "Hlubocky", "country": "CZ", "coord": {"lon": 17.39436, "lat": 49.617828}}, {"id": 3075756, "name": "Hlohovec", "country": "CZ", "coord": {"lon": 16.7623, "lat": 48.773991}}, {"id": 3075766, "name": "Hlinsko", "country": "CZ", "coord": {"lon": 15.90756, "lat": 49.762131}}, {"id": 3075827, "name": "Hevlin", "country": "CZ", "coord": {"lon": 16.38131, "lat": 48.75209}}, {"id": 3075841, "name": "Hermanuv Mestec", "country": "CZ", "coord": {"lon": 15.66492, "lat": 49.947071}}, {"id": 3075843, "name": "Hermanova Hut", "country": "CZ", "coord": {"lon": 13.10069, "lat": 49.706791}}, {"id": 3075877, "name": "Heralec", "country": "CZ", "coord": {"lon": 15.99431, "lat": 49.688911}}, {"id": 3075878, "name": "Heralec", "country": "CZ", "coord": {"lon": 15.45708, "lat": 49.53083}}, {"id": 3075894, "name": "Hejnice", "country": "CZ", "coord": {"lon": 15.18168, "lat": 50.877201}}, {"id": 3075905, "name": "Hazlov", "country": "CZ", "coord": {"lon": 12.27238, "lat": 50.156342}}, {"id": 3075930, "name": "Hat", "country": "CZ", "coord": {"lon": 18.239309, "lat": 49.946442}}, {"id": 3075949, "name": "Hartmanice", "country": "CZ", "coord": {"lon": 13.45455, "lat": 49.169479}}, {"id": 3075953, "name": "Harrachov", "country": "CZ", "coord": {"lon": 15.43141, "lat": 50.772091}}, {"id": 3075958, "name": "Hanusovice", "country": "CZ", "coord": {"lon": 16.936411, "lat": 50.08049}}, {"id": 3075996, "name": "Halenkovice", "country": "CZ", "coord": {"lon": 17.47156, "lat": 49.171021}}, {"id": 3075997, "name": "Halenkov", "country": "CZ", "coord": {"lon": 18.14749, "lat": 49.317402}}, {"id": 3076001, "name": "Haj ve Slezsku", "country": "CZ", "coord": {"lon": 18.0954, "lat": 49.89856}}, {"id": 3076053, "name": "Habry", "country": "CZ", "coord": {"lon": 15.48486, "lat": 49.756031}}, {"id": 3076076, "name": "Habartov", "country": "CZ", "coord": {"lon": 12.55054, "lat": 50.182968}}, {"id": 3076084, "name": "Grygov", "country": "CZ", "coord": {"lon": 17.30887, "lat": 49.53841}}, {"id": 3076098, "name": "Golcuv Jenikov", "country": "CZ", "coord": {"lon": 15.47686, "lat": 49.816261}}, {"id": 3076116, "name": "Fulnek", "country": "CZ", "coord": {"lon": 17.903191, "lat": 49.712379}}, {"id": 3076118, "name": "Frystak", "country": "CZ", "coord": {"lon": 17.68346, "lat": 49.285198}}, {"id": 3076120, "name": "Frymburk", "country": "CZ", "coord": {"lon": 14.16564, "lat": 48.660938}}, {"id": 3076129, "name": "Frycovice", "country": "CZ", "coord": {"lon": 18.223209, "lat": 49.666771}}, {"id": 3076132, "name": "Frenstat pod Radhostem", "country": "CZ", "coord": {"lon": 18.210779, "lat": 49.548351}}, {"id": 3076136, "name": "Frantiskovy Lazne", "country": "CZ", "coord": {"lon": 12.35174, "lat": 50.120331}}, {"id": 3076153, "name": "Francova Lhota", "country": "CZ", "coord": {"lon": 18.11175, "lat": 49.20174}}, {"id": 3076284, "name": "Dvorce", "country": "CZ", "coord": {"lon": 17.547621, "lat": 49.833321}}, {"id": 3076311, "name": "Duchcov", "country": "CZ", "coord": {"lon": 13.74621, "lat": 50.60376}}, {"id": 3076329, "name": "Dubnany", "country": "CZ", "coord": {"lon": 17.09004, "lat": 48.916939}}, {"id": 3076330, "name": "Dub nad Moravou", "country": "CZ", "coord": {"lon": 17.277229, "lat": 49.482491}}, {"id": 3076342, "name": "Dubicko", "country": "CZ", "coord": {"lon": 16.96266, "lat": 49.82806}}, {"id": 3076363, "name": "Duba", "country": "CZ", "coord": {"lon": 14.54023, "lat": 50.54034}}, {"id": 3076402, "name": "Drnovice", "country": "CZ", "coord": {"lon": 16.542231, "lat": 49.469311}}, {"id": 3076403, "name": "Drnovice", "country": "CZ", "coord": {"lon": 16.95146, "lat": 49.276299}}, {"id": 3076408, "name": "Drnholec", "country": "CZ", "coord": {"lon": 16.485861, "lat": 48.85746}}, {"id": 3076413, "name": "Driten", "country": "CZ", "coord": {"lon": 14.34596, "lat": 49.142799}}, {"id": 3076428, "name": "Drevohostice", "country": "CZ", "coord": {"lon": 17.592039, "lat": 49.425941}}, {"id": 3076470, "name": "Drasov", "country": "CZ", "coord": {"lon": 16.47798, "lat": 49.331829}}, {"id": 3076508, "name": "Drahanovice", "country": "CZ", "coord": {"lon": 17.077009, "lat": 49.57856}}, {"id": 3076522, "name": "Doudleby nad Orlici", "country": "CZ", "coord": {"lon": 16.261311, "lat": 50.107422}}, {"id": 3076531, "name": "Doubravice nad Svitavou", "country": "CZ", "coord": {"lon": 16.62937, "lat": 49.436642}}, {"id": 3076555, "name": "Doubrava", "country": "CZ", "coord": {"lon": 18.480181, "lat": 49.85873}}, {"id": 3076587, "name": "Domazlice", "country": "CZ", "coord": {"lon": 12.92976, "lat": 49.440491}}, {"id": 3076604, "name": "Domanin", "country": "CZ", "coord": {"lon": 17.28476, "lat": 49.001671}}, {"id": 3076615, "name": "Doloplazy", "country": "CZ", "coord": {"lon": 17.413931, "lat": 49.56876}}, {"id": 3076621, "name": "Dolni Zivotice", "country": "CZ", "coord": {"lon": 17.77969, "lat": 49.89732}}, {"id": 3076650, "name": "Dolni Ujezd", "country": "CZ", "coord": {"lon": 16.25461, "lat": 49.825619}}, {"id": 3076651, "name": "Dolni Ujezd", "country": "CZ", "coord": {"lon": 17.535469, "lat": 49.545971}}, {"id": 3076671, "name": "Dolni Studenky", "country": "CZ", "coord": {"lon": 16.971069, "lat": 49.935059}}, {"id": 3076685, "name": "Dolni Sloupnice", "country": "CZ", "coord": {"lon": 16.29401, "lat": 49.927212}}, {"id": 3076694, "name": "Dolni Rychnov", "country": "CZ", "coord": {"lon": 12.64507, "lat": 50.164619}}, {"id": 3076701, "name": "Dolni Roven", "country": "CZ", "coord": {"lon": 15.96774, "lat": 50.02927}}, {"id": 3076726, "name": "Dolni Poustevna", "country": "CZ", "coord": {"lon": 14.28684, "lat": 50.98251}}, {"id": 3076734, "name": "Dolni Podluzi", "country": "CZ", "coord": {"lon": 14.59503, "lat": 50.879879}}, {"id": 3076735, "name": "Dolni Pocernice", "country": "CZ", "coord": {"lon": 14.57199, "lat": 50.087601}}, {"id": 3076761, "name": "Dolni Nemci", "country": "CZ", "coord": {"lon": 17.58585, "lat": 48.968369}}, {"id": 3076777, "name": "Dolni Lutyne", "country": "CZ", "coord": {"lon": 18.42815, "lat": 49.898762}}, {"id": 3076780, "name": "Dolni Loucky", "country": "CZ", "coord": {"lon": 16.358709, "lat": 49.360989}}, {"id": 3076794, "name": "Dolni Libina", "country": "CZ", "coord": {"lon": 17.10729, "lat": 49.858212}}, {"id": 3076800, "name": "Dolni Lhota", "country": "CZ", "coord": {"lon": 18.092409, "lat": 49.842361}}, {"id": 3076822, "name": "Dolni Kounice", "country": "CZ", "coord": {"lon": 16.46492, "lat": 49.07011}}, {"id": 3076873, "name": "Dolni Dvoriste", "country": "CZ", "coord": {"lon": 14.45221, "lat": 48.656422}}, {"id": 3076876, "name": "Dolni Dunajovice", "country": "CZ", "coord": {"lon": 16.592831, "lat": 48.854469}}, {"id": 3076882, "name": "Dolni Dobrouc", "country": "CZ", "coord": {"lon": 16.49766, "lat": 49.992729}}, {"id": 3076901, "name": "Dolni Cernilov", "country": "CZ", "coord": {"lon": 15.96107, "lat": 50.261101}}, {"id": 3076902, "name": "Dolni Cermna", "country": "CZ", "coord": {"lon": 16.564751, "lat": 49.979542}}, {"id": 3076903, "name": "Dolni Cerekev", "country": "CZ", "coord": {"lon": 15.45655, "lat": 49.34449}}, {"id": 3076907, "name": "Dolni Bukovsko", "country": "CZ", "coord": {"lon": 14.58127, "lat": 49.17086}}, {"id": 3076918, "name": "Dolni Bousov", "country": "CZ", "coord": {"lon": 15.12812, "lat": 50.438251}}, {"id": 3076923, "name": "Dolni Bojanovice", "country": "CZ", "coord": {"lon": 17.028589, "lat": 48.858608}}, {"id": 3076925, "name": "Dolni Bohdikov", "country": "CZ", "coord": {"lon": 16.904329, "lat": 50.00996}}, {"id": 3076930, "name": "Dolni Berkovice", "country": "CZ", "coord": {"lon": 14.45024, "lat": 50.393131}}, {"id": 3076931, "name": "Dolni Benesov", "country": "CZ", "coord": {"lon": 18.108351, "lat": 49.921009}}, {"id": 3076934, "name": "Dolni Becva", "country": "CZ", "coord": {"lon": 18.194189, "lat": 49.454979}}, {"id": 3076960, "name": "Dolany", "country": "CZ", "coord": {"lon": 17.322399, "lat": 49.649872}}, {"id": 3076972, "name": "Doksy", "country": "CZ", "coord": {"lon": 14.65553, "lat": 50.564709}}, {"id": 3076973, "name": "Doksy", "country": "CZ", "coord": {"lon": 14.04782, "lat": 50.118999}}, {"id": 3076984, "name": "Dobsice", "country": "CZ", "coord": {"lon": 16.08218, "lat": 48.848339}}, {"id": 3076985, "name": "Dobruska", "country": "CZ", "coord": {"lon": 16.160009, "lat": 50.292011}}, {"id": 3076991, "name": "Dobrovice", "country": "CZ", "coord": {"lon": 14.96233, "lat": 50.369331}}, {"id": 3077001, "name": "Dobronin", "country": "CZ", "coord": {"lon": 15.64992, "lat": 49.478329}}, {"id": 3077006, "name": "Dobromerice", "country": "CZ", "coord": {"lon": 13.79473, "lat": 50.37009}}, {"id": 3077023, "name": "Dobriv", "country": "CZ", "coord": {"lon": 13.68681, "lat": 49.71566}}, {"id": 3077024, "name": "Dobris", "country": "CZ", "coord": {"lon": 14.16717, "lat": 49.781132}}, {"id": 3077034, "name": "Dobrichovice", "country": "CZ", "coord": {"lon": 14.27469, "lat": 49.92749}}, {"id": 3077071, "name": "Dobratice", "country": "CZ", "coord": {"lon": 18.49226, "lat": 49.660389}}, {"id": 3077073, "name": "Dobrany", "country": "CZ", "coord": {"lon": 13.29307, "lat": 49.654819}}, {"id": 3077075, "name": "Dobra", "country": "CZ", "coord": {"lon": 18.413931, "lat": 49.673828}}, {"id": 3077119, "name": "Dlouha Trebova", "country": "CZ", "coord": {"lon": 16.42329, "lat": 49.940399}}, {"id": 3077148, "name": "Divisov", "country": "CZ", "coord": {"lon": 14.87579, "lat": 49.78849}}, {"id": 3077184, "name": "Detmarovice", "country": "CZ", "coord": {"lon": 18.460791, "lat": 49.894119}}, {"id": 3077198, "name": "Desna", "country": "CZ", "coord": {"lon": 15.30284, "lat": 50.759869}}, {"id": 3077258, "name": "Davle", "country": "CZ", "coord": {"lon": 14.40037, "lat": 49.892181}}, {"id": 3077264, "name": "Dasice", "country": "CZ", "coord": {"lon": 15.91244, "lat": 50.028439}}, {"id": 3077268, "name": "Darkovice", "country": "CZ", "coord": {"lon": 18.22213, "lat": 49.935921}}, {"id": 3077285, "name": "Damborice", "country": "CZ", "coord": {"lon": 16.91757, "lat": 49.03828}}, {"id": 3077291, "name": "Dalovice", "country": "CZ", "coord": {"lon": 12.89581, "lat": 50.247791}}, {"id": 3077304, "name": "Dacice", "country": "CZ", "coord": {"lon": 15.43727, "lat": 49.081539}}, {"id": 3077318, "name": "Cvikov", "country": "CZ", "coord": {"lon": 14.63298, "lat": 50.77668}}, {"id": 3077349, "name": "Ckyne", "country": "CZ", "coord": {"lon": 13.82906, "lat": 49.115028}}, {"id": 3077359, "name": "Cizkovice", "country": "CZ", "coord": {"lon": 14.02839, "lat": 50.48418}}, {"id": 3077366, "name": "Citov", "country": "CZ", "coord": {"lon": 14.39813, "lat": 50.37225}}, {"id": 3077391, "name": "Cirkvice", "country": "CZ", "coord": {"lon": 15.33505, "lat": 49.945599}}, {"id": 3077407, "name": "Cimelice", "country": "CZ", "coord": {"lon": 14.06922, "lat": 49.465569}}, {"id": 3077453, "name": "Chysky", "country": "CZ", "coord": {"lon": 14.42757, "lat": 49.52346}}, {"id": 3077457, "name": "Chynov", "country": "CZ", "coord": {"lon": 14.81122, "lat": 49.406769}}, {"id": 3077461, "name": "Chynava", "country": "CZ", "coord": {"lon": 14.07398, "lat": 50.027359}}, {"id": 3077478, "name": "Chvalsiny", "country": "CZ", "coord": {"lon": 14.21114, "lat": 48.854012}}, {"id": 3077501, "name": "Chvaletice", "country": "CZ", "coord": {"lon": 15.41846, "lat": 50.034431}}, {"id": 3077508, "name": "Chvalcov", "country": "CZ", "coord": {"lon": 17.711491, "lat": 49.389179}}, {"id": 3077533, "name": "Chuchelna", "country": "CZ", "coord": {"lon": 18.11656, "lat": 49.986641}}, {"id": 3077543, "name": "Chroustovice", "country": "CZ", "coord": {"lon": 15.99143, "lat": 49.955528}}, {"id": 3077549, "name": "Chropyne", "country": "CZ", "coord": {"lon": 17.36451, "lat": 49.356441}}, {"id": 3077558, "name": "Chribska", "country": "CZ", "coord": {"lon": 14.48444, "lat": 50.86079}}, {"id": 3077584, "name": "Chrastava", "country": "CZ", "coord": {"lon": 14.96884, "lat": 50.816929}}, {"id": 3077598, "name": "Chrast", "country": "CZ", "coord": {"lon": 13.49358, "lat": 49.793201}}, {"id": 3077625, "name": "Chotoviny", "country": "CZ", "coord": {"lon": 14.67695, "lat": 49.478031}}, {"id": 3077650, "name": "Chotesov", "country": "CZ", "coord": {"lon": 13.20271, "lat": 49.654079}}, {"id": 3077665, "name": "Chotebuz", "country": "CZ", "coord": {"lon": 18.56912, "lat": 49.76849}}, {"id": 3077669, "name": "Chotebor", "country": "CZ", "coord": {"lon": 15.67018, "lat": 49.720718}}, {"id": 3077705, "name": "Chodova Plana", "country": "CZ", "coord": {"lon": 12.73014, "lat": 49.893211}}, {"id": 3077706, "name": "Chodov", "country": "CZ", "coord": {"lon": 12.74551, "lat": 50.240181}}, {"id": 3077725, "name": "Chocen", "country": "CZ", "coord": {"lon": 16.22303, "lat": 50.00161}}, {"id": 3077741, "name": "Chlum u Trebone", "country": "CZ", "coord": {"lon": 14.92799, "lat": 48.962349}}, {"id": 3077751, "name": "Chlumec nad Cidlinou", "country": "CZ", "coord": {"lon": 15.46026, "lat": 50.1544}}, {"id": 3077754, "name": "Chlumec", "country": "CZ", "coord": {"lon": 13.93964, "lat": 50.699718}}, {"id": 3077760, "name": "Chlumcany", "country": "CZ", "coord": {"lon": 13.31323, "lat": 49.632561}}, {"id": 3077828, "name": "Chlebicov", "country": "CZ", "coord": {"lon": 17.96748, "lat": 49.959419}}, {"id": 3077862, "name": "Chabarovice", "country": "CZ", "coord": {"lon": 13.94184, "lat": 50.67318}}, {"id": 3077884, "name": "Cesky Rudolec", "country": "CZ", "coord": {"lon": 15.32437, "lat": 49.068352}}, {"id": 3077895, "name": "Cesky Dub", "country": "CZ", "coord": {"lon": 14.99617, "lat": 50.660542}}, {"id": 3077906, "name": "Ceske Mezirici", "country": "CZ", "coord": {"lon": 16.044279, "lat": 50.2868}}, {"id": 3077918, "name": "Ceska Ves", "country": "CZ", "coord": {"lon": 17.22805, "lat": 50.257359}}, {"id": 3077921, "name": "Ceska Skalice", "country": "CZ", "coord": {"lon": 16.042761, "lat": 50.394669}}, {"id": 3077955, "name": "Cerveny Kostelec", "country": "CZ", "coord": {"lon": 16.09289, "lat": 50.476261}}, {"id": 3077965, "name": "Cervenka", "country": "CZ", "coord": {"lon": 17.07773, "lat": 49.72068}}, {"id": 3077968, "name": "Cervene Pecky", "country": "CZ", "coord": {"lon": 15.20856, "lat": 49.978222}}, {"id": 3077972, "name": "Cervena Voda", "country": "CZ", "coord": {"lon": 16.74268, "lat": 50.040291}}, {"id": 3078012, "name": "Cernozice", "country": "CZ", "coord": {"lon": 15.87403, "lat": 50.31863}}, {"id": 3078021, "name": "Cernovice", "country": "CZ", "coord": {"lon": 14.96089, "lat": 49.37265}}, {"id": 3078028, "name": "Cernosin", "country": "CZ", "coord": {"lon": 12.88381, "lat": 49.816132}}, {"id": 3078029, "name": "Cernosice", "country": "CZ", "coord": {"lon": 14.31979, "lat": 49.960079}}, {"id": 3078038, "name": "Cernilov", "country": "CZ", "coord": {"lon": 15.92254, "lat": 50.26265}}, {"id": 3078065, "name": "Cerncice", "country": "CZ", "coord": {"lon": 13.84521, "lat": 50.361382}}, {"id": 3078085, "name": "Cerna Hora", "country": "CZ", "coord": {"lon": 16.5814, "lat": 49.413609}}, {"id": 3078114, "name": "Cerhenice", "country": "CZ", "coord": {"lon": 15.07203, "lat": 50.07127}}, {"id": 3078122, "name": "Cercany", "country": "CZ", "coord": {"lon": 14.70299, "lat": 49.852928}}, {"id": 3078155, "name": "Celechovice na Hane", "country": "CZ", "coord": {"lon": 17.09379, "lat": 49.516258}}, {"id": 3078160, "name": "Celakovice", "country": "CZ", "coord": {"lon": 14.75005, "lat": 50.160381}}, {"id": 3078161, "name": "Celadna", "country": "CZ", "coord": {"lon": 18.337589, "lat": 49.548729}}, {"id": 3078181, "name": "Cejkovice", "country": "CZ", "coord": {"lon": 16.942301, "lat": 48.905918}}, {"id": 3078187, "name": "Cejc", "country": "CZ", "coord": {"lon": 16.965111, "lat": 48.946529}}, {"id": 3078203, "name": "Cechtice", "country": "CZ", "coord": {"lon": 15.04824, "lat": 49.624031}}, {"id": 3078211, "name": "Cebin", "country": "CZ", "coord": {"lon": 16.477909, "lat": 49.31324}}, {"id": 3078223, "name": "Castolovice", "country": "CZ", "coord": {"lon": 16.18128, "lat": 50.129101}}, {"id": 3078275, "name": "Bzenec", "country": "CZ", "coord": {"lon": 17.26685, "lat": 48.973358}}, {"id": 3078286, "name": "Bystrice pod Hostynem", "country": "CZ", "coord": {"lon": 17.674009, "lat": 49.399239}}, {"id": 3078288, "name": "Bystrice nad Pernstejnem", "country": "CZ", "coord": {"lon": 16.261471, "lat": 49.522949}}, {"id": 3078300, "name": "Bystrice", "country": "CZ", "coord": {"lon": 14.6674, "lat": 49.732128}}, {"id": 3078301, "name": "Bystrice", "country": "CZ", "coord": {"lon": 18.720381, "lat": 49.63657}}, {"id": 3078303, "name": "Bystrec", "country": "CZ", "coord": {"lon": 16.618999, "lat": 50.011681}}, {"id": 3078306, "name": "Bystre", "country": "CZ", "coord": {"lon": 16.34679, "lat": 49.62846}}, {"id": 3078309, "name": "Bystrany", "country": "CZ", "coord": {"lon": 13.86419, "lat": 50.62867}}, {"id": 3078316, "name": "Byst", "country": "CZ", "coord": {"lon": 15.91116, "lat": 50.132431}}, {"id": 3078322, "name": "Bysice", "country": "CZ", "coord": {"lon": 14.61136, "lat": 50.31044}}, {"id": 3078358, "name": "Bustehrad", "country": "CZ", "coord": {"lon": 14.18897, "lat": 50.155941}}, {"id": 3078417, "name": "Bukovec", "country": "CZ", "coord": {"lon": 18.82683, "lat": 49.55114}}, {"id": 3078421, "name": "Bukovany", "country": "CZ", "coord": {"lon": 12.57265, "lat": 50.166321}}, {"id": 3078458, "name": "Budyne nad Ohri", "country": "CZ", "coord": {"lon": 14.12591, "lat": 50.40427}}, {"id": 3078469, "name": "Budisov nad Budisovkou", "country": "CZ", "coord": {"lon": 17.62969, "lat": 49.795109}}, {"id": 3078472, "name": "Budisov", "country": "CZ", "coord": {"lon": 16.00383, "lat": 49.271381}}, {"id": 3078503, "name": "Bucovice", "country": "CZ", "coord": {"lon": 17.001909, "lat": 49.14896}}, {"id": 3078513, "name": "Buchlovice", "country": "CZ", "coord": {"lon": 17.33852, "lat": 49.086269}}, {"id": 3078536, "name": "Brusperk", "country": "CZ", "coord": {"lon": 18.222099, "lat": 49.7001}}, {"id": 3078547, "name": "Brumovice", "country": "CZ", "coord": {"lon": 17.74958, "lat": 50.015301}}, {"id": 3078561, "name": "Brtnice", "country": "CZ", "coord": {"lon": 15.67642, "lat": 49.30695}}, {"id": 3078584, "name": "Brodek u Prerova", "country": "CZ", "coord": {"lon": 17.338249, "lat": 49.484192}}, {"id": 3078613, "name": "Brniste", "country": "CZ", "coord": {"lon": 14.70338, "lat": 50.729191}}, {"id": 3078620, "name": "Brnenec", "country": "CZ", "coord": {"lon": 16.52202, "lat": 49.62735}}, {"id": 3078633, "name": "Brloh", "country": "CZ", "coord": {"lon": 14.21857, "lat": 48.929871}}, {"id": 3078648, "name": "Bridlicna", "country": "CZ", "coord": {"lon": 17.371071, "lat": 49.911671}}, {"id": 3078659, "name": "Brezova nad Svitavou", "country": "CZ", "coord": {"lon": 16.51799, "lat": 49.64418}}, {"id": 3078664, "name": "Brezova", "country": "CZ", "coord": {"lon": 12.64996, "lat": 50.145569}}, {"id": 3078669, "name": "Brezova", "country": "CZ", "coord": {"lon": 17.865561, "lat": 49.79158}}, {"id": 3078671, "name": "Brezova", "country": "CZ", "coord": {"lon": 17.739861, "lat": 48.92543}}, {"id": 3078672, "name": "Brezolupy", "country": "CZ", "coord": {"lon": 17.580339, "lat": 49.12138}}, {"id": 3078675, "name": "Brezno", "country": "CZ", "coord": {"lon": 13.42118, "lat": 50.401852}}, {"id": 3078683, "name": "Breznice", "country": "CZ", "coord": {"lon": 13.95063, "lat": 49.557629}}, {"id": 3078685, "name": "Breznice", "country": "CZ", "coord": {"lon": 17.662769, "lat": 49.186432}}, {"id": 3078732, "name": "Brezi", "country": "CZ", "coord": {"lon": 16.56748, "lat": 48.819279}}, {"id": 3078807, "name": "Brasy", "country": "CZ", "coord": {"lon": 13.57833, "lat": 49.837002}}, {"id": 3078812, "name": "Brantice", "country": "CZ", "coord": {"lon": 17.62911, "lat": 50.063511}}, {"id": 3078836, "name": "Brandys nad Orlici", "country": "CZ", "coord": {"lon": 16.28528, "lat": 50.001942}}, {"id": 3078839, "name": "Brandysek", "country": "CZ", "coord": {"lon": 14.16199, "lat": 50.189232}}, {"id": 3078845, "name": "Branany", "country": "CZ", "coord": {"lon": 13.70017, "lat": 50.54295}}, {"id": 3078872, "name": "Bozice", "country": "CZ", "coord": {"lon": 16.28875, "lat": 48.836868}}, {"id": 3078885, "name": "Bouzov", "country": "CZ", "coord": {"lon": 16.892879, "lat": 49.704262}}, {"id": 3078903, "name": "Bosovice", "country": "CZ", "coord": {"lon": 16.83676, "lat": 49.053509}}, {"id": 3078933, "name": "Borsice", "country": "CZ", "coord": {"lon": 17.35084, "lat": 49.062538}}, {"id": 3078957, "name": "Borovany", "country": "CZ", "coord": {"lon": 14.64227, "lat": 48.898602}}, {"id": 3078973, "name": "Borohradek", "country": "CZ", "coord": {"lon": 16.09326, "lat": 50.097771}}, {"id": 3078982, "name": "Boritov", "country": "CZ", "coord": {"lon": 16.59119, "lat": 49.425041}}, {"id": 3078997, "name": "Boretice", "country": "CZ", "coord": {"lon": 16.85306, "lat": 48.913021}}, {"id": 3079023, "name": "Borek", "country": "CZ", "coord": {"lon": 14.50088, "lat": 49.023392}}, {"id": 3079078, "name": "Bolatice", "country": "CZ", "coord": {"lon": 18.08358, "lat": 49.951721}}, {"id": 3079082, "name": "Bojkovice", "country": "CZ", "coord": {"lon": 17.814871, "lat": 49.038639}}, {"id": 3079099, "name": "Bohutin", "country": "CZ", "coord": {"lon": 13.94389, "lat": 49.65551}}, {"id": 3079102, "name": "Bohusovice nad Ohri", "country": "CZ", "coord": {"lon": 14.15048, "lat": 50.49316}}, {"id": 3079108, "name": "Bohuslavice", "country": "CZ", "coord": {"lon": 18.12866, "lat": 49.942322}}, {"id": 3079121, "name": "Bohunovice", "country": "CZ", "coord": {"lon": 17.28693, "lat": 49.66301}}, {"id": 3079159, "name": "Bohdalov", "country": "CZ", "coord": {"lon": 15.87582, "lat": 49.47921}}, {"id": 3079174, "name": "Bochov", "country": "CZ", "coord": {"lon": 13.05227, "lat": 50.14872}}, {"id": 3079194, "name": "Bludov", "country": "CZ", "coord": {"lon": 16.92849, "lat": 49.9408}}, {"id": 3079199, "name": "Blucina", "country": "CZ", "coord": {"lon": 16.644501, "lat": 49.05497}}, {"id": 3079203, "name": "Blovice", "country": "CZ", "coord": {"lon": 13.54009, "lat": 49.582199}}, {"id": 3079209, "name": "Blizkovice", "country": "CZ", "coord": {"lon": 15.83482, "lat": 48.99976}}, {"id": 3079212, "name": "Blizejov", "country": "CZ", "coord": {"lon": 12.98926, "lat": 49.5}}, {"id": 3079220, "name": "Blazovice", "country": "CZ", "coord": {"lon": 16.78611, "lat": 49.165691}}, {"id": 3079252, "name": "Blatna", "country": "CZ", "coord": {"lon": 13.88176, "lat": 49.424889}}, {"id": 3079332, "name": "Bilovice nad Svitavou", "country": "CZ", "coord": {"lon": 16.67247, "lat": 49.247082}}, {"id": 3079334, "name": "Bilovice", "country": "CZ", "coord": {"lon": 17.54961, "lat": 49.099651}}, {"id": 3079336, "name": "Bilovec", "country": "CZ", "coord": {"lon": 18.01581, "lat": 49.75639}}, {"id": 3079368, "name": "Bila Tremesna", "country": "CZ", "coord": {"lon": 15.74101, "lat": 50.444649}}, {"id": 3079374, "name": "Bila Lhota", "country": "CZ", "coord": {"lon": 16.975071, "lat": 49.70953}}, {"id": 3079403, "name": "Bezdruzice", "country": "CZ", "coord": {"lon": 12.9711, "lat": 49.907242}}, {"id": 3079476, "name": "Bernartice", "country": "CZ", "coord": {"lon": 14.38101, "lat": 49.368889}}, {"id": 3079500, "name": "Benesov nad Ploucnici", "country": "CZ", "coord": {"lon": 14.31239, "lat": 50.741589}}, {"id": 3079501, "name": "Benesov nad Cernou", "country": "CZ", "coord": {"lon": 14.62737, "lat": 48.729401}}, {"id": 3079511, "name": "Benecko", "country": "CZ", "coord": {"lon": 15.54816, "lat": 50.666328}}, {"id": 3079514, "name": "Benatky nad Jizerou", "country": "CZ", "coord": {"lon": 14.82343, "lat": 50.290852}}, {"id": 3079532, "name": "Belotin", "country": "CZ", "coord": {"lon": 17.80654, "lat": 49.591202}}, {"id": 3079556, "name": "Bela pod Bezdezem", "country": "CZ", "coord": {"lon": 14.80418, "lat": 50.501209}}, {"id": 3079557, "name": "Bela nad Radbuzou", "country": "CZ", "coord": {"lon": 12.71761, "lat": 49.591148}}, {"id": 3079605, "name": "Bedihost", "country": "CZ", "coord": {"lon": 17.16643, "lat": 49.448261}}, {"id": 3079611, "name": "Becov", "country": "CZ", "coord": {"lon": 13.71784, "lat": 50.449718}}, {"id": 3079616, "name": "Bechyne", "country": "CZ", "coord": {"lon": 14.4681, "lat": 49.295231}}, {"id": 3079620, "name": "Bechlin", "country": "CZ", "coord": {"lon": 14.34092, "lat": 50.416149}}, {"id": 3079632, "name": "Bavorov", "country": "CZ", "coord": {"lon": 14.07893, "lat": 49.121841}}, {"id": 3079637, "name": "Batelov", "country": "CZ", "coord": {"lon": 15.39465, "lat": 49.314251}}, {"id": 3079645, "name": "Baska", "country": "CZ", "coord": {"lon": 18.37233, "lat": 49.64584}}, {"id": 3079653, "name": "Bartosovice", "country": "CZ", "coord": {"lon": 18.054609, "lat": 49.668839}}, {"id": 3079671, "name": "Banov", "country": "CZ", "coord": {"lon": 17.71752, "lat": 48.98801}}, {"id": 3079732, "name": "Babice", "country": "CZ", "coord": {"lon": 17.480749, "lat": 49.12167}}, {"id": 3079751, "name": "As", "country": "CZ", "coord": {"lon": 12.19499, "lat": 50.223869}}, {"id": 3079817, "name": "Albrechtice nad Orlici", "country": "CZ", "coord": {"lon": 16.064369, "lat": 50.13979}}, {"id": 3079824, "name": "Albrechtice", "country": "CZ", "coord": {"lon": 18.524441, "lat": 49.786449}}, {"id": 3079841, "name": "Adamov", "country": "CZ", "coord": {"lon": 16.652531, "lat": 49.30162}}, {"id": 3079843, "name": "Abertamy", "country": "CZ", "coord": {"lon": 12.81826, "lat": 50.36874}}, {"id": 7602675, "name": "Lucina", "country": "CZ", "coord": {"lon": 18.44776, "lat": 49.720821}}, {"id": 6558834, "name": "R\u00f6hrnbach, Markt", "country": "DE", "coord": {"lon": 13.5234, "lat": 48.739071}}, {"id": 2845559, "name": "Roehrnbach", "country": "DE", "coord": {"lon": 13.52271, "lat": 48.73859}}, {"id": 6549807, "name": "R\u00f6hrig", "country": "DE", "coord": {"lon": 10.0333, "lat": 51.333302}}, {"id": 2845589, "name": "Rohrig", "country": "DE", "coord": {"lon": 10.03333, "lat": 51.333328}}, {"id": 6556341, "name": "Rohrenfels", "country": "DE", "coord": {"lon": 11.1667, "lat": 48.6833}}, {"id": 2845625, "name": "Rohrenfels", "country": "DE", "coord": {"lon": 11.16667, "lat": 48.683331}}, {"id": 6555694, "name": "Rohrdorf", "country": "DE", "coord": {"lon": 8.7, "lat": 48.5667}}, {"id": 2845638, "name": "Rohrdorf", "country": "DE", "coord": {"lon": 8.7, "lat": 48.566669}}, {"id": 6556378, "name": "Rohrdorf", "country": "DE", "coord": {"lon": 12.1884, "lat": 47.808102}}, {"id": 2845641, "name": "Rohrdorf", "country": "DE", "coord": {"lon": 12.1701, "lat": 47.797131}}, {"id": 6549715, "name": "Rohrberg", "country": "DE", "coord": {"lon": 11.0333, "lat": 52.700001}}, {"id": 2845652, "name": "Rohrberg", "country": "DE", "coord": {"lon": 11.03333, "lat": 52.700001}}, {"id": 6549808, "name": "Rohrberg", "country": "DE", "coord": {"lon": 10.0167, "lat": 51.416698}}, {"id": 2845653, "name": "Rohrberg", "country": "DE", "coord": {"lon": 10.01667, "lat": 51.416672}}, {"id": 6550281, "name": "Rohrbach", "country": "DE", "coord": {"lon": 11.4, "lat": 51.0667}}, {"id": 2845697, "name": "Rohrbach", "country": "DE", "coord": {"lon": 11.4, "lat": 51.066669}}, {"id": 6550332, "name": "Rohrbach", "country": "DE", "coord": {"lon": 11.2167, "lat": 50.599998}}, {"id": 2845699, "name": "Rohrbach", "country": "DE", "coord": {"lon": 11.21667, "lat": 50.599998}}, {"id": 6553961, "name": "Rohrbach", "country": "DE", "coord": {"lon": 7.41667, "lat": 49.883301}}, {"id": 2845704, "name": "Rohrbach", "country": "DE", "coord": {"lon": 7.41667, "lat": 49.883331}}, {"id": 6553633, "name": "Rohrbach", "country": "DE", "coord": {"lon": 7.26667, "lat": 49.583302}}, {"id": 2845707, "name": "Rohrbach", "country": "DE", "coord": {"lon": 7.26667, "lat": 49.583328}}, {"id": 6555216, "name": "Rohrbach", "country": "DE", "coord": {"lon": 8.12861, "lat": 49.1367}}, {"id": 2845714, "name": "Rohrbach", "country": "DE", "coord": {"lon": 8.12861, "lat": 49.136669}}, {"id": 6556353, "name": "Rohrbach", "country": "DE", "coord": {"lon": 11.5667, "lat": 48.616699}}, {"id": 2845721, "name": "Rohrbach", "country": "DE", "coord": {"lon": 11.56667, "lat": 48.616669}}, {"id": 2845723, "name": "Rohrbach", "country": "DE", "coord": {"lon": 12.56667, "lat": 48.283329}}, {"id": 6550035, "name": "Rohr", "country": "DE", "coord": {"lon": 10.5, "lat": 50.583302}}, {"id": 2845744, "name": "Rohr", "country": "DE", "coord": {"lon": 10.5, "lat": 50.583328}}, {"id": 6556925, "name": "Rohr", "country": "DE", "coord": {"lon": 10.8833, "lat": 49.349998}}, {"id": 2845747, "name": "Rohr", "country": "DE", "coord": {"lon": 10.88333, "lat": 49.349998}}, {"id": 2845750, "name": "Rohr", "country": "DE", "coord": {"lon": 11.96667, "lat": 48.76667}}, {"id": 6548218, "name": "R\u00f6gnitz", "country": "DE", "coord": {"lon": 11.0333, "lat": 53.616699}}, {"id": 2845823, "name": "Rognitz", "country": "DE", "coord": {"lon": 11.03333, "lat": 53.616669}}, {"id": 6557297, "name": "R\u00f6gling", "country": "DE", "coord": {"lon": 10.95, "lat": 48.849998}}, {"id": 2845825, "name": "Rogling", "country": "DE", "coord": {"lon": 10.95, "lat": 48.849998}}, {"id": 6547792, "name": "Roggentin", "country": "DE", "coord": {"lon": 12.2034, "lat": 54.0709}}, {"id": 2845840, "name": "Roggentin", "country": "DE", "coord": {"lon": 12.2, "lat": 54.066669}}, {"id": 6548216, "name": "Roggendorf", "country": "DE", "coord": {"lon": 11.0167, "lat": 53.700001}}, {"id": 2845858, "name": "Roggendorf", "country": "DE", "coord": {"lon": 11.01667, "lat": 53.700001}}, {"id": 6557190, "name": "Roggenburg", "country": "DE", "coord": {"lon": 10.2333, "lat": 48.283298}}, {"id": 2845863, "name": "Roggenburg", "country": "DE", "coord": {"lon": 10.23136, "lat": 48.275879}}, {"id": 6557182, "name": "R\u00f6fingen", "country": "DE", "coord": {"lon": 10.4333, "lat": 48.4333}}, {"id": 2845891, "name": "Rofingen", "country": "DE", "coord": {"lon": 10.44268, "lat": 48.424419}}, {"id": 6548215, "name": "Roduchelstorf", "country": "DE", "coord": {"lon": 10.9833, "lat": 53.8167}}, {"id": 2845899, "name": "Roduchelstorf", "country": "DE", "coord": {"lon": 10.98333, "lat": 53.816669}}, {"id": 6553123, "name": "R\u00f6dinghausen", "country": "DE", "coord": {"lon": 8.48333, "lat": 52.25}}, {"id": 2845919, "name": "Rodinghausen", "country": "DE", "coord": {"lon": 8.48333, "lat": 52.25}}, {"id": 2845953, "name": "Rodewisch", "country": "DE", "coord": {"lon": 12.41667, "lat": 50.533329}}, {"id": 6554494, "name": "Rodershausen", "country": "DE", "coord": {"lon": 6.2, "lat": 49.983299}}, {"id": 2845968, "name": "Rodershausen", "country": "DE", "coord": {"lon": 6.2, "lat": 49.98333}}, {"id": 6553960, "name": "R\u00f6dern", "country": "DE", "coord": {"lon": 7.45, "lat": 49.950001}}, {"id": 2845982, "name": "Rodern", "country": "DE", "coord": {"lon": 7.45, "lat": 49.950001}}, {"id": 6553190, "name": "Rodenbach", "country": "DE", "coord": {"lon": 9.0045, "lat": 50.147202}}, {"id": 2846063, "name": "Rodenbach", "country": "DE", "coord": {"lon": 9.03333, "lat": 50.150002}}, {"id": 2846066, "name": "Rodenbach", "country": "DE", "coord": {"lon": 8.10556, "lat": 49.573891}}, {"id": 6553959, "name": "R\u00f6delhausen", "country": "DE", "coord": {"lon": 7.33333, "lat": 50}}, {"id": 2846093, "name": "Rodelhausen", "country": "DE", "coord": {"lon": 7.33333, "lat": 50}}, {"id": 6553336, "name": "Rodder", "country": "DE", "coord": {"lon": 6.86667, "lat": 50.400002}}, {"id": 2846124, "name": "Rodder", "country": "DE", "coord": {"lon": 6.85882, "lat": 50.39473}}, {"id": 6547849, "name": "R\u00f6ckwitz", "country": "DE", "coord": {"lon": 13.1, "lat": 53.700001}}, {"id": 2846182, "name": "Rockwitz", "country": "DE", "coord": {"lon": 13.1, "lat": 53.700001}}, {"id": 6549982, "name": "Rockstedt", "country": "DE", "coord": {"lon": 10.75, "lat": 51.283298}}, {"id": 2846186, "name": "Rockstedt", "country": "DE", "coord": {"lon": 10.75, "lat": 51.283329}}, {"id": 2846261, "name": "Rochlitz", "country": "DE", "coord": {"lon": 12.8, "lat": 51.049999}}, {"id": 6554979, "name": "Rittersheim", "country": "DE", "coord": {"lon": 8.05833, "lat": 49.6647}}, {"id": 2846374, "name": "Rittersheim", "country": "DE", "coord": {"lon": 8.05833, "lat": 49.664719}}, {"id": 6550280, "name": "Rittersdorf", "country": "DE", "coord": {"lon": 11.2333, "lat": 50.8167}}, {"id": 2846380, "name": "Rittersdorf", "country": "DE", "coord": {"lon": 11.23333, "lat": 50.816669}}, {"id": 6552708, "name": "Ritterhude", "country": "DE", "coord": {"lon": 8.7216, "lat": 53.181149}}, {"id": 2846398, "name": "Ritterhude", "country": "DE", "coord": {"lon": 8.7355, "lat": 53.182892}}, {"id": 6550034, "name": "Ritschenhausen", "country": "DE", "coord": {"lon": 10.45, "lat": 50.516701}}, {"id": 2846426, "name": "Ritschenhausen", "country": "DE", "coord": {"lon": 10.45, "lat": 50.51667}}, {"id": 6549981, "name": "Ringleben", "country": "DE", "coord": {"lon": 11.2167, "lat": 51.366699}}, {"id": 2846593, "name": "Ringleben", "country": "DE", "coord": {"lon": 11.21667, "lat": 51.366669}}, {"id": 6556480, "name": "Ringelai", "country": "DE", "coord": {"lon": 13.4833, "lat": 48.8167}}, {"id": 2846658, "name": "Ringelai", "country": "DE", "coord": {"lon": 13.48333, "lat": 48.816669}}, {"id": 6556637, "name": "Rimbach", "country": "DE", "coord": {"lon": 12.8833, "lat": 49.233299}}, {"id": 2846756, "name": "Rimbach", "country": "DE", "coord": {"lon": 12.88333, "lat": 49.23333}}, {"id": 6556567, "name": "Rimbach", "country": "DE", "coord": {"lon": 12.65, "lat": 48.466702}}, {"id": 2846759, "name": "Rimbach", "country": "DE", "coord": {"lon": 12.65, "lat": 48.466671}}, {"id": 2846790, "name": "Rietz Neuendorf", "country": "DE", "coord": {"lon": 14.16667, "lat": 52.23333}}, {"id": 6550148, "name": "Riethgen", "country": "DE", "coord": {"lon": 11.1167, "lat": 51.25}}, {"id": 2846815, "name": "Riethgen", "country": "DE", "coord": {"lon": 11.11667, "lat": 51.25}}, {"id": 2846854, "name": "Riestedt", "country": "DE", "coord": {"lon": 11.36667, "lat": 51.5}}, {"id": 6548836, "name": "Riesigk", "country": "DE", "coord": {"lon": 12.4667, "lat": 51.833302}}, {"id": 2846865, "name": "Riesigk", "country": "DE", "coord": {"lon": 12.46667, "lat": 51.833328}}, {"id": 2846946, "name": "Riepsdorf", "country": "DE", "coord": {"lon": 10.97242, "lat": 54.226109}}, {"id": 2847003, "name": "Rielasingen-Worblingen", "country": "DE", "coord": {"lon": 8.84013, "lat": 47.73465}}, {"id": 6556690, "name": "Riekofen", "country": "DE", "coord": {"lon": 12.35, "lat": 48.916698}}, {"id": 2847005, "name": "Riekofen", "country": "DE", "coord": {"lon": 12.35, "lat": 48.916672}}, {"id": 6553957, "name": "Riegenroth", "country": "DE", "coord": {"lon": 7.58333, "lat": 50.049999}}, {"id": 2847029, "name": "Riegenroth", "country": "DE", "coord": {"lon": 7.58333, "lat": 50.049999}}, {"id": 2847080, "name": "Riedlingen", "country": "DE", "coord": {"lon": 9.47558, "lat": 48.154549}}, {"id": 6556376, "name": "Riedering", "country": "DE", "coord": {"lon": 12.2, "lat": 47.833302}}, {"id": 2847195, "name": "Riedering", "country": "DE", "coord": {"lon": 12.20778, "lat": 47.838741}}, {"id": 2847231, "name": "Riedenburg", "country": "DE", "coord": {"lon": 11.68333, "lat": 48.966671}}, {"id": 2847237, "name": "Rieden an der Kotz", "country": "DE", "coord": {"lon": 10.25711, "lat": 48.384991}}, {"id": 2847242, "name": "Rieden", "country": "DE", "coord": {"lon": 11.94205, "lat": 49.323608}}, {"id": 6557225, "name": "Rieden", "country": "DE", "coord": {"lon": 10.65, "lat": 47.950001}}, {"id": 2847247, "name": "Rieden", "country": "DE", "coord": {"lon": 10.65, "lat": 47.950001}}, {"id": 2847319, "name": "Ried", "country": "DE", "coord": {"lon": 11.2606, "lat": 48.476978}}, {"id": 6557120, "name": "Ried", "country": "DE", "coord": {"lon": 11.05, "lat": 48.299999}}, {"id": 2847323, "name": "Ried", "country": "DE", "coord": {"lon": 11.05, "lat": 48.299999}}, {"id": 2847490, "name": "Richtenberg", "country": "DE", "coord": {"lon": 12.89409, "lat": 54.201309}}, {"id": 6552317, "name": "Ribbesb\u00fcttel", "country": "DE", "coord": {"lon": 10.5167, "lat": 52.4333}}, {"id": 2847529, "name": "Ribbesbuttel", "country": "DE", "coord": {"lon": 10.50997, "lat": 52.434349}}, {"id": 2847688, "name": "Rhede", "country": "DE", "coord": {"lon": 7.26667, "lat": 53.066669}}, {"id": 2847765, "name": "Reuth", "country": "DE", "coord": {"lon": 12.21667, "lat": 50.616669}}, {"id": 6548541, "name": "Reuth", "country": "DE", "coord": {"lon": 11.9667, "lat": 50.466702}}, {"id": 2847766, "name": "Reuth", "country": "DE", "coord": {"lon": 11.96667, "lat": 50.466671}}, {"id": 6554710, "name": "Reuth", "country": "DE", "coord": {"lon": 6.48333, "lat": 50.299999}}, {"id": 2847768, "name": "Reuth", "country": "DE", "coord": {"lon": 6.48333, "lat": 50.299999}}, {"id": 2847774, "name": "Reuth", "country": "DE", "coord": {"lon": 11.7, "lat": 49.98333}}, {"id": 2847861, "name": "Reut", "country": "DE", "coord": {"lon": 13.11667, "lat": 48.599998}}, {"id": 6556566, "name": "Reut", "country": "DE", "coord": {"lon": 12.9333, "lat": 48.3167}}, {"id": 2847865, "name": "Reut", "country": "DE", "coord": {"lon": 12.93333, "lat": 48.316669}}, {"id": 6551596, "name": "Reu\u00dfenk\u00f6ge", "country": "DE", "coord": {"lon": 8.93333, "lat": 54.583302}}, {"id": 2847883, "name": "Reussenkoge", "country": "DE", "coord": {"lon": 8.93333, "lat": 54.583328}}, {"id": 2847887, "name": "Reussen", "country": "DE", "coord": {"lon": 12.13333, "lat": 51.5}}, {"id": 6547600, "name": "Retzow", "country": "DE", "coord": {"lon": 12.7, "lat": 52.633301}}, {"id": 2847946, "name": "Retzow", "country": "DE", "coord": {"lon": 12.68552, "lat": 52.624779}}, {"id": 6553439, "name": "Rettersen", "country": "DE", "coord": {"lon": 7.5, "lat": 50.700001}}, {"id": 2847975, "name": "Rettersen", "country": "DE", "coord": {"lon": 7.5, "lat": 50.700001}}, {"id": 6557313, "name": "Rettenberg", "country": "DE", "coord": {"lon": 10.3, "lat": 47.583302}}, {"id": 2847985, "name": "Rettenberg", "country": "DE", "coord": {"lon": 10.3, "lat": 47.583328}}, {"id": 6556636, "name": "Rettenbach", "country": "DE", "coord": {"lon": 12.45, "lat": 49.0667}}, {"id": 2847993, "name": "Rettenbach", "country": "DE", "coord": {"lon": 12.45, "lat": 49.066669}}, {"id": 6557181, "name": "Rettenbach", "country": "DE", "coord": {"lon": 10.35, "lat": 48.466702}}, {"id": 2848001, "name": "Rettenbach", "country": "DE", "coord": {"lon": 10.35238, "lat": 48.458809}}, {"id": 6559251, "name": "Retschow", "country": "DE", "coord": {"lon": 11.88422, "lat": 54.09943}}, {"id": 2848017, "name": "Retschow", "country": "DE", "coord": {"lon": 11.86667, "lat": 54.049999}}, {"id": 2848143, "name": "Rentweinsdorf", "country": "DE", "coord": {"lon": 10.79922, "lat": 50.063419}}, {"id": 2848181, "name": "Rennertshofen", "country": "DE", "coord": {"lon": 11.06667, "lat": 48.75}}, {"id": 6548508, "name": "Remse", "country": "DE", "coord": {"lon": 12.5667, "lat": 50.849998}}, {"id": 2848269, "name": "Remse", "country": "DE", "coord": {"lon": 12.56667, "lat": 50.849998}}, {"id": 6551705, "name": "Rellingen", "country": "DE", "coord": {"lon": 9.86468, "lat": 53.641281}}, {"id": 2848340, "name": "Rellingen", "country": "DE", "coord": {"lon": 9.81667, "lat": 53.650002}}, {"id": 6550279, "name": "Reisdorf", "country": "DE", "coord": {"lon": 11.5667, "lat": 51.099998}}, {"id": 2848591, "name": "Reisdorf", "country": "DE", "coord": {"lon": 11.56667, "lat": 51.099998}}, {"id": 6556104, "name": "Reischach", "country": "DE", "coord": {"lon": 12.7333, "lat": 48.283298}}, {"id": 2848606, "name": "Reischach", "country": "DE", "coord": {"lon": 12.7262, "lat": 48.29073}}, {"id": 6552689, "name": "Reinstorf", "country": "DE", "coord": {"lon": 10.5667, "lat": 53.233299}}, {"id": 2848689, "name": "Reinstorf", "country": "DE", "coord": {"lon": 10.57323, "lat": 53.234451}}, {"id": 6549980, "name": "Reinsdorf", "country": "DE", "coord": {"lon": 11.2667, "lat": 51.333302}}, {"id": 2848722, "name": "Reinsdorf", "country": "DE", "coord": {"lon": 11.26667, "lat": 51.333328}}, {"id": 6551369, "name": "Reinsb\u00fcttel", "country": "DE", "coord": {"lon": 8.91667, "lat": 54.1833}}, {"id": 2848729, "name": "Reinsbuttel", "country": "DE", "coord": {"lon": 8.91667, "lat": 54.183331}}, {"id": 2848779, "name": "Reinhardtsgrimma", "country": "DE", "coord": {"lon": 13.75, "lat": 50.900002}}, {"id": 2848841, "name": "Reinberg", "country": "DE", "coord": {"lon": 13.15, "lat": 53.683331}}, {"id": 6557296, "name": "Reimlingen", "country": "DE", "coord": {"lon": 10.5167, "lat": 48.8167}}, {"id": 2848851, "name": "Reimlingen", "country": "DE", "coord": {"lon": 10.51667, "lat": 48.816669}}, {"id": 6551292, "name": "Reil", "country": "DE", "coord": {"lon": 7.11667, "lat": 50.016701}}, {"id": 2848872, "name": "Reil", "country": "DE", "coord": {"lon": 7.11667, "lat": 50.01667}}, {"id": 6553532, "name": "Reiffelbach", "country": "DE", "coord": {"lon": 7.68333, "lat": 49.6833}}, {"id": 2848917, "name": "Reiffelbach", "country": "DE", "coord": {"lon": 7.68333, "lat": 49.683331}}, {"id": 6553438, "name": "Reiferscheid", "country": "DE", "coord": {"lon": 7.55, "lat": 50.650002}}, {"id": 2848922, "name": "Reiferscheid", "country": "DE", "coord": {"lon": 7.55, "lat": 50.650002}}, {"id": 6553720, "name": "Reidenhausen", "country": "DE", "coord": {"lon": 7.31667, "lat": 50.049999}}, {"id": 2848954, "name": "Reidenhausen", "country": "DE", "coord": {"lon": 7.31667, "lat": 50.049999}}, {"id": 6555142, "name": "Reichweiler", "country": "DE", "coord": {"lon": 7.2899, "lat": 49.54195}}, {"id": 2848962, "name": "Reichweiler", "country": "DE", "coord": {"lon": 7.28333, "lat": 49.533329}}, {"id": 6554999, "name": "Reichsthal", "country": "DE", "coord": {"lon": 7.73333, "lat": 49.599998}}, {"id": 2848976, "name": "Reichsthal", "country": "DE", "coord": {"lon": 7.73333, "lat": 49.599998}}, {"id": 6556265, "name": "Reichling", "country": "DE", "coord": {"lon": 10.9333, "lat": 47.916698}}, {"id": 2849001, "name": "Reichling", "country": "DE", "coord": {"lon": 10.93333, "lat": 47.916672}}, {"id": 6556352, "name": "Reichertshausen", "country": "DE", "coord": {"lon": 11.51667, "lat": 48.466671}}, {"id": 2849023, "name": "Reichertshausen", "country": "DE", "coord": {"lon": 11.51667, "lat": 48.466671}}, {"id": 6556893, "name": "Reichenschwand", "country": "DE", "coord": {"lon": 11.3833, "lat": 49.516701}}, {"id": 2849062, "name": "Reichenschwand", "country": "DE", "coord": {"lon": 11.37274, "lat": 49.51384}}, {"id": 6554090, "name": "Reichenberg", "country": "DE", "coord": {"lon": 7.76667, "lat": 50.150002}}, {"id": 2849092, "name": "Reichenberg", "country": "DE", "coord": {"lon": 7.76667, "lat": 50.150002}}, {"id": 2849093, "name": "Reichenberg", "country": "DE", "coord": {"lon": 9.91833, "lat": 49.73167}}, {"id": 6555071, "name": "Reichenbach-Steegen", "country": "DE", "coord": {"lon": 7.55, "lat": 49.5}}, {"id": 2849102, "name": "Reichenbach-Steegen", "country": "DE", "coord": {"lon": 7.55, "lat": 49.5}}, {"id": 2849145, "name": "Reichenbach", "country": "DE", "coord": {"lon": 14.8, "lat": 51.150002}}, {"id": 6550396, "name": "Reichenbach", "country": "DE", "coord": {"lon": 11.8833, "lat": 50.866699}}, {"id": 2849152, "name": "Reichenbach", "country": "DE", "coord": {"lon": 11.88333, "lat": 50.866669}}, {"id": 6556809, "name": "Reichenbach", "country": "DE", "coord": {"lon": 11.4119, "lat": 50.4226}}, {"id": 2849158, "name": "Reichenbach", "country": "DE", "coord": {"lon": 11.41667, "lat": 50.416672}}, {"id": 6553628, "name": "Reichenbach", "country": "DE", "coord": {"lon": 7.28333, "lat": 49.650002}}, {"id": 2849167, "name": "Reichenbach", "country": "DE", "coord": {"lon": 7.28333, "lat": 49.650002}}, {"id": 6556635, "name": "Reichenbach", "country": "DE", "coord": {"lon": 12.35, "lat": 49.1833}}, {"id": 2849170, "name": "Reichenbach", "country": "DE", "coord": {"lon": 12.35, "lat": 49.183331}}, {"id": 2849197, "name": "Reichelsheim", "country": "DE", "coord": {"lon": 8.86667, "lat": 50.349998}}, {"id": 6553955, "name": "Reich", "country": "DE", "coord": {"lon": 7.43333, "lat": 50}}, {"id": 2849215, "name": "Reich", "country": "DE", "coord": {"lon": 7.43333, "lat": 50}}, {"id": 6547468, "name": "Rehsen", "country": "DE", "coord": {"lon": 12.5, "lat": 51.833302}}, {"id": 2849238, "name": "Rehsen", "country": "DE", "coord": {"lon": 12.5, "lat": 51.833328}}, {"id": 6557119, "name": "Rehling", "country": "DE", "coord": {"lon": 10.9333, "lat": 48.483299}}, {"id": 2849300, "name": "Rehling", "country": "DE", "coord": {"lon": 10.93333, "lat": 48.48333}}, {"id": 6552456, "name": "Rehden", "country": "DE", "coord": {"lon": 8.48333, "lat": 52.616699}}, {"id": 2849369, "name": "Rehden", "country": "DE", "coord": {"lon": 8.48093, "lat": 52.610241}}, {"id": 6556806, "name": "Regnitzlosau", "country": "DE", "coord": {"lon": 12.05, "lat": 50.299999}}, {"id": 2849455, "name": "Regnitzlosau", "country": "DE", "coord": {"lon": 12.05, "lat": 50.299999}}, {"id": 2849476, "name": "Regenstauf", "country": "DE", "coord": {"lon": 12.12917, "lat": 49.12167}}, {"id": 6551906, "name": "Reesdorf", "country": "DE", "coord": {"lon": 10.05, "lat": 54.1833}}, {"id": 2849541, "name": "Reesdorf", "country": "DE", "coord": {"lon": 10.05, "lat": 54.183331}}, {"id": 2849566, "name": "Redwitz an der Rodach", "country": "DE", "coord": {"lon": 11.2, "lat": 50.166672}}, {"id": 6556923, "name": "Rednitzhembach", "country": "DE", "coord": {"lon": 11.0703, "lat": 49.305302}}, {"id": 2849568, "name": "Rednitzhembach", "country": "DE", "coord": {"lon": 11.07997, "lat": 49.300949}}, {"id": 6553954, "name": "Reckershausen", "country": "DE", "coord": {"lon": 7.4, "lat": 49.983299}}, {"id": 2849656, "name": "Reckershausen", "country": "DE", "coord": {"lon": 7.4, "lat": 49.98333}}, {"id": 6556745, "name": "Reckendorf", "country": "DE", "coord": {"lon": 10.8272, "lat": 50.014702}}, {"id": 2849674, "name": "Reckendorf", "country": "DE", "coord": {"lon": 10.83333, "lat": 50.01667}}, {"id": 6556300, "name": "Rechtmehring", "country": "DE", "coord": {"lon": 12.1667, "lat": 48.116699}}, {"id": 2849698, "name": "Rechtmehring", "country": "DE", "coord": {"lon": 12.16667, "lat": 48.116669}}, {"id": 6548525, "name": "Rechenberg-Bienenm\u00fchle", "country": "DE", "coord": {"lon": 13.5333, "lat": 50.733299}}, {"id": 2849727, "name": "Rechenberg-Bienenmuhle", "country": "DE", "coord": {"lon": 13.53333, "lat": 50.73333}}, {"id": 6550395, "name": "Rausdorf", "country": "DE", "coord": {"lon": 11.6833, "lat": 50.866699}}, {"id": 2849855, "name": "Rausdorf", "country": "DE", "coord": {"lon": 11.68333, "lat": 50.866669}}, {"id": 6550394, "name": "Rauschwitz", "country": "DE", "coord": {"lon": 11.8, "lat": 50.966702}}, {"id": 2849857, "name": "Rauschwitz", "country": "DE", "coord": {"lon": 11.8, "lat": 50.966671}}, {"id": 6556375, "name": "Raubling", "country": "DE", "coord": {"lon": 12.10935, "lat": 47.789452}}, {"id": 2850085, "name": "Raubling", "country": "DE", "coord": {"lon": 12.11088, "lat": 47.790501}}, {"id": 6553852, "name": "Raubach", "country": "DE", "coord": {"lon": 7.61667, "lat": 50.583302}}, {"id": 2850098, "name": "Raubach", "country": "DE", "coord": {"lon": 7.61667, "lat": 50.583328}}, {"id": 6553851, "name": "Ratzert", "country": "DE", "coord": {"lon": 7.61667, "lat": 50.650002}}, {"id": 2850114, "name": "Ratzert", "country": "DE", "coord": {"lon": 7.61667, "lat": 50.650002}}, {"id": 6556595, "name": "Rattiszell", "country": "DE", "coord": {"lon": 12.6667, "lat": 49.033298}}, {"id": 2850141, "name": "Rattiszell", "country": "DE", "coord": {"lon": 12.66667, "lat": 49.033329}}, {"id": 6556299, "name": "Rattenkirchen", "country": "DE", "coord": {"lon": 12.3167, "lat": 48.25}}, {"id": 2850149, "name": "Rattenkirchen", "country": "DE", "coord": {"lon": 12.31507, "lat": 48.24205}}, {"id": 6556594, "name": "Rattenberg", "country": "DE", "coord": {"lon": 12.75, "lat": 49.083302}}, {"id": 2850153, "name": "Rattenberg", "country": "DE", "coord": {"lon": 12.74912, "lat": 49.086121}}, {"id": 6550392, "name": "Rattelsdorf", "country": "DE", "coord": {"lon": 11.7667, "lat": 50.8167}}, {"id": 2850160, "name": "Rattelsdorf", "country": "DE", "coord": {"lon": 11.76667, "lat": 50.816669}}, {"id": 2850161, "name": "Rattelsdorf", "country": "DE", "coord": {"lon": 10.88857, "lat": 50.015018}}, {"id": 6548699, "name": "Rathmannsdorf", "country": "DE", "coord": {"lon": 14.1503, "lat": 50.9198}}, {"id": 2850195, "name": "Rathmannsdorf", "country": "DE", "coord": {"lon": 14.14224, "lat": 50.929932}}, {"id": 6551767, "name": "Rathjensdorf", "country": "DE", "coord": {"lon": 10.4333, "lat": 54.1833}}, {"id": 2850203, "name": "Rathjensdorf", "country": "DE", "coord": {"lon": 10.43333, "lat": 54.183331}}, {"id": 2850266, "name": "Rassnitz", "country": "DE", "coord": {"lon": 12.09406, "lat": 51.39085}}, {"id": 6548430, "name": "Rappin", "country": "DE", "coord": {"lon": 13.3833, "lat": 54.5}}, {"id": 2850330, "name": "Rappin", "country": "DE", "coord": {"lon": 13.38333, "lat": 54.5}}, {"id": 6554978, "name": "Ransweiler", "country": "DE", "coord": {"lon": 7.76667, "lat": 49.666698}}, {"id": 2850424, "name": "Ransweiler", "country": "DE", "coord": {"lon": 7.76667, "lat": 49.666672}}, {"id": 2850484, "name": "Ranis", "country": "DE", "coord": {"lon": 11.56912, "lat": 50.66132}}, {"id": 6547729, "name": "Rangsdorf", "country": "DE", "coord": {"lon": 13.4334, "lat": 52.294998}}, {"id": 2850490, "name": "Rangsdorf", "country": "DE", "coord": {"lon": 13.41946, "lat": 52.29126}}, {"id": 6555955, "name": "Rangendingen", "country": "DE", "coord": {"lon": 8.88863, "lat": 48.38134}}, {"id": 2850496, "name": "Rangendingen", "country": "DE", "coord": {"lon": 8.8894, "lat": 48.38168}}, {"id": 2850555, "name": "Ramsin", "country": "DE", "coord": {"lon": 12.23333, "lat": 51.616669}}, {"id": 2850603, "name": "Ramsau", "country": "DE", "coord": {"lon": 12.23333, "lat": 48.166672}}, {"id": 2850608, "name": "Ramsau", "country": "DE", "coord": {"lon": 12.9, "lat": 47.616669}}, {"id": 6548429, "name": "Rambin", "country": "DE", "coord": {"lon": 13.2167, "lat": 54.349998}}, {"id": 2850718, "name": "Rambin", "country": "DE", "coord": {"lon": 13.20445, "lat": 54.355659}}, {"id": 6554784, "name": "Ralingen", "country": "DE", "coord": {"lon": 6.5, "lat": 49.8167}}, {"id": 2850740, "name": "Ralingen", "country": "DE", "coord": {"lon": 6.5, "lat": 49.816669}}, {"id": 6556936, "name": "Raitenbuch", "country": "DE", "coord": {"lon": 11.1333, "lat": 49.016701}}, {"id": 2850768, "name": "Raitenbuch", "country": "DE", "coord": {"lon": 11.12486, "lat": 49.014679}}, {"id": 2850777, "name": "Raisdorf", "country": "DE", "coord": {"lon": 10.23333, "lat": 54.283329}}, {"id": 6556593, "name": "Rain", "country": "DE", "coord": {"lon": 12.4667, "lat": 48.900002}}, {"id": 2850807, "name": "Rain", "country": "DE", "coord": {"lon": 12.46667, "lat": 48.900002}}, {"id": 6548621, "name": "Radibor", "country": "DE", "coord": {"lon": 14.4, "lat": 51.25}}, {"id": 2850980, "name": "Radibor", "country": "DE", "coord": {"lon": 14.4, "lat": 51.25}}, {"id": 2851074, "name": "Radeburg", "country": "DE", "coord": {"lon": 13.7281, "lat": 51.21516}}, {"id": 6552235, "name": "Rade", "country": "DE", "coord": {"lon": 9.74162, "lat": 54.0009}}, {"id": 2851087, "name": "Rade", "country": "DE", "coord": {"lon": 9.74162, "lat": 54.0009}}, {"id": 6552534, "name": "Raddestorf", "country": "DE", "coord": {"lon": 8.96346, "lat": 52.4552}}, {"id": 2851096, "name": "Raddestorf", "country": "DE", "coord": {"lon": 8.96667, "lat": 52.450001}}, {"id": 6548745, "name": "Rackwitz", "country": "DE", "coord": {"lon": 12.3833, "lat": 51.4333}}, {"id": 2851113, "name": "Rackwitz", "country": "DE", "coord": {"lon": 12.38333, "lat": 51.433331}}, {"id": 6553437, "name": "Racksen", "country": "DE", "coord": {"lon": 7.7, "lat": 50.733299}}, {"id": 2851114, "name": "Racksen", "country": "DE", "coord": {"lon": 7.7, "lat": 50.73333}}, {"id": 6548728, "name": "R\u00e4ckelwitz", "country": "DE", "coord": {"lon": 14.2333, "lat": 51.25}}, {"id": 2851132, "name": "Rackelwitz", "country": "DE", "coord": {"lon": 14.23333, "lat": 51.25}}, {"id": 6552049, "name": "Rabenholz", "country": "DE", "coord": {"lon": 9.9, "lat": 54.716702}}, {"id": 2851231, "name": "Rabenholz", "country": "DE", "coord": {"lon": 9.9, "lat": 54.716671}}, {"id": 2851262, "name": "Rabenau", "country": "DE", "coord": {"lon": 13.63333, "lat": 50.966671}}, {"id": 2851310, "name": "Quitzdorf", "country": "DE", "coord": {"lon": 14.76667, "lat": 51.283329}}, {"id": 6554168, "name": "Quirnbach", "country": "DE", "coord": {"lon": 7.8, "lat": 50.516701}}, {"id": 2851321, "name": "Quirnbach", "country": "DE", "coord": {"lon": 7.8, "lat": 50.51667}}, {"id": 6550391, "name": "Quirla", "country": "DE", "coord": {"lon": 11.7667, "lat": 50.866699}}, {"id": 2851323, "name": "Quirla", "country": "DE", "coord": {"lon": 11.76667, "lat": 50.866669}}, {"id": 6551366, "name": "Quickborn", "country": "DE", "coord": {"lon": 9.2, "lat": 54.016701}}, {"id": 2851342, "name": "Quickborn", "country": "DE", "coord": {"lon": 9.2, "lat": 54.01667}}, {"id": 6552455, "name": "Quernheim", "country": "DE", "coord": {"lon": 8.4, "lat": 52.466702}}, {"id": 2851381, "name": "Quernheim", "country": "DE", "coord": {"lon": 8.4, "lat": 52.466671}}, {"id": 6552047, "name": "Quern", "country": "DE", "coord": {"lon": 9.71667, "lat": 54.75}}, {"id": 2851385, "name": "Quern", "country": "DE", "coord": {"lon": 9.71667, "lat": 54.75}}, {"id": 6550467, "name": "Quaschwitz", "country": "DE", "coord": {"lon": 11.7, "lat": 50.6833}}, {"id": 2851493, "name": "Quaschwitz", "country": "DE", "coord": {"lon": 11.7, "lat": 50.683331}}, {"id": 6552234, "name": "Quarnstedt", "country": "DE", "coord": {"lon": 9.78736, "lat": 53.954849}}, {"id": 2851499, "name": "Quarnstedt", "country": "DE", "coord": {"lon": 9.78736, "lat": 53.954849}}, {"id": 6551905, "name": "Quarnbek", "country": "DE", "coord": {"lon": 9.98333, "lat": 54.333302}}, {"id": 2851502, "name": "Quarnbek", "country": "DE", "coord": {"lon": 9.98333, "lat": 54.333328}}, {"id": 2851543, "name": "Pyrbaum", "country": "DE", "coord": {"lon": 11.28972, "lat": 49.298611}}, {"id": 6548427, "name": "Putgarten", "country": "DE", "coord": {"lon": 13.4167, "lat": 54.666698}}, {"id": 2851613, "name": "Putgarten", "country": "DE", "coord": {"lon": 13.41667, "lat": 54.666672}}, {"id": 6548620, "name": "Puschwitz", "country": "DE", "coord": {"lon": 14.3, "lat": 51.25}}, {"id": 2851631, "name": "Puschwitz", "country": "DE", "coord": {"lon": 14.3, "lat": 51.25}}, {"id": 6556724, "name": "Pullenreuth", "country": "DE", "coord": {"lon": 11.9981, "lat": 49.93045}}, {"id": 2851734, "name": "Pullenreuth", "country": "DE", "coord": {"lon": 12, "lat": 49.933331}}, {"id": 2851739, "name": "Pullach im Isartal", "country": "DE", "coord": {"lon": 11.52148, "lat": 48.061218}}, {"id": 6556373, "name": "Prutting", "country": "DE", "coord": {"lon": 12.2, "lat": 47.900002}}, {"id": 2851801, "name": "Prutting", "country": "DE", "coord": {"lon": 12.20238, "lat": 47.893211}}, {"id": 2851826, "name": "Prum", "country": "DE", "coord": {"lon": 6.41667, "lat": 50.216671}}, {"id": 6551080, "name": "Pr\u00f6tzel", "country": "DE", "coord": {"lon": 14.0036, "lat": 52.653599}}, {"id": 2851850, "name": "Protzel", "country": "DE", "coord": {"lon": 13.98783, "lat": 52.63723}}, {"id": 6547967, "name": "Prislich", "country": "DE", "coord": {"lon": 11.6167, "lat": 53.266701}}, {"id": 2851992, "name": "Prislich", "country": "DE", "coord": {"lon": 11.61667, "lat": 53.26667}}, {"id": 6552971, "name": "Prinzh\u00f6fte", "country": "DE", "coord": {"lon": 8.56667, "lat": 52.950001}}, {"id": 2852013, "name": "Prinzhofte", "country": "DE", "coord": {"lon": 8.56667, "lat": 52.950001}}, {"id": 2852156, "name": "Pretzsch", "country": "DE", "coord": {"lon": 12.8, "lat": 51.716671}}, {"id": 2852159, "name": "Pretzier", "country": "DE", "coord": {"lon": 11.25, "lat": 52.833328}}, {"id": 2852162, "name": "Pretzfeld", "country": "DE", "coord": {"lon": 11.1743, "lat": 49.754539}}, {"id": 2852190, "name": "Pressig", "country": "DE", "coord": {"lon": 11.31667, "lat": 50.349998}}, {"id": 6554592, "name": "Preischeid", "country": "DE", "coord": {"lon": 6.15, "lat": 50.033298}}, {"id": 2852262, "name": "Preischeid", "country": "DE", "coord": {"lon": 6.15, "lat": 50.033329}}, {"id": 6548135, "name": "Preetz", "country": "DE", "coord": {"lon": 12.9833, "lat": 54.349998}}, {"id": 2852279, "name": "Preetz", "country": "DE", "coord": {"lon": 12.98936, "lat": 54.35017}}, {"id": 6553436, "name": "Pracht", "country": "DE", "coord": {"lon": 7.65, "lat": 50.75}}, {"id": 2852376, "name": "Pracht", "country": "DE", "coord": {"lon": 7.65, "lat": 50.75}}, {"id": 6550390, "name": "Poxdorf", "country": "DE", "coord": {"lon": 11.75, "lat": 50.966702}}, {"id": 2852392, "name": "Poxdorf", "country": "DE", "coord": {"lon": 11.75, "lat": 50.966671}}, {"id": 2852394, "name": "Poxdorf", "country": "DE", "coord": {"lon": 11.12211, "lat": 49.93642}}, {"id": 6556565, "name": "Postm\u00fcnster", "country": "DE", "coord": {"lon": 12.9, "lat": 48.416698}}, {"id": 2852479, "name": "Postmunster", "country": "DE", "coord": {"lon": 12.9, "lat": 48.416672}}, {"id": 7602438, "name": "P\u00f6sing", "country": "DE", "coord": {"lon": 12.55, "lat": 49.23333}}, {"id": 2852535, "name": "Posing", "country": "DE", "coord": {"lon": 12.55, "lat": 49.23333}}, {"id": 6548426, "name": "Poseritz", "country": "DE", "coord": {"lon": 13.2833, "lat": 54.299999}}, {"id": 2852541, "name": "Poseritz", "country": "DE", "coord": {"lon": 13.28333, "lat": 54.299999}}, {"id": 6548698, "name": "Porschdorf", "country": "DE", "coord": {"lon": 14.1333, "lat": 50.9333}}, {"id": 2852591, "name": "Porschdorf", "country": "DE", "coord": {"lon": 14.12687, "lat": 50.941799}}, {"id": 6556622, "name": "Poppenricht", "country": "DE", "coord": {"lon": 11.8283, "lat": 49.483501}}, {"id": 2852637, "name": "Poppenricht", "country": "DE", "coord": {"lon": 11.8, "lat": 49.48333}}, {"id": 2852656, "name": "Poppenhausen", "country": "DE", "coord": {"lon": 9.86795, "lat": 50.48793}}, {"id": 6557065, "name": "Poppenhausen", "country": "DE", "coord": {"lon": 10.15, "lat": 50.099998}}, {"id": 2852658, "name": "Poppenhausen", "country": "DE", "coord": {"lon": 10.14244, "lat": 50.099991}}, {"id": 6551593, "name": "Poppenb\u00fcll", "country": "DE", "coord": {"lon": 8.76121, "lat": 54.360882}}, {"id": 2852675, "name": "Poppenbull", "country": "DE", "coord": {"lon": 8.7612, "lat": 54.360882}}, {"id": 6552046, "name": "Pommerby", "country": "DE", "coord": {"lon": 9.95, "lat": 54.766701}}, {"id": 2852765, "name": "Pommerby", "country": "DE", "coord": {"lon": 9.95, "lat": 54.76667}}, {"id": 6548474, "name": "Polzow", "country": "DE", "coord": {"lon": 14.0667, "lat": 53.5}}, {"id": 2852785, "name": "Polzow", "country": "DE", "coord": {"lon": 14.05855, "lat": 53.499641}}, {"id": 6556298, "name": "Polling", "country": "DE", "coord": {"lon": 12.5667, "lat": 48.216702}}, {"id": 2852840, "name": "Polling", "country": "DE", "coord": {"lon": 12.56667, "lat": 48.216671}}, {"id": 6556174, "name": "Pollenfeld", "country": "DE", "coord": {"lon": 11.2, "lat": 48.950001}}, {"id": 2852856, "name": "Pollenfeld", "country": "DE", "coord": {"lon": 11.2, "lat": 48.950001}}, {"id": 6551761, "name": "Pohnsdorf", "country": "DE", "coord": {"lon": 10.24943, "lat": 54.239529}}, {"id": 2852957, "name": "Pohnsdorf", "country": "DE", "coord": {"lon": 10.24896, "lat": 54.239552}}, {"id": 6548540, "name": "P\u00f6hl", "country": "DE", "coord": {"lon": 12.1833, "lat": 50.549999}}, {"id": 2852994, "name": "Pohl", "country": "DE", "coord": {"lon": 12.18333, "lat": 50.549999}}, {"id": 6556391, "name": "P\u00f6cking", "country": "DE", "coord": {"lon": 11.3, "lat": 47.966702}}, {"id": 2853066, "name": "Pocking", "country": "DE", "coord": {"lon": 11.3, "lat": 47.966671}}, {"id": 7602402, "name": "Pluwig", "country": "DE", "coord": {"lon": 6.71239, "lat": 49.689758}}, {"id": 2853089, "name": "Pluwig", "country": "DE", "coord": {"lon": 6.71239, "lat": 49.689758}}, {"id": 6548211, "name": "Pl\u00fcschow", "country": "DE", "coord": {"lon": 11.2667, "lat": 53.833302}}, {"id": 2853093, "name": "Pluschow", "country": "DE", "coord": {"lon": 11.26667, "lat": 53.833328}}, {"id": 6549179, "name": "Pl\u00f6tz", "country": "DE", "coord": {"lon": 11.9333, "lat": 51.633301}}, {"id": 2853131, "name": "Plotz", "country": "DE", "coord": {"lon": 11.93333, "lat": 51.633331}}, {"id": 6550464, "name": "Plothen", "country": "DE", "coord": {"lon": 11.7667, "lat": 50.633301}}, {"id": 2853136, "name": "Plothen", "country": "DE", "coord": {"lon": 11.76667, "lat": 50.633331}}, {"id": 6548958, "name": "Plossig", "country": "DE", "coord": {"lon": 12.95, "lat": 51.700001}}, {"id": 2853141, "name": "Plossig", "country": "DE", "coord": {"lon": 12.95, "lat": 51.700001}}, {"id": 2853146, "name": "Plossberg", "country": "DE", "coord": {"lon": 11.86667, "lat": 49.916672}}, {"id": 6555931, "name": "Pliezhausen", "country": "DE", "coord": {"lon": 9.20676, "lat": 48.55917}}, {"id": 2853192, "name": "Pliezhausen", "country": "DE", "coord": {"lon": 9.20749, "lat": 48.559341}}, {"id": 6553950, "name": "Pleizenhausen", "country": "DE", "coord": {"lon": 7.56667, "lat": 50.016701}}, {"id": 2853242, "name": "Pleizenhausen", "country": "DE", "coord": {"lon": 7.56667, "lat": 50.01667}}, {"id": 6556103, "name": "Pleiskirchen", "country": "DE", "coord": {"lon": 12.6, "lat": 48.299999}}, {"id": 2853253, "name": "Pleiskirchen", "country": "DE", "coord": {"lon": 12.6, "lat": 48.299999}}, {"id": 6555488, "name": "Pleidelsheim", "country": "DE", "coord": {"lon": 9.2058, "lat": 48.960201}}, {"id": 2853266, "name": "Pleidelsheim", "country": "DE", "coord": {"lon": 9.2, "lat": 48.966671}}, {"id": 6553435, "name": "Pleckhausen", "country": "DE", "coord": {"lon": 7.53333, "lat": 50.599998}}, {"id": 2853271, "name": "Pleckhausen", "country": "DE", "coord": {"lon": 7.53333, "lat": 50.599998}}, {"id": 6559244, "name": "Plattenburg", "country": "DE", "coord": {"lon": 11.95937, "lat": 52.964619}}, {"id": 2853332, "name": "Plattenburg", "country": "DE", "coord": {"lon": 12.02951, "lat": 52.95919}}, {"id": 6548379, "name": "Plate", "country": "DE", "coord": {"lon": 11.5, "lat": 53.549999}}, {"id": 2853406, "name": "Plate", "country": "DE", "coord": {"lon": 11.5, "lat": 53.549999}}, {"id": 6554490, "name": "Plascheid", "country": "DE", "coord": {"lon": 6.28333, "lat": 50.033298}}, {"id": 2853414, "name": "Plascheid", "country": "DE", "coord": {"lon": 6.28333, "lat": 50.033329}}, {"id": 6547453, "name": "Plankenfels", "country": "DE", "coord": {"lon": 11.3333, "lat": 49.883301}}, {"id": 2853442, "name": "Plankenfels", "country": "DE", "coord": {"lon": 11.33333, "lat": 49.883331}}, {"id": 6547698, "name": "Pirow", "country": "DE", "coord": {"lon": 11.9, "lat": 53.216702}}, {"id": 2853571, "name": "Pirow", "country": "DE", "coord": {"lon": 11.9, "lat": 53.216671}}, {"id": 6556659, "name": "Pirk", "country": "DE", "coord": {"lon": 12.1667, "lat": 49.633301}}, {"id": 2853599, "name": "Pirk", "country": "DE", "coord": {"lon": 12.16667, "lat": 49.633331}}, {"id": 6556791, "name": "Pinzberg", "country": "DE", "coord": {"lon": 11.1, "lat": 49.700001}}, {"id": 2853627, "name": "Pinzberg", "country": "DE", "coord": {"lon": 11.1, "lat": 49.700001}}, {"id": 6554589, "name": "Pintesfeld", "country": "DE", "coord": {"lon": 6.36667, "lat": 50.116699}}, {"id": 2853628, "name": "Pintesfeld", "country": "DE", "coord": {"lon": 6.36667, "lat": 50.116669}}, {"id": 6548378, "name": "Pinnow", "country": "DE", "coord": {"lon": 11.55, "lat": 53.599998}}, {"id": 2853647, "name": "Pinnow", "country": "DE", "coord": {"lon": 11.55, "lat": 53.599998}}, {"id": 6547745, "name": "Pinnow", "country": "DE", "coord": {"lon": 14.0833, "lat": 53.0667}}, {"id": 2853650, "name": "Pinnow", "country": "DE", "coord": {"lon": 14.08559, "lat": 53.061951}}, {"id": 2853691, "name": "Pilsting", "country": "DE", "coord": {"lon": 12.65, "lat": 48.700001}}, {"id": 6554365, "name": "Piesport", "country": "DE", "coord": {"lon": 6.91667, "lat": 49.883301}}, {"id": 2853779, "name": "Piesport", "country": "DE", "coord": {"lon": 6.91667, "lat": 49.883331}}, {"id": 6556689, "name": "Pielenhofen", "country": "DE", "coord": {"lon": 11.9575, "lat": 49.07201}}, {"id": 2853844, "name": "Pielenhofen", "country": "DE", "coord": {"lon": 11.95699, "lat": 49.07235}}, {"id": 6556113, "name": "Piding", "country": "DE", "coord": {"lon": 12.90015, "lat": 47.762699}}, {"id": 2853855, "name": "Piding", "country": "DE", "coord": {"lon": 12.91667, "lat": 47.76667}}, {"id": 2853950, "name": "Pfronten", "country": "DE", "coord": {"lon": 10.56667, "lat": 47.583328}}, {"id": 2853949, "name": "Pfronten", "country": "DE", "coord": {"lon": 10.55932, "lat": 47.58197}}, {"id": 6556934, "name": "Pfofeld", "country": "DE", "coord": {"lon": 10.8333, "lat": 49.116699}}, {"id": 2853984, "name": "Pfofeld", "country": "DE", "coord": {"lon": 10.83664, "lat": 49.1059}}, {"id": 2854149, "name": "Pfeffenhausen", "country": "DE", "coord": {"lon": 11.96667, "lat": 48.666672}}, {"id": 6555724, "name": "Pfalzgrafenweiler", "country": "DE", "coord": {"lon": 8.56667, "lat": 48.516701}}, {"id": 2854252, "name": "Pfalzgrafenweiler", "country": "DE", "coord": {"lon": 8.56667, "lat": 48.51667}}, {"id": 2854298, "name": "Pfaffroda", "country": "DE", "coord": {"lon": 12.51667, "lat": 50.866669}}, {"id": 6555755, "name": "Pfaffenweiler", "country": "DE", "coord": {"lon": 7.75, "lat": 47.9333}}, {"id": 2854325, "name": "Pfaffenweiler", "country": "DE", "coord": {"lon": 7.75, "lat": 47.933331}}, {"id": 6555530, "name": "Pfaffenhofen", "country": "DE", "coord": {"lon": 8.975, "lat": 49.063599}}, {"id": 2854392, "name": "Pfaffenhofen", "country": "DE", "coord": {"lon": 8.97639, "lat": 49.064442}},