[{"id": 250179, "name": "At Turrah", "country": "JO", "coord": {"lon": 35.99194, "lat": 32.641392}}, {"id": 250186, "name": "At Tayyibah", "country": "JO", "coord": {"lon": 35.716942, "lat": 32.541672}}, {"id": 250187, "name": "At Tayyibah", "country": "JO", "coord": {"lon": 35.601681, "lat": 31.056721}}, {"id": 250188, "name": "At Tayyibah", "country": "JO", "coord": {"lon": 35.459969, "lat": 30.256611}}, {"id": 250294, "name": "Ash Shajarah", "country": "JO", "coord": {"lon": 35.940971, "lat": 32.644562}}, {"id": 250345, "name": "Ar Rabbah", "country": "JO", "coord": {"lon": 35.738289, "lat": 31.26923}}, {"id": 250462, "name": "Al Quwayrah", "country": "JO", "coord": {"lon": 35.3116, "lat": 29.800449}}, {"id": 250487, "name": "Al Qasr", "country": "JO", "coord": {"lon": 35.744999, "lat": 31.31444}}, {"id": 250540, "name": "Al Mazar", "country": "JO", "coord": {"lon": 35.69611, "lat": 31.065559}}, {"id": 250603, "name": "Al Kittah", "country": "JO", "coord": {"lon": 35.841141, "lat": 32.276852}}, {"id": 250623, "name": "Al Karamah", "country": "JO", "coord": {"lon": 35.57917, "lat": 31.952221}}, {"id": 250649, "name": "Al Jafr", "country": "JO", "coord": {"lon": 36.212151, "lat": 30.294559}}, {"id": 250697, "name": "Al Hamra", "country": "JO", "coord": {"lon": 36.151211, "lat": 32.440609}}, {"id": 250738, "name": "Al Bunayyat ash Shamaliyah", "country": "JO", "coord": {"lon": 35.893139, "lat": 31.89299}}, {"id": 250821, "name": "Adir", "country": "JO", "coord": {"lon": 35.761551, "lat": 31.202169}}, {"id": 7838911, "name": "Ajloun", "country": "JO", "coord": {"lon": 35.747841, "lat": 32.330448}}, {"id": 1848169, "name": "Yoshino-cho", "country": "JP", "coord": {"lon": 135.857681, "lat": 34.396111}}, {"id": 1848266, "name": "Yonakuni", "country": "JP", "coord": {"lon": 123, "lat": 24.466669}}, {"id": 1852534, "name": "Shiida", "country": "JP", "coord": {"lon": 131.057968, "lat": 33.653412}}, {"id": 1856798, "name": "Miyajima", "country": "JP", "coord": {"lon": 132.326126, "lat": 34.30183}}, {"id": 1862944, "name": "Heda", "country": "JP", "coord": {"lon": 138.766663, "lat": 34.966671}}, {"id": 2112454, "name": "Kakudate", "country": "JP", "coord": {"lon": 140.566666, "lat": 39.583328}}, {"id": 2129761, "name": "Kamikawa", "country": "JP", "coord": {"lon": 142.771103, "lat": 43.84}}, {"id": 6417596, "name": "Koya", "country": "JP", "coord": {"lon": 135.622437, "lat": 34.21294}}, {"id": 6691616, "name": "Kihoku-cho", "country": "JP", "coord": {"lon": 132.683426, "lat": 33.25592}}, {"id": 6697514, "name": "Asahi", "country": "JP", "coord": {"lon": 136.124557, "lat": 35.972591}}, {"id": 6822212, "name": "Aisai", "country": "JP", "coord": {"lon": 136.732224, "lat": 35.163502}}, {"id": 6941783, "name": "Niseko Town", "country": "JP", "coord": {"lon": 140.669037, "lat": 42.778709}}, {"id": 7303387, "name": "Rishiri Town", "country": "JP", "coord": {"lon": 141.196289, "lat": 45.159279}}, {"id": 8198710, "name": "Yoshitomi", "country": "JP", "coord": {"lon": 131.175995, "lat": 33.60247}}, {"id": 178040, "name": "Yala", "country": "KE", "coord": {"lon": 34.537571, "lat": 0.09906}}, {"id": 178073, "name": "Wundanyi", "country": "KE", "coord": {"lon": 38.364021, "lat": -3.40193}}, {"id": 178077, "name": "Wote", "country": "KE", "coord": {"lon": 37.628819, "lat": -1.78079}}, {"id": 178093, "name": "Witu", "country": "KE", "coord": {"lon": 40.43821, "lat": -2.38886}}, {"id": 179525, "name": "Taveta", "country": "KE", "coord": {"lon": 37.673618, "lat": -3.39632}}, {"id": 179634, "name": "Takaungu", "country": "KE", "coord": {"lon": 39.856621, "lat": -3.68367}}, {"id": 179888, "name": "Sotik", "country": "KE", "coord": {"lon": 35.11871, "lat": -0.68333}}, {"id": 180389, "name": "Shimoni", "country": "KE", "coord": {"lon": 39.381748, "lat": -4.64756}}, {"id": 180646, "name": "Sawa Sawa", "country": "KE", "coord": {"lon": 39.484631, "lat": -4.47166}}, {"id": 180868, "name": "Sagana", "country": "KE", "coord": {"lon": 37.200001, "lat": -0.66667}}, {"id": 180992, "name": "Rumuruti", "country": "KE", "coord": {"lon": 36.53886, "lat": 0.26699}}, {"id": 181702, "name": "Oyugis", "country": "KE", "coord": {"lon": 34.735828, "lat": -0.50898}}, {"id": 181735, "name": "Othaya", "country": "KE", "coord": {"lon": 36.960911, "lat": -0.56516}}, {"id": 182498, "name": "Ogembo", "country": "KE", "coord": {"lon": 34.725311, "lat": -0.7984}}, {"id": 183595, "name": "Ngong", "country": "KE", "coord": {"lon": 36.656601, "lat": -1.36175}}, {"id": 184367, "name": "Naro Moru", "country": "KE", "coord": {"lon": 37.02129, "lat": -0.16756}}, {"id": 184471, "name": "Nandi Hills", "country": "KE", "coord": {"lon": 35.183781, "lat": 0.1066}}, {"id": 184546, "name": "Nambale", "country": "KE", "coord": {"lon": 34.251942, "lat": 0.44594}}, {"id": 184570, "name": "Namanga", "country": "KE", "coord": {"lon": 36.790531, "lat": -2.54327}}, {"id": 184921, "name": "Mwingi", "country": "KE", "coord": {"lon": 38.060051, "lat": -0.93435}}, {"id": 185579, "name": "Muranga", "country": "KE", "coord": {"lon": 37.150002, "lat": -0.71667}}, {"id": 186101, "name": "Mtito Andei", "country": "KE", "coord": {"lon": 38.166309, "lat": -2.69009}}, {"id": 187231, "name": "Maua", "country": "KE", "coord": {"lon": 37.940521, "lat": 0.23206}}, {"id": 187661, "name": "Mariakani", "country": "KE", "coord": {"lon": 39.473621, "lat": -3.86332}}, {"id": 187733, "name": "Maragua", "country": "KE", "coord": {"lon": 37.133331, "lat": -0.78333}}, {"id": 187977, "name": "Malikisi", "country": "KE", "coord": {"lon": 34.421669, "lat": 0.67694}}, {"id": 188025, "name": "Malaba", "country": "KE", "coord": {"lon": 34.2756, "lat": 0.63457}}, {"id": 188617, "name": "Lumbwa", "country": "KE", "coord": {"lon": 35.468472, "lat": -0.19675}}, {"id": 188714, "name": "Luanda", "country": "KE", "coord": {"lon": 34.06459, "lat": 0.29668}}, {"id": 188981, "name": "Londiani", "country": "KE", "coord": {"lon": 35.590858, "lat": -0.16496}}, {"id": 189367, "name": "Litein", "country": "KE", "coord": {"lon": 35.190289, "lat": -0.58226}}, {"id": 189386, "name": "Limuru", "country": "KE", "coord": {"lon": 36.650002, "lat": -1.1}}, {"id": 190108, "name": "Kwale", "country": "KE", "coord": {"lon": 39.452061, "lat": -4.17375}}, {"id": 190544, "name": "Konza", "country": "KE", "coord": {"lon": 37.12941, "lat": -1.7426}}, {"id": 191675, "name": "Kipini", "country": "KE", "coord": {"lon": 40.526199, "lat": -2.52565}}, {"id": 191833, "name": "Kinango", "country": "KE", "coord": {"lon": 39.315281, "lat": -4.13723}}, {"id": 191837, "name": "Kinancha", "country": "KE", "coord": {"lon": 34.62616, "lat": -1.18376}}, {"id": 192126, "name": "Kikuyu", "country": "KE", "coord": {"lon": 36.66328, "lat": -1.24576}}, {"id": 192202, "name": "Kijabe", "country": "KE", "coord": {"lon": 36.575809, "lat": -0.93304}}, {"id": 192869, "name": "Keroka", "country": "KE", "coord": {"lon": 34.945309, "lat": -0.77584}}, {"id": 194038, "name": "Kapsabet", "country": "KE", "coord": {"lon": 35.105, "lat": 0.20387}}, {"id": 194406, "name": "Kangundo", "country": "KE", "coord": {"lon": 37.34705, "lat": -1.29792}}, {"id": 194451, "name": "Kangema", "country": "KE", "coord": {"lon": 36.966671, "lat": -0.68333}}, {"id": 195298, "name": "Kajiado", "country": "KE", "coord": {"lon": 36.776829, "lat": -1.85238}}, {"id": 195821, "name": "Kabarnet", "country": "KE", "coord": {"lon": 35.743031, "lat": 0.49194}}, {"id": 197514, "name": "Gazi", "country": "KE", "coord": {"lon": 39.505878, "lat": -4.42402}}, {"id": 198636, "name": "Eldama Ravine", "country": "KE", "coord": {"lon": 35.730782, "lat": 0.05158}}, {"id": 199284, "name": "Chuka", "country": "KE", "coord": {"lon": 37.645882, "lat": -0.33316}}, {"id": 199604, "name": "Chepareria", "country": "KE", "coord": {"lon": 35.203899, "lat": 1.30774}}, {"id": 199971, "name": "Butere", "country": "KE", "coord": {"lon": 34.493481, "lat": 0.20636}}, {"id": 200061, "name": "Port Bunyala", "country": "KE", "coord": {"lon": 33.97559, "lat": 0.09388}}, {"id": 200304, "name": "Bondo", "country": "KE", "coord": {"lon": 34.26944, "lat": 0.23861}}, {"id": 200308, "name": "Bomet", "country": "KE", "coord": {"lon": 35.34156, "lat": -0.78129}}, {"id": 200575, "name": "Baringo", "country": "KE", "coord": {"lon": 35.966671, "lat": 0.46667}}, {"id": 201229, "name": "Ahero", "country": "KE", "coord": {"lon": 34.916302, "lat": -0.17462}}, {"id": 1222635, "name": "Khaydarkan", "country": "KG", "coord": {"lon": 71.342941, "lat": 39.944309}}, {"id": 1527121, "name": "Tyup", "country": "KG", "coord": {"lon": 78.364761, "lat": 42.7276}}, {"id": 1527232, "name": "Teploklyuchenka", "country": "KG", "coord": {"lon": 78.527023, "lat": 42.499481}}, {"id": 1527317, "name": "Suzak", "country": "KG", "coord": {"lon": 72.904823, "lat": 40.898201}}, {"id": 1527338, "name": "Chuy", "country": "KG", "coord": {"lon": 75.282333, "lat": 42.819729}}, {"id": 1527351, "name": "Sosnovka", "country": "KG", "coord": {"lon": 73.905724, "lat": 42.63699}}, {"id": 1527496, "name": "Pokrovka", "country": "KG", "coord": {"lon": 71.609818, "lat": 42.736198}}, {"id": 1527688, "name": "Leninpol", "country": "KG", "coord": {"lon": 71.923599, "lat": 42.492981}}, {"id": 1527689, "name": "Massy", "country": "KG", "coord": {"lon": 72.637482, "lat": 41.063999}}, {"id": 1527690, "name": "Lebedinovka", "country": "KG", "coord": {"lon": 74.678192, "lat": 42.884541}}, {"id": 1527902, "name": "Kochkor", "country": "KG", "coord": {"lon": 75.756592, "lat": 42.215519}}, {"id": 1527919, "name": "Kirovskoye", "country": "KG", "coord": {"lon": 71.589104, "lat": 42.619808}}, {"id": 1528005, "name": "Kazarman", "country": "KG", "coord": {"lon": 74.028282, "lat": 41.404518}}, {"id": 1528053, "name": "Karavan", "country": "KG", "coord": {"lon": 72.186272, "lat": 40.295132}}, {"id": 1528190, "name": "Kanysh-Kyya", "country": "KG", "coord": {"lon": 71.091812, "lat": 41.765362}}, {"id": 1528234, "name": "Kaindy", "country": "KG", "coord": {"lon": 73.67585, "lat": 42.824692}}, {"id": 1528241, "name": "Kadzhi-Say", "country": "KG", "coord": {"lon": 77.178482, "lat": 42.141071}}, {"id": 1528252, "name": "Ivanovka", "country": "KG", "coord": {"lon": 75.084999, "lat": 42.887779}}, {"id": 1528253, "name": "Ivanovo-Alekseyevka", "country": "KG", "coord": {"lon": 72.209038, "lat": 42.547619}}, {"id": 1528320, "name": "Gulcha", "country": "KG", "coord": {"lon": 73.444183, "lat": 40.313801}}, {"id": 1528566, "name": "Chayek", "country": "KG", "coord": {"lon": 74.516991, "lat": 41.927681}}, {"id": 1528666, "name": "Bokombayevskoye", "country": "KG", "coord": {"lon": 76.993317, "lat": 42.11768}}, {"id": 1528702, "name": "Belovodskoye", "country": "KG", "coord": {"lon": 74.108299, "lat": 42.829441}}, {"id": 1528766, "name": "Baetov", "country": "KG", "coord": {"lon": 74.956978, "lat": 41.266682}}, {"id": 1528875, "name": "Ala-Buka", "country": "KG", "coord": {"lon": 71.486282, "lat": 41.4105}}, {"id": 8134212, "name": "Uch-Terek", "country": "KG", "coord": {"lon": 73.200317, "lat": 41.762218}}, {"id": 8145969, "name": "Kara-Kulja", "country": "KG", "coord": {"lon": 73.592491, "lat": 40.632229}}, {"id": 1822227, "name": "Senmonourom", "country": "KH", "coord": {"lon": 107.199997, "lat": 12.45}}, {"id": 1822331, "name": "Samraong", "country": "KH", "coord": {"lon": 105.587257, "lat": 12.45262}}, {"id": 1822610, "name": "Prey Veng", "country": "KH", "coord": {"lon": 105.325333, "lat": 11.48682}}, {"id": 1830467, "name": "Krong Keb", "country": "KH", "coord": {"lon": 104.316673, "lat": 10.48333}}, {"id": 6690237, "name": "Sen monorom", "country": "KH", "coord": {"lon": 107.247681, "lat": 12.44756}}, {"id": 6942076, "name": "Banlung", "country": "KH", "coord": {"lon": 107.004517, "lat": 13.7468}}, {"id": 2110070, "name": "Teaoraereke Village", "country": "KI", "coord": {"lon": 173.011627, "lat": 1.33309}}, {"id": 2110131, "name": "Rawannawi Village", "country": "KI", "coord": {"lon": 173.263535, "lat": 2.05379}}, {"id": 2110227, "name": "Butaritari", "country": "KI", "coord": {"lon": 172.790222, "lat": 3.07071}}, {"id": 2110229, "name": "Buota Village", "country": "KI", "coord": {"lon": 173.130814, "lat": 1.39078}}, {"id": 2110248, "name": "Betio Village", "country": "KI", "coord": {"lon": 172.921051, "lat": 1.35797}}, {"id": 2110254, "name": "Banraeaba Village", "country": "KI", "coord": {"lon": 173.034637, "lat": 1.3454}}, {"id": 4030939, "name": "London Village", "country": "KI", "coord": {"lon": -157.475021, "lat": 1.98487}}, {"id": 7521902, "name": "Tabwakea Village", "country": "KI", "coord": {"lon": -157.487732, "lat": 2.01643}}, {"id": 7521903, "name": "Banana Village", "country": "KI", "coord": {"lon": -157.365265, "lat": 1.98329}}, {"id": 7576909, "name": "Makin Village", "country": "KI", "coord": {"lon": 172.983521, "lat": 3.3644}}, {"id": 7601762, "name": "Bairiki Village", "country": "KI", "coord": {"lon": 172.97522, "lat": 1.32924}}, {"id": 7601765, "name": "Ambo Village", "country": "KI", "coord": {"lon": 173.042587, "lat": 1.35317}}, {"id": 7601770, "name": "Temaiku Village", "country": "KI", "coord": {"lon": 173.162262, "lat": 1.36292}}, {"id": 7601771, "name": "Nawerewere Village", "country": "KI", "coord": {"lon": 173.139343, "lat": 1.36362}}, {"id": 7601774, "name": "Bikenibeu Village", "country": "KI", "coord": {"lon": 173.124146, "lat": 1.3673}}, {"id": 7601776, "name": "Eita Village", "country": "KI", "coord": {"lon": 173.081131, "lat": 1.36154}}, {"id": 921654, "name": "Ouanani", "country": "KM", "coord": {"lon": 43.797501, "lat": -12.3375}}, {"id": 921655, "name": "Vouani", "country": "KM", "coord": {"lon": 44.374439, "lat": -12.24417}}, {"id": 921661, "name": "Vanambouani", "country": "KM", "coord": {"lon": 43.253059, "lat": -11.61139}}, {"id": 921674, "name": "Singani", "country": "KM", "coord": {"lon": 43.30917, "lat": -11.84556}}, {"id": 921675, "name": "Sima", "country": "KM", "coord": {"lon": 44.276669, "lat": -12.19556}}, {"id": 921687, "name": "Salimani", "country": "KM", "coord": {"lon": 43.259171, "lat": -11.80806}}, {"id": 921703, "name": "Patsi", "country": "KM", "coord": {"lon": 44.437222, "lat": -12.15556}}, {"id": 921711, "name": "Ouzini", "country": "KM", "coord": {"lon": 44.479721, "lat": -12.26722}}, {"id": 921713, "name": "Oussivo", "country": "KM", "coord": {"lon": 43.26722, "lat": -11.585}}, {"id": 921714, "name": "Ouroveni", "country": "KM", "coord": {"lon": 43.488609, "lat": -11.90972}}, {"id": 921726, "name": "Ongoni", "country": "KM", "coord": {"lon": 44.506939, "lat": -12.17028}}, {"id": 921729, "name": "Ntsoudjini", "country": "KM", "coord": {"lon": 43.261391, "lat": -11.65972}}, {"id": 921731, "name": "Ntsaoueni", "country": "KM", "coord": {"lon": 43.262779, "lat": -11.46583}}, {"id": 921745, "name": "Nioumachoua", "country": "KM", "coord": {"lon": 43.715279, "lat": -12.36139}}, {"id": 921746, "name": "Kyo", "country": "KM", "coord": {"lon": 44.519169, "lat": -12.33222}}, {"id": 921756, "name": "Mtsamdou", "country": "KM", "coord": {"lon": 43.380562, "lat": -11.60694}}, {"id": 921762, "name": "Mremani", "country": "KM", "coord": {"lon": 44.498611, "lat": -12.30833}}, {"id": 921763, "name": "Mramani", "country": "KM", "coord": {"lon": 44.52861, "lat": -12.34639}}, {"id": 921764, "name": "Moya", "country": "KM", "coord": {"lon": 44.437778, "lat": -12.30667}}, {"id": 921777, "name": "Mohoro", "country": "KM", "coord": {"lon": 43.44611, "lat": -11.82583}}, {"id": 921783, "name": "Mjimandra", "country": "KM", "coord": {"lon": 44.370281, "lat": -12.19167}}, {"id": 921784, "name": "Mjamaoue", "country": "KM", "coord": {"lon": 44.310001, "lat": -12.19361}}, {"id": 921786, "name": "Mitsamiouli", "country": "KM", "coord": {"lon": 43.284439, "lat": -11.38472}}, {"id": 921806, "name": "Mbeni", "country": "KM", "coord": {"lon": 43.377499, "lat": -11.50139}}, {"id": 921814, "name": "Marahare", "country": "KM", "coord": {"lon": 44.313332, "lat": -12.23083}}, {"id": 921834, "name": "Koni-Djodjo", "country": "KM", "coord": {"lon": 44.48167, "lat": -12.22972}}, {"id": 921835, "name": "Koni-Ngani", "country": "KM", "coord": {"lon": 44.48, "lat": -12.21583}}, {"id": 921838, "name": "Koki", "country": "KM", "coord": {"lon": 44.441669, "lat": -12.17139}}, {"id": 921847, "name": "Kangani", "country": "KM", "coord": {"lon": 44.47472, "lat": -12.31167}}, {"id": 921852, "name": "Ivouani", "country": "KM", "coord": {"lon": 43.386391, "lat": -11.3875}}, {"id": 921856, "name": "Itsandra", "country": "KM", "coord": {"lon": 43.254719, "lat": -11.67111}}, {"id": 921858, "name": "Heroumbili", "country": "KM", "coord": {"lon": 43.379719, "lat": -11.54389}}, {"id": 921870, "name": "Hoani", "country": "KM", "coord": {"lon": 43.674721, "lat": -12.25083}}, {"id": 921884, "name": "Foumbouni", "country": "KM", "coord": {"lon": 43.484169, "lat": -11.86167}}, {"id": 921889, "name": "Fomboni", "country": "KM", "coord": {"lon": 43.7425, "lat": -12.28}}, {"id": 921897, "name": "Dziani", "country": "KM", "coord": {"lon": 44.48333, "lat": -12.18333}}, {"id": 921906, "name": "Domoni", "country": "KM", "coord": {"lon": 44.53194, "lat": -12.25694}}, {"id": 921913, "name": "Djoyezi", "country": "KM", "coord": {"lon": 43.773331, "lat": -12.2975}}, {"id": 921918, "name": "Dembeni", "country": "KM", "coord": {"lon": 43.397781, "lat": -11.87361}}, {"id": 921939, "name": "Chironkamba", "country": "KM", "coord": {"lon": 44.352501, "lat": -12.19111}}, {"id": 921942, "name": "Chindini", "country": "KM", "coord": {"lon": 43.48111, "lat": -11.92083}}, {"id": 921944, "name": "Chezani", "country": "KM", "coord": {"lon": 43.387501, "lat": -11.42806}}, {"id": 921946, "name": "Chandra", "country": "KM", "coord": {"lon": 44.464722, "lat": -12.195}}, {"id": 921956, "name": "Bouni", "country": "KM", "coord": {"lon": 43.388329, "lat": -11.48694}}, {"id": 921957, "name": "Boungoueni", "country": "KM", "coord": {"lon": 44.299438, "lat": -12.20556}}, {"id": 921967, "name": "Bimbini", "country": "KM", "coord": {"lon": 44.235561, "lat": -12.18833}}, {"id": 921996, "name": "Assimpao", "country": "KM", "coord": {"lon": 44.319721, "lat": -12.23306}}, {"id": 921998, "name": "Antsahe", "country": "KM", "coord": {"lon": 44.522499, "lat": -12.35639}}, {"id": 1090583, "name": "Mtakoudja", "country": "KM", "coord": {"lon": 43.703609, "lat": -12.26111}}, {"id": 1090640, "name": "Ziroudani", "country": "KM", "coord": {"lon": 43.7775, "lat": -12.3325}}, {"id": 1090919, "name": "Kavani", "country": "KM", "coord": {"lon": 44.26944, "lat": -12.19194}}, {"id": 1090930, "name": "Bandajou", "country": "KM", "coord": {"lon": 44.286942, "lat": -12.19167}}, {"id": 1090960, "name": "Chitrouni", "country": "KM", "coord": {"lon": 44.33556, "lat": -12.18583}}, {"id": 1091076, "name": "Hajoho", "country": "KM", "coord": {"lon": 44.488331, "lat": -12.1175}}, {"id": 1091102, "name": "Harembo", "country": "KM", "coord": {"lon": 44.498329, "lat": -12.14361}}, {"id": 1091117, "name": "Mirontsi", "country": "KM", "coord": {"lon": 44.408058, "lat": -12.15667}}, {"id": 1091121, "name": "Paje", "country": "KM", "coord": {"lon": 44.388062, "lat": -12.16972}}, {"id": 1091159, "name": "Limbi", "country": "KM", "coord": {"lon": 44.50528, "lat": -12.23944}}, {"id": 1091370, "name": "Lingoni", "country": "KM", "coord": {"lon": 44.418331, "lat": -12.25583}}, {"id": 1091390, "name": "Magnassini-Nindri", "country": "KM", "coord": {"lon": 44.415829, "lat": -12.27806}}, {"id": 1091436, "name": "Daji", "country": "KM", "coord": {"lon": 44.488609, "lat": -12.32583}}, {"id": 1091674, "name": "Ouhozi", "country": "KM", "coord": {"lon": 43.282219, "lat": -11.405}}, {"id": 1091711, "name": "Mandza", "country": "KM", "coord": {"lon": 43.29528, "lat": -11.41806}}, {"id": 1091712, "name": "Douniani", "country": "KM", "coord": {"lon": 43.288891, "lat": -11.42111}}, {"id": 1091713, "name": "Koua", "country": "KM", "coord": {"lon": 43.27639, "lat": -11.42083}}, {"id": 1091828, "name": "Hantsindzi", "country": "KM", "coord": {"lon": 43.402222, "lat": -11.42917}}, {"id": 1091868, "name": "Itsandzeni", "country": "KM", "coord": {"lon": 43.384441, "lat": -11.47278}}, {"id": 1091870, "name": "Bambadjani", "country": "KM", "coord": {"lon": 43.37722, "lat": -11.47861}}, {"id": 1091996, "name": "Mnoungou", "country": "KM", "coord": {"lon": 43.37389, "lat": -11.51778}}, {"id": 1092041, "name": "Vanadjou", "country": "KM", "coord": {"lon": 43.276112, "lat": -11.6075}}, {"id": 1092065, "name": "Bahani", "country": "KM", "coord": {"lon": 43.284168, "lat": -11.63972}}, {"id": 1092157, "name": "Ouella", "country": "KM", "coord": {"lon": 43.28056, "lat": -11.65361}}, {"id": 1092169, "name": "Tsidje", "country": "KM", "coord": {"lon": 43.26194, "lat": -11.69806}}, {"id": 1092341, "name": "Mvouni", "country": "KM", "coord": {"lon": 43.264721, "lat": -11.71611}}, {"id": 1092343, "name": "Mavingouni", "country": "KM", "coord": {"lon": 43.252499, "lat": -11.71639}}, {"id": 1092396, "name": "Selea", "country": "KM", "coord": {"lon": 43.26083, "lat": -11.78444}}, {"id": 1092516, "name": "Madjeoueni", "country": "KM", "coord": {"lon": 43.278061, "lat": -11.82167}}, {"id": 1092529, "name": "Nioumamilima", "country": "KM", "coord": {"lon": 43.437222, "lat": -11.85111}}, {"id": 8030185, "name": "Mkiriwadjumoi", "country": "KM", "coord": {"lon": 44.437019, "lat": -12.31086}}, {"id": 3575156, "name": "Sandy Point Town", "country": "KN", "coord": {"lon": -62.833328, "lat": 17.35}}, {"id": 3575284, "name": "Monkey Hill", "country": "KN", "coord": {"lon": -62.716671, "lat": 17.316669}}, {"id": 3575441, "name": "Dieppe Bay Town", "country": "KN", "coord": {"lon": -62.815281, "lat": 17.41297}}, {"id": 3575479, "name": "Charlestown", "country": "KN", "coord": {"lon": -62.616669, "lat": 17.133329}}, {"id": 3575487, "name": "Cayon", "country": "KN", "coord": {"lon": -62.73333, "lat": 17.35}}, {"id": 1866362, "name": "Yonggang-up", "country": "KP", "coord": {"lon": 125.424438, "lat": 38.85611}}, {"id": 1866453, "name": "Yongbyon", "country": "KP", "coord": {"lon": 125.804169, "lat": 39.813332}}, {"id": 1866587, "name": "Yomju-up", "country": "KP", "coord": {"lon": 124.598061, "lat": 39.89333}}, {"id": 1871028, "name": "Sangsong-ni", "country": "KP", "coord": {"lon": 126.885559, "lat": 39.169441}}, {"id": 1871871, "name": "Pyongsong", "country": "KP", "coord": {"lon": 125.871941, "lat": 39.246391}}, {"id": 1871967, "name": "Pyoksong-up", "country": "KP", "coord": {"lon": 125.556671, "lat": 38.047501}}, {"id": 1872726, "name": "Panghyon-dong", "country": "KP", "coord": {"lon": 125.241386, "lat": 39.887218}}, {"id": 1875054, "name": "Kwaksan", "country": "KP", "coord": {"lon": 125.082779, "lat": 39.6875}}, {"id": 1875790, "name": "Koksan", "country": "KP", "coord": {"lon": 126.666389, "lat": 38.78194}}, {"id": 1932058, "name": "Sinsang-ni", "country": "KP", "coord": {"lon": 127.40583, "lat": 39.65028}}, {"id": 2039557, "name": "Ungsang-nodongjagu", "country": "KP", "coord": {"lon": 130.462219, "lat": 42.35778}}, {"id": 2039625, "name": "Uijin-dong", "country": "KP", "coord": {"lon": 126.495842, "lat": 40.975182}}, {"id": 2040316, "name": "Sungam-nodongjagu", "country": "KP", "coord": {"lon": 129.668884, "lat": 41.66972}}, {"id": 2041702, "name": "Puryong", "country": "KP", "coord": {"lon": 129.71167, "lat": 42.060558}}, {"id": 2041817, "name": "Pukchil-lodongjagu", "country": "KP", "coord": {"lon": 125.748329, "lat": 40.201939}}, {"id": 2042985, "name": "Kyongwon", "country": "KP", "coord": {"lon": 130.152786, "lat": 42.81361}}, {"id": 2043837, "name": "Hyesan-si", "country": "KP", "coord": {"lon": 128.17778, "lat": 41.401669}}, {"id": 2043983, "name": "Hungju-dong", "country": "KP", "coord": {"lon": 126.547562, "lat": 40.996288}}, {"id": 2044104, "name": "Hoemul-li", "country": "KP", "coord": {"lon": 129.669998, "lat": 41.433891}}, {"id": 2044149, "name": "Hau-ri", "country": "KP", "coord": {"lon": 129.470276, "lat": 41.200562}}, {"id": 2045005, "name": "Chasong", "country": "KP", "coord": {"lon": 126.641388, "lat": 41.460831}}, {"id": 2049653, "name": "Sungjibaegam", "country": "KP", "coord": {"lon": 128.798889, "lat": 41.242779}}, {"id": 2050500, "name": "Komusan 1-tong", "country": "KP", "coord": {"lon": 129.699997, "lat": 42.109169}}, {"id": 285673, "name": "Az Zawr", "country": "KW", "coord": {"lon": 48.274719, "lat": 29.442499}}, {"id": 285721, "name": "Ash Shamiyah", "country": "KW", "coord": {"lon": 47.96167, "lat": 29.347219}}, {"id": 285760, "name": "Al Wafrah", "country": "KW", "coord": {"lon": 47.930561, "lat": 28.63917}}, {"id": 285810, "name": "Al Funaytis", "country": "KW", "coord": {"lon": 48.101669, "lat": 29.225281}}, {"id": 3580477, "name": "West Bay", "country": "KY", "coord": {"lon": -81.416672, "lat": 19.366671}}, {"id": 3580733, "name": "Bodden Town", "country": "KY", "coord": {"lon": -81.25, "lat": 19.283331}}, {"id": 607510, "name": "Zhumysker", "country": "KZ", "coord": {"lon": 49.400002, "lat": 49.333328}}, {"id": 607551, "name": "Zhetibay", "country": "KZ", "coord": {"lon": 52.078892, "lat": 43.59417}}, {"id": 608036, "name": "Temir", "country": "KZ", "coord": {"lon": 57.130001, "lat": 49.141392}}, {"id": 608053, "name": "Taushyq", "country": "KZ", "coord": {"lon": 51.353611, "lat": 44.35667}}, {"id": 608270, "name": "Shubarshi", "country": "KZ", "coord": {"lon": 57.186939, "lat": 48.587219}}, {"id": 608402, "name": "Sayotesh", "country": "KZ", "coord": {"lon": 53.536388, "lat": 44.32972}}, {"id": 608413, "name": "Saykhin", "country": "KZ", "coord": {"lon": 46.833611, "lat": 48.85611}}, {"id": 608816, "name": "Miyaly", "country": "KZ", "coord": {"lon": 53.783611, "lat": 48.884441}}, {"id": 608867, "name": "Martuk", "country": "KZ", "coord": {"lon": 56.505562, "lat": 50.747501}}, {"id": 608872, "name": "Maqat", "country": "KZ", "coord": {"lon": 53.316669, "lat": 47.650002}}, {"id": 608901, "name": "Maloye Ganyushkino", "country": "KZ", "coord": {"lon": 49.26667, "lat": 46.599998}}, {"id": 609167, "name": "Krugloozernoe", "country": "KZ", "coord": {"lon": 51.285278, "lat": 51.0825}}, {"id": 609537, "name": "Qaraton", "country": "KZ", "coord": {"lon": 53.486389, "lat": 46.43528}}, {"id": 609721, "name": "Kamenka", "country": "KZ", "coord": {"lon": 50.316669, "lat": 51.116669}}, {"id": 609798, "name": "Inderbor", "country": "KZ", "coord": {"lon": 51.783329, "lat": 48.549999}}, {"id": 609965, "name": "Dzhangala", "country": "KZ", "coord": {"lon": 50.333328, "lat": 49.216671}}, {"id": 610023, "name": "Dossor", "country": "KZ", "coord": {"lon": 52.98111, "lat": 47.527222}}, {"id": 610132, "name": "Chapaev", "country": "KZ", "coord": {"lon": 51.166672, "lat": 50.200001}}, {"id": 610164, "name": "Burlin", "country": "KZ", "coord": {"lon": 52.712502, "lat": 51.426941}}, {"id": 610389, "name": "Bayshonas", "country": "KZ", "coord": {"lon": 52.941109, "lat": 47.24139}}, {"id": 610398, "name": "Bautino", "country": "KZ", "coord": {"lon": 50.249901, "lat": 44.54512}}, {"id": 610764, "name": "Akkol", "country": "KZ", "coord": {"lon": 53.200001, "lat": 48.783329}}, {"id": 828390, "name": "Omirzaq", "country": "KZ", "coord": {"lon": 51.255001, "lat": 43.59639}}, {"id": 1516590, "name": "Zhezkent", "country": "KZ", "coord": {"lon": 81.361504, "lat": 50.931122}}, {"id": 1516678, "name": "Saken Seyfullin", "country": "KZ", "coord": {"lon": 72.82972, "lat": 48.851669}}, {"id": 1516984, "name": "Zhalghyztobe", "country": "KZ", "coord": {"lon": 81.215958, "lat": 49.210941}}, {"id": 1517020, "name": "Zhaqsy", "country": "KZ", "coord": {"lon": 67.313332, "lat": 51.908329}}, {"id": 1517305, "name": "Yavlenka", "country": "KZ", "coord": {"lon": 68.457497, "lat": 54.346111}}, {"id": 1517410, "name": "Saumalkol", "country": "KZ", "coord": {"lon": 68.104172, "lat": 53.293331}}, {"id": 1517474, "name": "Verkhniye Kayrakty", "country": "KZ", "coord": {"lon": 73.283333, "lat": 48.683331}}, {"id": 1517610, "name": "Ust-Talovka", "country": "KZ", "coord": {"lon": 81.849968, "lat": 50.549271}}, {"id": 1517721, "name": "Urzhar", "country": "KZ", "coord": {"lon": 81.629387, "lat": 47.093021}}, {"id": 1517957, "name": "Turgen", "country": "KZ", "coord": {"lon": 77.59333, "lat": 43.400558}}, {"id": 1518009, "name": "Timiryazevo", "country": "KZ", "coord": {"lon": 66.520561, "lat": 53.74194}}, {"id": 1518019, "name": "Troyebratskiy", "country": "KZ", "coord": {"lon": 66.076668, "lat": 54.432499}}, {"id": 1518062, "name": "Torghay", "country": "KZ", "coord": {"lon": 63.498058, "lat": 49.633888}}, {"id": 1518112, "name": "Tokarevka", "country": "KZ", "coord": {"lon": 73.165558, "lat": 50.119171}}, {"id": 1518203, "name": "Terenozek", "country": "KZ", "coord": {"lon": 64.98333, "lat": 45.049999}}, {"id": 1518462, "name": "Taranovskoye", "country": "KZ", "coord": {"lon": 62.516392, "lat": 52.822781}}, {"id": 1518687, "name": "Suykbulak", "country": "KZ", "coord": {"lon": 81.048477, "lat": 49.708149}}, {"id": 1518768, "name": "Stepnyak", "country": "KZ", "coord": {"lon": 70.780281, "lat": 52.833889}}, {"id": 1519050, "name": "Shortandy", "country": "KZ", "coord": {"lon": 70.999443, "lat": 51.700562}}, {"id": 1519277, "name": "Shantobe", "country": "KZ", "coord": {"lon": 68.183891, "lat": 52.458061}}, {"id": 1519333, "name": "Shakhan", "country": "KZ", "coord": {"lon": 72.634171, "lat": 49.82333}}, {"id": 1519385, "name": "Sergeyevka", "country": "KZ", "coord": {"lon": 67.415833, "lat": 53.880001}}, {"id": 1519463, "name": "Sayaq", "country": "KZ", "coord": {"lon": 77.26667, "lat": 47}}, {"id": 1519625, "name": "Sarykamys", "country": "KZ", "coord": {"lon": 78.716667, "lat": 47.783329}}, {"id": 1519932, "name": "Kachar", "country": "KZ", "coord": {"lon": 62.929722, "lat": 53.39056}}, {"id": 1519936, "name": "Qarauyl", "country": "KZ", "coord": {"lon": 79.25502, "lat": 48.945091}}, {"id": 1520025, "name": "Tughyl", "country": "KZ", "coord": {"lon": 84.206291, "lat": 47.725208}}, {"id": 1520196, "name": "Pervorosiyskiy", "country": "KZ", "coord": {"lon": 83.849197, "lat": 49.716499}}, {"id": 1520208, "name": "Pervomayskiy", "country": "KZ", "coord": {"lon": 76.940002, "lat": 43.373611}}, {"id": 1520281, "name": "Oytal", "country": "KZ", "coord": {"lon": 73.269722, "lat": 42.905731}}, {"id": 1520474, "name": "Ognevka", "country": "KZ", "coord": {"lon": 83.016739, "lat": 49.683521}}, {"id": 1520660, "name": "Zhanga Buqtyrma", "country": "KZ", "coord": {"lon": 83.52475, "lat": 49.629501}}, {"id": 1521048, "name": "Mayqayyng", "country": "KZ", "coord": {"lon": 75.798607, "lat": 51.462502}}, {"id": 1521292, "name": "Kulan", "country": "KZ", "coord": {"lon": 72.717789, "lat": 42.909431}}, {"id": 1521293, "name": "Lugovoy", "country": "KZ", "coord": {"lon": 72.764442, "lat": 42.94722}}, {"id": 1521333, "name": "Lepsy", "country": "KZ", "coord": {"lon": 78.945557, "lat": 46.235001}}, {"id": 1521365, "name": "Leninskiy", "country": "KZ", "coord": {"lon": 76.780563, "lat": 52.250278}}, {"id": 1521401, "name": "Kishkenekol", "country": "KZ", "coord": {"lon": 72.341393, "lat": 53.636391}}, {"id": 1521425, "name": "Kyzylzhar", "country": "KZ", "coord": {"lon": 72.583328, "lat": 49.98333}}, {"id": 1521998, "name": "Krasnoznamenskoe", "country": "KZ", "coord": {"lon": 69.474167, "lat": 51.053059}}, {"id": 1522026, "name": "Krasnogorskiy", "country": "KZ", "coord": {"lon": 66.57444, "lat": 52.240559}}, {"id": 1522348, "name": "Komsomolets", "country": "KZ", "coord": {"lon": 62.070831, "lat": 53.745281}}, {"id": 1522447, "name": "Kokterek", "country": "KZ", "coord": {"lon": 70.26667, "lat": 42.533329}}, {"id": 1522466, "name": "Koktal", "country": "KZ", "coord": {"lon": 73.51667, "lat": 49.650002}}, {"id": 1522503, "name": "Kokpekty", "country": "KZ", "coord": {"lon": 82.400002, "lat": 48.75}}, {"id": 1522643, "name": "Asykata", "country": "KZ", "coord": {"lon": 68.361107, "lat": 40.899441}}, {"id": 1522714, "name": "Khantau", "country": "KZ", "coord": {"lon": 73.800003, "lat": 44.230831}}, {"id": 1523149, "name": "Karasu", "country": "KZ", "coord": {"lon": 65.491112, "lat": 52.672501}}, {"id": 1523470, "name": "Karabas", "country": "KZ", "coord": {"lon": 76.199997, "lat": 46.533329}}, {"id": 1523512, "name": "Khantaghy", "country": "KZ", "coord": {"lon": 68.577499, "lat": 43.52639}}, {"id": 1523662, "name": "Kachiry", "country": "KZ", "coord": {"lon": 76.103607, "lat": 53.067501}}, {"id": 1524138, "name": "Ilyich", "country": "KZ", "coord": {"lon": 68.506668, "lat": 40.84639}}, {"id": 1524182, "name": "Granitogorsk", "country": "KZ", "coord": {"lon": 73.469063, "lat": 42.74337}}, {"id": 1524265, "name": "Moyynkum", "country": "KZ", "coord": {"lon": 72.946938, "lat": 44.291389}}, {"id": 1524282, "name": "Fedorovka", "country": "KZ", "coord": {"lon": 62.707779, "lat": 53.63139}}, {"id": 1524451, "name": "Zhambyl", "country": "KZ", "coord": {"lon": 71.396942, "lat": 47.20694}}, {"id": 1524537, "name": "Dostyq", "country": "KZ", "coord": {"lon": 82.487831, "lat": 45.255001}}, {"id": 1524571, "name": "Dolinka", "country": "KZ", "coord": {"lon": 72.676109, "lat": 49.674171}}, {"id": 1524703, "name": "Sholaqqkorghan", "country": "KZ", "coord": {"lon": 69.181389, "lat": 43.764999}}, {"id": 1525121, "name": "Borovskoy", "country": "KZ", "coord": {"lon": 64.150002, "lat": 53.799999}}, {"id": 1525126, "name": "Burabay", "country": "KZ", "coord": {"lon": 70.313789, "lat": 53.08382}}, {"id": 1525134, "name": "Borodulikha", "country": "KZ", "coord": {"lon": 80.929497, "lat": 50.71841}}, {"id": 1525223, "name": "Priisk Boko", "country": "KZ", "coord": {"lon": 81.645279, "lat": 49.06028}}, {"id": 1525504, "name": "Koktobe", "country": "KZ", "coord": {"lon": 77.47139, "lat": 51.52972}}, {"id": 1525506, "name": "Belogorskiy", "country": "KZ", "coord": {"lon": 83.148033, "lat": 49.476978}}, {"id": 1525576, "name": "Bayzhansay", "country": "KZ", "coord": {"lon": 69.937218, "lat": 43.18}}, {"id": 1525658, "name": "Bayaldyr", "country": "KZ", "coord": {"lon": 68.316673, "lat": 42.833328}}, {"id": 1525809, "name": "Balkashino", "country": "KZ", "coord": {"lon": 68.76667, "lat": 52.51667}}, {"id": 1526059, "name": "Astrakhan", "country": "KZ", "coord": {"lon": 69.797218, "lat": 51.528332}}, {"id": 1526081, "name": "Ashchysay", "country": "KZ", "coord": {"lon": 68.888893, "lat": 43.554169}}, {"id": 1526268, "name": "Aqtoghay", "country": "KZ", "coord": {"lon": 79.666672, "lat": 46.950001}}, {"id": 1526271, "name": "Aqsu", "country": "KZ", "coord": {"lon": 71.985832, "lat": 52.458611}}, {"id": 1526272, "name": "Aqshatau", "country": "KZ", "coord": {"lon": 74.057503, "lat": 47.98917}}, {"id": 1526274, "name": "Aqadyr", "country": "KZ", "coord": {"lon": 72.848328, "lat": 48.25528}}, {"id": 1526443, "name": "Aqkol", "country": "KZ", "coord": {"lon": 70.934174, "lat": 51.99778}}, {"id": 1526522, "name": "Akzhal", "country": "KZ", "coord": {"lon": 75.584381, "lat": 49.69244}}, {"id": 1526573, "name": "Aktogay", "country": "KZ", "coord": {"lon": 75.300003, "lat": 48.166672}}, {"id": 1526601, "name": "Aktau", "country": "KZ", "coord": {"lon": 72.833328, "lat": 48.033329}}, {"id": 1526636, "name": "Aqsu-Ayuly", "country": "KZ", "coord": {"lon": 73.672218, "lat": 48.766392}}, {"id": 1526648, "name": "Aksuat", "country": "KZ", "coord": {"lon": 83.699997, "lat": 48.716671}}, {"id": 1526900, "name": "Aqbaqay", "country": "KZ", "coord": {"lon": 72.783333, "lat": 45}}, {"id": 1529724, "name": "Shalqiya", "country": "KZ", "coord": {"lon": 67.332222, "lat": 43.979439}}, {"id": 1532249, "name": "Birlestik", "country": "KZ", "coord": {"lon": 68.354172, "lat": 53.582779}}, {"id": 1534565, "name": "Maleevsk", "country": "KZ", "coord": {"lon": 84.286987, "lat": 49.811779}}, {"id": 1535059, "name": "Belkol", "country": "KZ", "coord": {"lon": 65.587502, "lat": 44.81028}}, {"id": 1535379, "name": "Novoishimskiy", "country": "KZ", "coord": {"lon": 66.76944, "lat": 53.198059}}, {"id": 1537253, "name": "Shashubay", "country": "KZ", "coord": {"lon": 75.040283, "lat": 46.81694}}, {"id": 1537856, "name": "Shyghanaq", "country": "KZ", "coord": {"lon": 70.001938, "lat": 44.830559}}, {"id": 1537909, "name": "Shubarkol", "country": "KZ", "coord": {"lon": 68.80722, "lat": 48.882221}}, {"id": 1537947, "name": "Zavodskoy", "country": "KZ", "coord": {"lon": 72.01889, "lat": 52.477501}}, {"id": 1538012, "name": "Altay", "country": "KZ", "coord": {"lon": 82.360977, "lat": 50.244888}}, {"id": 1653814, "name": "Phou Pialong", "country": "LA", "coord": {"lon": 102.182777, "lat": 21.41889}}, {"id": 1653894, "name": "Phongsali", "country": "LA", "coord": {"lon": 102.105827, "lat": 21.683331}}, {"id": 1654401, "name": "Pakkading", "country": "LA", "coord": {"lon": 103.993294, "lat": 18.32357}}, {"id": 1655084, "name": "Xaignabouli", "country": "LA", "coord": {"lon": 101.75, "lat": 19.25}}, {"id": 1655094, "name": "Thateng", "country": "LA", "coord": {"lon": 106.383331, "lat": 15.43333}}, {"id": 1655104, "name": "Soukkouma", "country": "LA", "coord": {"lon": 105.800003, "lat": 14.63333}}, {"id": 1655112, "name": "Muang Sanakham", "country": "LA", "coord": {"lon": 101.654442, "lat": 17.90217}}, {"id": 1655122, "name": "Phonthong", "country": "LA", "coord": {"lon": 105.650002, "lat": 15.08333}}, {"id": 1655123, "name": "Muang Phonsavan", "country": "LA", "coord": {"lon": 103.216667, "lat": 19.450001}}, {"id": 1655124, "name": "Muang Phon-Hong", "country": "LA", "coord": {"lon": 102.417221, "lat": 18.492781}}, {"id": 1655139, "name": "Pakxong", "country": "LA", "coord": {"lon": 106.23333, "lat": 15.18333}}, {"id": 1655177, "name": "Muang Long", "country": "LA", "coord": {"lon": 100.800003, "lat": 20.950001}}, {"id": 1655186, "name": "Muang La", "country": "LA", "coord": {"lon": 102.116669, "lat": 20.866671}}, {"id": 1655201, "name": "Muang Kenthao", "country": "LA", "coord": {"lon": 101.397781, "lat": 17.733891}}, {"id": 1655212, "name": "Muang Hinboun", "country": "LA", "coord": {"lon": 104.603882, "lat": 17.591}}, {"id": 1655244, "name": "Mounlapamok", "country": "LA", "coord": {"lon": 105.866669, "lat": 14.33333}}, {"id": 1655562, "name": "Louang Namtha", "country": "LA", "coord": {"lon": 101.401108, "lat": 20.94972}}, {"id": 1657819, "name": "Champasak", "country": "LA", "coord": {"lon": 105.866669, "lat": 14.88333}}, {"id": 1657897, "name": "Bolikhan", "country": "LA", "coord": {"lon": 103.723846, "lat": 18.559731}}, {"id": 1659990, "name": "Lamam", "country": "LA", "coord": {"lon": 106.699997, "lat": 15.41667}}, {"id": 1661950, "name": "Ban Nahin", "country": "LA", "coord": {"lon": 104.212212, "lat": 18.241751}}, {"id": 1663526, "name": "Ban Houayxay", "country": "LA", "coord": {"lon": 100.412781, "lat": 20.2775}}, {"id": 1665046, "name": "Attapu", "country": "LA", "coord": {"lon": 106.833328, "lat": 14.8}}, {"id": 1956309, "name": "Muang Nale", "country": "LA", "coord": {"lon": 101.445557, "lat": 20.533609}}, {"id": 7648072, "name": "Dak Cheung", "country": "LA", "coord": {"lon": 107.26667, "lat": 15.46667}}, {"id": 7648299, "name": "Sanaxy", "country": "LA", "coord": {"lon": 107.260162, "lat": 15.02207}}, {"id": 7648310, "name": "Huameung", "country": "LA", "coord": {"lon": 103.858948, "lat": 20.148951}}, {"id": 7648323, "name": "Viengxay", "country": "LA", "coord": {"lon": 104.344643, "lat": 20.34222}}, {"id": 7648328, "name": "Xamtay", "country": "LA", "coord": {"lon": 104.51722, "lat": 19.94515}}, {"id": 7648330, "name": "Viengthong", "country": "LA", "coord": {"lon": 103.408562, "lat": 20.327921}}, {"id": 265846, "name": "Zgharta", "country": "LB", "coord": {"lon": 35.893608, "lat": 34.399719}}, {"id": 267156, "name": "Sir ed Danniye", "country": "LB", "coord": {"lon": 36.031109, "lat": 34.385281}}, {"id": 271226, "name": "Marjayoun", "country": "LB", "coord": {"lon": 35.59111, "lat": 33.360279}}, {"id": 273185, "name": "Joubb Jannine", "country": "LB", "coord": {"lon": 35.784168, "lat": 33.626942}}, {"id": 273360, "name": "Jezzine", "country": "LB", "coord": {"lon": 35.584438, "lat": 33.541672}}, {"id": 274313, "name": "Hasbaiya", "country": "LB", "coord": {"lon": 35.685001, "lat": 33.397781}}, {"id": 274723, "name": "Halba", "country": "LB", "coord": {"lon": 36.07972, "lat": 34.542782}}, {"id": 276592, "name": "Bent Jbail", "country": "LB", "coord": {"lon": 35.433331, "lat": 33.119438}}, {"id": 276632, "name": "Bhamdoun el Mhatta", "country": "LB", "coord": {"lon": 35.659721, "lat": 33.808609}}, {"id": 276633, "name": "Bhamdoun", "country": "LB", "coord": {"lon": 35.651112, "lat": 33.794998}}, {"id": 276771, "name": "Beit ed Dine", "country": "LB", "coord": {"lon": 35.58083, "lat": 33.694172}}, {"id": 277226, "name": "Baabda", "country": "LB", "coord": {"lon": 35.54417, "lat": 33.833889}}, {"id": 277467, "name": "Ain Ebel", "country": "LB", "coord": {"lon": 35.402512, "lat": 33.110229}}, {"id": 278936, "name": "Amioun", "country": "LB", "coord": {"lon": 35.808891, "lat": 34.299999}}, {"id": 279854, "name": "Jdaidet el Matn", "country": "LB", "coord": {"lon": 35.566391, "lat": 33.89056}}, {"id": 279997, "name": "El Hermel", "country": "LB", "coord": {"lon": 36.38472, "lat": 34.394169}}, {"id": 280328, "name": "Batroun", "country": "LB", "coord": {"lon": 35.658058, "lat": 34.25528}}, {"id": 280425, "name": "Aaley", "country": "LB", "coord": {"lon": 35.599998, "lat": 33.805279}}, {"id": 6253857, "name": "Rachaiya el Ouadi", "country": "LB", "coord": {"lon": 35.839722, "lat": 33.498058}}, {"id": 3576442, "name": "Soufriere", "country": "LC", "coord": {"lon": -61.056599, "lat": 13.85616}}, {"id": 3576569, "name": "Micoud", "country": "LC", "coord": {"lon": -60.900002, "lat": 13.81667}}, {"id": 3576663, "name": "Laborie", "country": "LC", "coord": {"lon": -60.98333, "lat": 13.75}}, {"id": 3576686, "name": "Gros Islet", "country": "LC", "coord": {"lon": -60.950001, "lat": 14.06667}}, {"id": 3576765, "name": "Dennery", "country": "LC", "coord": {"lon": -60.887859, "lat": 13.89958}}, {"id": 3576854, "name": "Bisee", "country": "LC", "coord": {"lon": -60.966671, "lat": 14.01667}}, {"id": 3576894, "name": "Anse La Raye", "country": "LC", "coord": {"lon": -61.033329, "lat": 13.93333}}, {"id": 3042033, "name": "Triesenberg", "country": "LI", "coord": {"lon": 9.54197, "lat": 47.118149}}, {"id": 3042035, "name": "Triesen", "country": "LI", "coord": {"lon": 9.53333, "lat": 47.099998}}, {"id": 3042037, "name": "Schellenberg", "country": "LI", "coord": {"lon": 9.54678, "lat": 47.231232}}, {"id": 3042041, "name": "Schaan", "country": "LI", "coord": {"lon": 9.50867, "lat": 47.164982}}, {"id": 3042046, "name": "Ruggell", "country": "LI", "coord": {"lon": 9.51667, "lat": 47.23333}}, {"id": 3042049, "name": "Planken", "country": "LI", "coord": {"lon": 9.54437, "lat": 47.185162}}, {"id": 3042055, "name": "Mauren", "country": "LI", "coord": {"lon": 9.5442, "lat": 47.218048}}, {"id": 3042062, "name": "Gamprin", "country": "LI", "coord": {"lon": 9.50935, "lat": 47.220379}}, {"id": 3042068, "name": "Eschen", "country": "LI", "coord": {"lon": 9.52223, "lat": 47.210709}}, {"id": 3042073, "name": "Balzers", "country": "LI", "coord": {"lon": 9.5, "lat": 47.066669}}, {"id": 1224061, "name": "Wattegama", "country": "LK", "coord": {"lon": 81.480797, "lat": 6.7989}}, {"id": 1227037, "name": "Tangalla", "country": "LK", "coord": {"lon": 80.7911, "lat": 6.024}}, {"id": 1227300, "name": "Talawakele", "country": "LK", "coord": {"lon": 80.658096, "lat": 6.9371}}, {"id": 1228051, "name": "Sigiriya", "country": "LK", "coord": {"lon": 80.742599, "lat": 7.9518}}, {"id": 1234808, "name": "Monaragala", "country": "LK", "coord": {"lon": 81.348701, "lat": 6.8714}}, {"id": 1235000, "name": "Minuwangoda", "country": "LK", "coord": {"lon": 79.9533, "lat": 7.1663}}, {"id": 1238427, "name": "Kuliyapitiya", "country": "LK", "coord": {"lon": 80.0401, "lat": 7.4688}}, {"id": 1242571, "name": "Kadugannawa", "country": "LK", "coord": {"lon": 80.5242, "lat": 7.2547}}, {"id": 1243867, "name": "Horana South", "country": "LK", "coord": {"lon": 80.062599, "lat": 6.7159}}, {"id": 1244178, "name": "Hikkaduwa", "country": "LK", "coord": {"lon": 80.101196, "lat": 6.1407}}, {"id": 1244713, "name": "Haputale", "country": "LK", "coord": {"lon": 80.959541, "lat": 6.76812}}, {"id": 1246007, "name": "Gampaha", "country": "LK", "coord": {"lon": 79.9925, "lat": 7.0897}}, {"id": 6285792, "name": "Horawala Junction", "country": "LK", "coord": {"lon": 80.127083, "lat": 6.48088}}, {"id": 8260318, "name": "Shanjeev Home", "country": "LK", "coord": {"lon": 81.84198, "lat": 7.38216}}, {"id": 2273435, "name": "Tubmanburg", "country": "LR", "coord": {"lon": -10.81722, "lat": 6.87083}}, {"id": 2274129, "name": "Sanniquellie", "country": "LR", "coord": {"lon": -8.70611, "lat": 7.36222}}, {"id": 2274275, "name": "Robertsport", "country": "LR", "coord": {"lon": -11.36861, "lat": 6.75333}}, {"id": 2274288, "name": "River Cess", "country": "LR", "coord": {"lon": -9.58278, "lat": 5.46}}, {"id": 2277197, "name": "Ganta", "country": "LR", "coord": {"lon": -8.53083, "lat": 7.30222}}, {"id": 2278248, "name": "Bopolu", "country": "LR", "coord": {"lon": -10.4875, "lat": 7.06667}}, {"id": 2278889, "name": "Barclayville", "country": "LR", "coord": {"lon": -8.23389, "lat": 4.67972}}, {"id": 8260265, "name": "Buutuo", "country": "LR", "coord": {"lon": -8.3428, "lat": 6.8275}}, {"id": 932035, "name": "Teyateyaneng", "country": "LS", "coord": {"lon": 27.748949, "lat": -29.14719}}, {"id": 932416, "name": "Mokhotlong", "country": "LS", "coord": {"lon": 29.067511, "lat": -29.289391}}, {"id": 1106835, "name": "Thaba-Tseka", "country": "LS", "coord": {"lon": 28.6084, "lat": -29.522039}}, {"id": 592828, "name": "Zemaiciu Naumiestis", "country": "LT", "coord": {"lon": 21.702221, "lat": 55.359169}}, {"id": 593746, "name": "Tytuveneliai", "country": "LT", "coord": {"lon": 23.183331, "lat": 55.616669}}, {"id": 594562, "name": "Skaudvile", "country": "LT", "coord": {"lon": 22.616671, "lat": 55.416672}}, {"id": 594639, "name": "Simnas", "country": "LT", "coord": {"lon": 23.65, "lat": 54.400002}}, {"id": 595044, "name": "Sakiai", "country": "LT", "coord": {"lon": 23.03583, "lat": 54.95472}}, {"id": 595087, "name": "Rusne", "country": "LT", "coord": {"lon": 21.37583, "lat": 55.296391}}, {"id": 596643, "name": "Neringa", "country": "LT", "coord": {"lon": 21.06472, "lat": 55.371941}}, {"id": 597729, "name": "Kybartai", "country": "LT", "coord": {"lon": 22.763161, "lat": 54.63858}}, {"id": 597881, "name": "Kulautuva", "country": "LT", "coord": {"lon": 23.6, "lat": 54.933331}}, {"id": 598690, "name": "Juodupe", "country": "LT", "coord": {"lon": 25.616671, "lat": 56.083328}}, {"id": 599161, "name": "Grigiskes", "country": "LT", "coord": {"lon": 25.08333, "lat": 54.683331}}, {"id": 599602, "name": "Elektrenai", "country": "LT", "coord": {"lon": 24.633329, "lat": 54.76667}}, {"id": 599727, "name": "Dukstas", "country": "LT", "coord": {"lon": 26.33333, "lat": 55.533329}}, {"id": 600040, "name": "Daugai", "country": "LT", "coord": {"lon": 24.33333, "lat": 54.366669}}, {"id": 600688, "name": "Baltoji Voke", "country": "LT", "coord": {"lon": 25.200001, "lat": 54.599998}}, {"id": 600896, "name": "Aukstadvaris", "country": "LT", "coord": {"lon": 24.533331, "lat": 54.583328}}, {"id": 2960007, "name": "Wasserbillig", "country": "LU", "coord": {"lon": 6.50028, "lat": 49.709999}}, {"id": 2960115, "name": "Sanem", "country": "LU", "coord": {"lon": 5.92889, "lat": 49.548061}}, {"id": 2960197, "name": "Olm", "country": "LU", "coord": {"lon": 6.00028, "lat": 49.657219}}, {"id": 2960207, "name": "Obercorn", "country": "LU", "coord": {"lon": 5.89611, "lat": 49.513611}}, {"id": 2960270, "name": "Mertzig", "country": "LU", "coord": {"lon": 6.0075, "lat": 49.833889}}, {"id": 2960515, "name": "Grevenmacher", "country": "LU", "coord": {"lon": 6.44194, "lat": 49.674721}}, {"id": 2960657, "name": "Diekirch", "country": "LU", "coord": {"lon": 6.15583, "lat": 49.867779}}, {"id": 2960680, "name": "Colmar", "country": "LU", "coord": {"lon": 6.09722, "lat": 49.81028}}, {"id": 2960775, "name": "Bettendorf", "country": "LU", "coord": {"lon": 6.21806, "lat": 49.876671}}, {"id": 2960791, "name": "Bergem", "country": "LU", "coord": {"lon": 6.04222, "lat": 49.525002}}, {"id": 454273, "name": "Vecumnieki", "country": "LV", "coord": {"lon": 24.522221, "lat": 56.606392}}, {"id": 454372, "name": "Vecvarkava", "country": "LV", "coord": {"lon": 26.51667, "lat": 56.183331}}, {"id": 454602, "name": "Vainode", "country": "LV", "coord": {"lon": 21.866671, "lat": 56.433331}}, {"id": 454714, "name": "Ulbroka", "country": "LV", "coord": {"lon": 24.289721, "lat": 56.941109}}, {"id": 454848, "name": "Tireli", "country": "LV", "coord": {"lon": 23.58902, "lat": 56.839909}}, {"id": 455166, "name": "Strenci", "country": "LV", "coord": {"lon": 25.68535, "lat": 57.62574}}, {"id": 455910, "name": "Salacgriva", "country": "LV", "coord": {"lon": 24.358061, "lat": 57.753609}}, {"id": 456015, "name": "Rugaji", "country": "LV", "coord": {"lon": 27.133329, "lat": 57}}, {"id": 456090, "name": "Ropazi", "country": "LV", "coord": {"lon": 24.63361, "lat": 56.973888}}, {"id": 456107, "name": "Roja", "country": "LV", "coord": {"lon": 22.816669, "lat": 57.5}}, {"id": 456506, "name": "Priekule", "country": "LV", "coord": {"lon": 21.58968, "lat": 56.446789}}, {"id": 456685, "name": "Pinki", "country": "LV", "coord": {"lon": 23.91083, "lat": 56.94194}}, {"id": 456696, "name": "Piltene", "country": "LV", "coord": {"lon": 21.674391, "lat": 57.224258}}, {"id": 456698, "name": "Pilsrundale", "country": "LV", "coord": {"lon": 24, "lat": 56.416672}}, {"id": 456954, "name": "Ozolnieki", "country": "LV", "coord": {"lon": 23.787781, "lat": 56.68639}}, {"id": 457211, "name": "Murmuiza", "country": "LV", "coord": {"lon": 25.48333, "lat": 57.48333}}, {"id": 457408, "name": "Mersrags", "country": "LV", "coord": {"lon": 23.12455, "lat": 57.33535}}, {"id": 457676, "name": "Malpils", "country": "LV", "coord": {"lon": 24.96306, "lat": 57.011108}}, {"id": 457822, "name": "Loja", "country": "LV", "coord": {"lon": 24.64444, "lat": 57.154442}}, {"id": 458460, "name": "Kuldiga", "country": "LV", "coord": {"lon": 21.957211, "lat": 56.973991}}, {"id": 458880, "name": "Kekava", "country": "LV", "coord": {"lon": 24.23, "lat": 56.826618}}, {"id": 458972, "name": "Karsava", "country": "LV", "coord": {"lon": 27.68829, "lat": 56.78405}}, {"id": 459220, "name": "Jumprava", "country": "LV", "coord": {"lon": 24.972099, "lat": 56.676128}}, {"id": 459357, "name": "Jaunpils", "country": "LV", "coord": {"lon": 23.013611, "lat": 56.732498}}, {"id": 459419, "name": "Jaunciems", "country": "LV", "coord": {"lon": 24.174129, "lat": 57.039101}}, {"id": 459563, "name": "Incukalns", "country": "LV", "coord": {"lon": 24.68639, "lat": 57.098061}}, {"id": 459586, "name": "Ilukste", "country": "LV", "coord": {"lon": 26.296551, "lat": 55.977539}}, {"id": 459692, "name": "Grobina", "country": "LV", "coord": {"lon": 21.16782, "lat": 56.53521}}, {"id": 459984, "name": "Cibla", "country": "LV", "coord": {"lon": 27.883329, "lat": 56.549999}}, {"id": 460416, "name": "Daugavgriva", "country": "LV", "coord": {"lon": 24.036131, "lat": 57.043152}}, {"id": 460885, "name": "Bolderaja", "country": "LV", "coord": {"lon": 24.05571, "lat": 57.031319}}, {"id": 461163, "name": "Balvi", "country": "LV", "coord": {"lon": 27.265829, "lat": 57.131302}}, {"id": 461180, "name": "Baltinava", "country": "LV", "coord": {"lon": 27.65, "lat": 56.950001}}, {"id": 461224, "name": "Baldone", "country": "LV", "coord": {"lon": 24.39444, "lat": 56.742779}}, {"id": 461336, "name": "Auce", "country": "LV", "coord": {"lon": 22.90169, "lat": 56.459808}}, {"id": 461615, "name": "Aizkraukle", "country": "LV", "coord": {"lon": 25.255341, "lat": 56.604771}}, {"id": 461631, "name": "Aglona", "country": "LV", "coord": {"lon": 27.01667, "lat": 56.133331}}, {"id": 461650, "name": "Adazi", "country": "LV", "coord": {"lon": 24.32139, "lat": 57.075829}}, {"id": 864721, "name": "Balozi", "country": "LV", "coord": {"lon": 24.11861, "lat": 56.87611}}, {"id": 80509, "name": "Bardiyah", "country": "LY", "coord": {"lon": 25.086531, "lat": 31.756149}}, {"id": 86049, "name": "Gialo", "country": "LY", "coord": {"lon": 21.549999, "lat": 29.033331}}, {"id": 88533, "name": "Awjilah", "country": "LY", "coord": {"lon": 21.28694, "lat": 29.108061}}, {"id": 88930, "name": "Al Kufrah", "country": "LY", "coord": {"lon": 23.269621, "lat": 24.16667}}, {"id": 88967, "name": "Al Jaghbub", "country": "LY", "coord": {"lon": 24.51676, "lat": 29.74262}}, {"id": 2215210, "name": "Al Burayqah", "country": "LY", "coord": {"lon": 19.57386, "lat": 30.40624}}, {"id": 2216432, "name": "Giado", "country": "LY", "coord": {"lon": 12.02034, "lat": 31.958151}}, {"id": 2218970, "name": "Az Zawiyah", "country": "LY", "coord": {"lon": 12.72764, "lat": 32.757099}}, {"id": 2220139, "name": "Al Aziziyah", "country": "LY", "coord": {"lon": 13.0175, "lat": 32.53194}}, {"id": 2220309, "name": "Idri", "country": "LY", "coord": {"lon": 13.26667, "lat": 27.5}}, {"id": 2525874, "name": "Zoumi", "country": "MA", "coord": {"lon": -5.34458, "lat": 34.803211}}, {"id": 2525973, "name": "Zinat", "country": "MA", "coord": {"lon": -5.4, "lat": 35.43}}, {"id": 2526159, "name": "Saddina", "country": "MA", "coord": {"lon": -5.45191, "lat": 35.614101}}, {"id": 2526924, "name": "Touama", "country": "MA", "coord": {"lon": -7.49291, "lat": 31.535009}}, {"id": 2527055, "name": "Tiztoutine", "country": "MA", "coord": {"lon": -3.15273, "lat": 34.971588}}, {"id": 2527184, "name": "Tizguine", "country": "MA", "coord": {"lon": -8.31611, "lat": 31.228359}}, {"id": 2527271, "name": "Tit Mellil", "country": "MA", "coord": {"lon": -7.48647, "lat": 33.558079}}, {"id": 2527366, "name": "Tissa", "country": "MA", "coord": {"lon": -4.66372, "lat": 34.28791}}, {"id": 2527695, "name": "Tiout", "country": "MA", "coord": {"lon": -8.69572, "lat": 30.3887}}, {"id": 2527749, "name": "Tiouli", "country": "MA", "coord": {"lon": -1.83705, "lat": 34.366791}}, {"id": 2528013, "name": "Timoulilt", "country": "MA", "coord": {"lon": -6.4666, "lat": 32.203678}}, {"id": 2528129, "name": "Timezgana", "country": "MA", "coord": {"lon": -4.73, "lat": 34.580002}}, {"id": 2528130, "name": "Timezgadiouine", "country": "MA", "coord": {"lon": -9.04548, "lat": 30.883659}}, {"id": 2528258, "name": "Tilmi", "country": "MA", "coord": {"lon": -5.76812, "lat": 31.81794}}, {"id": 2528650, "name": "Tifni", "country": "MA", "coord": {"lon": -6.94093, "lat": 31.627769}}, {"id": 2529019, "name": "Telouet", "country": "MA", "coord": {"lon": -7.23789, "lat": 31.28924}}, {"id": 2529133, "name": "Tazouta", "country": "MA", "coord": {"lon": -4.63392, "lat": 33.66991}}, {"id": 2529245, "name": "Taznakht", "country": "MA", "coord": {"lon": -7.20341, "lat": 30.57836}}, {"id": 2529251, "name": "Tazemmourt", "country": "MA", "coord": {"lon": -8.829, "lat": 30.408541}}, {"id": 2529286, "name": "Tazarine", "country": "MA", "coord": {"lon": -4.1862, "lat": 33.88306}}, {"id": 2529362, "name": "Tata", "country": "MA", "coord": {"lon": -7.973, "lat": 29.744089}}, {"id": 2529621, "name": "Tarsouat", "country": "MA", "coord": {"lon": -9.02664, "lat": 29.58153}}, {"id": 2529656, "name": "Teroual", "country": "MA", "coord": {"lon": -5.27331, "lat": 34.674519}}, {"id": 2529872, "name": "Targuist", "country": "MA", "coord": {"lon": -4.31856, "lat": 34.937691}}, {"id": 2529923, "name": "Tarfaya", "country": "MA", "coord": {"lon": -12.92184, "lat": 27.93578}}, {"id": 2530148, "name": "Taounza", "country": "MA", "coord": {"lon": -6.60607, "lat": 32.093681}}, {"id": 2530160, "name": "Taouloukoult", "country": "MA", "coord": {"lon": -9.07943, "lat": 31.222179}}, {"id": 2530188, "name": "Taouima", "country": "MA", "coord": {"lon": -2.9279, "lat": 35.129902}}, {"id": 2530395, "name": "Tanalt", "country": "MA", "coord": {"lon": -9.16796, "lat": 29.77548}}, {"id": 2530516, "name": "Tamorot", "country": "MA", "coord": {"lon": -4.7794, "lat": 34.936321}}, {"id": 2530843, "name": "Tamanar", "country": "MA", "coord": {"lon": -9.67802, "lat": 31.00087}}, {"id": 2530906, "name": "Talzemt", "country": "MA", "coord": {"lon": -4.19, "lat": 33.59}}, {"id": 2530978, "name": "Talmest", "country": "MA", "coord": {"lon": -9.33, "lat": 31.809999}}, {"id": 2531014, "name": "Taliouine", "country": "MA", "coord": {"lon": -7.91262, "lat": 30.529169}}, {"id": 2531877, "name": "Tafraout", "country": "MA", "coord": {"lon": -8.9747, "lat": 29.724489}}, {"id": 2531994, "name": "Tadrart", "country": "MA", "coord": {"lon": -9.45951, "lat": 30.774771}}, {"id": 2532195, "name": "Tabouda", "country": "MA", "coord": {"lon": -5.1403, "lat": 34.719231}}, {"id": 2532214, "name": "Tabia", "country": "MA", "coord": {"lon": -6.79985, "lat": 32.03009}}, {"id": 2532230, "name": "Tabia", "country": "MA", "coord": {"lon": -8.87688, "lat": 30.03462}}, {"id": 2532270, "name": "Tabant", "country": "MA", "coord": {"lon": -6.41049, "lat": 31.65255}}, {"id": 2532542, "name": "Senada", "country": "MA", "coord": {"lon": -4.21583, "lat": 35.07452}}, {"id": 2532628, "name": "Skoura", "country": "MA", "coord": {"lon": -6.5525, "lat": 31.06262}}, {"id": 2532797, "name": "Sidi Yahya Ou Saad", "country": "MA", "coord": {"lon": -5.57738, "lat": 32.680111}}, {"id": 2532918, "name": "Sidi Smail", "country": "MA", "coord": {"lon": -8.5081, "lat": 32.822681}}, {"id": 2533158, "name": "Sidi Redouane", "country": "MA", "coord": {"lon": -5.44538, "lat": 34.68692}}, {"id": 2533178, "name": "Sidi Rahhal", "country": "MA", "coord": {"lon": -7.47288, "lat": 31.650311}}, {"id": 2533339, "name": "Sidi Moussa", "country": "MA", "coord": {"lon": -7.20095, "lat": 32.272091}}, {"id": 2534315, "name": "Sidi Lamine", "country": "MA", "coord": {"lon": -6.05069, "lat": 32.907829}}, {"id": 2534496, "name": "Sidi Jaber", "country": "MA", "coord": {"lon": -6.42095, "lat": 32.389519}}, {"id": 2534572, "name": "Sidi Harazem", "country": "MA", "coord": {"lon": -4.88343, "lat": 34.027328}}, {"id": 2535477, "name": "Sidi Bousber", "country": "MA", "coord": {"lon": -5.36208, "lat": 34.56284}}, {"id": 2535534, "name": "Sidi Bou Othmane", "country": "MA", "coord": {"lon": -7.94169, "lat": 31.90226}}, {"id": 2536370, "name": "Sidi Amar", "country": "MA", "coord": {"lon": -5.83225, "lat": 32.949871}}, {"id": 2537320, "name": "Sidi Abdallah", "country": "MA", "coord": {"lon": -7.83243, "lat": 32.535439}}, {"id": 2537469, "name": "Selouane", "country": "MA", "coord": {"lon": -2.9423, "lat": 35.073132}}, {"id": 2537965, "name": "Rouadi", "country": "MA", "coord": {"lon": -4.13631, "lat": 35.14119}}, {"id": 2538028, "name": "Rislane", "country": "MA", "coord": {"lon": -2.46034, "lat": 34.769871}}, {"id": 2538099, "name": "Ghouazi", "country": "MA", "coord": {"lon": -5.30235, "lat": 34.477371}}, {"id": 2538332, "name": "Reggada", "country": "MA", "coord": {"lon": -9.70086, "lat": 29.58016}}, {"id": 2538385, "name": "Ratba", "country": "MA", "coord": {"lon": -4.9399, "lat": 34.777721}}, {"id": 2538652, "name": "Ourtzagh", "country": "MA", "coord": {"lon": -4.96878, "lat": 34.534771}}, {"id": 2538898, "name": "Oulmes", "country": "MA", "coord": {"lon": -6.00137, "lat": 33.42585}}, {"id": 2539139, "name": "Oulad Tayeb", "country": "MA", "coord": {"lon": -4.99509, "lat": 33.946331}}, {"id": 2539936, "name": "Oulad Daoud", "country": "MA", "coord": {"lon": -4.69342, "lat": 34.404381}}, {"id": 2540207, "name": "Oulad Ayad", "country": "MA", "coord": {"lon": -6.8, "lat": 32.200001}}, {"id": 2540512, "name": "Ouirgane", "country": "MA", "coord": {"lon": -8.07329, "lat": 31.17766}}, {"id": 2540554, "name": "Ouijjane", "country": "MA", "coord": {"lon": -9.53959, "lat": 29.627781}}, {"id": 2540698, "name": "Oued Laou", "country": "MA", "coord": {"lon": -5.09627, "lat": 35.448399}}, {"id": 2540716, "name": "Oued Amlil", "country": "MA", "coord": {"lon": -4.28, "lat": 34.200001}}, {"id": 2541779, "name": "Moulay Yacoub", "country": "MA", "coord": {"lon": -5.18171, "lat": 34.087929}}, {"id": 2541830, "name": "Moulay Brahim", "country": "MA", "coord": {"lon": -7.9683, "lat": 31.287849}}, {"id": 2541840, "name": "Moulay Bouchta", "country": "MA", "coord": {"lon": -5.13023, "lat": 34.48922}}, {"id": 2541906, "name": "Moulay Abdallah", "country": "MA", "coord": {"lon": -8.58811, "lat": 33.19664}}, {"id": 2542147, "name": "Missour", "country": "MA", "coord": {"lon": -3.98946, "lat": 33.048931}}, {"id": 2542230, "name": "Midar", "country": "MA", "coord": {"lon": -3.53311, "lat": 34.94025}}, {"id": 2542826, "name": "Mediouna", "country": "MA", "coord": {"lon": -7.51995, "lat": 33.451611}}, {"id": 2542957, "name": "Matmata", "country": "MA", "coord": {"lon": -4.55219, "lat": 34.09914}}, {"id": 2543231, "name": "Madagh", "country": "MA", "coord": {"lon": -2.33701, "lat": 35.010319}}, {"id": 2543394, "name": "Ifrane", "country": "MA", "coord": {"lon": -6.3494, "lat": 31.702169}}, {"id": 2543667, "name": "Lalla Mimouna", "country": "MA", "coord": {"lon": -6.06645, "lat": 34.846062}}, {"id": 2544510, "name": "Kerrouchen", "country": "MA", "coord": {"lon": -5.3188, "lat": 32.796391}}, {"id": 2544815, "name": "Kariat Arkmane", "country": "MA", "coord": {"lon": -2.74693, "lat": 35.107101}}, {"id": 2544821, "name": "Karia Ba Mohamed", "country": "MA", "coord": {"lon": -5.2138, "lat": 34.370941}}, {"id": 2544968, "name": "Jorf", "country": "MA", "coord": {"lon": -4.40598, "lat": 31.494419}}, {"id": 2545346, "name": "Itzer", "country": "MA", "coord": {"lon": -5.0515, "lat": 32.8783}}, {"id": 2545436, "name": "Isseksi", "country": "MA", "coord": {"lon": -6.27661, "lat": 32.229809}}, {"id": 2546081, "name": "Imider", "country": "MA", "coord": {"lon": -5.79384, "lat": 31.37324}}, {"id": 2546187, "name": "Imilchil", "country": "MA", "coord": {"lon": -5.62453, "lat": 32.153091}}, {"id": 2546627, "name": "Iguidi", "country": "MA", "coord": {"lon": -7.90294, "lat": 30.838261}}, {"id": 2547782, "name": "Hassi Berkane", "country": "MA", "coord": {"lon": -2.86699, "lat": 34.838982}}, {"id": 2548313, "name": "Zerkten", "country": "MA", "coord": {"lon": -7.39224, "lat": 31.4447}}, {"id": 2548320, "name": "Had Kourt", "country": "MA", "coord": {"lon": -5.7404, "lat": 34.615879}}, {"id": 2548343, "name": "Oulad Frej", "country": "MA", "coord": {"lon": -8.2274, "lat": 32.95956}}, {"id": 2548420, "name": "Guisser", "country": "MA", "coord": {"lon": -7.49818, "lat": 32.766449}}, {"id": 2548503, "name": "Guenfouda", "country": "MA", "coord": {"lon": -2.04562, "lat": 34.483608}}, {"id": 2548623, "name": "Goulmima", "country": "MA", "coord": {"lon": -4.95256, "lat": 31.69227}}, {"id": 2548713, "name": "Galaz", "country": "MA", "coord": {"lon": -4.80355, "lat": 34.544239}}, {"id": 2548851, "name": "Figuig (Centre)", "country": "MA", "coord": {"lon": -1.22855, "lat": 32.10891}}, {"id": 2548855, "name": "Fifi", "country": "MA", "coord": {"lon": -5.24798, "lat": 34.94873}}, {"id": 2548869, "name": "Fezna", "country": "MA", "coord": {"lon": -4.45562, "lat": 31.529209}}, {"id": 2549076, "name": "Ezzhiliga", "country": "MA", "coord": {"lon": -6.53, "lat": 33.299999}}, {"id": 2549750, "name": "El Ksiba", "country": "MA", "coord": {"lon": -6.01947, "lat": 32.572861}}, {"id": 2550684, "name": "Ouaoula", "country": "MA", "coord": {"lon": -6.75, "lat": 31.870001}}, {"id": 2552306, "name": "Derdara", "country": "MA", "coord": {"lon": -5.29015, "lat": 35.110409}}, {"id": 2552407, "name": "Debdou", "country": "MA", "coord": {"lon": -3.04263, "lat": 33.982281}}, {"id": 2552531, "name": "Riah", "country": "MA", "coord": {"lon": -7.37504, "lat": 33.151218}}, {"id": 2552545, "name": "Dar Ould Zidouh", "country": "MA", "coord": {"lon": -6.90494, "lat": 32.312469}}, {"id": 2552615, "name": "Dar Bouazza", "country": "MA", "coord": {"lon": -7.81677, "lat": 33.51535}}, {"id": 2552886, "name": "Dar Chaoui", "country": "MA", "coord": {"lon": -5.71742, "lat": 35.537701}}, {"id": 2553654, "name": "Bzou", "country": "MA", "coord": {"lon": -7.04786, "lat": 32.091709}}, {"id": 2553694, "name": "Brikcha", "country": "MA", "coord": {"lon": -5.57295, "lat": 34.967319}}, {"id": 2554281, "name": "Boumia", "country": "MA", "coord": {"lon": -5.1025, "lat": 32.723598}}, {"id": 2554389, "name": "Boulemane", "country": "MA", "coord": {"lon": -4.72896, "lat": 33.363762}}, {"id": 2554409, "name": "Boulaouane", "country": "MA", "coord": {"lon": -8.05555, "lat": 32.859951}}, {"id": 2554997, "name": "Boudinar", "country": "MA", "coord": {"lon": -3.62358, "lat": 35.15601}}, {"id": 2555157, "name": "Bouarfa", "country": "MA", "coord": {"lon": -1.95, "lat": 32.529999}}, {"id": 2555262, "name": "Bouabout", "country": "MA", "coord": {"lon": -9.17865, "lat": 31.265539}}, {"id": 2555372, "name": "Bigoudine", "country": "MA", "coord": {"lon": -9.21097, "lat": 30.723761}}, {"id": 2555395, "name": "Bhalil", "country": "MA", "coord": {"lon": -4.87228, "lat": 33.85194}}, {"id": 2556377, "name": "Bab Taza", "country": "MA", "coord": {"lon": -5.19828, "lat": 35.061661}}, {"id": 2556629, "name": "Azgour", "country": "MA", "coord": {"lon": -8.31488, "lat": 31.137529}}, {"id": 2556835, "name": "Assoul", "country": "MA", "coord": {"lon": -5.20812, "lat": 31.95286}}, {"id": 2556991, "name": "Assads", "country": "MA", "coord": {"lon": -8.86, "lat": 30.23}}, {"id": 2557347, "name": "Argana", "country": "MA", "coord": {"lon": -9.11968, "lat": 30.782499}}, {"id": 2557391, "name": "Arbaoua", "country": "MA", "coord": {"lon": -5.94871, "lat": 34.90239}}, {"id": 2557415, "name": "Arazane", "country": "MA", "coord": {"lon": -8.60637, "lat": 30.50346}}, {"id": 2557500, "name": "Aourir", "country": "MA", "coord": {"lon": -9.6355, "lat": 30.49238}}, {"id": 2557533, "name": "Aoulouz", "country": "MA", "coord": {"lon": -8.18087, "lat": 30.673071}}, {"id": 2557595, "name": "Aoufous", "country": "MA", "coord": {"lon": -4.17, "lat": 31.68}}, {"id": 2557995, "name": "Amouguer", "country": "MA", "coord": {"lon": -4.93535, "lat": 32.27491}}, {"id": 2558052, "name": "Amizmiz", "country": "MA", "coord": {"lon": -8.23184, "lat": 31.21673}}, {"id": 2558118, "name": "Amerzgane", "country": "MA", "coord": {"lon": -7.21037, "lat": 31.043699}}, {"id": 2558122, "name": "Amersid", "country": "MA", "coord": {"lon": -4.47063, "lat": 32.749828}}, {"id": 2558337, "name": "Amalou", "country": "MA", "coord": {"lon": -8.74873, "lat": 30.19153}}, {"id": 2558398, "name": "Alnif", "country": "MA", "coord": {"lon": -5.17154, "lat": 31.114111}}, {"id": 2558415, "name": "Almis Marmoucha", "country": "MA", "coord": {"lon": -4.18, "lat": 33.32}}, {"id": 2558633, "name": "Aknoul", "country": "MA", "coord": {"lon": -3.86754, "lat": 34.653709}}, {"id": 2558768, "name": "Ajdir", "country": "MA", "coord": {"lon": -3.97582, "lat": 34.743469}}, {"id": 2559366, "name": "Anergui", "country": "MA", "coord": {"lon": -5.93961, "lat": 32.069141}}, {"id": 2561290, "name": "Aguelmous", "country": "MA", "coord": {"lon": -5.84626, "lat": 33.161388}}, {"id": 2561291, "name": "Aguelmous", "country": "MA", "coord": {"lon": -5.83, "lat": 33.150002}}, {"id": 2561539, "name": "Agdz", "country": "MA", "coord": {"lon": -6.44628, "lat": 30.69356}}, {"id": 2561614, "name": "Agadir Melloul", "country": "MA", "coord": {"lon": -7.79601, "lat": 30.22492}}, {"id": 2561957, "name": "Adassil", "country": "MA", "coord": {"lon": -8.49083, "lat": 31.10783}}, {"id": 2561978, "name": "Adar", "country": "MA", "coord": {"lon": -8.37221, "lat": 30.141109}}, {"id": 2562202, "name": "Abadou", "country": "MA", "coord": {"lon": -7.31308, "lat": 31.57917}}, {"id": 2565241, "name": "Mellila", "country": "MA", "coord": {"lon": -7.14, "lat": 33.380001}}, {"id": 2565258, "name": "Tidili Mesfioua", "country": "MA", "coord": {"lon": -7.61199, "lat": 31.46586}}, {"id": 2565267, "name": "Mhamid", "country": "MA", "coord": {"lon": -5.72, "lat": 29.82}}, {"id": 2565337, "name": "Mediouna", "country": "MA", "coord": {"lon": -7.53, "lat": 33.470001}}, {"id": 2568012, "name": "Taghazout", "country": "MA", "coord": {"lon": -9.71115, "lat": 30.542589}}, {"id": 2568400, "name": "Tamri", "country": "MA", "coord": {"lon": -9.82972, "lat": 30.69602}}, {"id": 2569052, "name": "Smimou", "country": "MA", "coord": {"lon": -9.70864, "lat": 31.21014}}, {"id": 2571059, "name": "Tizgane", "country": "MA", "coord": {"lon": -5.06836, "lat": 35.412109}}, {"id": 2571909, "name": "Bouarouss", "country": "MA", "coord": {"lon": -4.81, "lat": 34.360001}}, {"id": 2571932, "name": "Azla", "country": "MA", "coord": {"lon": -5.24472, "lat": 35.553028}}, {"id": 2572146, "name": "Boukhalef", "country": "MA", "coord": {"lon": -5.89954, "lat": 35.7328}}, {"id": 2596325, "name": "Jebel Tiskaouine", "country": "MA", "coord": {"lon": -5.11643, "lat": 31.02722}}, {"id": 7280528, "name": "Errachidia", "country": "MA", "coord": {"lon": -4.42852, "lat": 31.92754}}, {"id": 3009937, "name": "La Condamine", "country": "MC", "coord": {"lon": 7.42024, "lat": 43.734402}}, {"id": 3017814, "name": "Fontvieille", "country": "MC", "coord": {"lon": 7.41766, "lat": 43.726871}}, {"id": 3225774, "name": "Saint-Roman", "country": "MC", "coord": {"lon": 7.43423, "lat": 43.748901}}, {"id": 3319177, "name": "Moneghetti", "country": "MC", "coord": {"lon": 7.41647, "lat": 43.73679}}, {"id": 617053, "name": "Tiraspolul Nou", "country": "MD", "coord": {"lon": 29.57667, "lat": 46.83194}}, {"id": 617118, "name": "Visniovca", "country": "MD", "coord": {"lon": 28.44944, "lat": 46.333328}}, {"id": 617254, "name": "Telenesti", "country": "MD", "coord": {"lon": 28.365561, "lat": 47.499722}}, {"id": 617270, "name": "Taraclia", "country": "MD", "coord": {"lon": 28.66889, "lat": 45.900002}}, {"id": 617372, "name": "Soldanesti", "country": "MD", "coord": {"lon": 28.796671, "lat": 47.815281}}, {"id": 617471, "name": "Saharna", "country": "MD", "coord": {"lon": 28.97028, "lat": 47.693611}}, {"id": 617602, "name": "Pervomaisc", "country": "MD", "coord": {"lon": 29.958611, "lat": 46.733891}}, {"id": 617778, "name": "Mindresti", "country": "MD", "coord": {"lon": 28.276939, "lat": 47.507221}}, {"id": 617830, "name": "Maiac", "country": "MD", "coord": {"lon": 29.38583, "lat": 47.237499}}, {"id": 617909, "name": "Leninskiy", "country": "MD", "coord": {"lon": 28.389441, "lat": 47.863892}}, {"id": 617973, "name": "Crasnoe", "country": "MD", "coord": {"lon": 29.80472, "lat": 46.65139}}, {"id": 618057, "name": "Cocieri", "country": "MD", "coord": {"lon": 29.110279, "lat": 47.307499}}, {"id": 618067, "name": "Chitcani", "country": "MD", "coord": {"lon": 29.616819, "lat": 46.782959}}, {"id": 618452, "name": "Cantemir", "country": "MD", "coord": {"lon": 28.20083, "lat": 46.278061}}, {"id": 618453, "name": "Camenca", "country": "MD", "coord": {"lon": 28.697781, "lat": 48.03194}}, {"id": 618459, "name": "Bucovat", "country": "MD", "coord": {"lon": 28.45694, "lat": 47.18861}}, {"id": 618491, "name": "Bugeac", "country": "MD", "coord": {"lon": 28.66333, "lat": 46.365829}}, {"id": 618510, "name": "Briceni", "country": "MD", "coord": {"lon": 27.084999, "lat": 48.362782}}, {"id": 618631, "name": "Otaci", "country": "MD", "coord": {"lon": 27.79389, "lat": 48.43}}, {"id": 830975, "name": "Biruinta", "country": "MD", "coord": {"lon": 28.068609, "lat": 47.816109}}, {"id": 3186999, "name": "Zabljak", "country": "ME", "coord": {"lon": 19.123249, "lat": 43.154228}}, {"id": 3188584, "name": "Tuzi", "country": "ME", "coord": {"lon": 19.33139, "lat": 42.365559}}, {"id": 3190178, "name": "Spuz", "country": "ME", "coord": {"lon": 19.19417, "lat": 42.5075}}, {"id": 3191631, "name": "Risan", "country": "ME", "coord": {"lon": 18.69556, "lat": 42.514999}}, {"id": 3194928, "name": "Mojanovici", "country": "ME", "coord": {"lon": 19.22139, "lat": 42.341671}}, {"id": 3195390, "name": "Mataguzi", "country": "ME", "coord": {"lon": 19.272779, "lat": 42.323608}}, {"id": 3196540, "name": "Lipci", "country": "ME", "coord": {"lon": 18.65806, "lat": 42.497219}}, {"id": 3197538, "name": "Kotor", "country": "ME", "coord": {"lon": 18.76825, "lat": 42.42067}}, {"id": 3201903, "name": "Dobrota", "country": "ME", "coord": {"lon": 18.76833, "lat": 42.45417}}, {"id": 3202194, "name": "Danilovgrad", "country": "ME", "coord": {"lon": 19.14608, "lat": 42.553841}}, {"id": 3204214, "name": "Bijela", "country": "ME", "coord": {"lon": 18.65556, "lat": 42.453331}}, {"id": 3204509, "name": "Bar", "country": "ME", "coord": {"lon": 19.100281, "lat": 42.09306}}, {"id": 3318488, "name": "Susanj", "country": "ME", "coord": {"lon": 19.088329, "lat": 42.115559}}, {"id": 1062146, "name": "Mahavelona", "country": "MG", "coord": {"lon": 49.50869, "lat": -17.68475}}, {"id": 1076227, "name": "Andovoranto", "country": "MG", "coord": {"lon": 49.099998, "lat": -18.950001}}, {"id": 1077349, "name": "Anakao", "country": "MG", "coord": {"lon": 43.650002, "lat": -23.66667}}, {"id": 1081530, "name": "Ambodifotatra", "country": "MG", "coord": {"lon": 49.849998, "lat": -16.98333}}, {"id": 2080115, "name": "Likiep", "country": "MH", "coord": {"lon": 169.310654, "lat": 9.82511}}, {"id": 2080422, "name": "Jabor", "country": "MH", "coord": {"lon": 169.643356, "lat": 5.92098}}, {"id": 2080970, "name": "Ailuk", "country": "MH", "coord": {"lon": 169.979675, "lat": 10.21972}}, {"id": 4039539, "name": "Taroa", "country": "MH", "coord": {"lon": 171.227493, "lat": 8.70576}}, {"id": 7304467, "name": "Ebaye", "country": "MH", "coord": {"lon": 167.739197, "lat": 8.77479}}, {"id": 7306511, "name": "Enewetak", "country": "MH", "coord": {"lon": 162.337326, "lat": 11.34735}}, {"id": 7306512, "name": "Ebon", "country": "MH", "coord": {"lon": 168.696365, "lat": 4.58199}}, {"id": 7306513, "name": "Aur", "country": "MH", "coord": {"lon": 171.168686, "lat": 8.1499}}, {"id": 7306514, "name": "Arno", "country": "MH", "coord": {"lon": 171.554123, "lat": 7.06691}}, {"id": 7306515, "name": "Airuk", "country": "MH", "coord": {"lon": 168.820297, "lat": 7.27717}}, {"id": 7306517, "name": "Lae", "country": "MH", "coord": {"lon": 166.263443, "lat": 8.92217}}, {"id": 7306518, "name": "Utrik", "country": "MH", "coord": {"lon": 169.847397, "lat": 11.22778}}, {"id": 7306520, "name": "Rongelap", "country": "MH", "coord": {"lon": 166.894073, "lat": 11.16351}}, {"id": 7306521, "name": "Loen", "country": "MH", "coord": {"lon": 168.230713, "lat": 7.76007}}, {"id": 7306522, "name": "Namdrik", "country": "MH", "coord": {"lon": 168.102814, "lat": 5.59944}}, {"id": 7306523, "name": "Mejit", "country": "MH", "coord": {"lon": 170.864609, "lat": 10.27531}}, {"id": 7306524, "name": "Lib", "country": "MH", "coord": {"lon": 167.376617, "lat": 8.31221}}, {"id": 7306525, "name": "Kili", "country": "MH", "coord": {"lon": 169.121094, "lat": 5.64387}}, {"id": 7306526, "name": "Jabat", "country": "MH", "coord": {"lon": 168.975128, "lat": 7.75003}}, {"id": 7306528, "name": "Wotje", "country": "MH", "coord": {"lon": 170.23674, "lat": 9.45429}}, {"id": 7306529, "name": "Wotho", "country": "MH", "coord": {"lon": 166.010223, "lat": 10.16575}}, {"id": 783809, "name": "Zrnovci", "country": "MK", "coord": {"lon": 22.444441, "lat": 41.854172}}, {"id": 783845, "name": "Zletovo", "country": "MK", "coord": {"lon": 22.236111, "lat": 41.988609}}, {"id": 783877, "name": "Zitose", "country": "MK", "coord": {"lon": 21.29056, "lat": 41.42083}}, {"id": 783938, "name": "Zelenikovo", "country": "MK", "coord": {"lon": 21.586941, "lat": 41.886669}}, {"id": 784027, "name": "Zajas", "country": "MK", "coord": {"lon": 20.93833, "lat": 41.60722}}, {"id": 784114, "name": "Vrutok", "country": "MK", "coord": {"lon": 20.83917, "lat": 41.768608}}, {"id": 784205, "name": "Vratnica", "country": "MK", "coord": {"lon": 21.11694, "lat": 42.14333}}, {"id": 784212, "name": "Vrapciste", "country": "MK", "coord": {"lon": 20.885281, "lat": 41.833889}}, {"id": 784239, "name": "Vranestica", "country": "MK", "coord": {"lon": 21.02667, "lat": 41.445278}}, {"id": 784351, "name": "Vladimirovo", "country": "MK", "coord": {"lon": 22.79278, "lat": 41.709999}}, {"id": 784462, "name": "Vevcani", "country": "MK", "coord": {"lon": 20.59333, "lat": 41.240559}}, {"id": 784505, "name": "Velusa", "country": "MK", "coord": {"lon": 22.567499, "lat": 41.476109}}, {"id": 784679, "name": "Velesta", "country": "MK", "coord": {"lon": 20.64389, "lat": 41.240829}}, {"id": 784692, "name": "Vatasa", "country": "MK", "coord": {"lon": 22.01889, "lat": 41.416939}}, {"id": 784700, "name": "Vasilevo", "country": "MK", "coord": {"lon": 22.64167, "lat": 41.476109}}, {"id": 784711, "name": "Varos", "country": "MK", "coord": {"lon": 21.532499, "lat": 41.35722}}, {"id": 784737, "name": "Vaksince", "country": "MK", "coord": {"lon": 21.663059, "lat": 42.206108}}, {"id": 784747, "name": "Usje", "country": "MK", "coord": {"lon": 21.45639, "lat": 41.956108}}, {"id": 784854, "name": "Tuin", "country": "MK", "coord": {"lon": 21.04528, "lat": 41.619438}}, {"id": 785011, "name": "Topolcani", "country": "MK", "coord": {"lon": 21.431391, "lat": 41.228611}}, {"id": 785270, "name": "Susica", "country": "MK", "coord": {"lon": 22.83639, "lat": 41.437222}}, {"id": 785427, "name": "Strelci", "country": "MK", "coord": {"lon": 21.003611, "lat": 41.53722}}, {"id": 785466, "name": "Stojakovo", "country": "MK", "coord": {"lon": 22.577499, "lat": 41.15556}}, {"id": 785515, "name": "Staro Nagorichane", "country": "MK", "coord": {"lon": 21.828609, "lat": 42.198059}}, {"id": 785537, "name": "Star Dojran", "country": "MK", "coord": {"lon": 22.720831, "lat": 41.1875}}, {"id": 785604, "name": "Dolno Srpci", "country": "MK", "coord": {"lon": 21.36528, "lat": 41.174171}}, {"id": 785620, "name": "Sredno Konjari", "country": "MK", "coord": {"lon": 21.715, "lat": 41.957779}}, {"id": 785643, "name": "Srbica", "country": "MK", "coord": {"lon": 21.031111, "lat": 41.588058}}, {"id": 785669, "name": "Sopotnica", "country": "MK", "coord": {"lon": 21.155001, "lat": 41.29472}}, {"id": 785679, "name": "Sopishte", "country": "MK", "coord": {"lon": 21.4275, "lat": 41.95472}}, {"id": 785759, "name": "Slupchane", "country": "MK", "coord": {"lon": 21.627781, "lat": 42.173328}}, {"id": 785792, "name": "Slepce", "country": "MK", "coord": {"lon": 21.174999, "lat": 41.23333}}, {"id": 785802, "name": "Slatino", "country": "MK", "coord": {"lon": 21.0375, "lat": 42.06778}}, {"id": 785881, "name": "Sipkovica", "country": "MK", "coord": {"lon": 20.91556, "lat": 42.035}}, {"id": 786005, "name": "Selce", "country": "MK", "coord": {"lon": 20.93972, "lat": 42.034721}}, {"id": 786014, "name": "Sekirnik", "country": "MK", "coord": {"lon": 22.79389, "lat": 41.438061}}, {"id": 786026, "name": "Sedlarevo", "country": "MK", "coord": {"lon": 21.127501, "lat": 41.88306}}, {"id": 786113, "name": "Samokov", "country": "MK", "coord": {"lon": 21.144171, "lat": 41.683609}}, {"id": 786171, "name": "Rusinovo", "country": "MK", "coord": {"lon": 22.808331, "lat": 41.683331}}, {"id": 786238, "name": "Rostusha", "country": "MK", "coord": {"lon": 20.6, "lat": 41.610001}}, {"id": 786239, "name": "Rosoman", "country": "MK", "coord": {"lon": 21.94972, "lat": 41.516109}}, {"id": 786251, "name": "Romanovce", "country": "MK", "coord": {"lon": 21.69306, "lat": 42.094719}}, {"id": 786477, "name": "Rankovce", "country": "MK", "coord": {"lon": 22.116171, "lat": 42.16964}}, {"id": 786582, "name": "Radolishta", "country": "MK", "coord": {"lon": 20.623329, "lat": 41.164169}}, {"id": 786595, "name": "Radishani", "country": "MK", "coord": {"lon": 21.447781, "lat": 42.061111}}, {"id": 786674, "name": "Prsovce", "country": "MK", "coord": {"lon": 21.06139, "lat": 42.083611}}, {"id": 786969, "name": "Podares", "country": "MK", "coord": {"lon": 22.542219, "lat": 41.613892}}, {"id": 787016, "name": "Plasnica", "country": "MK", "coord": {"lon": 21.12306, "lat": 41.46722}}, {"id": 787052, "name": "Pirok", "country": "MK", "coord": {"lon": 20.910561, "lat": 41.910831}}, {"id": 787054, "name": "Pirava", "country": "MK", "coord": {"lon": 22.52972, "lat": 41.321388}}, {"id": 787072, "name": "Petrovec", "country": "MK", "coord": {"lon": 21.615, "lat": 41.938889}}, {"id": 787147, "name": "Pehcevo", "country": "MK", "coord": {"lon": 22.89056, "lat": 41.759441}}, {"id": 787301, "name": "Otlja", "country": "MK", "coord": {"lon": 21.58778, "lat": 42.14389}}, {"id": 787416, "name": "Orizari", "country": "MK", "coord": {"lon": 22.446939, "lat": 41.922779}}, {"id": 787444, "name": "Orashac", "country": "MK", "coord": {"lon": 21.799721, "lat": 42.0625}}, {"id": 787448, "name": "Oraovica", "country": "MK", "coord": {"lon": 22.51333, "lat": 41.625832}}, {"id": 787475, "name": "Oktisi", "country": "MK", "coord": {"lon": 20.60722, "lat": 41.232498}}, {"id": 787495, "name": "Ognjaci", "country": "MK", "coord": {"lon": 21.583059, "lat": 41.921669}}, {"id": 787512, "name": "Obrsani", "country": "MK", "coord": {"lon": 21.36278, "lat": 41.282219}}, {"id": 787526, "name": "Obleshevo", "country": "MK", "coord": {"lon": 22.333891, "lat": 41.883331}}, {"id": 787624, "name": "Novaci", "country": "MK", "coord": {"lon": 21.45611, "lat": 41.041939}}, {"id": 787692, "name": "Nerashte", "country": "MK", "coord": {"lon": 21.108891, "lat": 42.10667}}, {"id": 787772, "name": "Murtino", "country": "MK", "coord": {"lon": 22.726669, "lat": 41.415279}}, {"id": 787853, "name": "Morani", "country": "MK", "coord": {"lon": 21.549999, "lat": 41.91111}}, {"id": 787902, "name": "Misleshevo", "country": "MK", "coord": {"lon": 20.708611, "lat": 41.185001}}, {"id": 787928, "name": "Miravci", "country": "MK", "coord": {"lon": 22.434999, "lat": 41.307781}}, {"id": 787971, "name": "Miletino", "country": "MK", "coord": {"lon": 21.01667, "lat": 41.907501}}, {"id": 787985, "name": "Miladinovci", "country": "MK", "coord": {"lon": 21.649441, "lat": 41.978062}}, {"id": 788021, "name": "Meseista", "country": "MK", "coord": {"lon": 20.77667, "lat": 41.238609}}, {"id": 788105, "name": "Matejche", "country": "MK", "coord": {"lon": 21.59778, "lat": 42.125561}}, {"id": 788145, "name": "Marino", "country": "MK", "coord": {"lon": 21.59111, "lat": 41.993061}}, {"id": 788415, "name": "Lukovo", "country": "MK", "coord": {"lon": 20.604719, "lat": 41.349442}}, {"id": 788516, "name": "Lojane", "country": "MK", "coord": {"lon": 21.665001, "lat": 42.23333}}, {"id": 788517, "name": "Logovardi", "country": "MK", "coord": {"lon": 21.41139, "lat": 41.02972}}, {"id": 788564, "name": "Ljubin", "country": "MK", "coord": {"lon": 21.30917, "lat": 42.001389}}, {"id": 788610, "name": "Lisicani", "country": "MK", "coord": {"lon": 21.05444, "lat": 41.461391}}, {"id": 788774, "name": "Lazani", "country": "MK", "coord": {"lon": 21.31583, "lat": 41.442219}}, {"id": 788790, "name": "Larce", "country": "MK", "coord": {"lon": 21.125561, "lat": 41.934719}}, {"id": 788819, "name": "Labunishta", "country": "MK", "coord": {"lon": 20.596109, "lat": 41.268608}}, {"id": 788906, "name": "Kukurecani", "country": "MK", "coord": {"lon": 21.32556, "lat": 41.095558}}, {"id": 788915, "name": "Kuklish", "country": "MK", "coord": {"lon": 22.665279, "lat": 41.405281}}, {"id": 788950, "name": "Krushopek", "country": "MK", "coord": {"lon": 21.354441, "lat": 41.978329}}, {"id": 789028, "name": "Krivogashtani", "country": "MK", "coord": {"lon": 21.333059, "lat": 41.336109}}, {"id": 789101, "name": "Krani", "country": "MK", "coord": {"lon": 21.10861, "lat": 40.939442}}, {"id": 789342, "name": "Konce", "country": "MK", "coord": {"lon": 22.385, "lat": 41.495831}}, {"id": 789473, "name": "Klechovce", "country": "MK", "coord": {"lon": 21.85722, "lat": 42.116112}}, {"id": 789563, "name": "Karbinci", "country": "MK", "coord": {"lon": 22.237499, "lat": 41.816669}}, {"id": 789603, "name": "Kanatlarci", "country": "MK", "coord": {"lon": 21.50333, "lat": 41.210281}}, {"id": 789703, "name": "Kadino", "country": "MK", "coord": {"lon": 21.601391, "lat": 41.968891}}, {"id": 789734, "name": "Jurumleri", "country": "MK", "coord": {"lon": 21.55694, "lat": 41.96722}}, {"id": 789822, "name": "Jegunovce", "country": "MK", "coord": {"lon": 21.12361, "lat": 42.073608}}, {"id": 789893, "name": "Jankovec", "country": "MK", "coord": {"lon": 21.011391, "lat": 41.110279}}, {"id": 789962, "name": "Izvor", "country": "MK", "coord": {"lon": 21.578329, "lat": 42.203892}}, {"id": 789985, "name": "Ivankovci", "country": "MK", "coord": {"lon": 21.82028, "lat": 41.848888}}, {"id": 790018, "name": "Ilovica", "country": "MK", "coord": {"lon": 22.798611, "lat": 41.470558}}, {"id": 790034, "name": "Idrizovo", "country": "MK", "coord": {"lon": 21.57556, "lat": 41.960831}}, {"id": 790084, "name": "Gurgurnica", "country": "MK", "coord": {"lon": 21.102779, "lat": 41.845829}}, {"id": 790137, "name": "Grncari", "country": "MK", "coord": {"lon": 21.053329, "lat": 41.01722}}, {"id": 790183, "name": "Grchec", "country": "MK", "coord": {"lon": 21.33028, "lat": 41.98806}}, {"id": 790217, "name": "Gradsko", "country": "MK", "coord": {"lon": 21.94278, "lat": 41.577499}}, {"id": 790248, "name": "Gradec", "country": "MK", "coord": {"lon": 20.904169, "lat": 41.896111}}, {"id": 790249, "name": "Gradec", "country": "MK", "coord": {"lon": 22.509439, "lat": 41.848061}}, {"id": 790305, "name": "Gorobinci", "country": "MK", "coord": {"lon": 21.87694, "lat": 41.874722}}, {"id": 790319, "name": "Gorno Orizari", "country": "MK", "coord": {"lon": 21.73361, "lat": 41.685829}}, {"id": 790320, "name": "Gorno Orizari", "country": "MK", "coord": {"lon": 21.346939, "lat": 41.051109}}, {"id": 790634, "name": "Golema Recica", "country": "MK", "coord": {"lon": 20.945829, "lat": 41.99028}}, {"id": 790812, "name": "Forino", "country": "MK", "coord": {"lon": 20.9625, "lat": 41.824169}}, {"id": 790848, "name": "Lozovo", "country": "MK", "coord": {"lon": 21.90556, "lat": 41.78389}}, {"id": 790857, "name": "Dzepciste", "country": "MK", "coord": {"lon": 21, "lat": 42.03278}}, {"id": 791009, "name": "Drugovo", "country": "MK", "coord": {"lon": 20.92333, "lat": 41.484169}}, {"id": 791332, "name": "Dolno Palciste", "country": "MK", "coord": {"lon": 20.926109, "lat": 41.96806}}, {"id": 791334, "name": "Dolno Orizari", "country": "MK", "coord": {"lon": 21.37944, "lat": 41.050282}}, {"id": 791343, "name": "Dolno Kolicani", "country": "MK", "coord": {"lon": 21.485559, "lat": 41.886391}}, {"id": 791363, "name": "Dolneni", "country": "MK", "coord": {"lon": 21.45472, "lat": 41.425282}}, {"id": 791371, "name": "Dolna Banjica", "country": "MK", "coord": {"lon": 20.906111, "lat": 41.78611}}, {"id": 791407, "name": "Dobrusevo", "country": "MK", "coord": {"lon": 21.4825, "lat": 41.16861}}, {"id": 791419, "name": "Dobroste", "country": "MK", "coord": {"lon": 21.07778, "lat": 42.103329}}, {"id": 791443, "name": "Dobri Dol", "country": "MK", "coord": {"lon": 20.887501, "lat": 41.865829}}, {"id": 791517, "name": "Desovo", "country": "MK", "coord": {"lon": 21.49111, "lat": 41.46278}}, {"id": 791548, "name": "Delogozda", "country": "MK", "coord": {"lon": 20.72361, "lat": 41.257221}}, {"id": 791720, "name": "Chucher - Sandevo", "country": "MK", "coord": {"lon": 21.382219, "lat": 42.103611}}, {"id": 791819, "name": "Crniliste", "country": "MK", "coord": {"lon": 21.41556, "lat": 41.53083}}, {"id": 791885, "name": "Creshevo", "country": "MK", "coord": {"lon": 21.50972, "lat": 42.050831}}, {"id": 791954, "name": "Cesinovo", "country": "MK", "coord": {"lon": 22.289169, "lat": 41.871391}}, {"id": 792007, "name": "Celopek", "country": "MK", "coord": {"lon": 21.01333, "lat": 41.931671}}, {"id": 792019, "name": "Chegrane", "country": "MK", "coord": {"lon": 20.97583, "lat": 41.83889}}, {"id": 792034, "name": "Caska", "country": "MK", "coord": {"lon": 21.66222, "lat": 41.650558}}, {"id": 792055, "name": "Capari", "country": "MK", "coord": {"lon": 21.178329, "lat": 41.05611}}, {"id": 792129, "name": "Bulachani", "country": "MK", "coord": {"lon": 21.502781, "lat": 42.07056}}, {"id": 792150, "name": "Bukovik", "country": "MK", "coord": {"lon": 21.23694, "lat": 41.96833}}, {"id": 792197, "name": "Bucin", "country": "MK", "coord": {"lon": 21.316669, "lat": 41.274719}}, {"id": 792257, "name": "Makedonski Brod", "country": "MK", "coord": {"lon": 21.215281, "lat": 41.513611}}, {"id": 792489, "name": "Bojane", "country": "MK", "coord": {"lon": 21.19306, "lat": 42}}, {"id": 792509, "name": "Bogomila", "country": "MK", "coord": {"lon": 21.47167, "lat": 41.59306}}, {"id": 792553, "name": "Blatec", "country": "MK", "coord": {"lon": 22.57806, "lat": 41.83778}}, {"id": 792592, "name": "Bistrica", "country": "MK", "coord": {"lon": 21.366671, "lat": 40.98333}}, {"id": 792676, "name": "Beranci", "country": "MK", "coord": {"lon": 21.35972, "lat": 41.15889}}, {"id": 792767, "name": "Belcista", "country": "MK", "coord": {"lon": 20.83028, "lat": 41.30278}}, {"id": 792809, "name": "Bedinje", "country": "MK", "coord": {"lon": 21.69639, "lat": 42.14167}}, {"id": 792835, "name": "Batinci", "country": "MK", "coord": {"lon": 21.481939, "lat": 41.91972}}, {"id": 795062, "name": "Poroj", "country": "MK", "coord": {"lon": 20.9925, "lat": 42.03083}}, {"id": 796037, "name": "Oslomej", "country": "MK", "coord": {"lon": 21, "lat": 41.577221}}, {"id": 796095, "name": "Strimnica", "country": "MK", "coord": {"lon": 21.034719, "lat": 41.967499}}, {"id": 796096, "name": "Dobarce", "country": "MK", "coord": {"lon": 21.08778, "lat": 41.95417}}, {"id": 829616, "name": "Stanica Zelenikovo", "country": "MK", "coord": {"lon": 21.60306, "lat": 41.873329}}, {"id": 833258, "name": "Shuto Orizari", "country": "MK", "coord": {"lon": 21.424999, "lat": 42.040001}}, {"id": 833609, "name": "Muleza", "country": "MK", "coord": {"lon": 20.98056, "lat": 41.74667}}, {"id": 7886881, "name": "Centar Zupa", "country": "MK", "coord": {"lon": 20.558901, "lat": 41.468102}}, {"id": 2449938, "name": "Tenenkou", "country": "ML", "coord": {"lon": -4.9169, "lat": 14.45722}}, {"id": 2450173, "name": "Taoudenni", "country": "ML", "coord": {"lon": -3.98361, "lat": 22.678329}}, {"id": 2450849, "name": "Sokolo", "country": "ML", "coord": {"lon": -6.1219, "lat": 14.7328}}, {"id": 2452830, "name": "Niafounke", "country": "ML", "coord": {"lon": -3.9906, "lat": 15.9322}}, {"id": 2453514, "name": "Menaka", "country": "ML", "coord": {"lon": 2.4022, "lat": 15.9182}}, {"id": 2454934, "name": "Kolondieba", "country": "ML", "coord": {"lon": -6.8926, "lat": 11.0882}}, {"id": 2455456, "name": "Kinmparana", "country": "ML", "coord": {"lon": -4.9199, "lat": 12.8402}}, {"id": 2455465, "name": "Ke-Macina", "country": "ML", "coord": {"lon": -5.3572, "lat": 13.9623}}, {"id": 2458624, "name": "Dire", "country": "ML", "coord": {"lon": -10.96667, "lat": 12.28333}}, {"id": 2460954, "name": "Araouane", "country": "ML", "coord": {"lon": -3.52649, "lat": 18.90476}}, {"id": 2461003, "name": "Ansongo", "country": "ML", "coord": {"lon": 0.5022, "lat": 15.6597}}, {"id": 1302849, "name": "Hpa-an", "country": "MM", "coord": {"lon": 97.633331, "lat": 16.89056}}, {"id": 1325443, "name": "Hakha", "country": "MM", "coord": {"lon": 93.616669, "lat": 22.65}}, {"id": 1326105, "name": "Falam", "country": "MM", "coord": {"lon": 93.683327, "lat": 22.91667}}, {"id": 1514961, "name": "Uyenchi Somon", "country": "MN", "coord": {"lon": 92.01667, "lat": 46.049999}}, {"id": 1514975, "name": "Uujim", "country": "MN", "coord": {"lon": 89.616669, "lat": 48.900002}}, {"id": 1514993, "name": "Urdgol", "country": "MN", "coord": {"lon": 92.650002, "lat": 47.833328}}, {"id": 1515007, "name": "Uliastay", "country": "MN", "coord": {"lon": 96.844437, "lat": 47.741669}}, {"id": 1515018, "name": "Ulaantolgoy", "country": "MN", "coord": {"lon": 92.783333, "lat": 46.683331}}, {"id": 1515092, "name": "Tsetserleg", "country": "MN", "coord": {"lon": 94.85836, "lat": 49.271278}}, {"id": 1515097, "name": "Tsetsegnuur", "country": "MN", "coord": {"lon": 93.26667, "lat": 46.599998}}, {"id": 1515101, "name": "Tsenher", "country": "MN", "coord": {"lon": 92.116669, "lat": 46.916672}}, {"id": 1515106, "name": "Tseel", "country": "MN", "coord": {"lon": 95.866669, "lat": 45.566669}}, {"id": 1515114, "name": "Tsalgar", "country": "MN", "coord": {"lon": 93.26667, "lat": 49.716671}}, {"id": 1515117, "name": "Tsahir", "country": "MN", "coord": {"lon": 98.851669, "lat": 48.07972}}, {"id": 1515124, "name": "Tsagaantungi", "country": "MN", "coord": {"lon": 90.449997, "lat": 49.049999}}, {"id": 1515131, "name": "Tsagaan-Olom", "country": "MN", "coord": {"lon": 96.525879, "lat": 46.713268}}, {"id": 1515157, "name": "Tsagaanchuluut", "country": "MN", "coord": {"lon": 96.671448, "lat": 47.111961}}, {"id": 1515167, "name": "Tosontsengel", "country": "MN", "coord": {"lon": 98.28389, "lat": 48.756672}}, {"id": 1515172, "name": "Tooromt", "country": "MN", "coord": {"lon": 93.583328, "lat": 50.466671}}, {"id": 1515180, "name": "Tolbo", "country": "MN", "coord": {"lon": 90.283333, "lat": 48.416672}}, {"id": 1515186, "name": "Togrog", "country": "MN", "coord": {"lon": 92.224388, "lat": 47.424141}}, {"id": 1515187, "name": "Togrog", "country": "MN", "coord": {"lon": 94.815437, "lat": 45.829762}}, {"id": 1515194, "name": "Vlaa Vula", "country": "MN", "coord": {"lon": 99.23333, "lat": 50.683331}}, {"id": 1515208, "name": "Tegsh", "country": "MN", "coord": {"lon": 95.999741, "lat": 48.75132}}, {"id": 1515213, "name": "Taygan", "country": "MN", "coord": {"lon": 97.366333, "lat": 46.353561}}, {"id": 1515229, "name": "Talshand", "country": "MN", "coord": {"lon": 97.98333, "lat": 45.333328}}, {"id": 1515247, "name": "Tahilt", "country": "MN", "coord": {"lon": 96.645699, "lat": 45.3466}}, {"id": 1515303, "name": "Shiree", "country": "MN", "coord": {"lon": 96.803108, "lat": 47.497139}}, {"id": 1515329, "name": "Sharga", "country": "MN", "coord": {"lon": 98.800003, "lat": 49.799999}}, {"id": 1515331, "name": "Sharga", "country": "MN", "coord": {"lon": 95.26667, "lat": 46.25}}, {"id": 1515332, "name": "Sharbulag", "country": "MN", "coord": {"lon": 93.099998, "lat": 48.816669}}, {"id": 1515367, "name": "Sayn-Ust", "country": "MN", "coord": {"lon": 94.524483, "lat": 47.357319}}, {"id": 1515378, "name": "Sangiyn Dalay", "country": "MN", "coord": {"lon": 97.75, "lat": 45.133331}}, {"id": 1515392, "name": "Rashaant", "country": "MN", "coord": {"lon": 90.833328, "lat": 47.76667}}, {"id": 1515402, "name": "Oygon", "country": "MN", "coord": {"lon": 96.543388, "lat": 48.985619}}, {"id": 1515405, "name": "Telmin Suma", "country": "MN", "coord": {"lon": 97.618607, "lat": 48.64278}}, {"id": 1515416, "name": "Orgil", "country": "MN", "coord": {"lon": 99.35083, "lat": 48.587219}}, {"id": 1515454, "name": "Nuga", "country": "MN", "coord": {"lon": 95.116669, "lat": 48.316669}}, {"id": 1515468, "name": "Nogoonnuur", "country": "MN", "coord": {"lon": 90.242043, "lat": 49.616268}}, {"id": 1515498, "name": "Naranbulag", "country": "MN", "coord": {"lon": 92.566673, "lat": 49.366669}}, {"id": 1515506, "name": "Namir", "country": "MN", "coord": {"lon": 91.717819, "lat": 49.106411}}, {"id": 1515532, "name": "Tsagaanhayrhan", "country": "MN", "coord": {"lon": 94.23333, "lat": 49.400002}}, {"id": 1515549, "name": "Mandal", "country": "MN", "coord": {"lon": 99.433327, "lat": 49.900002}}, {"id": 1515577, "name": "Jargalant", "country": "MN", "coord": {"lon": 95.447853, "lat": 49.30677}}, {"id": 1515578, "name": "Jargalant", "country": "MN", "coord": {"lon": 99.633331, "lat": 47.150002}}, {"id": 1515579, "name": "Jargalant", "country": "MN", "coord": {"lon": 91.087822, "lat": 46.926701}}, {"id": 1515580, "name": "Jargalant", "country": "MN", "coord": {"lon": 97.175957, "lat": 45.709541}}, {"id": 1515621, "name": "Ider", "country": "MN", "coord": {"lon": 99.873894, "lat": 48.772781}}, {"id": 1515659, "name": "Hunt", "country": "MN", "coord": {"lon": 99.466667, "lat": 47.866669}}, {"id": 1515662, "name": "Hungiy", "country": "MN", "coord": {"lon": 94.294281, "lat": 48.51672}}, {"id": 1515694, "name": "Hoeviyn Am", "country": "MN", "coord": {"lon": 98.571404, "lat": 47.231232}}, {"id": 1515704, "name": "Hoshoot", "country": "MN", "coord": {"lon": 89.143578, "lat": 48.947762}}, {"id": 1515736, "name": "Holboo", "country": "MN", "coord": {"lon": 95.432571, "lat": 48.58876}}, {"id": 1515741, "name": "Hohtolgoy", "country": "MN", "coord": {"lon": 90.910149, "lat": 49.28001}}, {"id": 1515762, "name": "Hodrogo", "country": "MN", "coord": {"lon": 96.962593, "lat": 48.872841}}, {"id": 1515787, "name": "Havtsal", "country": "MN", "coord": {"lon": 91.666672, "lat": 50.099998}}, {"id": 1515806, "name": "Har-Us", "country": "MN", "coord": {"lon": 92.033333, "lat": 49.033329}}, {"id": 1515807, "name": "Har-Us", "country": "MN", "coord": {"lon": 91.433327, "lat": 48.48333}}, {"id": 1515832, "name": "Harmod", "country": "MN", "coord": {"lon": 91.606407, "lat": 50.341301}}, {"id": 1515838, "name": "Harhiraa", "country": "MN", "coord": {"lon": 91.904243, "lat": 49.778488}}, {"id": 1515878, "name": "Haliun", "country": "MN", "coord": {"lon": 96.162392, "lat": 45.9296}}, {"id": 1515882, "name": "Halban", "country": "MN", "coord": {"lon": 97.740898, "lat": 49.52877}}, {"id": 1515957, "name": "Erdenet", "country": "MN", "coord": {"lon": 99.536652, "lat": 48.948769}}, {"id": 1515979, "name": "Dzuyl", "country": "MN", "coord": {"lon": 93.904091, "lat": 46.306862}}, {"id": 1515986, "name": "Dzuunmod", "country": "MN", "coord": {"lon": 97.374397, "lat": 48.219872}}, {"id": 1515989, "name": "Dzuunhovoo", "country": "MN", "coord": {"lon": 92.402397, "lat": 50.609772}}, {"id": 1515996, "name": "Dzuer", "country": "MN", "coord": {"lon": 95.793228, "lat": 49.657959}}, {"id": 1515999, "name": "Dzoolon", "country": "MN", "coord": {"lon": 99.672256, "lat": 51.107189}}, {"id": 1516004, "name": "Dzel", "country": "MN", "coord": {"lon": 93.78582, "lat": 49.907131}}, {"id": 1516023, "name": "Dzalaa", "country": "MN", "coord": {"lon": 99.26667, "lat": 44.533329}}, {"id": 1516036, "name": "Dzag", "country": "MN", "coord": {"lon": 99.166893, "lat": 46.942291}}, {"id": 1516037, "name": "Dzadgay", "country": "MN", "coord": {"lon": 99.598618, "lat": 46.210609}}, {"id": 1516040, "name": "Duut", "country": "MN", "coord": {"lon": 91.633331, "lat": 47.51667}}, {"id": 1516069, "name": "Tsagaannuur", "country": "MN", "coord": {"lon": 99.344437, "lat": 51.356392}}, {"id": 1516082, "name": "Delgermoron", "country": "MN", "coord": {"lon": 98.287117, "lat": 46.409458}}, {"id": 1516099, "name": "Darvi", "country": "MN", "coord": {"lon": 94.116669, "lat": 46.450001}}, {"id": 1516125, "name": "Chihertey", "country": "MN", "coord": {"lon": 89.515572, "lat": 48.302719}}, {"id": 1516136, "name": "Chandmani", "country": "MN", "coord": {"lon": 96.25, "lat": 48.049999}}, {"id": 1516143, "name": "Buyant", "country": "MN", "coord": {"lon": 89.547501, "lat": 48.57967}}, {"id": 1516144, "name": "Buyant", "country": "MN", "coord": {"lon": 91.816673, "lat": 48.066669}}, {"id": 1516146, "name": "Buyant", "country": "MN", "coord": {"lon": 97.606659, "lat": 47.212109}}, {"id": 1516147, "name": "Buyant", "country": "MN", "coord": {"lon": 98.691727, "lat": 46.166401}}, {"id": 1516148, "name": "Buyanbat", "country": "MN", "coord": {"lon": 95.925323, "lat": 46.978378}}, {"id": 1516173, "name": "Burenhayrhan", "country": "MN", "coord": {"lon": 91.566673, "lat": 46.083328}}, {"id": 1516186, "name": "Bulgan", "country": "MN", "coord": {"lon": 93.61673, "lat": 46.936779}}, {"id": 1516187, "name": "Bulgan", "country": "MN", "coord": {"lon": 98.650002, "lat": 44.783329}}, {"id": 1516196, "name": "Bugat", "country": "MN", "coord": {"lon": 93.816673, "lat": 49.533329}}, {"id": 1516198, "name": "Buga", "country": "MN", "coord": {"lon": 90.183327, "lat": 49.01667}}, {"id": 1516199, "name": "Buga", "country": "MN", "coord": {"lon": 95.000504, "lat": 47.650131}}, {"id": 1516205, "name": "Altay sumu", "country": "MN", "coord": {"lon": 92.283333, "lat": 45.799999}}, {"id": 1516240, "name": "Biluu", "country": "MN", "coord": {"lon": 89.437981, "lat": 49.04372}}, {"id": 1516257, "name": "Bayshint", "country": "MN", "coord": {"lon": 90.283333, "lat": 49.666672}}, {"id": 1516267, "name": "Bayan-Uhaa", "country": "MN", "coord": {"lon": 98.791809, "lat": 48.719059}}]