[{"id": 1797476, "name": "Qiuchuan", "country": "CN", "coord": {"lon": 118.316673, "lat": 28.866671}}, {"id": 1552492, "name": "Qiucun", "country": "CN", "coord": {"lon": 119.439491, "lat": 31.01408}}, {"id": 1797475, "name": "Qiucun", "country": "CN", "coord": {"lon": 121.621391, "lat": 29.604441}}, {"id": 2038117, "name": "Qiujia", "country": "CN", "coord": {"lon": 124.072617, "lat": 43.117359}}, {"id": 7469573, "name": "Qiujiang", "country": "CN", "coord": {"lon": 117.774879, "lat": 26.39267}}, {"id": 1797466, "name": "Qiujin", "country": "CN", "coord": {"lon": 115.678947, "lat": 29.169439}}, {"id": 1797465, "name": "Qiukou", "country": "CN", "coord": {"lon": 117.899643, "lat": 29.34701}}, {"id": 1797451, "name": "Qiuxi", "country": "CN", "coord": {"lon": 116.271797, "lat": 27.84877}}, {"id": 1797438, "name": "Qixia", "country": "CN", "coord": {"lon": 120.825562, "lat": 37.297501}}, {"id": 1917184, "name": "Qixia", "country": "CN", "coord": {"lon": 114.034439, "lat": 24.189171}}, {"id": 1790755, "name": "Qixian", "country": "CN", "coord": {"lon": 120.537064, "lat": 30.12248}}, {"id": 7735289, "name": "Qixing", "country": "CN", "coord": {"lon": 120.812057, "lat": 30.813551}}, {"id": 7696232, "name": "Qixingtai", "country": "CN", "coord": {"lon": 111.88739, "lat": 30.413549}}, {"id": 7526456, "name": "Qixu", "country": "CN", "coord": {"lon": 120.014671, "lat": 32.02739}}, {"id": 1797414, "name": "Qiying", "country": "CN", "coord": {"lon": 106.148621, "lat": 36.503239}}, {"id": 1797404, "name": "Qizhen", "country": "CN", "coord": {"lon": 107.7136, "lat": 34.210621}}, {"id": 1797402, "name": "Qizhou", "country": "CN", "coord": {"lon": 115.333328, "lat": 30.066669}}, {"id": 585666, "name": "Qizilhacili", "country": "AZ", "coord": {"lon": 46.840981, "lat": 40.574558}}, {"id": 1797398, "name": "Qizili", "country": "CN", "coord": {"lon": 118.740578, "lat": 30.001699}}, {"id": 1513288, "name": "Qiziltepa", "country": "UZ", "coord": {"lon": 64.849998, "lat": 40.033058}}, {"id": 1538233, "name": "Qiziltepa Shahri", "country": "UZ", "coord": {"lon": 64.82885, "lat": 40.025398}}, {"id": 1129070, "name": "Qizil\u0101b\u0101d", "country": "AF", "coord": {"lon": 67.19574, "lat": 36.7201}}, {"id": 585838, "name": "Qobu", "country": "AZ", "coord": {"lon": 49.713058, "lat": 40.40472}}, {"id": 585223, "name": "Qobustan", "country": "AZ", "coord": {"lon": 49.412048, "lat": 40.082378}}, {"id": 119208, "name": "Qom", "country": "IR", "coord": {"lon": 50.8764, "lat": 34.640099}}, {"id": 829955, "name": "Qongirot Shahri", "country": "UZ", "coord": {"lon": 58.845959, "lat": 43.052071}}, {"id": 1512979, "name": "Qoqon", "country": "UZ", "coord": {"lon": 70.942497, "lat": 40.52861}}, {"id": 1513733, "name": "Qoraozak", "country": "UZ", "coord": {"lon": 60.01701, "lat": 43.022072}}, {"id": 1346480, "name": "Qorashina", "country": "UZ", "coord": {"lon": 66.563423, "lat": 38.34185}}, {"id": 1522684, "name": "Qorghas", "country": "KZ", "coord": {"lon": 80.38028, "lat": 44.224998}}, {"id": 2562629, "name": "Qormi", "country": "MT", "coord": {"lon": 14.472, "lat": 35.876011}}, {"id": 1217035, "name": "Qorovulbozor", "country": "UZ", "coord": {"lon": 64.79361, "lat": 39.500561}}, {"id": 1346442, "name": "Qorovulbozor Shahri", "country": "UZ", "coord": {"lon": 64.811417, "lat": 39.503078}}, {"id": 119161, "name": "Qorveh", "country": "IR", "coord": {"lon": 47.804501, "lat": 35.166401}}, {"id": 52867, "name": "Qoryooley", "country": "SO", "coord": {"lon": 44.529991, "lat": 1.78784}}, {"id": 1519928, "name": "Qostanay", "country": "KZ", "coord": {"lon": 63.583328, "lat": 53.166672}}, {"id": 1521671, "name": "Qostanay Oblysy", "country": "KZ", "coord": {"lon": 64, "lat": 51.5}}, {"id": 601351, "name": "Qozonketkan", "country": "UZ", "coord": {"lon": 59.36425, "lat": 43.01907}}, {"id": 3953762, "name": "Qquea", "country": "PE", "coord": {"lon": -71.385834, "lat": -14.05417}}, {"id": 2562622, "name": "Qrendi", "country": "MT", "coord": {"lon": 14.45833, "lat": 35.834721}}, {"id": 6114889, "name": "Qu'Appelle", "country": "CA", "coord": {"lon": -103.884361, "lat": 50.550072}}, {"id": 2851538, "name": "Quaal", "country": "DE", "coord": {"lon": 11.3, "lat": 53.833328}}, {"id": 2851536, "name": "Quaal", "country": "DE", "coord": {"lon": 10.96667, "lat": 54.23333}}, {"id": 2152337, "name": "Quaama", "country": "AU", "coord": {"lon": 149.866669, "lat": -36.466671}}, {"id": 2851525, "name": "Quadrath-Ichendorf", "country": "DE", "coord": {"lon": 6.67943, "lat": 50.933552}}, {"id": 3169734, "name": "Quadrelle", "country": "IT", "coord": {"lon": 14.63934, "lat": 40.948509}}, {"id": 3169732, "name": "Quadri", "country": "IT", "coord": {"lon": 14.28822, "lat": 41.924931}}, {"id": 2984883, "name": "Quaedypre", "country": "FR", "coord": {"lon": 2.45445, "lat": 50.935268}}, {"id": 3169725, "name": "Quagliuzzo", "country": "IT", "coord": {"lon": 7.78162, "lat": 45.426762}}, {"id": 5385346, "name": "Quail Valley", "country": "US", "coord": {"lon": -117.245041, "lat": 33.70697}}, {"id": 7839631, "name": "Quairading", "country": "AU", "coord": {"lon": 117.398354, "lat": -32.014622}}, {"id": 2062829, "name": "Quairading", "country": "AU", "coord": {"lon": 117.416672, "lat": -32.01667}}, {"id": 2851523, "name": "Quakenbruck", "country": "DE", "coord": {"lon": 7.95, "lat": 52.683331}}, {"id": 2152329, "name": "Quakers Hill", "country": "AU", "coord": {"lon": 150.883331, "lat": -33.73333}}, {"id": 5207381, "name": "Quakertown", "country": "US", "coord": {"lon": -75.341568, "lat": 40.441769}}, {"id": 2062823, "name": "Qualeup", "country": "AU", "coord": {"lon": 116.800003, "lat": -33.833328}}, {"id": 6537346, "name": "Qualiano", "country": "IT", "coord": {"lon": 14.15013, "lat": 40.922611}}, {"id": 3169724, "name": "Qualiano", "country": "IT", "coord": {"lon": 14.15013, "lat": 40.922611}}, {"id": 6114862, "name": "Qualicum Beach", "country": "CA", "coord": {"lon": -124.436058, "lat": 49.346828}}, {"id": 2152328, "name": "Quambatook", "country": "AU", "coord": {"lon": 143.533325, "lat": -35.849998}}, {"id": 2152326, "name": "Quambone", "country": "AU", "coord": {"lon": 147.866669, "lat": -30.933331}}, {"id": 2152320, "name": "Quamby Brook", "country": "AU", "coord": {"lon": 146.716675, "lat": -41.583328}}, {"id": 4721023, "name": "Quanah", "country": "US", "coord": {"lon": -99.740372, "lat": 34.297859}}, {"id": 1917443, "name": "Quanan", "country": "CN", "coord": {"lon": 114.249168, "lat": 25.138611}}, {"id": 7066232, "name": "Quanbo", "country": "CN", "coord": {"lon": 118.334213, "lat": 28.38077}}, {"id": 2152314, "name": "Quandialla", "country": "AU", "coord": {"lon": 147.783325, "lat": -34.01667}}, {"id": 7745046, "name": "Quanfeng", "country": "CN", "coord": {"lon": 114.070137, "lat": 29.12879}}, {"id": 1799899, "name": "Quanfu", "country": "CN", "coord": {"lon": 120.220169, "lat": 29.103901}}, {"id": 1568770, "name": "Quang Ngai", "country": "VN", "coord": {"lon": 108.800003, "lat": 15.11667}}, {"id": 1797385, "name": "Quangang", "country": "CN", "coord": {"lon": 115.596581, "lat": 28.155939}}, {"id": 2036196, "name": "Quangou", "country": "CN", "coord": {"lon": 124.261208, "lat": 43.18198}}, {"id": 7746302, "name": "Quankou", "country": "CN", "coord": {"lon": 115.027519, "lat": 29.49856}}, {"id": 1925122, "name": "Quanling", "country": "CN", "coord": {"lon": 116.072021, "lat": 28.377991}}, {"id": 1797368, "name": "Quanshang", "country": "CN", "coord": {"lon": 116.962357, "lat": 26.41922}}, {"id": 7330032, "name": "Quanshui", "country": "CN", "coord": {"lon": 104.78714, "lat": 33.850128}}, {"id": 1896758, "name": "Quantang", "country": "CN", "coord": {"lon": 121.223892, "lat": 30.682079}}, {"id": 7258517, "name": "Quantico Station", "country": "US", "coord": {"lon": -77.318336, "lat": 38.522629}}, {"id": 2035237, "name": "Quantou", "country": "CN", "coord": {"lon": 124.170319, "lat": 42.865372}}, {"id": 2035234, "name": "Quanyang", "country": "CN", "coord": {"lon": 127.54528, "lat": 42.351669}}, {"id": 1797355, "name": "Quanzhai", "country": "CN", "coord": {"lon": 113.85836, "lat": 33.442459}}, {"id": 1797353, "name": "Quanzhou", "country": "CN", "coord": {"lon": 118.585831, "lat": 24.913891}}, {"id": 1797352, "name": "Quanzhou", "country": "CN", "coord": {"lon": 111.0364, "lat": 25.944599}}, {"id": 7413715, "name": "Quao", "country": "CN", "coord": {"lon": 102.878448, "lat": 35.366489}}, {"id": 6114894, "name": "Quaqtaq", "country": "CA", "coord": {"lon": -69.614723, "lat": 61.033749}}, {"id": 3452179, "name": "Quarai", "country": "BR", "coord": {"lon": -56.451389, "lat": -30.387501}}, {"id": 6432603, "name": "Quarante", "country": "FR", "coord": {"lon": 2.96667, "lat": 43.349998}}, {"id": 2984879, "name": "Quarante", "country": "FR", "coord": {"lon": 2.96228, "lat": 43.347111}}, {"id": 6534340, "name": "Quaranti", "country": "IT", "coord": {"lon": 8.44914, "lat": 44.75095}}, {"id": 6535683, "name": "Quaregna", "country": "IT", "coord": {"lon": 8.16372, "lat": 45.581161}}, {"id": 2788499, "name": "Quaregnon", "country": "BE", "coord": {"lon": 3.8653, "lat": 50.44067}}, {"id": 2788500, "name": "Quaregnon", "country": "BE", "coord": {"lon": 3.86702, "lat": 50.441711}}, {"id": 3169716, "name": "Quargnento", "country": "IT", "coord": {"lon": 8.48704, "lat": 44.94495}}, {"id": 3207094, "name": "Quarmbeck", "country": "DE", "coord": {"lon": 11.13333, "lat": 51.76667}}, {"id": 3169715, "name": "Quarna Sopra", "country": "IT", "coord": {"lon": 8.37262, "lat": 45.873669}}, {"id": 6535382, "name": "Quarna Sotto", "country": "IT", "coord": {"lon": 8.36332, "lat": 45.869171}}, {"id": 6551905, "name": "Quarnbek", "country": "DE", "coord": {"lon": 9.98333, "lat": 54.333302}}, {"id": 2851502, "name": "Quarnbek", "country": "DE", "coord": {"lon": 9.98333, "lat": 54.333328}}, {"id": 2851500, "name": "Quarnstedt", "country": "DE", "coord": {"lon": 11.47024, "lat": 53.02655}}, {"id": 6552234, "name": "Quarnstedt", "country": "DE", "coord": {"lon": 9.78736, "lat": 53.954849}}, {"id": 2851499, "name": "Quarnstedt", "country": "DE", "coord": {"lon": 9.78736, "lat": 53.954849}}, {"id": 3169714, "name": "Quarona", "country": "IT", "coord": {"lon": 8.26572, "lat": 45.75787}}, {"id": 6438425, "name": "Quarouble", "country": "FR", "coord": {"lon": 3.61667, "lat": 50.383331}}, {"id": 2984874, "name": "Quarouble", "country": "FR", "coord": {"lon": 3.62306, "lat": 50.386341}}, {"id": 6540468, "name": "Quarrata", "country": "IT", "coord": {"lon": 10.98072, "lat": 43.84985}}, {"id": 3169713, "name": "Quarrata", "country": "IT", "coord": {"lon": 10.98072, "lat": 43.84985}}, {"id": 2851498, "name": "Quarrendorf", "country": "DE", "coord": {"lon": 10.03333, "lat": 53.283329}}, {"id": 6114942, "name": "Quarry St. Anns", "country": "CA", "coord": {"lon": -60.648479, "lat": 46.250141}}, {"id": 6114943, "name": "Quarryville", "country": "CA", "coord": {"lon": -65.782051, "lat": 46.833401}}, {"id": 4560577, "name": "Quarryville", "country": "US", "coord": {"lon": -76.163567, "lat": 39.897049}}, {"id": 6534109, "name": "Quart", "country": "ES", "coord": {"lon": 2.88184, "lat": 41.95182}}, {"id": 3169712, "name": "Quart", "country": "IT", "coord": {"lon": 7.4152, "lat": 45.740959}}, {"id": 3112615, "name": "Quart dOnyar", "country": "ES", "coord": {"lon": 2.84079, "lat": 41.940472}}, {"id": 6361967, "name": "Quart de Poblet", "country": "ES", "coord": {"lon": -0.44246, "lat": 39.481651}}, {"id": 2519068, "name": "Quart de Poblet", "country": "ES", "coord": {"lon": -0.43937, "lat": 39.481392}}, {"id": 2519069, "name": "Quart de les Valls", "country": "ES", "coord": {"lon": -0.26667, "lat": 39.73333}}, {"id": 8012006, "name": "Quarteira", "country": "PT", "coord": {"lon": -8.10469, "lat": 37.08514}}, {"id": 2264299, "name": "Quarteira", "country": "PT", "coord": {"lon": -8.10064, "lat": 37.069462}}, {"id": 3452170, "name": "Quartel Geral", "country": "BR", "coord": {"lon": -45.55722, "lat": -19.273609}}, {"id": 2519066, "name": "Quartell", "country": "ES", "coord": {"lon": -0.26667, "lat": 39.73333}}, {"id": 7286845, "name": "Quarten", "country": "CH", "coord": {"lon": 9.22094, "lat": 47.084332}}, {"id": 2659122, "name": "Quarten", "country": "CH", "coord": {"lon": 9.23401, "lat": 47.100159}}, {"id": 3576810, "name": "Quarter of Castries", "country": "LC", "coord": {"lon": -60.966671, "lat": 13.98333}}, {"id": 3576685, "name": "Quarter of Gros-Islet", "country": "LC", "coord": {"lon": -60.950001, "lat": 14.05}}, {"id": 3576413, "name": "Quarter of Vieux-Fort", "country": "LC", "coord": {"lon": -60.966671, "lat": 13.78333}}, {"id": 6985378, "name": "Quartier D\u2019Orleans Sud", "country": "MF", "coord": {"lon": -63.033539, "lat": 18.069111}}, {"id": 3570058, "name": "Quartier Gillot", "country": "MQ", "coord": {"lon": -60.900002, "lat": 14.6}}, {"id": 934133, "name": "Quartier Militaire", "country": "MU", "coord": {"lon": 57.589169, "lat": -20.243891}}, {"id": 3718278, "name": "Quartier Morin", "country": "HT", "coord": {"lon": -72.156937, "lat": 19.696671}}, {"id": 6542330, "name": "Quarto", "country": "IT", "coord": {"lon": 14.13943, "lat": 40.876808}}, {"id": 6534256, "name": "Quarto", "country": "IT", "coord": {"lon": 14.13943, "lat": 40.876808}}, {"id": 6538320, "name": "Quarto d'Altino", "country": "IT", "coord": {"lon": 12.37172, "lat": 45.577702}}, {"id": 3169700, "name": "Quarto dAltino", "country": "IT", "coord": {"lon": 12.37333, "lat": 45.579441}}, {"id": 6542141, "name": "Quartu Sant'Elena", "country": "IT", "coord": {"lon": 9.1832, "lat": 39.242001}}, {"id": 2523665, "name": "Quartu SantElena", "country": "IT", "coord": {"lon": 9.18389, "lat": 39.24194}}, {"id": 2523666, "name": "Quartucciu", "country": "IT", "coord": {"lon": 9.17944, "lat": 39.251942}}, {"id": 5385393, "name": "Quartz Hill", "country": "US", "coord": {"lon": -118.218132, "lat": 34.64526}}, {"id": 5310183, "name": "Quartzsite", "country": "US", "coord": {"lon": -114.22995, "lat": 33.66391}}, {"id": 6550467, "name": "Quaschwitz", "country": "DE", "coord": {"lon": 11.7, "lat": 50.6833}}, {"id": 2851493, "name": "Quaschwitz", "country": "DE", "coord": {"lon": 11.7, "lat": 50.683331}}, {"id": 2851491, "name": "Quassel", "country": "DE", "coord": {"lon": 11.08333, "lat": 53.333328}}, {"id": 3169690, "name": "Quassolo", "country": "IT", "coord": {"lon": 7.83232, "lat": 45.522861}}, {"id": 3452167, "name": "Quata", "country": "BR", "coord": {"lon": -50.69833, "lat": -22.247499}}, {"id": 7290266, "name": "Quathiaski Cove", "country": "CA", "coord": {"lon": -125.217529, "lat": 50.052681}}, {"id": 3452148, "name": "Quatis", "country": "BR", "coord": {"lon": -44.25806, "lat": -22.407221}}, {"id": 2851478, "name": "Quatitz", "country": "DE", "coord": {"lon": 14.45, "lat": 51.23333}}, {"id": 934131, "name": "Quatre Bornes", "country": "MU", "coord": {"lon": 57.471939, "lat": -20.264441}}, {"id": 1106643, "name": "Quatre Cocos", "country": "MU", "coord": {"lon": 57.762501, "lat": -20.207781}}, {"id": 934127, "name": "Quatre Soeurs", "country": "MU", "coord": {"lon": 57.770561, "lat": -20.29917}}, {"id": 6361969, "name": "Quatretonda", "country": "ES", "coord": {"lon": -0.39547, "lat": 38.96302}}, {"id": 2519061, "name": "Quatretonda", "country": "ES", "coord": {"lon": -0.4, "lat": 38.950001}}, {"id": 3452141, "name": "Quatro Barras", "country": "BR", "coord": {"lon": -49.076939, "lat": -25.365561}}, {"id": 3452137, "name": "Quatro Pontes", "country": "BR", "coord": {"lon": -53.97694, "lat": -24.575001}}, {"id": 3169688, "name": "Quattordio", "country": "IT", "coord": {"lon": 8.40494, "lat": 44.896351}}, {"id": 3169687, "name": "Quattro Castella", "country": "IT", "coord": {"lon": 10.47429, "lat": 44.63496}}, {"id": 5485605, "name": "Quay County", "country": "US", "coord": {"lon": -103.542221, "lat": 35.041672}}, {"id": 6438424, "name": "Qua\u00ebdypre", "country": "FR", "coord": {"lon": 2.46667, "lat": 50.933331}}, {"id": 585221, "name": "Quba", "country": "AZ", "coord": {"lon": 48.51519, "lat": 41.362591}}, {"id": 585786, "name": "Quba Rayon", "country": "AZ", "coord": {"lon": 48.416672, "lat": 41.166672}}, {"id": 147305, "name": "Qubadli", "country": "AZ", "coord": {"lon": 46.581959, "lat": 39.34396}}, {"id": 147694, "name": "Qubadli Rayon", "country": "AZ", "coord": {"lon": 46.583328, "lat": 39.333328}}, {"id": 2467980, "name": "Quballat", "country": "TN", "coord": {"lon": 9.66334, "lat": 36.541779}}, {"id": 1221583, "name": "Qubodiyon", "country": "TJ", "coord": {"lon": 68.186333, "lat": 37.411442}}, {"id": 7384129, "name": "Qubucangka", "country": "CN", "coord": {"lon": 100.442871, "lat": 35.60009}}, {"id": 119115, "name": "Quchan", "country": "IR", "coord": {"lon": 58.509548, "lat": 37.105999}}, {"id": 1129013, "name": "Quchanghi", "country": "AF", "coord": {"lon": 66.275833, "lat": 34.061668}}, {"id": 1797342, "name": "Qucun", "country": "CN", "coord": {"lon": 111.545029, "lat": 35.733341}}, {"id": 7839766, "name": "Queanbeyan", "country": "AU", "coord": {"lon": 149.228378, "lat": -35.419651}}, {"id": 2152286, "name": "Queanbeyan", "country": "AU", "coord": {"lon": 149.233337, "lat": -35.349998}}, {"id": 6325494, "name": "Quebec", "country": "CA", "coord": {"lon": -71.214539, "lat": 46.812279}}, {"id": 1692241, "name": "Quebiauan", "country": "PH", "coord": {"lon": 120.683327, "lat": 15.03333}}, {"id": 2370473, "name": "Quebo", "country": "GW", "coord": {"lon": -14.93333, "lat": 11.33333}}, {"id": 3452120, "name": "Quebra Dentes", "country": "BR", "coord": {"lon": -49.216671, "lat": -27.683331}}, {"id": 3440925, "name": "Quebracho", "country": "UY", "coord": {"lon": -57.883331, "lat": -31.950001}}, {"id": 3839801, "name": "Quebracho Herrado", "country": "AR", "coord": {"lon": -62.2262, "lat": -31.54891}}, {"id": 6380342, "name": "Quebrada", "country": "PE", "coord": {"lon": -77.60083, "lat": -9.35111}}, {"id": 4566997, "name": "Quebrada", "country": "PR", "coord": {"lon": -66.832123, "lat": 18.356621}}, {"id": 3702276, "name": "Quebrada Bonita Adentro", "country": "PA", "coord": {"lon": -79.699997, "lat": 9.3}}, {"id": 3702269, "name": "Quebrada Canoa", "country": "PA", "coord": {"lon": -81.783333, "lat": 8.43333}}, {"id": 3622205, "name": "Quebrada Honda", "country": "CR", "coord": {"lon": -85.298622, "lat": 10.18617}}, {"id": 3603041, "name": "Quebrada Larga", "country": "HN", "coord": {"lon": -86.366669, "lat": 14.1}}, {"id": 3603028, "name": "Quebrada Seca", "country": "HN", "coord": {"lon": -87.949997, "lat": 15.66667}}, {"id": 3629490, "name": "Quebrada Seca", "country": "VE", "coord": {"lon": -70.319412, "lat": 8.70015}}, {"id": 3622196, "name": "Quebrada Yeguas", "country": "CR", "coord": {"lon": -84.150002, "lat": 9.95}}, {"id": 3603097, "name": "Quebrada de Arena", "country": "HN", "coord": {"lon": -85.916672, "lat": 15.76667}}, {"id": 3671161, "name": "Quebradanegra", "country": "CO", "coord": {"lon": -74.479439, "lat": 5.11737}}, {"id": 3603035, "name": "Quebradas", "country": "HN", "coord": {"lon": -87.349998, "lat": 14.5}}, {"id": 4567552, "name": "Quebradillas", "country": "PR", "coord": {"lon": -66.938507, "lat": 18.473829}}, {"id": 4567734, "name": "Quebradillas Municipio", "country": "PR", "coord": {"lon": -66.924622, "lat": 18.439671}}, {"id": 3391090, "name": "Quebrangulo", "country": "BR", "coord": {"lon": -36.471111, "lat": -9.31889}}, {"id": 2984853, "name": "Quebriac", "country": "FR", "coord": {"lon": -1.82723, "lat": 48.34444}}, {"id": 3520926, "name": "Quecholac", "country": "MX", "coord": {"lon": -97.666672, "lat": 18.950001}}, {"id": 3520922, "name": "Quechultenango", "country": "MX", "coord": {"lon": -99.216667, "lat": 17.41667}}, {"id": 2851474, "name": "Queck", "country": "DE", "coord": {"lon": 9.58333, "lat": 50.716671}}, {"id": 2851473, "name": "Queckborn", "country": "DE", "coord": {"lon": 8.93333, "lat": 50.566669}}, {"id": 2851467, "name": "Queckhain", "country": "DE", "coord": {"lon": 13.96667, "lat": 51.133331}}, {"id": 1801298, "name": "Quedantang", "country": "CN", "coord": {"lon": 100.60006, "lat": 35.650219}}, {"id": 2984852, "name": "Quedillac", "country": "FR", "coord": {"lon": -2.1424, "lat": 48.249039}}, {"id": 2851465, "name": "Quedlinburg", "country": "DE", "coord": {"lon": 11.15, "lat": 51.783329}}, {"id": 5056965, "name": "Queen City", "country": "US", "coord": {"lon": -92.567688, "lat": 40.409199}}, {"id": 4721041, "name": "Queen City", "country": "US", "coord": {"lon": -94.150192, "lat": 33.148739}}, {"id": 5310193, "name": "Queen Creek", "country": "US", "coord": {"lon": -111.6343, "lat": 33.248661}}, {"id": 934126, "name": "Queen Victoria", "country": "MU", "coord": {"lon": 57.7075, "lat": -20.219999}}, {"id": 2639796, "name": "Queenborough", "country": "GB", "coord": {"lon": 0.74767, "lat": 51.416199}}, {"id": 5133268, "name": "Queens County", "country": "US", "coord": {"lon": -73.799583, "lat": 40.7001}}, {"id": 6332485, "name": "Queensbridge Houses", "country": "US", "coord": {"lon": -73.945, "lat": 40.75528}}, {"id": 963528, "name": "Queensburgh", "country": "ZA", "coord": {"lon": 30.906429, "lat": -29.877689}}, {"id": 2639792, "name": "Queensbury", "country": "GB", "coord": {"lon": -1.91667, "lat": 53.76667}}, {"id": 5133279, "name": "Queensbury", "country": "US", "coord": {"lon": -73.613167, "lat": 43.377289}}, {"id": 2152279, "name": "Queenscliff", "country": "AU", "coord": {"lon": 144.649994, "lat": -38.26667}}, {"id": 963525, "name": "Queensdale", "country": "ZA", "coord": {"lon": 26.978621, "lat": -31.87101}}, {"id": 2639788, "name": "Queensferry", "country": "GB", "coord": {"lon": -3.4, "lat": 55.98333}}, {"id": 2639789, "name": "Queensferry", "country": "GB", "coord": {"lon": -3.03333, "lat": 53.200001}}, {"id": 6115144, "name": "Queenston", "country": "CA", "coord": {"lon": -79.049568, "lat": 43.166821}}, {"id": 963516, "name": "Queenstown", "country": "ZA", "coord": {"lon": 26.87533, "lat": -31.89756}}, {"id": 5268222, "name": "Queenstown", "country": "US", "coord": {"lon": -90.2882, "lat": 45.35191}}, {"id": 6115148, "name": "Queenstown", "country": "CA", "coord": {"lon": -66.115562, "lat": 45.683441}}, {"id": 2152272, "name": "Queenstown", "country": "AU", "coord": {"lon": 145.550003, "lat": -42.083328}}, {"id": 6204696, "name": "Queenstown", "country": "NZ", "coord": {"lon": 168.662704, "lat": -45.030231}}, {"id": 7910058, "name": "Queenstown-Lakes District", "country": "NZ", "coord": {"lon": 168.918091, "lat": -44.661491}}, {"id": 7516451, "name": "Queershan", "country": "CN", "coord": {"lon": 112.943283, "lat": 40.119141}}, {"id": 6555056, "name": "Queidersbach", "country": "DE", "coord": {"lon": 7.63333, "lat": 49.366699}}, {"id": 2851459, "name": "Queidersbach", "country": "DE", "coord": {"lon": 7.63333, "lat": 49.366669}}, {"id": 2851456, "name": "Queienfeld", "country": "DE", "coord": {"lon": 10.45, "lat": 50.450001}}, {"id": 6442854, "name": "Queige", "country": "FR", "coord": {"lon": 6.46667, "lat": 45.716671}}, {"id": 2984848, "name": "Queige", "country": "FR", "coord": {"lon": 6.46667, "lat": 45.716671}}, {"id": 8013349, "name": "Queijada", "country": "PT", "coord": {"lon": -8.5351, "lat": 41.71365}}, {"id": 2735675, "name": "Queijada", "country": "PT", "coord": {"lon": -8.5377, "lat": 41.717529}}, {"id": 8012544, "name": "Queijas", "country": "PT", "coord": {"lon": -9.26166, "lat": 38.721062}}, {"id": 6930155, "name": "Queijas", "country": "PT", "coord": {"lon": -9.26336, "lat": 38.71907}}, {"id": 3874453, "name": "Queil\u00e9n", "country": "CL", "coord": {"lon": -73.474159, "lat": -42.88905}}, {"id": 8013744, "name": "Queimada", "country": "PT", "coord": {"lon": -7.73515, "lat": 41.095058}}, {"id": 2735672, "name": "Queimada", "country": "PT", "coord": {"lon": -7.73795, "lat": 41.097729}}, {"id": 3391040, "name": "Queimadas", "country": "BR", "coord": {"lon": -35.898331, "lat": -7.35833}}, {"id": 3452085, "name": "Queimadas", "country": "BR", "coord": {"lon": -39.626389, "lat": -10.97833}}, {"id": 3452073, "name": "Queimados", "country": "BR", "coord": {"lon": -43.555279, "lat": -22.71611}}, {"id": 8013979, "name": "Queiriga", "country": "PT", "coord": {"lon": -7.73918, "lat": 40.804352}}, {"id": 2735663, "name": "Queiriga", "country": "PT", "coord": {"lon": -7.74853, "lat": 40.806782}}, {"id": 3452069, "name": "Queiroz", "country": "BR", "coord": {"lon": -50.24028, "lat": -21.798889}}, {"id": 2851455, "name": "Queis", "country": "DE", "coord": {"lon": 12.13333, "lat": 51.48333}}, {"id": 2264270, "name": "Quejas", "country": "PT", "coord": {"lon": -9.26593, "lat": 38.722359}}, {"id": 3112595, "name": "Quejo", "country": "ES", "coord": {"lon": -3.54806, "lat": 43.49667}}, {"id": 6359106, "name": "Quel", "country": "ES", "coord": {"lon": -2.04448, "lat": 42.205551}}, {"id": 3112593, "name": "Quel", "country": "ES", "coord": {"lon": -2.05196, "lat": 42.22979}}, {"id": 2984846, "name": "Quelaines-Saint-Gault", "country": "FR", "coord": {"lon": -0.8, "lat": 47.933331}}, {"id": 6617032, "name": "Quelaines-Saint-Gault", "country": "FR", "coord": {"lon": -0.802, "lat": 47.924999}}, {"id": 1028434, "name": "Quelimane", "country": "MZ", "coord": {"lon": 36.888329, "lat": -17.878611}}, {"id": 2851452, "name": "Quelle", "country": "DE", "coord": {"lon": 8.48333, "lat": 52}}, {"id": 2851450, "name": "Quellendorf", "country": "DE", "coord": {"lon": 12.13333, "lat": 51.75}}, {"id": 2851446, "name": "Quellental", "country": "DE", "coord": {"lon": 9.8, "lat": 53.650002}}, {"id": 3969858, "name": "Quell\u00f3n", "country": "CL", "coord": {"lon": -73.596107, "lat": -43.099171}}, {"id": 8012550, "name": "Queluz", "country": "PT", "coord": {"lon": -9.25912, "lat": 38.75494}}, {"id": 2264268, "name": "Queluz", "country": "PT", "coord": {"lon": -9.25451, "lat": 38.756569}}, {"id": 6356544, "name": "Quemada", "country": "ES", "coord": {"lon": -3.58364, "lat": 41.712479}}, {"id": 3112592, "name": "Quemada", "country": "ES", "coord": {"lon": -3.57476, "lat": 41.700729}}, {"id": 3543077, "name": "Quemado de Guines", "country": "CU", "coord": {"lon": -80.253609, "lat": 22.78528}}, {"id": 3811264, "name": "Quemamacho", "country": "HN", "coord": {"lon": -87.08889, "lat": 13.18722}}, {"id": 2984835, "name": "Quemeneven", "country": "FR", "coord": {"lon": -4.11667, "lat": 48.116669}}, {"id": 2984830, "name": "Quemper-Guezennec", "country": "FR", "coord": {"lon": -3.10522, "lat": 48.703781}}, {"id": 6429104, "name": "Quemper-Gu\u00e9zennec", "country": "FR", "coord": {"lon": -3.1, "lat": 48.700001}}, {"id": 3839668, "name": "Quemu Quemu", "country": "AR", "coord": {"lon": -63.564281, "lat": -36.05463}}, {"id": 6454770, "name": "Quend", "country": "FR", "coord": {"lon": 1.63333, "lat": 50.316669}}, {"id": 2984828, "name": "Quend", "country": "FR", "coord": {"lon": 1.63609, "lat": 50.315842}}, {"id": 6552942, "name": "Quendorf", "country": "DE", "coord": {"lon": 7.18333, "lat": 52.333302}}, {"id": 3204963, "name": "Quendorf", "country": "DE", "coord": {"lon": 7.18333, "lat": 52.333328}}, {"id": 2639779, "name": "Queniborough", "country": "GB", "coord": {"lon": -1.04749, "lat": 52.70591}}, {"id": 3629459, "name": "Queniquea", "country": "VE", "coord": {"lon": -72.015572, "lat": 7.91717}}, {"id": 2851430, "name": "Quenstedt", "country": "DE", "coord": {"lon": 11.46667, "lat": 51.700001}}, {"id": 2512110, "name": "Quentar", "country": "ES", "coord": {"lon": -3.46653, "lat": 37.192532}}, {"id": 3930975, "name": "Quepacc", "country": "PE", "coord": {"lon": -73.241943, "lat": -15.45861}}, {"id": 3874367, "name": "Quepe", "country": "CL", "coord": {"lon": -72.616669, "lat": -38.849998}}, {"id": 1259098, "name": "Quepem", "country": "IN", "coord": {"lon": 74.066673, "lat": 15.21667}}, {"id": 3622193, "name": "Quepos", "country": "CR", "coord": {"lon": -84.165222, "lat": 9.42357}}, {"id": 3429664, "name": "Quequ\u00e9n", "country": "AR", "coord": {"lon": -58.7155, "lat": -38.53532}}, {"id": 6357999, "name": "Quer", "country": "ES", "coord": {"lon": -3.28117, "lat": 40.614799}}, {"id": 3112586, "name": "Quer", "country": "ES", "coord": {"lon": -3.2753, "lat": 40.60532}}, {"id": 3693057, "name": "Querecotillo", "country": "PE", "coord": {"lon": -80.645561, "lat": -4.83778}}, {"id": 3991169, "name": "Querendaro", "country": "MX", "coord": {"lon": -100.916672, "lat": 19.866671}}, {"id": 6552369, "name": "Querenhorst", "country": "DE", "coord": {"lon": 10.9667, "lat": 52.333302}}, {"id": 2851395, "name": "Querenhorst", "country": "DE", "coord": {"lon": 10.96667, "lat": 52.333328}}, {"id": 8012007, "name": "Queren\u00e7a", "country": "PT", "coord": {"lon": -7.97543, "lat": 37.204151}}, {"id": 2264266, "name": "Queren\u00e7a", "country": "PT", "coord": {"lon": -7.98634, "lat": 37.201839}}, {"id": 2851393, "name": "Querfurt", "country": "DE", "coord": {"lon": 11.6, "lat": 51.383331}}, {"id": 6552047, "name": "Quern", "country": "DE", "coord": {"lon": 9.71667, "lat": 54.75}}, {"id": 2851385, "name": "Quern", "country": "DE", "coord": {"lon": 9.71667, "lat": 54.75}}, {"id": 6552455, "name": "Quernheim", "country": "DE", "coord": {"lon": 8.4, "lat": 52.466702}}, {"id": 2851381, "name": "Quernheim", "country": "DE", "coord": {"lon": 8.4, "lat": 52.466671}}, {"id": 6361801, "name": "Quero", "country": "ES", "coord": {"lon": -3.27265, "lat": 39.494228}}, {"id": 2512109, "name": "Quero", "country": "ES", "coord": {"lon": -3.24741, "lat": 39.511108}}, {"id": 3169673, "name": "Quero", "country": "IT", "coord": {"lon": 11.9315, "lat": 45.92181}}, {"id": 6361362, "name": "Querol", "country": "ES", "coord": {"lon": 1.43839, "lat": 41.420219}}, {"id": 3112582, "name": "Querol", "country": "ES", "coord": {"lon": 1.39684, "lat": 41.422932}}, {"id": 3953732, "name": "Queromarca", "country": "PE", "coord": {"lon": -71.384438, "lat": -14.1825}}, {"id": 6435542, "name": "Querqueville", "country": "FR", "coord": {"lon": -1.7, "lat": 49.666672}}, {"id": 2984799, "name": "Querqueville", "country": "FR", "coord": {"lon": -1.69119, "lat": 49.66251}}, {"id": 6431032, "name": "Querrien", "country": "FR", "coord": {"lon": -3.53333, "lat": 47.966671}}, {"id": 2984794, "name": "Querrien", "country": "FR", "coord": {"lon": -3.53333, "lat": 47.966671}}, {"id": 2851376, "name": "Quersa", "country": "DE", "coord": {"lon": 13.63333, "lat": 51.299999}}, {"id": 2851373, "name": "Querstedt", "country": "DE", "coord": {"lon": 11.66667, "lat": 52.599998}}, {"id": 2851370, "name": "Querum", "country": "DE", "coord": {"lon": 10.56667, "lat": 52.299999}}, {"id": 3991170, "name": "Quer\u00e9ndaro", "country": "MX", "coord": {"lon": -100.883331, "lat": 19.799999}}, {"id": 6362071, "name": "Quesa", "country": "ES", "coord": {"lon": -0.8096, "lat": 39.07687}}, {"id": 2512108, "name": "Quesa", "country": "ES", "coord": {"lon": -0.74, "lat": 39.119701}}, {"id": 6358522, "name": "Quesada", "country": "ES", "coord": {"lon": -3.09766, "lat": 37.746929}}, {"id": 2512107, "name": "Quesada", "country": "ES", "coord": {"lon": -3.06561, "lat": 37.84338}}, {"id": 3622190, "name": "Quesada", "country": "CR", "coord": {"lon": -84.427139, "lat": 10.32381}}, {"id": 3590987, "name": "Quesada", "country": "GT", "coord": {"lon": -90.040283, "lat": 14.27028}}, {"id": 6115187, "name": "Quesnel", "country": "CA", "coord": {"lon": -122.502892, "lat": 52.999882}}, {"id": 2984787, "name": "Quesnoy-sur-Deule", "country": "FR", "coord": {"lon": 2.99996, "lat": 50.713589}}, {"id": 6438427, "name": "Quesnoy-sur-De\u00fble", "country": "FR", "coord": {"lon": 3, "lat": 50.716671}}, {"id": 6429106, "name": "Quessoy", "country": "FR", "coord": {"lon": -2.66667, "lat": 48.416672}}, {"id": 2984783, "name": "Quessoy", "country": "FR", "coord": {"lon": -2.66089, "lat": 48.422081}}, {"id": 5485658, "name": "Questa", "country": "US", "coord": {"lon": -105.595009, "lat": 36.703911}}, {"id": 6437353, "name": "Questembert", "country": "FR", "coord": {"lon": -2.46667, "lat": 47.666672}}, {"id": 2984781, "name": "Questembert", "country": "FR", "coord": {"lon": -2.4522, "lat": 47.66296}}, {"id": 3671119, "name": "Quetame", "country": "CO", "coord": {"lon": -73.86142, "lat": 4.33234}}, {"id": 6613918, "name": "Quetigny", "country": "FR", "coord": {"lon": 5.11667, "lat": 47.316669}}, {"id": 2984775, "name": "Quetigny", "country": "FR", "coord": {"lon": 5.11667, "lat": 47.316669}}, {"id": 1167528, "name": "Quetta", "country": "PK", "coord": {"lon": 67.009712, "lat": 30.198999}}, {"id": 6435543, "name": "Quettehou", "country": "FR", "coord": {"lon": -1.3, "lat": 49.599998}}, {"id": 2984774, "name": "Quettehou", "country": "FR", "coord": {"lon": -1.30352, "lat": 49.593079}}, {"id": 6435544, "name": "Quettetot", "country": "FR", "coord": {"lon": -1.66667, "lat": 49.48333}}, {"id": 2984773, "name": "Quettetot", "country": "FR", "coord": {"lon": -1.66702, "lat": 49.487381}}, {"id": 6427393, "name": "Quetteville", "country": "FR", "coord": {"lon": 0.3, "lat": 49.333328}}, {"id": 2984772, "name": "Quetteville", "country": "FR", "coord": {"lon": 0.3076, "lat": 49.33532}}, {"id": 6435545, "name": "Quettreville-sur-Sienne", "country": "FR", "coord": {"lon": -1.46667, "lat": 48.966671}}, {"id": 2984771, "name": "Quettreville-sur-Sienne", "country": "FR", "coord": {"lon": -1.46782, "lat": 48.968021}}, {"id": 3590979, "name": "Quetzaltenango", "country": "GT", "coord": {"lon": -91.51667, "lat": 14.83333}}, {"id": 6440144, "name": "Queuille", "country": "FR", "coord": {"lon": 2.85, "lat": 45.966671}}, {"id": 2984766, "name": "Queuille", "country": "FR", "coord": {"lon": 2.84582, "lat": 45.971142}}, {"id": 1259094, "name": "Queula", "country": "IN", "coord": {"lon": 73.966667, "lat": 15.38333}}, {"id": 2788449, "name": "Quevaucamps", "country": "BE", "coord": {"lon": 3.26667, "lat": 50.716671}}, {"id": 6444691, "name": "Quevauvillers", "country": "FR", "coord": {"lon": 2.08333, "lat": 49.816669}}, {"id": 2984761, "name": "Quevauvillers", "country": "FR", "coord": {"lon": 2.08431, "lat": 49.823761}}, {"id": 3652567, "name": "Quevedo", "country": "EC", "coord": {"lon": -79.449997, "lat": -1.03333}}, {"id": 2984760, "name": "Queven", "country": "FR", "coord": {"lon": -3.41667, "lat": 47.783329}}, {"id": 2984759, "name": "Quevert", "country": "FR", "coord": {"lon": -2.08745, "lat": 48.46402}}, {"id": 2788446, "name": "Quevy-le-Petit", "country": "BE", "coord": {"lon": 3.93602, "lat": 50.36879}}, {"id": 6454017, "name": "Queyrac", "country": "FR", "coord": {"lon": -0.98333, "lat": 45.366669}}, {"id": 2984754, "name": "Queyrac", "country": "FR", "coord": {"lon": -0.98074, "lat": 45.362438}}, {"id": 6434392, "name": "Queyri\u00e8res", "country": "FR", "coord": {"lon": 4.1, "lat": 45.066669}}, {"id": 2984751, "name": "Queyri\u00e8res", "country": "FR", "coord": {"lon": 4.0984, "lat": 45.072319}}, {"id": 3602984, "name": "Quezailica", "country": "HN", "coord": {"lon": -88.73333, "lat": 14.88333}}, {"id": 3617115, "name": "Quezalguaque", "country": "NI", "coord": {"lon": -86.902924, "lat": 12.50683}}, {"id": 3590973, "name": "Quezaltepeque", "country": "GT", "coord": {"lon": -89.449997, "lat": 14.63333}}, {"id": 3583981, "name": "Quezaltepeque", "country": "SV", "coord": {"lon": -89.274437, "lat": 13.835}}, {"id": 1692218, "name": "Quezon", "country": "PH", "coord": {"lon": 120.833328, "lat": 15.6}}, {"id": 1692199, "name": "Quezon", "country": "PH", "coord": {"lon": 120.814697, "lat": 15.5512}}, {"id": 1692221, "name": "Quezon", "country": "PH", "coord": {"lon": 125.133331, "lat": 7.73333}}, {"id": 1692214, "name": "Quezon", "country": "PH", "coord": {"lon": 125.098892, "lat": 7.73028}}, {"id": 1692196, "name": "Quezon", "country": "PH", "coord": {"lon": 121.606537, "lat": 17.31303}}, {"id": 1692197, "name": "Quezon", "country": "PH", "coord": {"lon": 121.26667, "lat": 16.5}}, {"id": 1692201, "name": "Quezon", "country": "PH", "coord": {"lon": 122.182503, "lat": 14.00944}}, {"id": 1692205, "name": "Quezon", "country": "PH", "coord": {"lon": 123.949997, "lat": 12.6}}, {"id": 1692210, "name": "Quezon", "country": "PH", "coord": {"lon": 123.282501, "lat": 10.42917}}, {"id": 1692211, "name": "Quezon", "country": "PH", "coord": {"lon": 118.031387, "lat": 9.24111}}, {"id": 1692193, "name": "Quezon City", "country": "PH", "coord": {"lon": 121.033333, "lat": 14.63333}}, {"id": 7603218, "name": "Quezzi", "country": "IT", "coord": {"lon": 8.973, "lat": 44.421921}}, {"id": 1797333, "name": "Qufu", "country": "CN", "coord": {"lon": 116.991112, "lat": 35.596668}}, {"id": 1793857, "name": "Quguoqiongwa", "country": "CN", "coord": {"lon": 100.9328, "lat": 35.518509}}, {"id": 8011828, "name": "Quiaios", "country": "PT", "coord": {"lon": -8.84187, "lat": 40.22337}}, {"id": 2735652, "name": "Quiaios", "country": "PT", "coord": {"lon": -8.84976, "lat": 40.214409}}, {"id": 1692184, "name": "Quiapo", "country": "PH", "coord": {"lon": 120.983299, "lat": 14.6}}, {"id": 1692174, "name": "Quibal", "country": "PH", "coord": {"lon": 121.811348, "lat": 17.7159}}, {"id": 3346598, "name": "Quibala", "country": "AO", "coord": {"lon": 14.97995, "lat": -10.73366}}, {"id": 3671116, "name": "Quibdo", "country": "CO", "coord": {"lon": -76.66111, "lat": 5.69472}}, {"id": 2984741, "name": "Quiberon", "country": "FR", "coord": {"lon": -3.11962, "lat": 47.484119}}, {"id": 6454342, "name": "Quiberon", "country": "FR", "coord": {"lon": -3.11667, "lat": 47.48333}}, {"id": 3629419, "name": "Quibor", "country": "VE", "coord": {"lon": -69.620102, "lat": 9.92866}}, {"id": 6424432, "name": "Quibou", "country": "FR", "coord": {"lon": -1.2, "lat": 49.066669}}, {"id": 2984736, "name": "Quibou", "country": "FR", "coord": {"lon": -1.2, "lat": 49.066669}}, {"id": 6358399, "name": "Quicena", "country": "ES", "coord": {"lon": -0.35003, "lat": 42.152431}}, {"id": 3112577, "name": "Quicena", "country": "ES", "coord": {"lon": -0.36049, "lat": 42.147968}}, {"id": 2851343, "name": "Quickborn", "country": "DE", "coord": {"lon": 9.9, "lat": 53.73333}}, {"id": 6551366, "name": "Quickborn", "country": "DE", "coord": {"lon": 9.2, "lat": 54.016701}}, {"id": 2851342, "name": "Quickborn", "country": "DE", "coord": {"lon": 9.2, "lat": 54.01667}}, {"id": 6553333, "name": "Quiddelbach", "country": "DE", "coord": {"lon": 6.93333, "lat": 50.349998}}, {"id": 2851338, "name": "Quiddelbach", "country": "DE", "coord": {"lon": 6.93333, "lat": 50.349998}}, {"id": 2984733, "name": "Quiers-sur-Bezonde", "country": "FR", "coord": {"lon": 2.44141, "lat": 47.996151}}, {"id": 6434693, "name": "Quiers-sur-B\u00e9zonde", "country": "FR", "coord": {"lon": 2.43333, "lat": 48}}, {"id": 6547512, "name": "Quierschied", "country": "DE", "coord": {"lon": 7.05, "lat": 49.3167}}, {"id": 2851337, "name": "Quierschied", "country": "DE", "coord": {"lon": 7.05, "lat": 49.316669}}, {"id": 3169671, "name": "Quiesa", "country": "IT", "coord": {"lon": 10.36667, "lat": 43.849998}}, {"id": 2788444, "name": "Quievrain", "country": "BE", "coord": {"lon": 3.68351, "lat": 50.407372}}, {"id": 2984728, "name": "Quievrechain", "country": "FR", "coord": {"lon": 3.66815, "lat": 50.39172}}, {"id": 2984726, "name": "Quievy", "country": "FR", "coord": {"lon": 3.42834, "lat": 50.168041}}, {"id": 3437215, "name": "Quiindy", "country": "PY", "coord": {"lon": -57.26667, "lat": -25.966669}}, {"id": 3112575, "name": "Quijano", "country": "ES", "coord": {"lon": -3.95593, "lat": 43.368069}}, {"id": 3112574, "name": "Quijas", "country": "ES", "coord": {"lon": -4.13371, "lat": 43.350052}}, {"id": 3452029, "name": "Quijingue", "country": "BR", "coord": {"lon": -39.209171, "lat": -10.7525}}, {"id": 6359340, "name": "Quijorna", "country": "ES", "coord": {"lon": -4.05938, "lat": 40.415401}}, {"id": 3112573, "name": "Quijorna", "country": "ES", "coord": {"lon": -4.05683, "lat": 40.427631}}, {"id": 3991148, "name": "Quila", "country": "MX", "coord": {"lon": -107.220001, "lat": 24.422779}}, {"id": 3930871, "name": "Quilahuani", "country": "PE", "coord": {"lon": -70.258057, "lat": -17.31778}}, {"id": 3617109, "name": "Quilali", "country": "NI", "coord": {"lon": -86.026001, "lat": 13.56695}}, {"id": 7866653, "name": "Quilamba", "country": "AO", "coord": {"lon": 14.36468, "lat": -10.84475}}, {"id": 6115259, "name": "Quilchena", "country": "CA", "coord": {"lon": -120.511948, "lat": 50.16013}}, {"id": 6540558, "name": "Quiliano", "country": "IT", "coord": {"lon": 8.41265, "lat": 44.292542}}, {"id": 3169670, "name": "Quiliano", "country": "IT", "coord": {"lon": 8.41265, "lat": 44.292542}}, {"id": 1692151, "name": "Quilib", "country": "PH", "coord": {"lon": 121.566673, "lat": 14.13333}}, {"id": 3874212, "name": "Quilicura", "country": "CL", "coord": {"lon": -70.75, "lat": -33.366669}}, {"id": 1692147, "name": "Quiling", "country": "PH", "coord": {"lon": 120.543892, "lat": 18.068331}}, {"id": 3839588, "name": "Quilino", "country": "AR", "coord": {"lon": -64.500633, "lat": -30.21397}}, {"id": 3930842, "name": "Quilipe", "country": "PE", "coord": {"lon": -78.166672, "lat": -10.06667}}, {"id": 6115274, "name": "Quill Lake", "country": "CA", "coord": {"lon": -104.251053, "lat": 52.066719}}, {"id": 3930835, "name": "Quillabamba", "country": "PE", "coord": {"lon": -72.783333, "lat": -12.81667}}, {"id": 3906791, "name": "Quillacollo", "country": "BO", "coord": {"lon": -66.283333, "lat": -17.4}}, {"id": 2984719, "name": "Quillan", "country": "FR", "coord": {"lon": 2.18176, "lat": 42.87579}}, {"id": 6453644, "name": "Quillan", "country": "FR", "coord": {"lon": 2.18333, "lat": 42.866669}}, {"id": 6612422, "name": "Quillebeuf-sur-Seine", "country": "FR", "coord": {"lon": 0.51667, "lat": 49.466671}}, {"id": 2984718, "name": "Quillebeuf-sur-Seine", "country": "FR", "coord": {"lon": 0.52793, "lat": 49.469341}}, {"id": 3874141, "name": "Quilleco", "country": "CL", "coord": {"lon": -71.966667, "lat": -37.466671}}, {"id": 3874119, "name": "Quillota", "country": "CL", "coord": {"lon": -71.26667, "lat": -32.883331}}, {"id": 6434502, "name": "Quilly", "country": "FR", "coord": {"lon": -1.95, "lat": 47.466671}}, {"id": 2984708, "name": "Quilly", "country": "FR", "coord": {"lon": -1.95274, "lat": 47.461311}}, {"id": 3874122, "name": "Quill\u00f3n", "country": "CL", "coord": {"lon": -72.466667, "lat": -36.73333}}, {"id": 3930817, "name": "Quilmana", "country": "PE", "coord": {"lon": -76.383331, "lat": -12.95}}, {"id": 3429652, "name": "Quilmes", "country": "AR", "coord": {"lon": -58.252651, "lat": -34.724178}}, {"id": 1692136, "name": "Quilo-quilo", "country": "PH", "coord": {"lon": 121.220901, "lat": 13.8638}}, {"id": 3452012, "name": "Quilombo", "country": "BR", "coord": {"lon": -52.720558, "lat": -26.72611}}, {"id": 3112570, "name": "Quilo\u00f1o", "country": "ES", "coord": {"lon": -5.96667, "lat": 43.549999}}, {"id": 7839386, "name": "Quilpie", "country": "AU", "coord": {"lon": 143.579361, "lat": -26.15057}}, {"id": 2152257, "name": "Quilpie", "country": "AU", "coord": {"lon": 144.25, "lat": -26.616671}}, {"id": 3874096, "name": "Quilpue", "country": "CL", "coord": {"lon": -71.44944, "lat": -33.044998}}, {"id": 2961981, "name": "Quilty", "country": "IE", "coord": {"lon": -9.45083, "lat": 52.81694}}, {"id": 3112569, "name": "Quil\u00f3s", "country": "ES", "coord": {"lon": -6.72243, "lat": 42.631691}}, {"id": 3671098, "name": "Quimbaya", "country": "CO", "coord": {"lon": -75.762779, "lat": 4.62306}}, {"id": 3906765, "name": "Quime", "country": "BO", "coord": {"lon": -67.216667, "lat": -16.98333}}, {"id": 3839565, "name": "Quimili", "country": "AR", "coord": {"lon": -62.416672, "lat": -27.633329}}, {"id": 3602952, "name": "Quimistan", "country": "HN", "coord": {"lon": -88.400002, "lat": 15.35}}, {"id": 6431033, "name": "Quimper", "country": "FR", "coord": {"lon": -4.1, "lat": 48}}, {"id": 2984701, "name": "Quimper", "country": "FR", "coord": {"lon": -4.1, "lat": 48}}, {"id": 2984699, "name": "Quimperle", "country": "FR", "coord": {"lon": -3.55, "lat": 47.866669}}, {"id": 6431034, "name": "Quimperl\u00e9", "country": "FR", "coord": {"lon": -3.55, "lat": 47.866669}}, {"id": 3652516, "name": "Quimshi", "country": "EC", "coord": {"lon": -78.783333, "lat": -2.9}}, {"id": 2961980, "name": "Quin", "country": "IE", "coord": {"lon": -8.86694, "lat": 52.818611}}, {"id": 1692113, "name": "Quinabigan", "country": "PH", "coord": {"lon": 121.478119, "lat": 12.9936}}, {"id": 1692100, "name": "Quinagaringan", "country": "PH", "coord": {"lon": 122.585564, "lat": 11.11972}}, {"id": 2152256, "name": "Quinalow", "country": "AU", "coord": {"lon": 151.633331, "lat": -27.116671}}, {"id": 1692066, "name": "Quinapundan", "country": "PH", "coord": {"lon": 125.521942, "lat": 11.15833}}, {"id": 1692063, "name": "Quinarayan", "country": "PH", "coord": {"lon": 120.472198, "lat": 17.444099}}, {"id": 6443400, "name": "Quincampoix", "country": "FR", "coord": {"lon": 1.18333, "lat": 49.533329}}, {"id": 2984697, "name": "Quincampoix", "country": "FR", "coord": {"lon": 1.18848, "lat": 49.5271}}, {"id": 3930769, "name": "Quince Mil", "country": "PE", "coord": {"lon": -70.754013, "lat": -13.23092}}, {"id": 6442078, "name": "Quincey", "country": "FR", "coord": {"lon": 6.18333, "lat": 47.616669}}, {"id": 2984691, "name": "Quincey", "country": "FR", "coord": {"lon": 6.18556, "lat": 47.611649}}, {"id": 3671091, "name": "Quinchia", "country": "CO", "coord": {"lon": -75.730179, "lat": 5.33957}}, {"id": 8011155, "name": "Quinch\u00e3es", "country": "PT", "coord": {"lon": -8.13688, "lat": 41.43317}}, {"id": 2735649, "name": "Quinch\u00e3es", "country": "PT", "coord": {"lon": -8.14026, "lat": 41.435661}}, {"id": 2984689, "name": "Quincie-en-Beaujolais", "country": "FR", "coord": {"lon": 4.62342, "lat": 46.12178}}, {"id": 6454576, "name": "Quincieux", "country": "FR", "coord": {"lon": 4.78333, "lat": 45.916672}}, {"id": 2984686, "name": "Quincieux", "country": "FR", "coord": {"lon": 4.77824, "lat": 45.910358}}, {"id": 3169668, "name": "Quincinetto", "country": "IT", "coord": {"lon": 7.80732, "lat": 45.562962}}, {"id": 6441734, "name": "Quinci\u00e9-en-Beaujolais", "country": "FR", "coord": {"lon": 4.6, "lat": 46.116669}}, {"id": 3112568, "name": "Quincoces de Yuso", "country": "ES", "coord": {"lon": -3.24261, "lat": 42.989262}}, {"id": 4247703, "name": "Quincy", "country": "US", "coord": {"lon": -91.409866, "lat": 39.9356}}, {"id": 4948247, "name": "Quincy", "country": "US", "coord": {"lon": -71.002274, "lat": 42.25288}}, {"id": 4169510, "name": "Quincy", "country": "US", "coord": {"lon": -84.583252, "lat": 30.587139}}, {"id": 5006647, "name": "Quincy", "country": "US", "coord": {"lon": -84.88385, "lat": 41.94421}}, {"id": 5385487, "name": "Quincy", "country": "US", "coord": {"lon": -120.947182, "lat": 39.93684}}, {"id": 5807713, "name": "Quincy", "country": "US", "coord": {"lon": -119.852547, "lat": 47.234299}}, {"id": 6443804, "name": "Quincy-Voisins", "country": "FR", "coord": {"lon": 2.88333, "lat": 48.900002}}, {"id": 2984677, "name": "Quincy-Voisins", "country": "FR", "coord": {"lon": 2.87559, "lat": 48.901138}}, {"id": 2984678, "name": "Quincy-sous-Senart", "country": "FR", "coord": {"lon": 2.53419, "lat": 48.672939}}, {"id": 6446190, "name": "Quincy-sous-S\u00e9nart", "country": "FR", "coord": {"lon": 2.53333, "lat": 48.666672}}, {"id": 2062766, "name": "Quindalup", "country": "AU", "coord": {"lon": 115.133331, "lat": -33.666672}}, {"id": 2062765, "name": "Quindanning", "country": "AU", "coord": {"lon": 116.566673, "lat": -33.049999}}, {"id": 3169667, "name": "Quindici", "country": "IT", "coord": {"lon": 14.64754, "lat": 40.863312}}, {"id": 4841217, "name": "Quinebaug", "country": "US", "coord": {"lon": -71.949799, "lat": 42.023708}}, {"id": 3169666, "name": "Quingentole", "country": "IT", "coord": {"lon": 11.0458, "lat": 45.039082}}, {"id": 6453862, "name": "Quingey", "country": "FR", "coord": {"lon": 5.88333, "lat": 47.099998}}, {"id": 2984675, "name": "Quingey", "country": "FR", "coord": {"lon": 5.88312, "lat": 47.102501}}, {"id": 2370358, "name": "Quinhamel", "country": "GW", "coord": {"lon": -15.85, "lat": 11.88333}}, {"id": 1692032, "name": "Quinipot", "country": "PH", "coord": {"lon": 122.220284, "lat": 7.18028}}, {"id": 4721089, "name": "Quinlan", "country": "US", "coord": {"lon": -96.135529, "lat": 32.9104}}, {"id": 5006658, "name": "Quinnesec", "country": "US", "coord": {"lon": -87.988457, "lat": 45.806351}}, {"id": 4592283, "name": "Quinns Crossroad", "country": "US", "coord": {"lon": -80.345078, "lat": 33.989319}}, {"id": 2078766, "name": "Quinns Rocks", "country": "AU", "coord": {"lon": 115.67778, "lat": -31.68611}}, {"id": 3874005, "name": "Quinquimo", "country": "CL", "coord": {"lon": -71.316673, "lat": -32.450001}}, {"id": 2984671, "name": "Quinquis", "country": "FR", "coord": {"lon": -3.7, "lat": 47.933331}}, {"id": 6613817, "name": "Quinsac", "country": "FR", "coord": {"lon": -0.5, "lat": 44.75}}, {"id": 2984664, "name": "Quinsac", "country": "FR", "coord": {"lon": -0.48697, "lat": 44.755348}}, {"id": 6425432, "name": "Quinssaines", "country": "FR", "coord": {"lon": 2.51667, "lat": 46.333328}}, {"id": 2984657, "name": "Quinssaines", "country": "FR", "coord": {"lon": 2.51667, "lat": 46.333328}}, {"id": 3873992, "name": "Quinta Normal", "country": "CL", "coord": {"lon": -70.699997, "lat": -33.450001}}, {"id": 2735552, "name": "Quinta Nova", "country": "PT", "coord": {"lon": -8.60963, "lat": 41.23587}}, {"id": 3930743, "name": "Quinta Wisse", "country": "PE", "coord": {"lon": -77.033333, "lat": -11.98333}}, {"id": 2264239, "name": "Quinta da Esperan\u00e7a", "country": "PT", "coord": {"lon": -7.88333, "lat": 38.166672}}, {"id": 2264234, "name": "Quinta da Horta", "country": "PT", "coord": {"lon": -9.11667, "lat": 38.816669}}, {"id": 2264194, "name": "Quinta da Vit\u00f3ria", "country": "PT", "coord": {"lon": -9.11667, "lat": 38.783329}}, {"id": 2264213, "name": "Quinta das Areias", "country": "PT", "coord": {"lon": -8.97842, "lat": 38.980061}}, {"id": 8014565, "name": "Quinta do Anjo", "country": "PT", "coord": {"lon": -8.97229, "lat": 38.588509}}, {"id": 2264169, "name": "Quinta do Anjo", "country": "PT", "coord": {"lon": -8.94228, "lat": 38.567532}}, {"id": 2264131, "name": "Quinta do Sobrado", "country": "PT", "coord": {"lon": -8.82753, "lat": 39.647598}}, {"id": 3451951, "name": "Quinta do Sol", "country": "BR", "coord": {"lon": -52.129719, "lat": -23.852221}}, {"id": 3112550, "name": "Quintana", "country": "ES", "coord": {"lon": -4.84723, "lat": 43.423561}}, {"id": 3822810, "name": "Quintana", "country": "MX", "coord": {"lon": -88.133331, "lat": 20.4625}}, {"id": 3451950, "name": "Quintana", "country": "BR", "coord": {"lon": -50.307499, "lat": -22.0725}}, {"id": 6361180, "name": "Quintana Redonda", "country": "ES", "coord": {"lon": -2.64692, "lat": 41.622608}}, {"id": 3112507, "name": "Quintana Redonda", "country": "ES", "coord": {"lon": -2.61449, "lat": 41.63905}}, {"id": 6355974, "name": "Quintana de la Serena", "country": "ES", "coord": {"lon": -5.73849, "lat": 38.769699}}, {"id": 2512099, "name": "Quintana de la Serena", "country": "ES", "coord": {"lon": -5.67233, "lat": 38.745949}}, {"id": 6358664, "name": "Quintana del Castillo", "country": "ES", "coord": {"lon": -5.99183, "lat": 42.65292}}, {"id": 3112541, "name": "Quintana del Castillo", "country": "ES", "coord": {"lon": -6.04978, "lat": 42.65987}}, {"id": 6358665, "name": "Quintana del Marco", "country": "ES", "coord": {"lon": -5.84699, "lat": 42.199162}}, {"id": 3112540, "name": "Quintana del Marco", "country": "ES", "coord": {"lon": -5.8503, "lat": 42.206699}}, {"id": 6356546, "name": "Quintana del Pidio", "country": "ES", "coord": {"lon": -3.74863, "lat": 41.765369}}, {"id": 3112537, "name": "Quintana del Pidio", "country": "ES", "coord": {"lon": -3.75121, "lat": 41.758862}}, {"id": 6360091, "name": "Quintana del Puente", "country": "ES", "coord": {"lon": -4.20064, "lat": 42.092419}}, {"id": 3112536, "name": "Quintana del Puente", "country": "ES", "coord": {"lon": -4.20649, "lat": 42.084709}}, {"id": 6358666, "name": "Quintana y Congosto", "country": "ES", "coord": {"lon": -6.06096, "lat": 42.26543}}, {"id": 3112492, "name": "Quintana y Congosto", "country": "ES", "coord": {"lon": -6.03636, "lat": 42.255852}}, {"id": 6356545, "name": "Quintanabureba", "country": "ES", "coord": {"lon": -3.36945, "lat": 42.586208}}, {"id": 3112545, "name": "Quintanabureba", "country": "ES", "coord": {"lon": -3.36684, "lat": 42.586651}}, {"id": 3112530, "name": "Quintanadue\u00f1as", "country": "ES", "coord": {"lon": -3.73533, "lat": 42.384941}}, {"id": 3112528, "name": "Quintanaelez", "country": "ES", "coord": {"lon": -3.29877, "lat": 42.669209}}, {"id": 3112513, "name": "Quintanaortuno", "country": "ES", "coord": {"lon": -3.68333, "lat": 42.450001}}, {"id": 6356548, "name": "Quintanaortu\u00f1o", "country": "ES", "coord": {"lon": -3.6842, "lat": 42.450439}}, {"id": 6356549, "name": "Quintanapalla", "country": "ES", "coord": {"lon": -3.53228, "lat": 42.409142}}, {"id": 3112512, "name": "Quintanapalla", "country": "ES", "coord": {"lon": -3.53296, "lat": 42.409142}}, {"id": 6361802, "name": "Quintanar de la Orden", "country": "ES", "coord": {"lon": -3.00576, "lat": 39.5928}}, {"id": 2512096, "name": "Quintanar de la Orden", "country": "ES", "coord": {"lon": -3.04165, "lat": 39.593681}}, {"id": 6356550, "name": "Quintanar de la Sierra", "country": "ES", "coord": {"lon": -3.02753, "lat": 42.002769}}, {"id": 3112509, "name": "Quintanar de la Sierra", "country": "ES", "coord": {"lon": -3.03765, "lat": 41.98288}}, {"id": 6357513, "name": "Quintanar del Rey", "country": "ES", "coord": {"lon": -1.93892, "lat": 39.338188}}, {"id": 2512095, "name": "Quintanar del Rey", "country": "ES", "coord": {"lon": -1.93333, "lat": 39.333328}}, {"id": 3112506, "name": "Quintanarraya", "country": "ES", "coord": {"lon": -3.33855, "lat": 41.787022}}, {"id": 6361181, "name": "Quintanas de Gormaz", "country": "ES", "coord": {"lon": -2.96223, "lat": 41.50396}}, {"id": 3112502, "name": "Quintanas de Gormaz", "country": "ES", "coord": {"lon": -2.97631, "lat": 41.509258}}, {"id": 6356551, "name": "Quintanavides", "country": "ES", "coord": {"lon": -3.41964, "lat": 42.476151}}, {"id": 3112493, "name": "Quintanavides", "country": "ES", "coord": {"lon": -3.42449, "lat": 42.480839}}, {"id": 6356547, "name": "Quintana\u00e9lez", "country": "ES", "coord": {"lon": -3.30217, "lat": 42.67514}}, {"id": 6356556, "name": "Quintanilla Vivar", "country": "ES", "coord": {"lon": -3.68969, "lat": 42.41573}}, {"id": 6362251, "name": "Quintanilla de Arriba", "country": "ES", "coord": {"lon": -4.25558, "lat": 41.6078}}, {"id": 3112478, "name": "Quintanilla de Arriba", "country": "ES", "coord": {"lon": -4.21774, "lat": 41.61974}}, {"id": 3112454, "name": "Quintanilla de Onesimo", "country": "ES", "coord": {"lon": -4.36291, "lat": 41.624901}}, {"id": 3112453, "name": "Quintanilla de Onsona", "country": "ES", "coord": {"lon": -4.66385, "lat": 42.469372}}, {"id": 6360092, "name": "Quintanilla de Onso\u00f1a", "country": "ES", "coord": {"lon": -4.66707, "lat": 42.483459}}, {"id": 6362253, "name": "Quintanilla de On\u00e9simo", "country": "ES", "coord": {"lon": -4.35352, "lat": 41.606651}}, {"id": 6362254, "name": "Quintanilla de Trigueros", "country": "ES", "coord": {"lon": -4.65671, "lat": 41.869129}}, {"id": 3112443, "name": "Quintanilla de Trigueros", "country": "ES", "coord": {"lon": -4.65931, "lat": 41.854488}}, {"id": 6362604, "name": "Quintanilla de Urz", "country": "ES", "coord": {"lon": -5.8486, "lat": 42.037472}}, {"id": 3112441, "name": "Quintanilla de Urz", "country": "ES", "coord": {"lon": -5.84866, "lat": 42.032902}}, {"id": 6356552, "name": "Quintanilla de la Mata", "country": "ES", "coord": {"lon": -3.78389, "lat": 41.997478}}, {"id": 3112472, "name": "Quintanilla de la Mata", "country": "ES", "coord": {"lon": -3.76756, "lat": 41.988548}}, {"id": 3112458, "name": "Quintanilla de los Oteros", "country": "ES", "coord": {"lon": -5.42785, "lat": 42.310822}}, {"id": 6356553, "name": "Quintanilla del Coco", "country": "ES", "coord": {"lon": -3.52297, "lat": 41.992802}}, {"id": 3112467, "name": "Quintanilla del Coco", "country": "ES", "coord": {"lon": -3.51667, "lat": 41.98333}}, {"id": 6362252, "name": "Quintanilla del Molar", "country": "ES", "coord": {"lon": -5.45911, "lat": 41.991371}}, {"id": 3112466, "name": "Quintanilla del Molar", "country": "ES", "coord": {"lon": -5.44928, "lat": 41.989349}}, {"id": 6362602, "name": "Quintanilla del Monte", "country": "ES", "coord": {"lon": -5.33892, "lat": 41.863949}}, {"id": 3112465, "name": "Quintanilla del Monte", "country": "ES", "coord": {"lon": -5.34928, "lat": 41.868118}}, {"id": 6362603, "name": "Quintanilla del Olmo", "country": "ES", "coord": {"lon": -5.41141, "lat": 41.91151}}, {"id": 3112461, "name": "Quintanilla del Olmo", "country": "ES", "coord": {"lon": -5.40726, "lat": 41.905609}}, {"id": 3112425, "name": "Quintanilla-Vivar", "country": "ES", "coord": {"lon": -3.68849, "lat": 42.415852}}, {"id": 6356554, "name": "Quintanillas (Las)", "country": "ES", "coord": {"lon": -3.84131, "lat": 42.37109}}, {"id": 6535239, "name": "Quintano", "country": "IT", "coord": {"lon": 9.61856, "lat": 45.420471}}, {"id": 4567564, "name": "Quintas de Humacao", "country": "PR", "coord": {"lon": -65.820442, "lat": 18.146351}}, {"id": 6115355, "name": "Quinte West", "country": "CA", "coord": {"lon": -77.566177, "lat": 44.183418}}, {"id": 2735527, "name": "Quintela", "country": "PT", "coord": {"lon": -7.71877, "lat": 40.41901}}, {"id": 3112414, "name": "Quintela", "country": "ES", "coord": {"lon": -8.21667, "lat": 42.150002}}, {"id": 6359883, "name": "Quintela de Leirado", "country": "ES", "coord": {"lon": -8.10318, "lat": 42.13678}}, {"id": 3112407, "name": "Quintela de Leirado", "country": "ES", "coord": {"lon": -8.10126, "lat": 42.139671}}, {"id": 6425765, "name": "Quintenas", "country": "FR", "coord": {"lon": 4.68333, "lat": 45.183331}}, {"id": 2984653, "name": "Quintenas", "country": "FR", "coord": {"lon": 4.68732, "lat": 45.189659}}, {"id": 3873983, "name": "Quintero", "country": "CL", "coord": {"lon": -71.533333, "lat": -32.783329}}, {"id": 6453804, "name": "Quintin", "country": "FR", "coord": {"lon": -2.91667, "lat": 48.400002}}, {"id": 2984649, "name": "Quintin", "country": "FR", "coord": {"lon": -2.9105, "lat": 48.403419}}, {"id": 2735508, "name": "Quinti\u00e3o", "country": "PT", "coord": {"lon": -7.79639, "lat": 41.132931}}, {"id": 6362909, "name": "Quinto", "country": "ES", "coord": {"lon": -0.51937, "lat": 41.412701}}, {"id": 3112403, "name": "Quinto", "country": "ES", "coord": {"lon": -0.49592, "lat": 41.423779}}, {"id": 3169662, "name": "Quinto Vercellese", "country": "IT", "coord": {"lon": 8.36173, "lat": 45.379662}}, {"id": 3169661, "name": "Quinto Vicentino", "country": "IT", "coord": {"lon": 11.633, "lat": 45.5741}}, {"id": 3169663, "name": "Quinto di Treviso", "country": "IT", "coord": {"lon": 12.16667, "lat": 45.64806}}, {"id": 4548780, "name": "Quinton", "country": "US", "coord": {"lon": -95.371094, "lat": 35.122879}}, {"id": 1692018, "name": "Quintong", "country": "PH", "coord": {"lon": 120.26722, "lat": 15.99528}}, {"id": 3112423, "name": "Quint\u00e1ns", "country": "ES", "coord": {"lon": -8.81061, "lat": 42.48962}}, {"id": 2735551, "name": "Quint\u00e3o", "country": "PT", "coord": {"lon": -7.90204, "lat": 41.13232}}, {"id": 2735540, "name": "Quint\u00e3s", "country": "PT", "coord": {"lon": -7.90847, "lat": 41.081921}}, {"id": 3169660, "name": "Quinzano dOglio", "country": "IT", "coord": {"lon": 10.00857, "lat": 45.310879}}, {"id": 3451942, "name": "Quinze de Novembro", "country": "BR", "coord": {"lon": -53.093609, "lat": -28.748329}}, {"id": 3775262, "name": "Quipama", "country": "CO", "coord": {"lon": -74.17765, "lat": 5.5194}}, {"id": 3390965, "name": "Quipapa", "country": "BR", "coord": {"lon": -36.011669, "lat": -8.82778}}, {"id": 3671072, "name": "Quipile", "country": "CO", "coord": {"lon": -74.563057, "lat": 4.74806}}, {"id": 1691995, "name": "Quipot", "country": "PH", "coord": {"lon": 121.315826, "lat": 13.93167}}, {"id": 1691996, "name": "Quipot", "country": "PH", "coord": {"lon": 123, "lat": 11.28333}}, {"id": 1708638, "name": "Quipot", "country": "PH", "coord": {"lon": 121.397217, "lat": 13.77911}}, {"id": 3112396, "name": "Quireza", "country": "ES", "coord": {"lon": -8.43333, "lat": 42.566669}}, {"id": 3873958, "name": "Quirihue", "country": "CL", "coord": {"lon": -72.533333, "lat": -36.283329}}, {"id": 2152240, "name": "Quirindi", "country": "AU", "coord": {"lon": 150.683334, "lat": -31.51667}}, {"id": 3991116, "name": "Quiringu\u00edcharo", "country": "MX", "coord": {"lon": -102.166672, "lat": 20.200001}}, {"id": 1691976, "name": "Quirino", "country": "PH", "coord": {"lon": 120.669998, "lat": 17.15556}}, {"id": 1691977, "name": "Quirino", "country": "PH", "coord": {"lon": 121.699997, "lat": 17.133329}}, {"id": 3451931, "name": "Quirinopolis", "country": "BR", "coord": {"lon": -50.451672, "lat": -18.44833}}, {"id": 3629385, "name": "Quiriquire", "country": "VE", "coord": {"lon": -63.21991, "lat": 9.9795}}, {"id": 6550391, "name": "Quirla", "country": "DE", "coord": {"lon": 11.7667, "lat": 50.866699}}, {"id": 2851323, "name": "Quirla", "country": "DE", "coord": {"lon": 11.76667, "lat": 50.866669}}, {"id": 6554168, "name": "Quirnbach", "country": "DE", "coord": {"lon": 7.8, "lat": 50.516701}}, {"id": 2851321, "name": "Quirnbach", "country": "DE", "coord": {"lon": 7.8, "lat": 50.51667}}, {"id": 6554920, "name": "Quirnheim", "country": "DE", "coord": {"lon": 8.12639, "lat": 49.5844}}, {"id": 2851320, "name": "Quirnheim", "country": "DE", "coord": {"lon": 8.12639, "lat": 49.584438}}, {"id": 3991110, "name": "Quiroga", "country": "MX", "coord": {"lon": -101.533333, "lat": 19.66667}}, {"id": 6359209, "name": "Quiroga", "country": "ES", "coord": {"lon": -7.20928, "lat": 42.48468}}, {"id": 3839516, "name": "Quiroga", "country": "AR", "coord": {"lon": -61.406719, "lat": -35.292919}}, {"id": 3112395, "name": "Quiroga", "country": "ES", "coord": {"lon": -7.27463, "lat": 42.47678}}, {"id": 2851319, "name": "Quirrenbach", "country": "DE", "coord": {"lon": 7.31667, "lat": 50.683331}}, {"id": 6362605, "name": "Quiruelas de Vidriales", "country": "ES", "coord": {"lon": -5.83078, "lat": 42.013821}}, {"id": 3112393, "name": "Quiruelas de Vidriales", "country": "ES", "coord": {"lon": -5.82947, "lat": 42.01762}}, {"id": 3692994, "name": "Quiruvilca", "country": "PE", "coord": {"lon": -78.199997, "lat": -7.96667}}, {"id": 6359956, "name": "Quir\u00f3s", "country": "ES", "coord": {"lon": -5.98046, "lat": 43.157082}}, {"id": 1691973, "name": "Quisao", "country": "PH", "coord": {"lon": 121.334396, "lat": 14.4347}}, {"id": 3602936, "name": "Quiscamote", "country": "HN", "coord": {"lon": -87.98333, "lat": 14.48333}}, {"id": 2851317, "name": "Quisdorf", "country": "DE", "coord": {"lon": 10.56667, "lat": 54.116669}}, {"id": 2512089, "name": "Quise", "country": "ES", "coord": {"lon": -17.256941, "lat": 28.04627}}, {"id": 6361803, "name": "Quismondo", "country": "ES", "coord": {"lon": -4.31912, "lat": 40.10574}}, {"id": 3112391, "name": "Quismondo", "country": "ES", "coord": {"lon": -4.32394, "lat": 40.105331}}, {"id": 6115383, "name": "Quispamsis", "country": "CA", "coord": {"lon": -65.951271, "lat": 45.421349}}, {"id": 3494121, "name": "Quisqueya", "country": "DO", "coord": {"lon": -69.408142, "lat": 18.55542}}, {"id": 6431366, "name": "Quissac", "country": "FR", "coord": {"lon": 4, "lat": 43.916672}}, {"id": 2984643, "name": "Quissac", "country": "FR", "coord": {"lon": 3.9992, "lat": 43.91341}}, {"id": 3451927, "name": "Quissam\u00e3", "country": "BR", "coord": {"lon": -41.472221, "lat": -22.10667}}, {"id": 3169656, "name": "Quistello", "country": "IT", "coord": {"lon": 10.9823, "lat": 45.005581}}, {"id": 6437356, "name": "Quistinic", "country": "FR", "coord": {"lon": -3.133, "lat": 47.905201}}, {"id": 2984640, "name": "Quistinic", "country": "FR", "coord": {"lon": -3.134, "lat": 47.904099}}, {"id": 1691968, "name": "Quitang", "country": "PH", "coord": {"lon": 123.052902, "lat": 13.5513}}, {"id": 3839490, "name": "Quitilipi", "country": "AR", "coord": {"lon": -60.216831, "lat": -26.869129}}, {"id": 4217712, "name": "Quitman", "country": "US", "coord": {"lon": -83.559883, "lat": 30.78492}}, {"id": 4442692, "name": "Quitman", "country": "US", "coord": {"lon": -88.728104, "lat": 32.04015}}, {"id": 4721115, "name": "Quitman", "country": "US", "coord": {"lon": -95.451057, "lat": 32.795959}}, {"id": 3652462, "name": "Quito", "country": "EC", "coord": {"lon": -78.524948, "lat": -0.22985}}, {"id": 3169655, "name": "Quittengo", "country": "IT", "coord": {"lon": 8.01102, "lat": 45.656761}}, {"id": 2851310, "name": "Quitzdorf", "country": "DE", "coord": {"lon": 14.76667, "lat": 51.283329}}, {"id": 2851303, "name": "Quitzow", "country": "DE", "coord": {"lon": 11.81667, "lat": 53.099998}}, {"id": 2851304, "name": "Quitz\u00f6bel", "country": "DE", "coord": {"lon": 11.98333, "lat": 52.883331}}, {"id": 3542965, "name": "Quivican", "country": "CU", "coord": {"lon": -82.355003, "lat": 22.823059}}, {"id": 3390907, "name": "Quixada", "country": "BR", "coord": {"lon": -39.015282, "lat": -4.97139}}, {"id": 3390901, "name": "Quixeramobim", "country": "BR", "coord": {"lon": -39.292782, "lat": -5.19917}}, {"id": 3390896, "name": "Quixere", "country": "BR", "coord": {"lon": -37.988609, "lat": -5.07417}}, {"id": 2788445, "name": "Qui\u00e9vrain", "country": "BE", "coord": {"lon": 3.68505, "lat": 50.40715}}, {"id": 6438429, "name": "Qui\u00e9vrechain", "country": "FR", "coord": {"lon": 3.66952, "lat": 50.393139}}, {"id": 6438430, "name": "Qui\u00e9vy", "country": "FR", "coord": {"lon": 3.41667, "lat": 50.166672}}, {"id": 2035231, "name": "Qujiadian", "country": "CN", "coord": {"lon": 123.929237, "lat": 43.22226}}, {"id": 1797326, "name": "Qujiang", "country": "CN", "coord": {"lon": 106.96785, "lat": 30.84206}}, {"id": 1797327, "name": "Qujiang", "country": "CN", "coord": {"lon": 115.79097, "lat": 28.24715}}, {"id": 1998335, "name": "Qujiang", "country": "CN", "coord": {"lon": 108.988251, "lat": 34.193161}}, {"id": 1797318, "name": "Qujing", "country": "CN", "coord": {"lon": 103.783333, "lat": 25.48333}}, {"id": 1797308, "name": "Qulai", "country": "CN", "coord": {"lon": 114.860451, "lat": 27.05966}}, {"id": 71799, "name": "Qulansiyah", "country": "YE", "coord": {"lon": 53.48333, "lat": 12.68333}}, {"id": 2467959, "name": "Qulaybiyah", "country": "TN", "coord": {"lon": 11.09386, "lat": 36.847569}}, {"id": 609123, "name": "Qulsary", "country": "KZ", "coord": {"lon": 54.019779, "lat": 46.953072}}, {"id": 247496, "name": "Qumaym", "country": "JO", "coord": {"lon": 35.732689, "lat": 32.571339}}, {"id": 1521835, "name": "Qumkent", "country": "KZ", "coord": {"lon": 69.616386, "lat": 43.775002}}, {"id": 1280194, "name": "Qumong", "country": "CN", "coord": {"lon": 98.097954, "lat": 32.977711}}, {"id": 1917716, "name": "Qunying", "country": "CN", "coord": {"lon": 109.870842, "lat": 18.58473}}, {"id": 2062745, "name": "Quorn", "country": "AU", "coord": {"lon": 138.033325, "lat": -32.349998}}, {"id": 2639755, "name": "Quorndon", "country": "GB", "coord": {"lon": -1.17348, "lat": 52.74461}}, {"id": 2851292, "name": "Quotshausen", "country": "DE", "coord": {"lon": 8.46667, "lat": 50.849998}}, {"id": 2467914, "name": "Qurbus", "country": "TN", "coord": {"lon": 10.56865, "lat": 36.816681}}, {"id": 1128954, "name": "Qurghan", "country": "AF", "coord": {"lon": 65.064903, "lat": 36.919392}}, {"id": 1513364, "name": "Qurghontepa", "country": "UZ", "coord": {"lon": 72.761772, "lat": 40.731918}}, {"id": 1220747, "name": "Qurghonteppa", "country": "TJ", "coord": {"lon": 68.78186, "lat": 37.833988}}, {"id": 1514870, "name": "Quruqsoy", "country": "TJ", "coord": {"lon": 69.378899, "lat": 40.57579}}, {"id": 585220, "name": "Qusar", "country": "AZ", "coord": {"lon": 48.428928, "lat": 41.42728}}, {"id": 585749, "name": "Qusar Rayon", "country": "AZ", "coord": {"lon": 48.25, "lat": 41.416672}}, {"id": 2467890, "name": "Qusaybat al Madyuni", "country": "TN", "coord": {"lon": 10.84256, "lat": 35.685619}}, {"id": 1813783, "name": "Qushan", "country": "CN", "coord": {"lon": 122.284271, "lat": 30.45005}}, {"id": 7384096, "name": "Qushianxiang", "country": "CN", "coord": {"lon": 100.232597, "lat": 35.325958}}, {"id": 1512978, "name": "Qushkupir", "country": "UZ", "coord": {"lon": 60.345558, "lat": 41.535}}, {"id": 1521677, "name": "Qushoqy", "country": "KZ", "coord": {"lon": 73.402496, "lat": 50.233891}}, {"id": 282284, "name": "Qusin", "country": "PS", "coord": {"lon": 35.182968, "lat": 32.238289}}, {"id": 1519924, "name": "Qusmuryn", "country": "KZ", "coord": {"lon": 64.631111, "lat": 52.450279}}, {"id": 282283, "name": "Qusrah", "country": "PS", "coord": {"lon": 35.330051, "lat": 32.08543}}, {"id": 1797293, "name": "Qutang", "country": "CN", "coord": {"lon": 120.32708, "lat": 32.49641}}, {"id": 165637, "name": "Qutaylibiyah", "country": "SY", "coord": {"lon": 36.014961, "lat": 35.28928}}, {"id": 7302845, "name": "Quthbullapur", "country": "IN", "coord": {"lon": 78.458183, "lat": 17.50107}}, {"id": 932183, "name": "Quthing", "country": "LS", "coord": {"lon": 27.70027, "lat": -30.400009}}, {"id": 932184, "name": "Quthing District", "country": "LS", "coord": {"lon": 28, "lat": -30.41667}}, {"id": 585231, "name": "Qutqashen", "country": "AZ", "coord": {"lon": 47.845829, "lat": 40.981392}}, {"id": 1908853, "name": "Qutun", "country": "CN", "coord": {"lon": 112.025398, "lat": 33.040409}}, {"id": 350376, "name": "Qutur", "country": "EG", "coord": {"lon": 30.956141, "lat": 30.97225}}, {"id": 1526979, "name": "Quva", "country": "UZ", "coord": {"lon": 72.072922, "lat": 40.522041}}, {"id": 1513331, "name": "Quvasoy", "country": "UZ", "coord": {"lon": 71.974442, "lat": 40.302219}}, {"id": 7330593, "name": "Quwa", "country": "CN", "coord": {"lon": 103.993408, "lat": 33.91885}}, {"id": 350370, "name": "Quwaysina", "country": "EG", "coord": {"lon": 31.15777, "lat": 30.564819}}, {"id": 1280181, "name": "Quxar", "country": "CN", "coord": {"lon": 87.650002, "lat": 29.1}}, {"id": 1797281, "name": "Quxi", "country": "CN", "coord": {"lon": 116.915169, "lat": 25.653761}}, {"id": 1797283, "name": "Quxi", "country": "CN", "coord": {"lon": 116.398018, "lat": 23.589939}}, {"id": 1797275, "name": "Quxia", "country": "CN", "coord": {"lon": 120.156982, "lat": 32.100368}}, {"id": 1568574, "name": "Quy Nhon", "country": "VN", "coord": {"lon": 109.23333, "lat": 13.76667}}, {"id": 1797271, "name": "Quyang", "country": "CN", "coord": {"lon": 109.638077, "lat": 26.575069}}, {"id": 1797264, "name": "Quzhou", "country": "CN", "coord": {"lon": 118.868607, "lat": 28.95944}}, {"id": 1797258, "name": "Quzi", "country": "CN", "coord": {"lon": 107.512039, "lat": 36.293228}}, {"id": 1797259, "name": "Quzi", "country": "CN", "coord": {"lon": 108.187653, "lat": 34.86565}}, {"id": 6115047, "name": "Qu\u00e9bec", "country": "CA", "coord": {"lon": -71.999069, "lat": 52.000172}}, {"id": 6432797, "name": "Qu\u00e9briac", "country": "FR", "coord": {"lon": -1.83333, "lat": 48.349998}}, {"id": 6432798, "name": "Qu\u00e9dillac", "country": "FR", "coord": {"lon": -2.15, "lat": 48.25}}, {"id": 6431031, "name": "Qu\u00e9m\u00e9n\u00e9ven", "country": "FR", "coord": {"lon": -4.11667, "lat": 48.116669}}, {"id": 6437354, "name": "Qu\u00e9ven", "country": "FR", "coord": {"lon": -3.41667, "lat": 47.783329}}, {"id": 6429107, "name": "Qu\u00e9vert", "country": "FR", "coord": {"lon": -2.08333, "lat": 48.466671}}, {"id": 2788448, "name": "Qu\u00e9vy", "country": "BE", "coord": {"lon": 3.93568, "lat": 50.368351}}, {"id": 1568738, "name": "Qu\u1ea3ng Tr\u1ecb", "country": "VN", "coord": {"lon": 107.199997, "lat": 16.75}}, {"id": 612338, "name": "Qvareli", "country": "GE", "coord": {"lon": 45.817162, "lat": 41.954922}}, {"id": 1519922, "name": "Qyzylorda", "country": "KZ", "coord": {"lon": 65.509171, "lat": 44.852779}}, {"id": 1521406, "name": "Qyzylorda Oblysy", "country": "KZ", "coord": {"lon": 65, "lat": 45}}, {"id": 103331, "name": "Q\u0101r\u0101", "country": "SA", "coord": {"lon": 40.22694, "lat": 29.87694}}, {"id": 92244, "name": "Q\u0101zaw al \u2018Uly\u0101", "country": "IQ", "coord": {"lon": 45.692501, "lat": 35.338333}}, {"id": 445967, "name": "Q\u0101zaw as Sufl\u00e1", "country": "IQ", "coord": {"lon": 45.707722, "lat": 35.335911}}, {"id": 6763613, "name": "Q\u016br al Asl\u0101f", "country": "IQ", "coord": {"lon": 41.305698, "lat": 34.217659}}, {"id": 5807732, "name": "R Corner", "country": "US", "coord": {"lon": -123.274902, "lat": 48.093979}}, {"id": 7874852, "name": "RMI Capitol", "country": "MH", "coord": {"lon": 171.380493, "lat": 7.08931}}, {"id": 1607083, "name": "Ra-ngae", "country": "TH", "coord": {"lon": 101.728439, "lat": 6.29678}}, {"id": 6551704, "name": "Raa-Besenbek", "country": "DE", "coord": {"lon": 9.6, "lat": 53.766701}}, {"id": 2851289, "name": "Raa-Besenbek", "country": "DE", "coord": {"lon": 9.6, "lat": 53.76667}}, {"id": 7872340, "name": "Raaba", "country": "AT", "coord": {"lon": 15.51855, "lat": 47.033112}}, {"id": 2768179, "name": "Raaba", "country": "AT", "coord": {"lon": 15.5, "lat": 47.033329}}, {"id": 7872307, "name": "Raabau", "country": "AT", "coord": {"lon": 15.91384, "lat": 46.962189}}, {"id": 2768178, "name": "Raabau", "country": "AT", "coord": {"lon": 15.91167, "lat": 46.96278}}, {"id": 7871922, "name": "Raabs an der Thaya", "country": "AT", "coord": {"lon": 15.49593, "lat": 48.8741}}, {"id": 2768177, "name": "Raabs an der Thaya", "country": "AT", "coord": {"lon": 15.5, "lat": 48.849998}}, {"id": 7872996, "name": "Raach am Hochgebirge", "country": "AT", "coord": {"lon": 15.93455, "lat": 47.642509}}, {"id": 2768175, "name": "Raach am Hochgebirge", "country": "AT", "coord": {"lon": 15.93333, "lat": 47.633331}}, {"id": 2851288, "name": "Raadt", "country": "DE", "coord": {"lon": 6.93333, "lat": 51.400002}}, {"id": 640277, "name": "Raahe", "country": "FI", "coord": {"lon": 24.5, "lat": 64.699997}}, {"id": 640276, "name": "Raahe", "country": "FI", "coord": {"lon": 24.48333, "lat": 64.683327}}, {"id": 640271, "name": "Raakkyla", "country": "FI", "coord": {"lon": 29.616671, "lat": 62.316669}}, {"id": 2851286, "name": "Raakow", "country": "DE", "coord": {"lon": 14.21667, "lat": 51.650002}}, {"id": 2748371, "name": "Raalte", "country": "NL", "coord": {"lon": 6.275, "lat": 52.38583}}, {"id": 7871741, "name": "Raasdorf", "country": "AT", "coord": {"lon": 16.57148, "lat": 48.246792}}, {"id": 2768171, "name": "Raasdorf", "country": "AT", "coord": {"lon": 16.565319, "lat": 48.246571}}, {"id": 8128754, "name": "Raasepori", "country": "FI", "coord": {"lon": 23.436331, "lat": 59.97718}}, {"id": 589223, "name": "Raasiku", "country": "EE", "coord": {"lon": 25.18306, "lat": 59.36639}}, {"id": 7522417, "name": "Raasiku vald", "country": "EE", "coord": {"lon": 25.14727, "lat": 59.323502}}, {"id": 1630262, "name": "Raba", "country": "ID", "coord": {"lon": 118.747002, "lat": -8.4613}}, {"id": 7378320, "name": "Raba", "country": "ID", "coord": {"lon": 118.863297, "lat": -8.5608}}, {"id": 282278, "name": "Raba", "country": "PS", "coord": {"lon": 35.38298, "lat": 32.38678}}, {"id": 3087613, "name": "Raba Wyzna", "country": "PL", "coord": {"lon": 19.879669, "lat": 49.566811}}, {"id": 3192174, "name": "Rabac", "country": "HR", "coord": {"lon": 14.1575, "lat": 45.079441}}, {"id": 3112388, "name": "Rabade", "country": "ES", "coord": {"lon": -7.61714, "lat": 43.117001}}, {"id": 669412, "name": "Rabagani", "country": "RO", "coord": {"lon": 22.23333, "lat": 46.75}}, {"id": 2324706, "name": "Rabah", "country": "NG", "coord": {"lon": 5.50741, "lat": 13.12133}}, {"id": 368277, "name": "Rabak", "country": "SD", "coord": {"lon": 32.73999, "lat": 13.18087}}, {"id": 8011444, "name": "Rabal", "country": "PT", "coord": {"lon": -6.75307, "lat": 41.882591}}, {"id": 2735496, "name": "Rabal", "country": "PT", "coord": {"lon": -6.75282, "lat": 41.86982}}, {"id": 3112375, "name": "Rabanal Viejo", "country": "ES", "coord": {"lon": -6.27109, "lat": 42.49501}}, {"id": 6362606, "name": "Rabanales", "country": "ES", "coord": {"lon": -6.27019, "lat": 41.740479}}, {"id": 3112376, "name": "Rabanales", "country": "ES", "coord": {"lon": -6.27674, "lat": 41.74287}}, {"id": 6359107, "name": "Rabanera", "country": "ES", "coord": {"lon": -2.47644, "lat": 42.182949}}, {"id": 3112374, "name": "Rabanera", "country": "ES", "coord": {"lon": -2.48654, "lat": 42.189548}}, {"id": 6356557, "name": "Rabanera del Pinar", "country": "ES", "coord": {"lon": -3.1787, "lat": 41.897011}}, {"id": 3112372, "name": "Rabanera del Pinar", "country": "ES", "coord": {"lon": -3.19665, "lat": 41.893749}}, {"id": 3112369, "name": "Rabano", "country": "ES", "coord": {"lon": -4.06214, "lat": 41.533138}}, {"id": 3112368, "name": "Rabano de Aliste", "country": "ES", "coord": {"lon": -6.43302, "lat": 41.744301}}, {"id": 3112366, "name": "Rabanos", "country": "ES", "coord": {"lon": -3.27029, "lat": 42.31971}}, {"id": 3046056, "name": "Rabapatona", "country": "HU", "coord": {"lon": 17.48004, "lat": 47.63224}}, {"id": 6454787, "name": "Rabastens", "country": "FR", "coord": {"lon": 1.7261, "lat": 43.821899}}, {"id": 2984627, "name": "Rabastens", "country": "FR", "coord": {"lon": 1.72382, "lat": 43.825119}}, {"id": 6440883, "name": "Rabastens-de-Bigorre", "country": "FR", "coord": {"lon": 0.15, "lat": 43.383331}}, {"id": 2984626, "name": "Rabastens-de-Bigorre", "country": "FR", "coord": {"lon": 0.15122, "lat": 43.387691}}, {"id": 2538474, "name": "Rabat", "country": "MA", "coord": {"lon": -6.84006, "lat": 33.991112}}, {"id": 2562620, "name": "Rabat", "country": "MT", "coord": {"lon": 14.39415, "lat": 35.874168}}, {"id": 2538475, "name": "Rabat", "country": "MA", "coord": {"lon": -6.83255, "lat": 34.013248}}, {"id": 1128310, "name": "Rabat-e Sangi-ye Pain", "country": "AF", "coord": {"lon": 62.139172, "lat": 34.799511}}, {"id": 2087894, "name": "Rabaul", "country": "PG", "coord": {"lon": 152.17215, "lat": -4.19671}}, {"id": 2264106, "name": "Raba\u00e7a", "country": "PT", "coord": {"lon": -7.39001, "lat": 39.398998}}, {"id": 6115526, "name": "Rabbit Lake", "country": "CA", "coord": {"lon": -107.76796, "lat": 53.13343}}, {"id": 3112363, "name": "Rabe de las Calzadas", "country": "ES", "coord": {"lon": -3.83414, "lat": 42.340649}}, {"id": 6552048, "name": "Rabel", "country": "DE", "coord": {"lon": 9.95, "lat": 54.700001}}, {"id": 2851273, "name": "Rabel", "country": "DE", "coord": {"lon": 9.95, "lat": 54.700001}}, {"id": 3451903, "name": "Rabelo", "country": "BR", "coord": {"lon": -46.533329, "lat": -21.85}}, {"id": 2851266, "name": "Raben", "country": "DE", "coord": {"lon": 12.58333, "lat": 52.049999}}, {"id": 6548380, "name": "Raben Steinfeld", "country": "DE", "coord": {"lon": 11.5, "lat": 53.599998}}, {"id": 2851175, "name": "Raben Steinfeld", "country": "DE", "coord": {"lon": 11.5, "lat": 53.599998}}, {"id": 3208101, "name": "Rabenau", "country": "DE", "coord": {"lon": 8.86667, "lat": 50.683331}}, {"id": 2851262, "name": "Rabenau", "country": "DE", "coord": {"lon": 13.63333, "lat": 50.966671}}, {"id": 7576812, "name": "Rabenau", "country": "DE", "coord": {"lon": 8.86425, "lat": 50.677528}}, {"id": 6552049, "name": "Rabenholz", "country": "DE", "coord": {"lon": 9.9, "lat": 54.716702}}, {"id": 2851231, "name": "Rabenholz", "country": "DE", "coord": {"lon": 9.9, "lat": 54.716671}}, {"id": 3208562, "name": "Rabenkirchen-Fauluck", "country": "DE", "coord": {"lon": 9.85, "lat": 54.633331}}, {"id": 6551985, "name": "Rabenkirchen-Faul\u00fcck", "country": "DE", "coord": {"lon": 9.85, "lat": 54.633301}}, {"id": 7871847, "name": "Rabensburg", "country": "AT", "coord": {"lon": 16.891331, "lat": 48.65057}}, {"id": 2768159, "name": "Rabensburg", "country": "AT", "coord": {"lon": 16.9, "lat": 48.650002}}, {"id": 2851193, "name": "Rabenscheid", "country": "DE", "coord": {"lon": 8.15, "lat": 50.683331}}, {"id": 2851191, "name": "Rabensdorf", "country": "DE", "coord": {"lon": 10.98333, "lat": 53.816669}}, {"id": 7873023, "name": "Rabenstein an der Pielach", "country": "AT", "coord": {"lon": 15.47878, "lat": 48.048691}}, {"id": 2768153, "name": "Rabenstein an der Pielach", "country": "AT", "coord": {"lon": 15.46772, "lat": 48.06535}}, {"id": 7872360, "name": "Rabenwald", "country": "AT", "coord": {"lon": 15.78463, "lat": 47.298359}}, {"id": 2768148, "name": "Rabenwald", "country": "AT", "coord": {"lon": 15.8, "lat": 47.299999}}, {"id": 2851259, "name": "Raben\u00e4u\u00dfig", "country": "DE", "coord": {"lon": 11.08333, "lat": 50.400002}}, {"id": 1630254, "name": "Rabig", "country": "ID", "coord": {"lon": 106.404167, "lat": -6.81482}}, {"id": 103035, "name": "Rabigh", "country": "SA", "coord": {"lon": 39.034931, "lat": 22.798559}}, {"id": 3374301, "name": "Rabil", "country": "CV", "coord": {"lon": -22.883329, "lat": 16.133329}}, {"id": 3590924, "name": "Rabinal", "country": "GT", "coord": {"lon": -90.449997, "lat": 15.1}}, {"id": 3087603, "name": "Rabino", "country": "PL", "coord": {"lon": 15.94485, "lat": 53.866299}}, {"id": 3087601, "name": "Rabka-Zdroj", "country": "PL", "coord": {"lon": 19.966539, "lat": 49.608891}}, {"id": 1259083, "name": "Rabkavi", "country": "IN", "coord": {"lon": 75.099998, "lat": 16.466669}}, {"id": 2851158, "name": "Rabke", "country": "DE", "coord": {"lon": 10.8787, "lat": 52.19603}}, {"id": 3046039, "name": "Rabkert\u00e9szet", "country": "HU", "coord": {"lon": 17.91667, "lat": 47.099998}}, {"id": 8014682, "name": "Rabo de Peixe", "country": "PT", "coord": {"lon": -25.58354, "lat": 37.794338}}, {"id": 3372745, "name": "Rabo de Peixe", "country": "PT", "coord": {"lon": -25.58333, "lat": 37.799999}}, {"id": 503315, "name": "Rabochaya Sloboda", "country": "RU", "coord": {"lon": 40.299999, "lat": 55.033333}}, {"id": 798536, "name": "Rabocheostrovsk", "country": "RU", "coord": {"lon": 34.766109, "lat": 64.985474}}, {"id": 1493855, "name": "Rabochiy", "country": "RU", "coord": {"lon": 79, "lat": 59.083328}}, {"id": 503308, "name": "Rabochiy Pos\u00eblok", "country": "RU", "coord": {"lon": 36.283333, "lat": 56.5}}, {"id": 695947, "name": "Rabochiy Ugolok", "country": "UA", "coord": {"lon": 34.400002, "lat": 44.650002}}, {"id": 3112355, "name": "Rabos", "country": "ES", "coord": {"lon": 3.02828, "lat": 42.378899}}, {"id": 3818912, "name": "Raboso", "country": "MX", "coord": {"lon": -98.449997, "lat": 18.566669}}, {"id": 7891506, "name": "Rabud", "country": "PS", "coord": {"lon": 35.016201, "lat": 31.439091}}, {"id": 4217747, "name": "Rabun County", "country": "US", "coord": {"lon": -83.399879, "lat": 34.88343}}, {"id": 1259082, "name": "Rabupura", "country": "IN", "coord": {"lon": 77.599998, "lat": 28.25}}, {"id": 2152215, "name": "Raby Bay", "country": "AU", "coord": {"lon": 153.266663, "lat": -27.533331}}, {"id": 6356559, "name": "Rab\u00e9 de las Calzadas", "country": "ES", "coord": {"lon": -3.84568, "lat": 42.333618}}, {"id": 6534110, "name": "Rab\u00f3s", "country": "ES", "coord": {"lon": 3.02817, "lat": 42.378201}}, {"id": 786624, "name": "Raca", "country": "RS", "coord": {"lon": 20.977539, "lat": 44.227119}}, {"id": 669408, "name": "Racaciuni", "country": "RO", "coord": {"lon": 26.98333, "lat": 46.333328}}, {"id": 1280174, "name": "Racaka", "country": "CN", "coord": {"lon": 96.51667, "lat": 31.4}}, {"id": 2523660, "name": "Racale", "country": "IT", "coord": {"lon": 18.09383, "lat": 39.96312}}, {"id": 3046036, "name": "Racalmas", "country": "HU", "coord": {"lon": 18.940559, "lat": 47.022629}}, {"id": 2523659, "name": "Racalmuto", "country": "IT", "coord": {"lon": 13.73376, "lat": 37.407139}}, {"id": 669405, "name": "Racari", "country": "RO", "coord": {"lon": 25.73333, "lat": 44.633331}}, {"id": 669398, "name": "Racasdia", "country": "RO", "coord": {"lon": 21.618059, "lat": 44.993061}}, {"id": 3169647, "name": "Racconigi", "country": "IT", "coord": {"lon": 7.67893, "lat": 44.76984}}, {"id": 2523658, "name": "Raccuia", "country": "IT", "coord": {"lon": 14.90958, "lat": 38.05526}}, {"id": 3192165, "name": "Race", "country": "SI", "coord": {"lon": 15.68139, "lat": 46.451939}}, {"id": 3488914, "name": "Race Course", "country": "JM", "coord": {"lon": -77.282227, "lat": 17.840191}}, {"id": 4305500, "name": "Raceland", "country": "US", "coord": {"lon": -82.7285, "lat": 38.540081}}, {"id": 4338298, "name": "Raceland", "country": "US", "coord": {"lon": -90.598984, "lat": 29.72743}}, {"id": 7932664, "name": "Raceview", "country": "AU", "coord": {"lon": 152.775192, "lat": -27.63472}}, {"id": 1568510, "name": "Rach Gia", "country": "VN", "coord": {"lon": 105.083328, "lat": 10.01667}}, {"id": 6253857, "name": "Rachaiya el Ouadi", "country": "LB", "coord": {"lon": 35.839722, "lat": 33.498058}}, {"id": 760853, "name": "Rachanie", "country": "PL", "coord": {"lon": 23.546881, "lat": 50.538422}}, {"id": 2984603, "name": "Rachat", "country": "FR", "coord": {"lon": 3.88194, "lat": 45.105331}}, {"id": 7873454, "name": "Rachau", "country": "AT", "coord": {"lon": 14.94866, "lat": 47.205639}}, {"id": 2768139, "name": "Rachau", "country": "AT", "coord": {"lon": 14.9, "lat": 47.216671}}, {"id": 2851151, "name": "Rachelsbach", "country": "DE", "coord": {"lon": 11.33333, "lat": 48.566669}}, {"id": 2984600, "name": "Raches", "country": "FR", "coord": {"lon": 3.13635, "lat": 50.417061}}, {"id": 669371, "name": "Rachiti", "country": "RO", "coord": {"lon": 26.683331, "lat": 47.76667}}, {"id": 669364, "name": "Rachitoasa", "country": "RO", "coord": {"lon": 27.366671, "lat": 46.433331}}, {"id": 669360, "name": "Rachitova", "country": "RO", "coord": {"lon": 22.75, "lat": 45.599998}}, {"id": 8060264, "name": "Raci", "country": "ID", "coord": {"lon": 111.181, "lat": -6.7118}}, {"id": 1969936, "name": "Raci Kulon", "country": "ID", "coord": {"lon": 112.542503, "lat": -7.0005}}, {"id": 760844, "name": "Raciaz", "country": "PL", "coord": {"lon": 20.117701, "lat": 52.781521}}, {"id": 3087589, "name": "Raciazek", "country": "PL", "coord": {"lon": 18.813339, "lat": 52.856499}}, {"id": 3087584, "name": "Raciborz", "country": "PL", "coord": {"lon": 18.21928, "lat": 50.091949}}, {"id": 7532706, "name": "Racib\u00f3rz", "country": "PL", "coord": {"lon": 18.221701, "lat": 50.090599}}, {"id": 4872393, "name": "Racine", "country": "US", "coord": {"lon": -93.329369, "lat": 42.470261}}, {"id": 5268249, "name": "Racine", "country": "US", "coord": {"lon": -87.782852, "lat": 42.726131}}, {"id": 5268253, "name": "Racine County", "country": "US", "coord": {"lon": -88.075089, "lat": 42.749458}}, {"id": 3169646, "name": "Racines", "country": "IT", "coord": {"lon": 11.3, "lat": 46.866669}}, {"id": 6534784, "name": "Racines - Ratschings", "country": "IT", "coord": {"lon": 11.37827, "lat": 46.881828}}, {"id": 668915, "name": "Raciu", "country": "RO", "coord": {"lon": 24.4, "lat": 46.683331}}, {"id": 2851132, "name": "Rackelwitz", "country": "DE", "coord": {"lon": 14.23333, "lat": 51.25}}, {"id": 3046027, "name": "Rackeresztur", "country": "HU", "coord": {"lon": 18.833429, "lat": 47.273602}}, {"id": 3046026, "name": "Rackeve", "country": "HU", "coord": {"lon": 18.94478, "lat": 47.16095}}, {"id": 2851119, "name": "Rackith", "country": "DE", "coord": {"lon": 12.68333, "lat": 51.799999}}, {"id": 6553437, "name": "Racksen", "country": "DE", "coord": {"lon": 7.7, "lat": 50.733299}}, {"id": 2851114, "name": "Racksen", "country": "DE", "coord": {"lon": 7.7, "lat": 50.73333}}, {"id": 6548745, "name": "Rackwitz", "country": "DE", "coord": {"lon": 12.3833, "lat": 51.4333}}, {"id": 2851113, "name": "Rackwitz", "country": "DE", "coord": {"lon": 12.38333, "lat": 51.433331}}, {"id": 760830, "name": "Raclawice", "country": "PL", "coord": {"lon": 22.16552, "lat": 50.513699}}, {"id": 3087576, "name": "Raclawice", "country": "PL", "coord": {"lon": 19.676861, "lat": 50.193439}}, {"id": 3087573, "name": "Raclawice Slaskie", "country": "PL", "coord": {"lon": 17.77528, "lat": 50.312038}}, {"id": 669348, "name": "Racoasa", "country": "RO", "coord": {"lon": 26.883329, "lat": 46}}, {"id": 669344, "name": "Racosu de Sus", "country": "RO", "coord": {"lon": 25.533331, "lat": 46.083328}}, {"id": 669339, "name": "Racova", "country": "RO", "coord": {"lon": 26.75, "lat": 46.700001}}, {"id": 669320, "name": "Racovita", "country": "RO", "coord": {"lon": 21.63583, "lat": 45.69833}}, {"id": 669321, "name": "Racovita", "country": "RO", "coord": {"lon": 24.35, "lat": 45.683331}}, {"id": 669322, "name": "Racovita", "country": "RO", "coord": {"lon": 24.316669, "lat": 45.416672}}, {"id": 669323, "name": "Racovita", "country": "RO", "coord": {"lon": 27.450001, "lat": 45.299999}}, {"id": 669308, "name": "Racoviteni", "country": "RO", "coord": {"lon": 26.9, "lat": 45.366669}}, {"id": 669326, "name": "Racovi\u0163a", "country": "RO", "coord": {"lon": 24.950001, "lat": 44.966671}}, {"id": 6439812, "name": "Racquinghem", "country": "FR", "coord": {"lon": 2.36667, "lat": 50.700001}}, {"id": 2984594, "name": "Racquinghem", "country": "FR", "coord": {"lon": 2.35736, "lat": 50.692451}}, {"id": 760825, "name": "Raczki", "country": "PL", "coord": {"lon": 22.78487, "lat": 53.987492}}, {"id": 3087559, "name": "Raczna", "country": "PL", "coord": {"lon": 19.767839, "lat": 50.009838}}, {"id": 71491, "name": "Rada", "country": "YE", "coord": {"lon": 44.83709, "lat": 14.4151}}, {"id": 3839482, "name": "Rada Tilly", "country": "AR", "coord": {"lon": -67.533333, "lat": -45.933331}}, {"id": 6357514, "name": "Rada de Haro", "country": "ES", "coord": {"lon": -2.61553, "lat": 39.575199}}, {"id": 2512078, "name": "Rada de Haro", "country": "ES", "coord": {"lon": -2.62086, "lat": 39.570019}}, {"id": 3873868, "name": "Radal", "country": "CL", "coord": {"lon": -72.400002, "lat": -38.98333}}, {"id": 786620, "name": "Radaljevo", "country": "RS", "coord": {"lon": 20.15, "lat": 43.650002}}, {"id": 7336551, "name": "Radamata", "country": "ID", "coord": {"lon": 119.244598, "lat": -9.4258}}, {"id": 7556462, "name": "Radamata", "country": "ID", "coord": {"lon": 119.146004, "lat": -9.549}}, {"id": 6460878, "name": "Radanovo", "country": "BG", "coord": {"lon": 25.633329, "lat": 43.349998}}, {"id": 727859, "name": "Radanovo", "country": "BG", "coord": {"lon": 25.633329, "lat": 43.349998}}, {"id": 669292, "name": "Radaseni", "country": "RO", "coord": {"lon": 26.25, "lat": 47.466671}}, {"id": 622877, "name": "Radashkovichy", "country": "BY", "coord": {"lon": 27.24242, "lat": 54.15514}}, {"id": 1259075, "name": "Radaur", "country": "IN", "coord": {"lon": 77.150002, "lat": 30.033331}}, {"id": 669289, "name": "Radauti", "country": "RO", "coord": {"lon": 25.91667, "lat": 47.849998}}, {"id": 669288, "name": "Radauti", "country": "RO", "coord": {"lon": 26.799999, "lat": 48.23333}}, {"id": 2851102, "name": "Radbod", "country": "DE", "coord": {"lon": 7.7724, "lat": 51.691818}}, {"id": 6552687, "name": "Radbruch", "country": "DE", "coord": {"lon": 10.2833, "lat": 53.3167}}, {"id": 2851100, "name": "Radbruch", "country": "DE", "coord": {"lon": 10.28333, "lat": 53.316669}}, {"id": 2683709, "name": "Radbyn", "country": "SE", "coord": {"lon": 13.8, "lat": 58.700001}}, {"id": 695937, "name": "Radcha", "country": "UA", "coord": {"lon": 24.65502, "lat": 48.850231}}, {"id": 503281, "name": "Radchenko", "country": "RU", "coord": {"lon": 36.37178, "lat": 56.680271}}, {"id": 503274, "name": "Radchino", "country": "RU", "coord": {"lon": 42.366669, "lat": 59.849998}}, {"id": 4305504, "name": "Radcliff", "country": "US", "coord": {"lon": -85.949127, "lat": 37.840351}}, {"id": 2639728, "name": "Radcliffe", "country": "GB", "coord": {"lon": -2.33333, "lat": 53.549999}}, {"id": 6691227, "name": "Radcliffe", "country": "GB", "coord": {"lon": -2.32455, "lat": 53.561779}}, {"id": 2639727, "name": "Radcliffe on Trent", "country": "GB", "coord": {"lon": -1.03855, "lat": 52.948021}}, {"id": 3169644, "name": "Radda in Chianti", "country": "IT", "coord": {"lon": 11.37813, "lat": 43.485641}}, {"id": 2851097, "name": "Raddenfort", "country": "DE", "coord": {"lon": 11.26837, "lat": 53.188961}}, {"id": 6552534, "name": "Raddestorf", "country": "DE", "coord": {"lon": 8.96346, "lat": 52.4552}}, {"id": 2851096, "name": "Raddestorf", "country": "DE", "coord": {"lon": 8.96667, "lat": 52.450001}}, {"id": 2523656, "name": "Raddusa", "country": "IT", "coord": {"lon": 14.53388, "lat": 37.475651}}, {"id": 6552235, "name": "Rade", "country": "DE", "coord": {"lon": 9.74162, "lat": 54.0009}}, {"id": 2851087, "name": "Rade", "country": "DE", "coord": {"lon": 9.74162, "lat": 54.0009}}, {"id": 2851079, "name": "Radeberg", "country": "DE", "coord": {"lon": 13.91667, "lat": 51.116669}}, {"id": 2851077, "name": "Radebeul", "country": "DE", "coord": {"lon": 13.66047, "lat": 51.106541}}, {"id": 2851074, "name": "Radeburg", "country": "DE", "coord": {"lon": 13.7281, "lat": 51.21516}}, {"id": 3192144, "name": "Radece", "country": "SI", "coord": {"lon": 15.18389, "lat": 46.068062}}, {"id": 760806, "name": "Radecznica", "country": "PL", "coord": {"lon": 22.82976, "lat": 50.751549}}, {"id": 2851070, "name": "Radegast", "country": "DE", "coord": {"lon": 12.95, "lat": 51.349998}}, {"id": 2851069, "name": "Radegast", "country": "DE", "coord": {"lon": 12.1, "lat": 51.650002}}, {"id": 7286847, "name": "Radelfingen", "country": "CH", "coord": {"lon": 7.26894, "lat": 47.001888}}, {"id": 2659115, "name": "Radelfingen", "country": "CH", "coord": {"lon": 7.27178, "lat": 47.021461}}, {"id": 2851044, "name": "Radel\u00fcbbe", "country": "DE", "coord": {"lon": 11.28333, "lat": 53.5}}, {"id": 6549712, "name": "Rademin", "country": "DE", "coord": {"lon": 11.3333, "lat": 52.799999}}, {"id": 2851042, "name": "Rademin", "country": "DE", "coord": {"lon": 11.33333, "lat": 52.799999}}, {"id": 2851041, "name": "Raden", "country": "DE", "coord": {"lon": 13.48333, "lat": 51.383331}}, {"id": 3192139, "name": "Radenci", "country": "SI", "coord": {"lon": 16.037809, "lat": 46.64201}}, {"id": 786615, "name": "Radenka", "country": "RS", "coord": {"lon": 21.764441, "lat": 44.583611}}, {"id": 3192138, "name": "Radenkovic", "country": "RS", "coord": {"lon": 19.49333, "lat": 44.924438}}, {"id": 2851031, "name": "Radensdorf", "country": "DE", "coord": {"lon": 14.18333, "lat": 51.650002}}, {"id": 7872788, "name": "Radenthein", "country": "AT", "coord": {"lon": 13.70301, "lat": 46.835251}}, {"id": 2768130, "name": "Radenthein", "country": "AT", "coord": {"lon": 13.71167, "lat": 46.80056}}, {"id": 2467815, "name": "Rades", "country": "TN", "coord": {"lon": 10.27528, "lat": 36.768059}}, {"id": 669272, "name": "Radesti", "country": "RO", "coord": {"lon": 23.716669, "lat": 46.26667}}, {"id": 786606, "name": "Radevo", "country": "XK", "coord": {"lon": 21.05472, "lat": 42.573059}}, {"id": 2850995, "name": "Radevormwald", "country": "DE", "coord": {"lon": 7.35, "lat": 51.200001}}, {"id": 2850990, "name": "Radewiese", "country": "DE", "coord": {"lon": 14.50715, "lat": 51.8353}}, {"id": 7873654, "name": "Radfeld", "country": "AT", "coord": {"lon": 11.93571, "lat": 47.44574}}, {"id": 2768125, "name": "Radfeld", "country": "AT", "coord": {"lon": 11.91667, "lat": 47.450001}}, {"id": 4780837, "name": "Radford", "country": "US", "coord": {"lon": -80.576447, "lat": 37.13179}}, {"id": 760804, "name": "Radgoszcz", "country": "PL", "coord": {"lon": 21.11315, "lat": 50.205799}}, {"id": 1259072, "name": "Radha Kund", "country": "IN", "coord": {"lon": 77.48333, "lat": 27.533331}}, {"id": 1167501, "name": "Radhan", "country": "PK", "coord": {"lon": 67.949997, "lat": 27.183331}}, {"id": 1259069, "name": "Radhanpur", "country": "IN", "coord": {"lon": 71.599998, "lat": 23.83333}}, {"id": 6548621, "name": "Radibor", "country": "DE", "coord": {"lon": 14.4, "lat": 51.25}}, {"id": 2850980, "name": "Radibor", "country": "DE", "coord": {"lon": 14.4, "lat": 51.25}}, {"id": 3169640, "name": "Radicofani", "country": "IT", "coord": {"lon": 11.77005, "lat": 42.895531}}, {"id": 3169639, "name": "Radicondoli", "country": "IT", "coord": {"lon": 11.04363, "lat": 43.260941}}, {"id": 6461193, "name": "Radilovo", "country": "BG", "coord": {"lon": 24.299999, "lat": 42.083328}}, {"id": 727847, "name": "Radilovo", "country": "BG", "coord": {"lon": 24.299999, "lat": 42.083328}}, {"id": 3067204, "name": "Radimer", "country": "CZ", "coord": {"lon": 16.440701, "lat": 49.698502}}, {"id": 6438431, "name": "Radinghem-en-Weppes", "country": "FR", "coord": {"lon": 2.91667, "lat": 50.616669}}, {"id": 2984583, "name": "Radinghem-en-Weppes", "country": "FR", "coord": {"lon": 2.90924, "lat": 50.618839}}, {"id": 6459932, "name": "Radinovo", "country": "BG", "coord": {"lon": 24.633329, "lat": 42.183331}}, {"id": 727843, "name": "Radinovo", "country": "BG", "coord": {"lon": 24.633329, "lat": 42.183331}}, {"id": 8063460, "name": "Radiokop", "country": "ZA", "coord": {"lon": 27.91643, "lat": -26.108589}}, {"id": 2850973, "name": "Radis", "country": "DE", "coord": {"lon": 12.51667, "lat": 51.75}}, {"id": 786595, "name": "Radishani", "country": "MK", "coord": {"lon": 21.447781, "lat": 42.061111}}, {"id": 503254, "name": "Radishchevo", "country": "RU", "coord": {"lon": 47.883331, "lat": 52.849998}}, {"id": 3192123, "name": "Radisici", "country": "BA", "coord": {"lon": 17.54306, "lat": 43.221939}}, {"id": 2850972, "name": "Radisleben", "country": "DE", "coord": {"lon": 11.28333, "lat": 51.73333}}, {"id": 6115705, "name": "Radisson", "country": "CA", "coord": {"lon": -107.40126, "lat": 52.466808}}, {"id": 503248, "name": "Raditsa-Krylovka", "country": "RU", "coord": {"lon": 34.357422, "lat": 53.31712}}, {"id": 6115713, "name": "Radium Hot Springs", "country": "CA", "coord": {"lon": -116.068779, "lat": 50.616669}}, {"id": 5486551, "name": "Radium Springs", "country": "US", "coord": {"lon": -106.92807, "lat": 32.501202}}, {"id": 3339124, "name": "Radizel", "country": "SI", "coord": {"lon": 15.65583, "lat": 46.474442}}, {"id": 165571, "name": "Radjun", "country": "SY", "coord": {"lon": 36.66404, "lat": 36.675331}}, {"id": 3087535, "name": "Radkow", "country": "PL", "coord": {"lon": 16.40061, "lat": 50.504261}}, {"id": 7533084, "name": "Radk\u00f3w", "country": "PL", "coord": {"lon": 16.390301, "lat": 50.501499}}, {"id": 2639720, "name": "Radlett", "country": "GB", "coord": {"lon": -0.31868, "lat": 51.685928}}, {"id": 2639719, "name": "Radley", "country": "GB", "coord": {"lon": -1.24025, "lat": 51.687462}}, {"id": 3087531, "name": "Radlikowiec", "country": "PL", "coord": {"lon": 18.41667, "lat": 50.066669}}, {"id": 7531104, "name": "Radlin", "country": "PL", "coord": {"lon": 18.466009, "lat": 50.04118}}, {"id": 3087529, "name": "Radlin", "country": "PL", "coord": {"lon": 18.476259, "lat": 50.050201}}, {"id": 3192121, "name": "Radlje ob Dravi", "country": "SI", "coord": {"lon": 15.22639, "lat": 46.61417}}, {"id": 760783, "name": "Radlow", "country": "PL", "coord": {"lon": 20.84967, "lat": 50.08419}}, {"id": 727838, "name": "Radnevo", "country": "BG", "coord": {"lon": 25.933331, "lat": 42.299999}}, {"id": 3067174, "name": "Radnice", "country": "CZ", "coord": {"lon": 13.6057, "lat": 49.85677}}, {"id": 5207490, "name": "Radnor", "country": "US", "coord": {"lon": -75.359909, "lat": 40.046219}}, {"id": 7389924, "name": "Rado", "country": "ID", "coord": {"lon": 120.670898, "lat": -8.474}}, {"id": 3192111, "name": "Radoboj", "country": "HR", "coord": {"lon": 15.92361, "lat": 46.166389}}, {"id": 3087520, "name": "Radocza", "country": "PL", "coord": {"lon": 19.474979, "lat": 49.91774}}, {"id": 669255, "name": "Radoesti Deal", "country": "RO", "coord": {"lon": 25.133329, "lat": 44.150002}}, {"id": 786583, "name": "Radojevo", "country": "RS", "coord": {"lon": 20.789169, "lat": 45.746941}}, {"id": 2850954, "name": "Radolfzell am Bodensee", "country": "DE", "coord": {"lon": 8.96667, "lat": 47.73333}}, {"id": 786582, "name": "Radolishta", "country": "MK", "coord": {"lon": 20.623329, "lat": 41.164169}}, {"id": 7532212, "name": "Radom", "country": "PL", "coord": {"lon": 21.156099, "lat": 51.417198}}, {"id": 7530982, "name": "Radom", "country": "PL", "coord": {"lon": 21.15613, "lat": 51.41724}}, {"id": 760778, "name": "Radom", "country": "PL", "coord": {"lon": 21.147141, "lat": 51.402531}}, {"id": 7532867, "name": "Radomin", "country": "PL", "coord": {"lon": 19.19346, "lat": 53.08696}},