[{"id": 5192863, "name": "Hatboro", "country": "US", "coord": {"lon": -75.106842, "lat": 40.174278}}, {"id": 5192878, "name": "Hatfield", "country": "US", "coord": {"lon": -75.299339, "lat": 40.279831}}, {"id": 5192925, "name": "Hawley", "country": "US", "coord": {"lon": -75.182121, "lat": 41.475922}}, {"id": 5193056, "name": "Hebron", "country": "US", "coord": {"lon": -76.399399, "lat": 40.338982}}, {"id": 5193133, "name": "Heidelberg", "country": "US", "coord": {"lon": -80.090889, "lat": 40.392288}}, {"id": 5193149, "name": "Hellertown", "country": "US", "coord": {"lon": -75.340729, "lat": 40.57954}}, {"id": 5193169, "name": "Hemlock Farms", "country": "US", "coord": {"lon": -75.03656, "lat": 41.326759}}, {"id": 5193342, "name": "Hershey", "country": "US", "coord": {"lon": -76.650253, "lat": 40.285919}}, {"id": 5193599, "name": "Highland Park", "country": "US", "coord": {"lon": -77.568047, "lat": 40.620911}}, {"id": 5193622, "name": "Highspire", "country": "US", "coord": {"lon": -76.791077, "lat": 40.210918}}, {"id": 5193682, "name": "Hilldale", "country": "US", "coord": {"lon": -75.836311, "lat": 41.289249}}, {"id": 5193684, "name": "Hiller", "country": "US", "coord": {"lon": -79.900879, "lat": 40.010349}}, {"id": 5193863, "name": "Hokendauqua", "country": "US", "coord": {"lon": -75.49102, "lat": 40.662041}}, {"id": 5193920, "name": "Hollidaysburg", "country": "US", "coord": {"lon": -78.388901, "lat": 40.427292}}, {"id": 5194057, "name": "Homer City", "country": "US", "coord": {"lon": -79.162262, "lat": 40.5434}}, {"id": 5194067, "name": "Homestead", "country": "US", "coord": {"lon": -79.911987, "lat": 40.405899}}, {"id": 5194076, "name": "Hometown", "country": "US", "coord": {"lon": -75.980202, "lat": 40.8237}}, {"id": 5194099, "name": "Honesdale", "country": "US", "coord": {"lon": -75.258789, "lat": 41.576759}}, {"id": 5194100, "name": "Honey Brook", "country": "US", "coord": {"lon": -75.911331, "lat": 40.094269}}, {"id": 5194302, "name": "Horsham", "country": "US", "coord": {"lon": -75.12851, "lat": 40.17844}}, {"id": 5194366, "name": "Houserville", "country": "US", "coord": {"lon": -77.828888, "lat": 40.823952}}, {"id": 5194369, "name": "Houston", "country": "US", "coord": {"lon": -80.211449, "lat": 40.24646}}, {"id": 5194450, "name": "Hudson", "country": "US", "coord": {"lon": -75.836029, "lat": 41.274799}}, {"id": 5194479, "name": "Hughestown", "country": "US", "coord": {"lon": -75.773247, "lat": 41.327019}}, {"id": 5194481, "name": "Hughesville", "country": "US", "coord": {"lon": -76.723846, "lat": 41.241192}}, {"id": 5194498, "name": "Hulmeville", "country": "US", "coord": {"lon": -74.911003, "lat": 40.143169}}, {"id": 5194512, "name": "Hummels Wharf", "country": "US", "coord": {"lon": -76.8358, "lat": 40.831749}}, {"id": 5194513, "name": "Hummelstown", "country": "US", "coord": {"lon": -76.708298, "lat": 40.265369}}, {"id": 5194590, "name": "Huntingdon", "country": "US", "coord": {"lon": -78.010277, "lat": 40.484798}}, {"id": 5194656, "name": "Hyde", "country": "US", "coord": {"lon": -78.462517, "lat": 41.00256}}, {"id": 5194658, "name": "Hyde Park", "country": "US", "coord": {"lon": -75.925209, "lat": 40.377319}}, {"id": 5194741, "name": "Imperial", "country": "US", "coord": {"lon": -80.244499, "lat": 40.449509}}, {"id": 5194821, "name": "Indian Mountain Lake", "country": "US", "coord": {"lon": -75.50824, "lat": 41.003139}}, {"id": 5194823, "name": "Indian Mountain Lake", "country": "US", "coord": {"lon": -75.499352, "lat": 41.00481}}, {"id": 5194868, "name": "Indiana", "country": "US", "coord": {"lon": -79.152527, "lat": 40.62146}}, {"id": 5194892, "name": "Industry", "country": "US", "coord": {"lon": -80.416183, "lat": 40.644508}}, {"id": 5194912, "name": "Ingram", "country": "US", "coord": {"lon": -80.067558, "lat": 40.446178}}, {"id": 5194914, "name": "Industry", "country": "US", "coord": {"lon": -79.792267, "lat": 40.264511}}, {"id": 5194915, "name": "Inkerman", "country": "US", "coord": {"lon": -75.812691, "lat": 41.298969}}, {"id": 5194941, "name": "Intercourse", "country": "US", "coord": {"lon": -76.10495, "lat": 40.037601}}, {"id": 5195024, "name": "Irwin", "country": "US", "coord": {"lon": -79.701149, "lat": 40.324509}}, {"id": 5195068, "name": "Ivyland", "country": "US", "coord": {"lon": -75.07267, "lat": 40.20789}}, {"id": 5195186, "name": "Jacksonwald", "country": "US", "coord": {"lon": -75.849648, "lat": 40.324539}}, {"id": 5195283, "name": "Jeannette", "country": "US", "coord": {"lon": -79.615318, "lat": 40.328121}}, {"id": 5195297, "name": "Jefferson Hills", "country": "US", "coord": {"lon": -79.931992, "lat": 40.29118}}, {"id": 5195363, "name": "Jenkintown", "country": "US", "coord": {"lon": -75.125168, "lat": 40.09594}}, {"id": 5195399, "name": "Jermyn", "country": "US", "coord": {"lon": -75.545464, "lat": 41.53091}}, {"id": 5195405, "name": "Jerome", "country": "US", "coord": {"lon": -78.983643, "lat": 40.208961}}, {"id": 5195416, "name": "Jersey Shore", "country": "US", "coord": {"lon": -77.26442, "lat": 41.202019}}, {"id": 5195437, "name": "Jessup", "country": "US", "coord": {"lon": -75.562134, "lat": 41.468689}}, {"id": 5195460, "name": "Jim Thorpe", "country": "US", "coord": {"lon": -75.732407, "lat": 40.875919}}, {"id": 5195549, "name": "Johnsonburg", "country": "US", "coord": {"lon": -78.675034, "lat": 41.49062}}, {"id": 5195550, "name": "Johnsonburg", "country": "US", "coord": {"lon": -78.877808, "lat": 40.886181}}, {"id": 5195606, "name": "Jonestown", "country": "US", "coord": {"lon": -76.478302, "lat": 40.4137}}, {"id": 5195728, "name": "Kane", "country": "US", "coord": {"lon": -78.811142, "lat": 41.662842}}, {"id": 5195978, "name": "Kenhorst", "country": "US", "coord": {"lon": -75.939377, "lat": 40.31065}}, {"id": 5195980, "name": "Kenilworth", "country": "US", "coord": {"lon": -75.634079, "lat": 40.231491}}, {"id": 5195982, "name": "Kenmar", "country": "US", "coord": {"lon": -76.959412, "lat": 41.25341}}, {"id": 5196245, "name": "Kingston", "country": "US", "coord": {"lon": -75.896858, "lat": 41.261749}}, {"id": 5196357, "name": "Kittanning", "country": "US", "coord": {"lon": -79.521988, "lat": 40.816448}}, {"id": 5196465, "name": "Knox", "country": "US", "coord": {"lon": -79.53727, "lat": 41.234509}}, {"id": 5196601, "name": "Kulpmont", "country": "US", "coord": {"lon": -76.47245, "lat": 40.793419}}, {"id": 5196605, "name": "Kulpsville", "country": "US", "coord": {"lon": -75.336563, "lat": 40.242882}}, {"id": 5196621, "name": "Kutztown", "country": "US", "coord": {"lon": -75.77742, "lat": 40.517319}}, {"id": 5196713, "name": "Laflin", "country": "US", "coord": {"lon": -75.805473, "lat": 41.288971}}, {"id": 5196767, "name": "Lake City", "country": "US", "coord": {"lon": -80.345337, "lat": 42.014221}}, {"id": 5196977, "name": "Lake Wynonah", "country": "US", "coord": {"lon": -76.163834, "lat": 40.599258}}, {"id": 5196994, "name": "Lakemont", "country": "US", "coord": {"lon": -78.388351, "lat": 40.472851}}, {"id": 5197120, "name": "Landisville", "country": "US", "coord": {"lon": -76.409958, "lat": 40.095371}}, {"id": 5197140, "name": "Langhorne", "country": "US", "coord": {"lon": -74.922668, "lat": 40.174549}}, {"id": 5197145, "name": "Langhorne Manor", "country": "US", "coord": {"lon": -74.917671, "lat": 40.167049}}, {"id": 5197163, "name": "Lansford", "country": "US", "coord": {"lon": -75.882423, "lat": 40.83176}}, {"id": 5197171, "name": "Laporte", "country": "US", "coord": {"lon": -76.49411, "lat": 41.423969}}, {"id": 5197190, "name": "Larksville", "country": "US", "coord": {"lon": -75.930748, "lat": 41.245079}}, {"id": 5197227, "name": "Latrobe", "country": "US", "coord": {"lon": -79.379478, "lat": 40.321178}}, {"id": 5197398, "name": "Laureldale", "country": "US", "coord": {"lon": -75.917976, "lat": 40.388149}}, {"id": 5197413, "name": "Laurys Station", "country": "US", "coord": {"lon": -75.530182, "lat": 40.723148}}, {"id": 5197435, "name": "Lawnton", "country": "US", "coord": {"lon": -76.803864, "lat": 40.258419}}, {"id": 5197445, "name": "Lawrence Park", "country": "US", "coord": {"lon": -76.800797, "lat": 40.345638}}, {"id": 5197446, "name": "Lawrence Park", "country": "US", "coord": {"lon": -80.023109, "lat": 42.152279}}, {"id": 5197463, "name": "Lawson Heights", "country": "US", "coord": {"lon": -79.389198, "lat": 40.29174}}, {"id": 5197568, "name": "Leechburg", "country": "US", "coord": {"lon": -79.605598, "lat": 40.62701}}, {"id": 5197590, "name": "Leesport", "country": "US", "coord": {"lon": -75.966316, "lat": 40.447041}}, {"id": 5197594, "name": "Leetsdale", "country": "US", "coord": {"lon": -80.208389, "lat": 40.563122}}, {"id": 5197673, "name": "Lehighton", "country": "US", "coord": {"lon": -75.713799, "lat": 40.833698}}, {"id": 5197723, "name": "Lemont", "country": "US", "coord": {"lon": -77.818329, "lat": 40.810619}}, {"id": 5197725, "name": "Lemoyne", "country": "US", "coord": {"lon": -76.894142, "lat": 40.241199}}, {"id": 5197732, "name": "Lenape Heights", "country": "US", "coord": {"lon": -79.520599, "lat": 40.764229}}, {"id": 5197791, "name": "Level Green", "country": "US", "coord": {"lon": -79.720322, "lat": 40.393398}}, {"id": 5197842, "name": "Lewisburg", "country": "US", "coord": {"lon": -76.884407, "lat": 40.964531}}, {"id": 5197850, "name": "Lewistown", "country": "US", "coord": {"lon": -77.571381, "lat": 40.599239}}, {"id": 5197865, "name": "Liberty", "country": "US", "coord": {"lon": -79.856163, "lat": 40.325352}}, {"id": 5197978, "name": "Light Street", "country": "US", "coord": {"lon": -76.423561, "lat": 41.036201}}, {"id": 5197989, "name": "Ligonier", "country": "US", "coord": {"lon": -79.237534, "lat": 40.24313}}, {"id": 5198062, "name": "Lincoln", "country": "US", "coord": {"lon": -79.854767, "lat": 40.318958}}, {"id": 5198089, "name": "Lincoln Park", "country": "US", "coord": {"lon": -75.985489, "lat": 40.314812}}, {"id": 5198166, "name": "Linesville", "country": "US", "coord": {"lon": -80.423958, "lat": 41.65617}}, {"id": 5198180, "name": "Linglestown", "country": "US", "coord": {"lon": -76.789139, "lat": 40.333981}}, {"id": 5198192, "name": "Linntown", "country": "US", "coord": {"lon": -76.899132, "lat": 40.958969}}, {"id": 5198218, "name": "Lititz", "country": "US", "coord": {"lon": -76.3069, "lat": 40.157318}}, {"id": 5198635, "name": "Lock Haven", "country": "US", "coord": {"lon": -77.44693, "lat": 41.137009}}, {"id": 5198980, "name": "Lorane", "country": "US", "coord": {"lon": -75.854652, "lat": 40.288429}}, {"id": 5198988, "name": "Loretto", "country": "US", "coord": {"lon": -78.630302, "lat": 40.503132}}, {"id": 5199075, "name": "Lower Allen", "country": "US", "coord": {"lon": -76.900528, "lat": 40.226479}}, {"id": 5199087, "name": "Lower Burrell", "country": "US", "coord": {"lon": -79.757271, "lat": 40.55312}}, {"id": 5199209, "name": "Loyalhanna", "country": "US", "coord": {"lon": -79.362259, "lat": 40.322571}}, {"id": 5199308, "name": "Luzerne", "country": "US", "coord": {"lon": -75.901031, "lat": 41.285641}}, {"id": 5199324, "name": "Lykens", "country": "US", "coord": {"lon": -76.700523, "lat": 40.56675}}, {"id": 5199439, "name": "Macungie", "country": "US", "coord": {"lon": -75.555191, "lat": 40.51593}}, {"id": 5199494, "name": "Mahanoy City", "country": "US", "coord": {"lon": -76.141602, "lat": 40.812592}}, {"id": 5199600, "name": "Malvern", "country": "US", "coord": {"lon": -75.513809, "lat": 40.036221}}, {"id": 5199634, "name": "Manchester", "country": "US", "coord": {"lon": -76.7183, "lat": 40.063148}}, {"id": 5199648, "name": "Manheim", "country": "US", "coord": {"lon": -76.394958, "lat": 40.163429}}, {"id": 5199677, "name": "Manor", "country": "US", "coord": {"lon": -79.670036, "lat": 40.333961}}, {"id": 5199710, "name": "Mansfield", "country": "US", "coord": {"lon": -77.077469, "lat": 41.807301}}, {"id": 5199740, "name": "Maple Glen", "country": "US", "coord": {"lon": -79.976723, "lat": 40.015629}}, {"id": 5199781, "name": "Maple Glen", "country": "US", "coord": {"lon": -75.18045, "lat": 40.179279}}, {"id": 5199873, "name": "Marianne", "country": "US", "coord": {"lon": -79.428932, "lat": 41.246449}}, {"id": 5199876, "name": "Marienville", "country": "US", "coord": {"lon": -79.1231, "lat": 41.468948}}, {"id": 5199879, "name": "Marietta", "country": "US", "coord": {"lon": -76.552193, "lat": 40.057041}}, {"id": 5199944, "name": "Mars", "country": "US", "coord": {"lon": -80.011726, "lat": 40.6959}}, {"id": 5199994, "name": "Marshallton", "country": "US", "coord": {"lon": -76.539398, "lat": 40.786751}}, {"id": 5200081, "name": "Marysville", "country": "US", "coord": {"lon": -76.92997, "lat": 40.34259}}, {"id": 5200122, "name": "Matamoras", "country": "US", "coord": {"lon": -76.933311, "lat": 40.44009}}, {"id": 5200123, "name": "Matamoras", "country": "US", "coord": {"lon": -74.700157, "lat": 41.368698}}, {"id": 5200194, "name": "Mayfield", "country": "US", "coord": {"lon": -75.536018, "lat": 41.538139}}, {"id": 5200195, "name": "Mayfield", "country": "US", "coord": {"lon": -79.597816, "lat": 40.136181}}, {"id": 5200208, "name": "Maytown", "country": "US", "coord": {"lon": -76.582191, "lat": 40.075371}}, {"id": 5200220, "name": "McAdoo", "country": "US", "coord": {"lon": -75.991318, "lat": 40.910091}}, {"id": 5200318, "name": "McConnellstown", "country": "US", "coord": {"lon": -78.081673, "lat": 40.452572}}, {"id": 5200371, "name": "McDonald", "country": "US", "coord": {"lon": -80.234779, "lat": 40.370899}}, {"id": 5200422, "name": "McGovern", "country": "US", "coord": {"lon": -80.216454, "lat": 40.228958}}, {"id": 5200474, "name": "McKees Rocks", "country": "US", "coord": {"lon": -80.065613, "lat": 40.465618}}, {"id": 5200544, "name": "McMurray", "country": "US", "coord": {"lon": -80.083939, "lat": 40.277851}}, {"id": 5200639, "name": "Meadowood", "country": "US", "coord": {"lon": -79.893944, "lat": 40.84201}}, {"id": 5200644, "name": "Meadville", "country": "US", "coord": {"lon": -80.151451, "lat": 41.641441}}, {"id": 5200657, "name": "Mechanicsburg", "country": "US", "coord": {"lon": -77.008591, "lat": 40.21426}}, {"id": 5200669, "name": "Mechanicsville", "country": "US", "coord": {"lon": -76.586617, "lat": 40.96648}}, {"id": 5200798, "name": "Mercer", "country": "US", "coord": {"lon": -80.239792, "lat": 41.227001}}, {"id": 5200837, "name": "Meridian", "country": "US", "coord": {"lon": -79.961998, "lat": 40.8484}}, {"id": 5201006, "name": "Middleburg", "country": "US", "coord": {"lon": -77.047203, "lat": 40.785919}}, {"id": 5201027, "name": "Middletown", "country": "US", "coord": {"lon": -76.731079, "lat": 40.19981}}, {"id": 5201031, "name": "Middletown", "country": "US", "coord": {"lon": -75.332397, "lat": 40.64399}}, {"id": 5201045, "name": "Midland", "country": "US", "coord": {"lon": -80.446449, "lat": 40.632568}}, {"id": 5201046, "name": "Midland", "country": "US", "coord": {"lon": -80.218109, "lat": 40.258961}}, {"id": 5201080, "name": "Mifflinburg", "country": "US", "coord": {"lon": -77.047752, "lat": 40.91758}}, {"id": 5201085, "name": "Mifflintown", "country": "US", "coord": {"lon": -77.396927, "lat": 40.569801}}, {"id": 5201088, "name": "Mifflinville", "country": "US", "coord": {"lon": -76.307991, "lat": 41.03231}}, {"id": 5201115, "name": "Milesburg", "country": "US", "coord": {"lon": -77.785004, "lat": 40.94173}}, {"id": 5201117, "name": "Milford", "country": "US", "coord": {"lon": -74.802391, "lat": 41.322319}}, {"id": 5201245, "name": "Mill Hall", "country": "US", "coord": {"lon": -77.484428, "lat": 41.107288}}, {"id": 5201405, "name": "Millersburg", "country": "US", "coord": {"lon": -76.960808, "lat": 40.539532}}, {"id": 5201452, "name": "Millvale", "country": "US", "coord": {"lon": -79.978394, "lat": 40.480068}}, {"id": 5201468, "name": "Milroy", "country": "US", "coord": {"lon": -77.590553, "lat": 40.713959}}, {"id": 5201470, "name": "Milton", "country": "US", "coord": {"lon": -76.84774, "lat": 41.012032}}, {"id": 5201518, "name": "Minersville", "country": "US", "coord": {"lon": -76.262169, "lat": 40.690651}}, {"id": 5201641, "name": "Mohnton", "country": "US", "coord": {"lon": -75.984383, "lat": 40.285931}}, {"id": 5201658, "name": "Monaca", "country": "US", "coord": {"lon": -80.271446, "lat": 40.68729}}, {"id": 5201665, "name": "Monessen", "country": "US", "coord": {"lon": -79.887833, "lat": 40.148411}}, {"id": 5201688, "name": "Monongahela", "country": "US", "coord": {"lon": -79.926163, "lat": 40.203129}}, {"id": 5201752, "name": "Montgomery", "country": "US", "coord": {"lon": -76.876907, "lat": 41.170361}}, {"id": 5201776, "name": "Montgomeryville", "country": "US", "coord": {"lon": -75.24379, "lat": 40.24733}}, {"id": 5201804, "name": "Montrose", "country": "US", "coord": {"lon": -75.987709, "lat": 40.30648}}, {"id": 5201805, "name": "Montrose", "country": "US", "coord": {"lon": -75.877136, "lat": 41.833969}}, {"id": 5201901, "name": "Moosic", "country": "US", "coord": {"lon": -75.738251, "lat": 41.353409}}, {"id": 5201996, "name": "Morrisville", "country": "US", "coord": {"lon": -74.787941, "lat": 40.211498}}, {"id": 5202009, "name": "Moscow", "country": "US", "coord": {"lon": -75.518517, "lat": 41.33675}}, {"id": 5202114, "name": "Mount Carmel", "country": "US", "coord": {"lon": -76.411903, "lat": 40.797031}}, {"id": 5202141, "name": "Mount Cobb", "country": "US", "coord": {"lon": -75.49324, "lat": 41.413422}}, {"id": 5202164, "name": "Mount Holly Springs", "country": "US", "coord": {"lon": -77.18998, "lat": 40.11842}}, {"id": 5202202, "name": "Mount Joy", "country": "US", "coord": {"lon": -76.503304, "lat": 40.109821}}, {"id": 5202251, "name": "Mount Oliver", "country": "US", "coord": {"lon": -79.987831, "lat": 40.414242}}, {"id": 5202264, "name": "Mount Penn", "country": "US", "coord": {"lon": -75.890762, "lat": 40.328152}}, {"id": 5202286, "name": "Mount Pleasant", "country": "US", "coord": {"lon": -79.541153, "lat": 40.14896}}, {"id": 5202340, "name": "Mount Pocono", "country": "US", "coord": {"lon": -75.364632, "lat": 41.122028}}, {"id": 5202382, "name": "Mount Union", "country": "US", "coord": {"lon": -77.882217, "lat": 40.384521}}, {"id": 5202421, "name": "Mount Wolf", "country": "US", "coord": {"lon": -76.703857, "lat": 40.063148}}, {"id": 5202535, "name": "Mountain Top", "country": "US", "coord": {"lon": -75.877419, "lat": 41.169529}}, {"id": 5202551, "name": "Mountainhome", "country": "US", "coord": {"lon": -75.271019, "lat": 41.173698}}, {"id": 5202566, "name": "Mountville", "country": "US", "coord": {"lon": -76.430801, "lat": 40.039261}}, {"id": 5202691, "name": "Muhlenberg Park", "country": "US", "coord": {"lon": -75.941322, "lat": 40.384819}}, {"id": 5202715, "name": "Muncy", "country": "US", "coord": {"lon": -76.785522, "lat": 41.205639}}, {"id": 5202734, "name": "Munhall", "country": "US", "coord": {"lon": -79.900047, "lat": 40.392288}}, {"id": 5202740, "name": "Mundys Corner", "country": "US", "coord": {"lon": -78.841133, "lat": 40.44479}}, {"id": 5202776, "name": "Muse", "country": "US", "coord": {"lon": -80.20034, "lat": 40.29285}}, {"id": 5202820, "name": "Myerstown", "country": "US", "coord": {"lon": -76.302727, "lat": 40.374538}}, {"id": 5202855, "name": "Nanticoke", "country": "US", "coord": {"lon": -76.004921, "lat": 41.20536}}, {"id": 5202860, "name": "Nanty Glo", "country": "US", "coord": {"lon": -78.833359, "lat": 40.47229}}, {"id": 5202869, "name": "Narberth", "country": "US", "coord": {"lon": -75.26046, "lat": 40.00845}}, {"id": 5202938, "name": "Nazareth", "country": "US", "coord": {"lon": -75.309624, "lat": 40.740379}}, {"id": 5203030, "name": "Nescopeck", "country": "US", "coord": {"lon": -76.220772, "lat": 41.052029}}, {"id": 5203071, "name": "Nesquehoning", "country": "US", "coord": {"lon": -75.811028, "lat": 40.864529}}, {"id": 5203099, "name": "New Beaver", "country": "US", "coord": {"lon": -80.370621, "lat": 40.87645}}, {"id": 5203105, "name": "New Berlinville", "country": "US", "coord": {"lon": -75.632957, "lat": 40.345371}}, {"id": 5203112, "name": "New Bloomfield", "country": "US", "coord": {"lon": -77.186371, "lat": 40.419811}}, {"id": 5203116, "name": "New Brighton", "country": "US", "coord": {"lon": -80.310059, "lat": 40.730339}}, {"id": 5203118, "name": "New Britain", "country": "US", "coord": {"lon": -75.181007, "lat": 40.299}}, {"id": 5203143, "name": "New Columbia", "country": "US", "coord": {"lon": -76.866913, "lat": 41.04092}}, {"id": 5203155, "name": "New Eagle", "country": "US", "coord": {"lon": -79.946991, "lat": 40.207851}}, {"id": 5203164, "name": "New Cumberland", "country": "US", "coord": {"lon": -76.884697, "lat": 40.232311}}, {"id": 5203197, "name": "New Hope", "country": "US", "coord": {"lon": -74.951279, "lat": 40.364269}}, {"id": 5203211, "name": "New Kensington", "country": "US", "coord": {"lon": -79.764771, "lat": 40.56979}}, {"id": 5203221, "name": "New Holland", "country": "US", "coord": {"lon": -76.085228, "lat": 40.101761}}, {"id": 5203246, "name": "New Philadelphia", "country": "US", "coord": {"lon": -76.115768, "lat": 40.719528}}, {"id": 5203263, "name": "New Stanton", "country": "US", "coord": {"lon": -79.609482, "lat": 40.219238}}, {"id": 5203277, "name": "New Wilmington", "country": "US", "coord": {"lon": -80.33284, "lat": 41.12228}}, {"id": 5203311, "name": "Newmanstown", "country": "US", "coord": {"lon": -76.21328, "lat": 40.349541}}, {"id": 5203317, "name": "Newport", "country": "US", "coord": {"lon": -77.130539, "lat": 40.477859}}, {"id": 5203354, "name": "Newtown", "country": "US", "coord": {"lon": -74.936829, "lat": 40.229279}}, {"id": 5203369, "name": "Newtown Grant", "country": "US", "coord": {"lon": -74.954887, "lat": 40.260109}}, {"id": 5203377, "name": "Newville", "country": "US", "coord": {"lon": -77.398598, "lat": 40.173141}}, {"id": 5203468, "name": "Nixon", "country": "US", "coord": {"lon": -79.929497, "lat": 40.783401}}, {"id": 5203519, "name": "North Apollo", "country": "US", "coord": {"lon": -79.555603, "lat": 40.59618}}, {"id": 5203529, "name": "North Belle Vernon", "country": "US", "coord": {"lon": -79.868103, "lat": 40.129238}}, {"id": 5203537, "name": "North Braddock", "country": "US", "coord": {"lon": -79.840881, "lat": 40.39896}}, {"id": 5203609, "name": "North Charleroi", "country": "US", "coord": {"lon": -79.907547, "lat": 40.15118}}, {"id": 5203618, "name": "North Catasauqua", "country": "US", "coord": {"lon": -75.476852, "lat": 40.659821}}, {"id": 5203634, "name": "North East", "country": "US", "coord": {"lon": -79.834221, "lat": 42.215611}}, {"id": 5203785, "name": "North Versailles", "country": "US", "coord": {"lon": -79.809486, "lat": 40.379791}}, {"id": 5203788, "name": "North Wales", "country": "US", "coord": {"lon": -75.278229, "lat": 40.210941}}, {"id": 5203791, "name": "North Warren", "country": "US", "coord": {"lon": -79.152267, "lat": 41.874229}}, {"id": 5203804, "name": "Northampton", "country": "US", "coord": {"lon": -75.496849, "lat": 40.686211}}, {"id": 5203837, "name": "Northern Cambria", "country": "US", "coord": {"lon": -78.781693, "lat": 40.659229}}, {"id": 5203859, "name": "Northumberland", "country": "US", "coord": {"lon": -76.79747, "lat": 40.89175}}, {"id": 5204107, "name": "Oak Hills", "country": "US", "coord": {"lon": -79.913109, "lat": 40.824791}}, {"id": 5204143, "name": "Oakdale", "country": "US", "coord": {"lon": -80.185608, "lat": 40.398121}}, {"id": 5204144, "name": "Oakdale", "country": "US", "coord": {"lon": -75.920197, "lat": 40.992031}}, {"id": 5204166, "name": "Oakland", "country": "US", "coord": {"lon": -78.88752, "lat": 40.306461}}, {"id": 5204168, "name": "Oakland", "country": "US", "coord": {"lon": -80.369507, "lat": 40.98978}}, {"id": 5204203, "name": "Oakmont", "country": "US", "coord": {"lon": -79.84227, "lat": 40.521729}}, {"id": 5204220, "name": "Oakwood", "country": "US", "coord": {"lon": -80.379509, "lat": 41.01062}}, {"id": 5204273, "name": "Ohioville", "country": "US", "coord": {"lon": -80.494789, "lat": 40.67923}}, {"id": 5204278, "name": "Oil City", "country": "US", "coord": {"lon": -79.706444, "lat": 41.433949}}, {"id": 5204331, "name": "Old Forge", "country": "US", "coord": {"lon": -75.734909, "lat": 41.371189}}, {"id": 5204368, "name": "Old Orchard", "country": "US", "coord": {"lon": -75.262123, "lat": 40.657879}}, {"id": 5204432, "name": "Oley", "country": "US", "coord": {"lon": -75.789642, "lat": 40.387589}}, {"id": 5204476, "name": "Olyphant", "country": "US", "coord": {"lon": -75.602966, "lat": 41.46841}}, {"id": 5204552, "name": "Orchard Hills", "country": "US", "coord": {"lon": -79.531433, "lat": 40.586182}}, {"id": 5204575, "name": "Oreland", "country": "US", "coord": {"lon": -75.177681, "lat": 40.118439}}, {"id": 5204608, "name": "Orwigsburg", "country": "US", "coord": {"lon": -76.100769, "lat": 40.654812}}, {"id": 5204622, "name": "Osceola Mills", "country": "US", "coord": {"lon": -78.270569, "lat": 40.85006}}, {"id": 5204895, "name": "Paint", "country": "US", "coord": {"lon": -78.848907, "lat": 40.24369}}, {"id": 5204944, "name": "Palmdale", "country": "US", "coord": {"lon": -76.618584, "lat": 40.297871}}, {"id": 5204947, "name": "Palmer Heights", "country": "US", "coord": {"lon": -75.262398, "lat": 40.687321}}, {"id": 5204957, "name": "Palmerton", "country": "US", "coord": {"lon": -75.610191, "lat": 40.801479}}, {"id": 5204964, "name": "Palmyra", "country": "US", "coord": {"lon": -76.5933, "lat": 40.308979}}, {"id": 5204971, "name": "Palo Alto", "country": "US", "coord": {"lon": -76.172157, "lat": 40.687309}}, {"id": 5205037, "name": "Paoli", "country": "US", "coord": {"lon": -75.476311, "lat": 40.042049}}, {"id": 5205052, "name": "Paradise", "country": "US", "coord": {"lon": -76.128571, "lat": 40.009819}}, {"id": 5205094, "name": "Park Forest Village", "country": "US", "coord": {"lon": -77.916946, "lat": 40.806728}}, {"id": 5205152, "name": "Parkside", "country": "US", "coord": {"lon": -75.250458, "lat": 41.1012}}, {"id": 5205215, "name": "Patton", "country": "US", "coord": {"lon": -78.650299, "lat": 40.633961}}, {"id": 5205249, "name": "Paxtang", "country": "US", "coord": {"lon": -76.831917, "lat": 40.25898}}, {"id": 5205267, "name": "Paxtonia", "country": "US", "coord": {"lon": -76.794418, "lat": 40.31731}}, {"id": 5205339, "name": "Pen Argyl", "country": "US", "coord": {"lon": -75.254898, "lat": 40.86871}}, {"id": 5205343, "name": "Penbrook", "country": "US", "coord": {"lon": -76.84803, "lat": 40.275372}}, {"id": 5205451, "name": "Penndel", "country": "US", "coord": {"lon": -74.916557, "lat": 40.15205}}, {"id": 5205484, "name": "Pennsburg", "country": "US", "coord": {"lon": -75.492119, "lat": 40.39093}}, {"id": 5205497, "name": "Pennside", "country": "US", "coord": {"lon": -75.87854, "lat": 40.337318}}, {"id": 5205613, "name": "Penryn", "country": "US", "coord": {"lon": -76.368294, "lat": 40.20509}}, {"id": 5205638, "name": "Perkasie", "country": "US", "coord": {"lon": -75.292679, "lat": 40.372051}}, {"id": 5205704, "name": "Perryopolis", "country": "US", "coord": {"lon": -79.750603, "lat": 40.087021}}, {"id": 5205806, "name": "Philipsburg", "country": "US", "coord": {"lon": -78.220573, "lat": 40.89645}}, {"id": 5206038, "name": "Pine Grove", "country": "US", "coord": {"lon": -76.384682, "lat": 40.54842}}, {"id": 5206070, "name": "Pine Grove Mills", "country": "US", "coord": {"lon": -77.885559, "lat": 40.733669}}, {"id": 5206361, "name": "Pitcairn", "country": "US", "coord": {"lon": -79.778099, "lat": 40.403118}}, {"id": 5206397, "name": "Pittston", "country": "US", "coord": {"lon": -75.78936, "lat": 41.325909}}, {"id": 5206422, "name": "Plains", "country": "US", "coord": {"lon": -75.850197, "lat": 41.27536}}, {"id": 5206463, "name": "Pleasant Gap", "country": "US", "coord": {"lon": -77.746674, "lat": 40.868118}}, {"id": 5206487, "name": "Pleasant Hill", "country": "US", "coord": {"lon": -76.441628, "lat": 40.336201}}, {"id": 5206510, "name": "Pleasant Hills", "country": "US", "coord": {"lon": -79.960609, "lat": 40.335629}}, {"id": 5206647, "name": "Plumsteadville", "country": "US", "coord": {"lon": -75.146561, "lat": 40.387329}}, {"id": 5206659, "name": "Plymouth", "country": "US", "coord": {"lon": -75.944641, "lat": 41.24036}}, {"id": 5206666, "name": "Plymouth Meeting", "country": "US", "coord": {"lon": -75.274353, "lat": 40.102329}}, {"id": 5206718, "name": "Pocono Pines", "country": "US", "coord": {"lon": -75.454353, "lat": 41.10675}}, {"id": 5206933, "name": "Port Carbon", "country": "US", "coord": {"lon": -76.168831, "lat": 40.69648}}, {"id": 5206956, "name": "Port Allegany", "country": "US", "coord": {"lon": -78.279739, "lat": 41.810902}}, {"id": 5206958, "name": "Port Vue", "country": "US", "coord": {"lon": -79.869766, "lat": 40.335899}}, {"id": 5206961, "name": "Portage", "country": "US", "coord": {"lon": -78.672241, "lat": 40.38868}}, {"id": 5207065, "name": "Pottsgrove", "country": "US", "coord": {"lon": -75.611847, "lat": 40.26482}}, {"id": 5207080, "name": "Pottsville", "country": "US", "coord": {"lon": -76.195503, "lat": 40.68565}}, {"id": 5207214, "name": "Progress", "country": "US", "coord": {"lon": -76.83136, "lat": 40.285091}}, {"id": 5207263, "name": "Prospect", "country": "US", "coord": {"lon": -80.046448, "lat": 40.90451}}, {"id": 5207307, "name": "Punxsutawney", "country": "US", "coord": {"lon": -78.970871, "lat": 40.94368}}, {"id": 5207381, "name": "Quakertown", "country": "US", "coord": {"lon": -75.341568, "lat": 40.441769}}, {"id": 5207563, "name": "Pocono Ranch Lands", "country": "US", "coord": {"lon": -74.952118, "lat": 41.164539}}, {"id": 5207581, "name": "Rankin", "country": "US", "coord": {"lon": -79.879219, "lat": 40.412571}}, {"id": 5207660, "name": "Raubsville", "country": "US", "coord": {"lon": -75.192947, "lat": 40.635658}}, {"id": 5207745, "name": "Reamstown", "country": "US", "coord": {"lon": -76.123283, "lat": 40.211479}}, {"id": 5207780, "name": "Red Hill", "country": "US", "coord": {"lon": -75.48101, "lat": 40.372879}}, {"id": 5207794, "name": "Red Lion", "country": "US", "coord": {"lon": -75.61602, "lat": 40.480652}}, {"id": 5207976, "name": "Reiffton", "country": "US", "coord": {"lon": -75.873543, "lat": 40.31982}}, {"id": 5207989, "name": "Reinholds", "country": "US", "coord": {"lon": -76.115501, "lat": 40.266762}}, {"id": 5208015, "name": "Rennerdale", "country": "US", "coord": {"lon": -80.141449, "lat": 40.398399}}, {"id": 5208028, "name": "Renovo", "country": "US", "coord": {"lon": -77.750816, "lat": 41.326462}}, {"id": 5208100, "name": "Reynolds Heights", "country": "US", "coord": {"lon": -80.394234, "lat": 41.345058}}, {"id": 5208111, "name": "Reynoldsville", "country": "US", "coord": {"lon": -78.888641, "lat": 41.097012}}, {"id": 5208119, "name": "Rheems", "country": "US", "coord": {"lon": -76.570518, "lat": 40.130089}}, {"id": 5208166, "name": "Richboro", "country": "US", "coord": {"lon": -75.010719, "lat": 40.215111}}, {"id": 5208177, "name": "Richland", "country": "US", "coord": {"lon": -76.258278, "lat": 40.359261}}, {"id": 5208198, "name": "Richlandtown", "country": "US", "coord": {"lon": -75.320457, "lat": 40.4701}}, {"id": 5208292, "name": "Ridgway", "country": "US", "coord": {"lon": -78.728638, "lat": 41.420341}}, {"id": 5208462, "name": "Riverside", "country": "US", "coord": {"lon": -76.628853, "lat": 40.95536}}, {"id": 5208552, "name": "Roaring Spring", "country": "US", "coord": {"lon": -78.390846, "lat": 40.335911}}, {"id": 5208600, "name": "Robesonia", "country": "US", "coord": {"lon": -76.134392, "lat": 40.351761}}, {"id": 5208641, "name": "Rochester", "country": "US", "coord": {"lon": -80.286453, "lat": 40.70229}}, {"id": 5208767, "name": "Rockledge", "country": "US", "coord": {"lon": -75.089622, "lat": 40.081219}}, {"id": 5209036, "name": "Roseto", "country": "US", "coord": {"lon": -75.214622, "lat": 40.88065}}, {"id": 5209110, "name": "Rothsville", "country": "US", "coord": {"lon": -76.251068, "lat": 40.151211}}, {"id": 5209240, "name": "Royersford", "country": "US", "coord": {"lon": -75.537956, "lat": 40.184269}}, {"id": 5209332, "name": "Russell", "country": "US", "coord": {"lon": -79.135048, "lat": 41.941448}}, {"id": 5209347, "name": "Russellton", "country": "US", "coord": {"lon": -79.836998, "lat": 40.611462}}, {"id": 5209362, "name": "Rutherford", "country": "US", "coord": {"lon": -76.768028, "lat": 40.268978}}, {"id": 5209621, "name": "Saint Clair", "country": "US", "coord": {"lon": -76.191048, "lat": 40.72065}}, {"id": 5210029, "name": "Saint Lawrence", "country": "US", "coord": {"lon": -75.871872, "lat": 40.327042}}, {"id": 5210117, "name": "Saint Marys", "country": "US", "coord": {"lon": -78.56086, "lat": 41.427841}}, {"id": 5210699, "name": "Salix", "country": "US", "coord": {"lon": -78.765297, "lat": 40.300079}}, {"id": 5210741, "name": "Salunga", "country": "US", "coord": {"lon": -76.42469, "lat": 40.100929}}, {"id": 5210764, "name": "Sanatoga", "country": "US", "coord": {"lon": -75.595177, "lat": 40.245098}}, {"id": 5210779, "name": "Sand Hill", "country": "US", "coord": {"lon": -76.431633, "lat": 40.359539}}, {"id": 5210847, "name": "Sandy", "country": "US", "coord": {"lon": -78.771141, "lat": 41.107841}}, {"id": 5210973, "name": "Saw Creek", "country": "US", "coord": {"lon": -75.050728, "lat": 41.112591}}, {"id": 5211020, "name": "Saxonburg", "country": "US", "coord": {"lon": -79.810051, "lat": 40.753948}}, {"id": 5211033, "name": "Saylorsburg", "country": "US", "coord": {"lon": -75.323517, "lat": 40.895649}}, {"id": 5211037, "name": "Sayre", "country": "US", "coord": {"lon": -76.515503, "lat": 41.978958}}, {"id": 5211113, "name": "Schlusser", "country": "US", "coord": {"lon": -77.176933, "lat": 40.241749}}, {"id": 5211128, "name": "Schnecksville", "country": "US", "coord": {"lon": -75.607132, "lat": 40.66787}}, {"id": 5211129, "name": "Schoeneck", "country": "US", "coord": {"lon": -76.17411, "lat": 40.241482}}, {"id": 5211212, "name": "Schuylkill Haven", "country": "US", "coord": {"lon": -76.171051, "lat": 40.63065}}, {"id": 5211230, "name": "Schwenksville", "country": "US", "coord": {"lon": -75.463791, "lat": 40.25621}}, {"id": 5211279, "name": "Scottdale", "country": "US", "coord": {"lon": -79.586983, "lat": 40.100349}}, {"id": 5211411, "name": "Selinsgrove", "country": "US", "coord": {"lon": -76.86219, "lat": 40.798969}}, {"id": 5211420, "name": "Sellersville", "country": "US", "coord": {"lon": -75.304901, "lat": 40.353989}}, {"id": 5211432, "name": "Seneca", "country": "US", "coord": {"lon": -79.703941, "lat": 41.37867}}, {"id": 5211465, "name": "Seven Fields", "country": "US", "coord": {"lon": -80.062561, "lat": 40.69173}}, {"id": 5211506, "name": "Sewickley", "country": "US", "coord": {"lon": -80.184502, "lat": 40.536461}}, {"id": 5211622, "name": "Shamokin", "country": "US", "coord": {"lon": -76.558853, "lat": 40.788971}}, {"id": 5211637, "name": "Shamokin Dam", "country": "US", "coord": {"lon": -76.819687, "lat": 40.848701}}, {"id": 5211683, "name": "Sharon", "country": "US", "coord": {"lon": -80.493401, "lat": 41.233109}}, {"id": 5211708, "name": "Sharpsburg", "country": "US", "coord": {"lon": -79.926437, "lat": 40.494511}}, {"id": 5211712, "name": "Sharpsville", "country": "US", "coord": {"lon": -80.472008, "lat": 41.25922}}, {"id": 5211730, "name": "Shavertown", "country": "US", "coord": {"lon": -75.937981, "lat": 41.319801}}, {"id": 5211804, "name": "Sheffield", "country": "US", "coord": {"lon": -79.035599, "lat": 41.703949}}, {"id": 5211846, "name": "Shenandoah", "country": "US", "coord": {"lon": -76.200768, "lat": 40.82037}}, {"id": 5211850, "name": "Shenandoah Heights", "country": "US", "coord": {"lon": -76.206879, "lat": 40.827591}}, {"id": 5211953, "name": "Shillington", "country": "US", "coord": {"lon": -75.965492, "lat": 40.307869}}, {"id": 5211957, "name": "Shiloh", "country": "US", "coord": {"lon": -78.291397, "lat": 41.041721}}, {"id": 5212002, "name": "Shinglehouse", "country": "US", "coord": {"lon": -78.190842, "lat": 41.96368}}, {"id": 5212033, "name": "Shiremanstown", "country": "US", "coord": {"lon": -76.95359, "lat": 40.223419}}, {"id": 5212038, "name": "Shippensburg", "country": "US", "coord": {"lon": -77.520264, "lat": 40.050652}}, {"id": 5212072, "name": "Shoemakersville", "country": "US", "coord": {"lon": -75.969933, "lat": 40.500931}}, {"id": 5212312, "name": "Simpson", "country": "US", "coord": {"lon": -75.485184, "lat": 41.591751}}, {"id": 5212342, "name": "Sinking Spring", "country": "US", "coord": {"lon": -76.011047, "lat": 40.327309}}, {"id": 5212412, "name": "Skippack", "country": "US", "coord": {"lon": -75.398788, "lat": 40.222881}}, {"id": 5212430, "name": "Skyline View", "country": "US", "coord": {"lon": -76.725517, "lat": 40.33926}}, {"id": 5212477, "name": "Slatington", "country": "US", "coord": {"lon": -75.611847, "lat": 40.748428}}, {"id": 5212532, "name": "Slippery Rock", "country": "US", "coord": {"lon": -80.05645, "lat": 41.06395}}, {"id": 5212582, "name": "Smethport", "country": "US", "coord": {"lon": -78.44474, "lat": 41.811169}}, {"id": 5212853, "name": "Somerset", "country": "US", "coord": {"lon": -79.078079, "lat": 40.008411}}, {"id": 5212897, "name": "Souderton", "country": "US", "coord": {"lon": -75.32518, "lat": 40.311771}}, {"id": 5213024, "name": "South Greensburg", "country": "US", "coord": {"lon": -79.544762, "lat": 40.2784}}, {"id": 5213096, "name": "South Pottstown", "country": "US", "coord": {"lon": -75.651016, "lat": 40.23954}}, {"id": 5213115, "name": "South Temple", "country": "US", "coord": {"lon": -75.900002, "lat": 40.400002}}, {"id": 5213126, "name": "South Waverly", "country": "US", "coord": {"lon": -76.53717, "lat": 41.99757}}, {"id": 5213130, "name": "South Williamsport", "country": "US", "coord": {"lon": -76.99913, "lat": 41.232021}}, {"id": 5213155, "name": "Southmont", "country": "US", "coord": {"lon": -78.938637, "lat": 40.310631}}, {"id": 5213167, "name": "Southwest Greensburg", "country": "US", "coord": {"lon": -79.546982, "lat": 40.29118}}, {"id": 5213188, "name": "Spangler", "country": "US", "coord": {"lon": -78.772797, "lat": 40.642849}}, {"id": 5213220, "name": "Speers", "country": "US", "coord": {"lon": -79.879768, "lat": 40.124519}}, {"id": 5213257, "name": "Spinnerstown", "country": "US", "coord": {"lon": -75.437119, "lat": 40.438992}}, {"id": 5213317, "name": "Spring City", "country": "US", "coord": {"lon": -75.547691, "lat": 40.176769}}, {"id": 5213370, "name": "Spring House", "country": "US", "coord": {"lon": -75.227676, "lat": 40.18539}}, {"id": 5213393, "name": "Spring Mount", "country": "US", "coord": {"lon": -75.456573, "lat": 40.275661}}, {"id": 5213397, "name": "Spring Ridge", "country": "US", "coord": {"lon": -75.989937, "lat": 40.352871}}, {"id": 5213447, "name": "Springdale", "country": "US", "coord": {"lon": -79.783943, "lat": 40.540901}}, {"id": 5214040, "name": "Steelton", "country": "US", "coord": {"lon": -76.841362, "lat": 40.235371}}, {"id": 5214175, "name": "Stiles", "country": "US", "coord": {"lon": -75.50824, "lat": 40.665371}}, {"id": 5214311, "name": "Stoneboro", "country": "US", "coord": {"lon": -80.105057, "lat": 41.339218}}, {"id": 5214346, "name": "Stony Creek Mills", "country": "US", "coord": {"lon": -75.869926, "lat": 40.34565}}, {"id": 5214416, "name": "Stormstown", "country": "US", "coord": {"lon": -78.01667, "lat": 40.793388}}, {"id": 5214449, "name": "Stowe", "country": "US", "coord": {"lon": -75.677406, "lat": 40.252602}}, {"id": 5214543, "name": "Stroudsburg", "country": "US", "coord": {"lon": -75.194618, "lat": 40.986759}}, {"id": 5214576, "name": "Sturgeon", "country": "US", "coord": {"lon": -80.210892, "lat": 40.384789}}, {"id": 5214696, "name": "Sugarcreek", "country": "US", "coord": {"lon": -79.881172, "lat": 41.421452}}, {"id": 5214775, "name": "Summit Hill", "country": "US", "coord": {"lon": -75.871033, "lat": 40.82481}}, {"id": 5214809, "name": "Sun Valley", "country": "US", "coord": {"lon": -75.466019, "lat": 40.982029}}, {"id": 5214810, "name": "Sun Valley", "country": "US", "coord": {"lon": -75.469627, "lat": 41.0112}}, {"id": 5214814, "name": "Sunbury", "country": "US", "coord": {"lon": -76.794411, "lat": 40.862591}}, {"id": 5214867, "name": "Sunrise Lake", "country": "US", "coord": {"lon": -74.96656, "lat": 41.309811}}, {"id": 5214936, "name": "Susquehanna", "country": "US", "coord": {"lon": -75.599632, "lat": 41.943409}}, {"id": 5214999, "name": "Swartzville", "country": "US", "coord": {"lon": -76.078278, "lat": 40.23315}}, {"id": 5215064, "name": "Swissvale", "country": "US", "coord": {"lon": -79.882828, "lat": 40.423679}}, {"id": 5215076, "name": "Swoyersville", "country": "US", "coord": {"lon": -75.874641, "lat": 41.291752}}, {"id": 5215087, "name": "Sykesville", "country": "US", "coord": {"lon": -78.82225, "lat": 41.050339}}, {"id": 5215142, "name": "Tamaqua", "country": "US", "coord": {"lon": -75.969368, "lat": 40.79731}}, {"id": 5215193, "name": "Tannersville", "country": "US", "coord": {"lon": -75.30574, "lat": 41.040089}}, {"id": 5215215, "name": "Tarentum", "country": "US", "coord": {"lon": -79.759773, "lat": 40.60146}}, {"id": 5215235, "name": "Tatamy", "country": "US", "coord": {"lon": -75.257118, "lat": 40.740929}}, {"id": 5215247, "name": "Taylor", "country": "US", "coord": {"lon": -75.706581, "lat": 41.394798}}, {"id": 5215317, "name": "Telford", "country": "US", "coord": {"lon": -75.32795, "lat": 40.322048}}, {"id": 5215325, "name": "Temple", "country": "US", "coord": {"lon": -75.9216, "lat": 40.408699}}, {"id": 5215373, "name": "Terre Hill", "country": "US", "coord": {"lon": -76.050499, "lat": 40.157318}}, {"id": 5215541, "name": "Thompsonville", "country": "US", "coord": {"lon": -80.108109, "lat": 40.290901}}, {"id": 5215611, "name": "Throop", "country": "US", "coord": {"lon": -75.611847, "lat": 41.451469}}, {"id": 5215664, "name": "Tinicum", "country": "US", "coord": {"lon": -75.107674, "lat": 40.448441}}, {"id": 5215696, "name": "Tionesta", "country": "US", "coord": {"lon": -79.455879, "lat": 41.495338}}, {"id": 5215715, "name": "Tipton", "country": "US", "coord": {"lon": -78.295853, "lat": 40.635899}}, {"id": 5215726, "name": "Titusville", "country": "US", "coord": {"lon": -79.67366, "lat": 41.626999}}, {"id": 5215826, "name": "Topton", "country": "US", "coord": {"lon": -75.701302, "lat": 40.503429}}, {"id": 5215856, "name": "Towamensing Trails", "country": "US", "coord": {"lon": -75.584633, "lat": 41.00787}}, {"id": 5215859, "name": "Towanda", "country": "US", "coord": {"lon": -76.442719, "lat": 41.767578}}, {"id": 5215886, "name": "Tower City", "country": "US", "coord": {"lon": -76.55246, "lat": 40.589249}}, {"id": 5215921, "name": "Trafford", "country": "US", "coord": {"lon": -79.758926, "lat": 40.38562}}, {"id": 5215947, "name": "Trappe", "country": "US", "coord": {"lon": -75.476288, "lat": 40.19899}}, {"id": 5215968, "name": "Treasure Lake", "country": "US", "coord": {"lon": -78.715858, "lat": 41.173389}}, {"id": 5215983, "name": "Tremont", "country": "US", "coord": {"lon": -76.387177, "lat": 40.628422}}, {"id": 5215995, "name": "Trevorton", "country": "US", "coord": {"lon": -76.673019, "lat": 40.7812}}, {"id": 5216000, "name": "Trevose", "country": "US", "coord": {"lon": -74.981003, "lat": 40.139278}}, {"id": 5216013, "name": "Trexlertown", "country": "US", "coord": {"lon": -75.605743, "lat": 40.548149}}, {"id": 5216092, "name": "Trooper", "country": "US", "coord": {"lon": -75.401848, "lat": 40.14983}}, {"id": 5216182, "name": "Troy", "country": "US", "coord": {"lon": -76.78801, "lat": 41.785912}}, {"id": 5216183, "name": "Troy", "country": "US", "coord": {"lon": -78.2164, "lat": 40.915058}}, {"id": 5216205, "name": "Trucksville", "country": "US", "coord": {"lon": -75.932137, "lat": 41.30397}}, {"id": 5216241, "name": "Tullytown", "country": "US", "coord": {"lon": -74.814613, "lat": 40.139278}}, {"id": 5216260, "name": "Tunkhannock", "country": "US", "coord": {"lon": -75.946587, "lat": 41.538689}}, {"id": 5216343, "name": "Turtle Creek", "country": "US", "coord": {"lon": -79.82505, "lat": 40.405899}}, {"id": 5216514, "name": "Tyrone", "country": "US", "coord": {"lon": -78.238617, "lat": 40.67062}}, {"id": 5216639, "name": "Union City", "country": "US", "coord": {"lon": -79.845329, "lat": 41.899502}}, {"id": 5217005, "name": "Valley Green", "country": "US", "coord": {"lon": -76.792747, "lat": 40.15731}}, {"id": 5217039, "name": "Valley View", "country": "US", "coord": {"lon": -76.539131, "lat": 40.64592}}, {"id": 5217103, "name": "Vandergrift", "country": "US", "coord": {"lon": -79.564774, "lat": 40.60284}}, {"id": 5217183, "name": "Versailles", "country": "US", "coord": {"lon": -79.831161, "lat": 40.315632}}, {"id": 5217238, "name": "Village Shires", "country": "US", "coord": {"lon": -74.970451, "lat": 40.203159}}, {"id": 5217260, "name": "Vinco", "country": "US", "coord": {"lon": -78.855583, "lat": 40.405071}}, {"id": 5217887, "name": "Walnutport", "country": "US", "coord": {"lon": -75.598801, "lat": 40.754261}}, {"id": 5217970, "name": "Warminster Heights", "country": "US", "coord": {"lon": -75.081558, "lat": 40.18705}}, {"id": 5218023, "name": "Warren", "country": "US", "coord": {"lon": -79.145042, "lat": 41.843948}}, {"id": 5218069, "name": "Washington", "country": "US", "coord": {"lon": -80.24617, "lat": 40.173962}}, {"id": 5218198, "name": "Waterford", "country": "US", "coord": {"lon": -79.984497, "lat": 41.942829}}, {"id": 5218199, "name": "Waterford", "country": "US", "coord": {"lon": -79.167526, "lat": 40.25452}}, {"id": 5218246, "name": "Watsontown", "country": "US", "coord": {"lon": -76.863853, "lat": 41.08453}}, {"id": 5218268, "name": "Waymart", "country": "US", "coord": {"lon": -75.408241, "lat": 41.58036}}, {"id": 5218305, "name": "Weatherly", "country": "US", "coord": {"lon": -75.829643, "lat": 40.94175}}, {"id": 5218450, "name": "Wellsboro", "country": "US", "coord": {"lon": -77.300529, "lat": 41.74868}}, {"id": 5218485, "name": "Wernersville", "country": "US", "coord": {"lon": -76.080498, "lat": 40.33009}}, {"id": 5218505, "name": "Wescosville", "country": "US", "coord": {"lon": -75.552963, "lat": 40.566761}}, {"id": 5218531, "name": "Wesleyville", "country": "US", "coord": {"lon": -80.01506, "lat": 42.140331}}, {"id": 5218652, "name": "West Conshohocken", "country": "US", "coord": {"lon": -75.316299, "lat": 40.069832}}, {"id": 5218678, "name": "West Easton", "country": "US", "coord": {"lon": -75.236839, "lat": 40.678711}}, {"id": 5218702, "name": "West Fairview", "country": "US", "coord": {"lon": -76.915527, "lat": 40.275089}}, {"id": 5218726, "name": "West Hamburg", "country": "US", "coord": {"lon": -76.002159, "lat": 40.547588}}, {"id": 5218730, "name": "West Hazleton", "country": "US", "coord": {"lon": -75.99604, "lat": 40.958698}}, {"id": 5218745, "name": "West Hills", "country": "US", "coord": {"lon": -79.543098, "lat": 40.82423}}, {"id": 5218750, "name": "West Homestead", "country": "US", "coord": {"lon": -79.911987, "lat": 40.393959}}, {"id": 5218758, "name": "West Kittanning", "country": "US", "coord": {"lon": -79.529488, "lat": 40.810341}}, {"id": 5218765, "name": "West Lawn", "country": "US", "coord": {"lon": -75.994377, "lat": 40.329811}}, {"id": 5218773, "name": "West Leechburg", "country": "US", "coord": {"lon": -79.612823, "lat": 40.622292}}, {"id": 5218793, "name": "West Mayfield", "country": "US", "coord": {"lon": -80.338402, "lat": 40.78006}}, {"id": 5218822, "name": "West Newton", "country": "US", "coord": {"lon": -79.766991, "lat": 40.209789}}, {"id": 5218827, "name": "West Norriton", "country": "US", "coord": {"lon": -75.378517, "lat": 40.129551}}, {"id": 5218853, "name": "West Pittston", "country": "US", "coord": {"lon": -75.792969, "lat": 41.327579}}, {"id": 5218867, "name": "West Reading", "country": "US", "coord": {"lon": -75.947433, "lat": 40.333698}}, {"id": 5218918, "name": "West View", "country": "US", "coord": {"lon": -80.034218, "lat": 40.522289}}, {"id": 5218938, "name": "West Wyoming", "country": "US", "coord": {"lon": -75.846031, "lat": 41.319801}}, {"id": 5218940, "name": "West Wyomissing", "country": "US", "coord": {"lon": -75.990768, "lat": 40.324539}}, {"id": 5218969, "name": "Westfield", "country": "US", "coord": {"lon": -77.538872, "lat": 41.919239}}, {"id": 5219140, "name": "Whitaker", "country": "US", "coord": {"lon": -79.889771, "lat": 40.398399}}, {"id": 5219189, "name": "White Haven", "country": "US", "coord": {"lon": -75.774078, "lat": 41.060638}}, {"id": 5219216, "name": "White Oak", "country": "US", "coord": {"lon": -79.809212, "lat": 40.33757}}, {"id": 5219271, "name": "Whitehall", "country": "US", "coord": {"lon": -79.990891, "lat": 40.361179}}, {"id": 5219331, "name": "Whitfield", "country": "US", "coord": {"lon": -76.00605, "lat": 40.33593}}, {"id": 5219574, "name": "Williamsburg", "country": "US", "coord": {"lon": -78.19973, "lat": 40.462021}}, {"id": 5219592, "name": "Williamstown", "country": "US", "coord": {"lon": -76.617737, "lat": 40.58009}}, {"id": 5219653, "name": "Wilmerding", "country": "US", "coord": {"lon": -79.810051, "lat": 40.3909}}, {"id": 5219667, "name": "Wilson", "country": "US", "coord": {"lon": -79.891441, "lat": 40.31007}}, {"id": 5219668, "name": "Wilson", "country": "US", "coord": {"lon": -75.241837, "lat": 40.68399}}, {"id": 5219720, "name": "Wind Gap", "country": "US", "coord": {"lon": -75.291573, "lat": 40.848148}}, {"id": 5219722, "name": "Windber", "country": "US", "coord": {"lon": -78.835022, "lat": 40.239799}}, {"id": 5219949, "name": "Wolfdale", "country": "US", "coord": {"lon": -80.287842, "lat": 40.192848}}, {"id": 5219972, "name": "Womelsdorf", "country": "US", "coord": {"lon": -76.184113, "lat": 40.361759}}, {"id": 5219994, "name": "Woodbourne", "country": "US", "coord": {"lon": -74.888779, "lat": 40.192329}}, {"id": 5220040, "name": "Woodland Heights", "country": "US", "coord": {"lon": -79.711723, "lat": 41.409779}}, {"id": 5220093, "name": "Woodside", "country": "US", "coord": {"lon": -74.875443, "lat": 40.221779}}, {"id": 5220137, "name": "Wormleysburg", "country": "US", "coord": {"lon": -76.913857, "lat": 40.262871}}, {"id": 5220150, "name": "Woxall", "country": "US", "coord": {"lon": -75.448792, "lat": 40.310661}}, {"id": 5220180, "name": "Wrightsville", "country": "US", "coord": {"lon": -76.529968, "lat": 40.02565}}, {"id": 5220217, "name": "Wyncote", "country": "US", "coord": {"lon": -75.148788, "lat": 40.094551}}, {"id": 5220221, "name": "Wyndmoor", "country": "US", "coord": {"lon": -75.189339, "lat": 40.081219}}, {"id": 5220236, "name": "Wyoming", "country": "US", "coord": {"lon": -75.837418, "lat": 41.311749}}, {"id": 5220248, "name": "Wyomissing", "country": "US", "coord": {"lon": -75.96521, "lat": 40.32954}}, {"id": 5220276, "name": "Wyomissing Hills", "country": "US", "coord": {"lon": -75.97966, "lat": 40.337589}}, {"id": 5220281, "name": "Yardley", "country": "US", "coord": {"lon": -74.846001, "lat": 40.245659}}, {"id": 5220310, "name": "Yeagertown", "country": "US", "coord": {"lon": -77.580551, "lat": 40.643131}}, {"id": 5220400, "name": "Youngsville", "country": "US", "coord": {"lon": -75.476852, "lat": 40.781212}}, {"id": 5220401, "name": "Youngsville", "country": "US", "coord": {"lon": -79.318657, "lat": 41.85228}}, {"id": 5220405, "name": "Youngwood", "country": "US", "coord": {"lon": -79.576714, "lat": 40.240349}}, {"id": 5220432, "name": "Zelienople", "country": "US", "coord": {"lon": -80.136726, "lat": 40.79451}}, {"id": 5220463, "name": "Zion", "country": "US", "coord": {"lon": -77.684723, "lat": 40.91423}}, {"id": 5220705, "name": "Ashaway", "country": "US", "coord": {"lon": -71.785622, "lat": 41.423431}}, {"id": 5221030, "name": "Bradford", "country": "US", "coord": {"lon": -71.737007, "lat": 41.398991}}, {"id": 5221384, "name": "Charlestown", "country": "US", "coord": {"lon": -71.641731, "lat": 41.38316}}, {"id": 5221401, "name": "Chepachet", "country": "US", "coord": {"lon": -71.671463, "lat": 41.9151}}, {"id": 5221705, "name": "Cumberland Hill", "country": "US", "coord": {"lon": -71.467003, "lat": 41.974541}}, {"id": 5221875, "name": "East Greenwich", "country": "US", "coord": {"lon": -71.455887, "lat": 41.660381}}, {"id": 5222019, "name": "Exeter", "country": "US", "coord": {"lon": -71.53756, "lat": 41.577599}}, {"id": 5222169, "name": "Foster", "country": "US", "coord": {"lon": -71.758118, "lat": 41.85371}}, {"id": 5222476, "name": "Greenville", "country": "US", "coord": {"lon": -71.55201, "lat": 41.871208}}, {"id": 5222569, "name": "Harrisville", "country": "US", "coord": {"lon": -71.674507, "lat": 41.965649}}, {"id": 5222665, "name": "Hope Valley", "country": "US", "coord": {"lon": -71.716179, "lat": 41.507599}}, {"id": 5222680, "name": "Hopkinton", "country": "US", "coord": {"lon": -71.777573, "lat": 41.461208}}, {"id": 5222866, "name": "Jamestown", "country": "US", "coord": {"lon": -71.367279, "lat": 41.497051}}, {"id": 5223006, "name": "Kingston", "country": "US", "coord": {"lon": -71.52256, "lat": 41.480381}}, {"id": 5223324, "name": "Melville", "country": "US", "coord": {"lon": -71.283379, "lat": 41.587051}}, {"id": 5223525, "name": "Narragansett Pier", "country": "US", "coord": {"lon": -71.456444, "lat": 41.43232}}, {"id": 5223685, "name": "North Scituate", "country": "US", "coord": {"lon": -71.587288, "lat": 41.831772}}, {"id": 5223687, "name": "North Smithfield", "country": "US", "coord": {"lon": -71.549507, "lat": 41.96677}}, {"id": 5223854, "name": "Pascoag", "country": "US", "coord": {"lon": -71.702293, "lat": 41.95565}}, {"id": 5225245, "name": "Tiverton", "country": "US", "coord": {"lon": -71.213379, "lat": 41.625938}}, {"id": 5225388, "name": "Valley Falls", "country": "US", "coord": {"lon": -71.39061, "lat": 41.906769}}, {"id": 5225502, "name": "Warren", "country": "US", "coord": {"lon": -71.282547, "lat": 41.730381}}, {"id": 5225919, "name": "Alexandria", "country": "US", "coord": {"lon": -97.782852, "lat": 43.653591}}, {"id": 5226045, "name": "Armour", "country": "US", "coord": {"lon": -98.346748, "lat": 43.3186}}, {"id": 5226143, "name": "Baltic", "country": "US", "coord": {"lon": -96.740334, "lat": 43.76136}}, {"id": 5226250, "name": "Beresford", "country": "US", "coord": {"lon": -96.773659, "lat": 43.08054}}, {"id": 5226489, "name": "Brandon", "country": "US", "coord": {"lon": -96.571991, "lat": 43.5947}}, {"id": 5226523, "name": "Britton", "country": "US", "coord": {"lon": -97.750938, "lat": 45.791618}}, {"id": 5226625, "name": "Burke", "country": "US", "coord": {"lon": -99.292053, "lat": 43.182499}}, {"id": 5226716, "name": "Canton", "country": "US", "coord": {"lon": -96.592819, "lat": 43.300812}}, {"id": 5226824, "name": "Chamberlain", "country": "US", "coord": {"lon": -99.330658, "lat": 43.810829}}, {"id": 5226901, "name": "Clark", "country": "US", "coord": {"lon": -97.733139, "lat": 44.877739}}, {"id": 5226932, "name": "Clear Lake", "country": "US", "coord": {"lon": -96.682564, "lat": 44.7458}}, {"id": 5227129, "name": "Crooks", "country": "US", "coord": {"lon": -96.81089, "lat": 43.6647}}, {"id": 5227180, "name": "Dakota Dunes", "country": "US", "coord": {"lon": -96.48642, "lat": 42.487492}}, {"id": 5227237, "name": "De Smet", "country": "US", "coord": {"lon": -97.550346, "lat": 44.38747}}, {"id": 5227270, "name": "Dell Rapids", "country": "US", "coord": {"lon": -96.706161, "lat": 43.82608}}, {"id": 5227567, "name": "Elk Point", "country": "US", "coord": {"lon": -96.683647, "lat": 42.683331}}, {"id": 5227753, "name": "Faulkton", "country": "US", "coord": {"lon": -99.124001, "lat": 45.034969}}, {"id": 5227802, "name": "Flandreau", "country": "US", "coord": {"lon": -96.595322, "lat": 44.049419}}, {"id": 5227856, "name": "Fort Thompson", "country": "US", "coord": {"lon": -99.437881, "lat": 44.0686}}, {"id": 5227913, "name": "Freeman", "country": "US", "coord": {"lon": -97.437286, "lat": 43.352489}}, {"id": 5227996, "name": "Garretson", "country": "US", "coord": {"lon": -96.502823, "lat": 43.717468}}, {"id": 5228053, "name": "Gettysburg", "country": "US", "coord": {"lon": -99.955673, "lat": 45.01165}}, {"id": 5228222, "name": "Gregory", "country": "US", "coord": {"lon": -99.430382, "lat": 43.23222}}, {"id": 5228242, "name": "Groton", "country": "US", "coord": {"lon": -98.098709, "lat": 45.44746}}, {"id": 5228340, "name": "Harrisburg", "country": "US", "coord": {"lon": -96.697273, "lat": 43.43137}}, {"id": 5228353, "name": "Hartford", "country": "US", "coord": {"lon": -96.942558, "lat": 43.623032}}, {"id": 5228476, "name": "Highmore", "country": "US", "coord": {"lon": -99.441498, "lat": 44.52137}}, {"id": 5228623, "name": "Howard", "country": "US", "coord": {"lon": -97.526741, "lat": 44.010811}}, {"id": 5228742, "name": "Ipswich", "country": "US", "coord": {"lon": -99.029282, "lat": 45.44442}}, {"id": 5228958, "name": "Kennebec", "country": "US", "coord": {"lon": -99.861778, "lat": 43.903599}}, {"id": 5229103, "name": "Lake Andes", "country": "US", "coord": {"lon": -98.541473, "lat": 43.15638}}, {"id": 5229271, "name": "Lennox", "country": "US", "coord": {"lon": -96.891998, "lat": 43.354149}}, {"id": 5229276, "name": "Leola", "country": "US", "coord": {"lon": -98.940941, "lat": 45.722752}}, {"id": 5229737, "name": "Milbank", "country": "US", "coord": {"lon": -96.63562, "lat": 45.219131}}, {"id": 5229751, "name": "Miller", "country": "US", "coord": {"lon": -98.988426, "lat": 44.518311}}, {"id": 5230076, "name": "North Sioux City", "country": "US", "coord": {"lon": -96.483093, "lat": 42.527222}}, {"id": 5230213, "name": "Olivet", "country": "US", "coord": {"lon": -97.675339, "lat": 43.240822}}, {"id": 5230309, "name": "Parker", "country": "US", "coord": {"lon": -97.136452, "lat": 43.39748}}, {"id": 5230313, "name": "Parkston", "country": "US", "coord": {"lon": -97.983681, "lat": 43.39888}}, {"id": 5230463, "name": "Plankinton", "country": "US", "coord": {"lon": -98.485092, "lat": 43.715549}}, {"id": 5230472, "name": "Platte", "country": "US", "coord": {"lon": -98.844528, "lat": 43.38694}}, {"id": 5230743, "name": "Redfield", "country": "US", "coord": {"lon": -98.518707, "lat": 44.875809}}, {"id": 5231228, "name": "Salem", "country": "US", "coord": {"lon": -97.388947, "lat": 43.724152}}, {"id": 5231863, "name": "Sisseton", "country": "US", "coord": {"lon": -97.049797, "lat": 45.66468}}, {"id": 5232077, "name": "Springfield", "country": "US", "coord": {"lon": -97.897293, "lat": 42.854172}}, {"id": 5232316, "name": "Tea", "country": "US", "coord": {"lon": -96.835876, "lat": 43.446369}}, {"id": 5232489, "name": "Tyndall", "country": "US", "coord": {"lon": -97.862846, "lat": 42.993328}}, {"id": 5232592, "name": "Vermillion", "country": "US", "coord": {"lon": -96.929207, "lat": 42.779442}}, {"id": 5232637, "name": "Volga", "country": "US", "coord": {"lon": -96.926453, "lat": 44.323582}}, {"id": 5232661, "name": "Wagner", "country": "US", "coord": {"lon": -98.293129, "lat": 43.07972}}, {"id": 5232802, "name": "Wessington Springs", "country": "US", "coord": {"lon": -98.569542, "lat": 44.079159}}, {"id": 5232994, "name": "Winner", "country": "US", "coord": {"lon": -99.859009, "lat": 43.376671}}, {"id": 5233037, "name": "Woonsocket", "country": "US", "coord": {"lon": -98.275642, "lat": 44.0536}}, {"id": 5233315, "name": "Arlington", "country": "US", "coord": {"lon": -73.153999, "lat": 43.074799}}, {"id": 5233500, "name": "Barre", "country": "US", "coord": {"lon": -72.502052, "lat": 44.19701}}, {"id": 5233738, "name": "Bellows Falls", "country": "US", "coord": {"lon": -72.443977, "lat": 43.133411}}, {"id": 5233742, "name": "Bennington", "country": "US", "coord": {"lon": -73.19677, "lat": 42.878132}}, {"id": 5234101, "name": "Brandon", "country": "US", "coord": {"lon": -73.087608, "lat": 43.798119}}, {"id": 5234141, "name": "Brattleboro", "country": "US", "coord": {"lon": -72.557869, "lat": 42.850922}}, {"id": 5234183, "name": "Bristol", "country": "US", "coord": {"lon": -73.07901, "lat": 44.133389}}, {"id": 5234814, "name": "Chelsea", "country": "US", "coord": {"lon": -72.447601, "lat": 43.989792}}, {"id": 5234827, "name": "Chester", "country": "US", "coord": {"lon": -72.595093, "lat": 43.262852}}, {"id": 5235519, "name": "Dover", "country": "US", "coord": {"lon": -72.803993, "lat": 42.943691}}, {"id": 5235919, "name": "Enosburg Falls", "country": "US", "coord": {"lon": -72.806519, "lat": 44.90699}}, {"id": 5235952, "name": "Essex Junction", "country": "US", "coord": {"lon": -73.110962, "lat": 44.490608}}, {"id": 5236019, "name": "Fair Haven", "country": "US", "coord": {"lon": -73.265671, "lat": 43.594791}}, {"id": 5236698, "name": "Guildhall", "country": "US", "coord": {"lon": -71.559807, "lat": 44.56506}}, {"id": 5236818, "name": "Hardwick", "country": "US", "coord": {"lon": -72.368156, "lat": 44.50478}}, {"id": 5237276, "name": "Hyde Park", "country": "US", "coord": {"lon": -72.616508, "lat": 44.593941}}, {"id": 5237476, "name": "Jericho", "country": "US", "coord": {"lon": -72.997627, "lat": 44.503941}}, {"id": 5237538, "name": "Johnson", "country": "US", "coord": {"lon": -72.680397, "lat": 44.635609}}, {"id": 5238190, "name": "Lyndon", "country": "US", "coord": {"lon": -72.010933, "lat": 44.514221}}, {"id": 5238203, "name": "Lyndonville", "country": "US", "coord": {"lon": -72.003151, "lat": 44.533669}}, {"id": 5238321, "name": "Manchester Center", "country": "US", "coord": {"lon": -73.057053, "lat": 43.177021}}, {"id": 5238499, "name": "Middlebury", "country": "US", "coord": {"lon": -73.167343, "lat": 44.015339}}, {"id": 5238609, "name": "Milton", "country": "US", "coord": {"lon": -73.110413, "lat": 44.639771}}, {"id": 5238685, "name": "Montpelier", "country": "US", "coord": {"lon": -72.575394, "lat": 44.260059}}, {"id": 5238755, "name": "Morristown", "country": "US", "coord": {"lon": -72.623734, "lat": 44.55727}}, {"id": 5238763, "name": "Morrisville", "country": "US", "coord": {"lon": -72.59845, "lat": 44.561722}}, {"id": 5239058, "name": "Newport", "country": "US", "coord": {"lon": -72.205101, "lat": 44.93644}}, {"id": 5239071, "name": "Newfane", "country": "US", "coord": {"lon": -72.65593, "lat": 42.985641}}, {"id": 5239101, "name": "North Bennington", "country": "US", "coord": {"lon": -73.242607, "lat": 42.930359}}, {"id": 5239188, "name": "North Hero", "country": "US", "coord": {"lon": -73.289299, "lat": 44.817539}}, {"id": 5239281, "name": "Northfield", "country": "US", "coord": {"lon": -72.656502, "lat": 44.151169}}, {"id": 5239982, "name": "Poultney", "country": "US", "coord": {"lon": -73.236221, "lat": 43.51701}}, {"id": 5240140, "name": "Randolph", "country": "US", "coord": {"lon": -72.665939, "lat": 43.925072}}, {"id": 5240267, "name": "Richford", "country": "US", "coord": {"lon": -72.671242, "lat": 44.99699}}, {"id": 5240399, "name": "Rockingham", "country": "US", "coord": {"lon": -72.488983, "lat": 43.18758}}, {"id": 5240569, "name": "Saint Albans", "country": "US", "coord": {"lon": -73.083191, "lat": 44.810879}}, {"id": 5240656, "name": "Saint Johnsbury", "country": "US", "coord": {"lon": -72.015091, "lat": 44.41922}}, {"id": 5241223, "name": "South Barre", "country": "US", "coord": {"lon": -72.505661, "lat": 44.17701}}, {"id": 5241423, "name": "Springfield", "country": "US", "coord": {"lon": -72.482307, "lat": 43.298409}}, {"id": 5241770, "name": "Swanton", "country": "US", "coord": {"lon": -73.124298, "lat": 44.918098}}, {"id": 5242224, "name": "Vergennes", "country": "US", "coord": {"lon": -73.254013, "lat": 44.167278}}, {"id": 5242565, "name": "Waterbury", "country": "US", "coord": {"lon": -72.756233, "lat": 44.33783}}, {"id": 5242657, "name": "West Brattleboro", "country": "US", "coord": {"lon": -72.603149, "lat": 42.855919}}, {"id": 5242764, "name": "West Rutland", "country": "US", "coord": {"lon": -73.045113, "lat": 43.593121}}, {"id": 5242889, "name": "White River Junction", "country": "US", "coord": {"lon": -72.31926, "lat": 43.64896}}, {"id": 5242952, "name": "Wilder", "country": "US", "coord": {"lon": -72.308701, "lat": 43.672852}}, {"id": 5242994, "name": "Williamstown", "country": "US", "coord": {"lon": -72.541489, "lat": 44.121731}}, {"id": 5243008, "name": "Williston", "country": "US", "coord": {"lon": -73.068176, "lat": 44.43755}}, {"id": 5243059, "name": "Windsor", "country": "US", "coord": {"lon": -72.384811, "lat": 43.48035}}, {"id": 5243081, "name": "Winooski", "country": "US", "coord": {"lon": -73.185677, "lat": 44.49144}}, {"id": 5243145, "name": "Woodstock", "country": "US", "coord": {"lon": -72.518433, "lat": 43.624241}}, {"id": 5243517, "name": "Abbotsford", "country": "US", "coord": {"lon": -90.315971, "lat": 44.946362}}, {"id": 5243553, "name": "Adams", "country": "US", "coord": {"lon": -89.818176, "lat": 43.956081}}, {"id": 5243653, "name": "Albany", "country": "US", "coord": {"lon": -89.437057, "lat": 42.707779}}, {"id": 5243712, "name": "Algoma", "country": "US", "coord": {"lon": -87.432587, "lat": 44.608891}}, {"id": 5243770, "name": "Allouez", "country": "US", "coord": {"lon": -88.016212, "lat": 44.477489}}, {"id": 5243778, "name": "Alma", "country": "US", "coord": {"lon": -91.914879, "lat": 44.319969}}, {"id": 5243819, "name": "Altoona", "country": "US", "coord": {"lon": -91.443207, "lat": 44.80468}}, {"id": 5243872, "name": "Amery", "country": "US", "coord": {"lon": -92.362137, "lat": 45.306911}}, {"id": 5243883, "name": "Amherst", "country": "US", "coord": {"lon": -89.284843, "lat": 44.450809}}, {"id": 5244010, "name": "Antigo", "country": "US", "coord": {"lon": -89.152344, "lat": 45.14024}}, {"id": 5244109, "name": "Arcadia", "country": "US", "coord": {"lon": -91.501541, "lat": 44.252739}}, {"id": 5244247, "name": "Ashland", "country": "US", "coord": {"lon": -90.883797, "lat": 46.592442}}, {"id": 5244312, "name": "Athens", "country": "US", "coord": {"lon": -90.07402, "lat": 45.03302}}, {"id": 5244365, "name": "Augusta", "country": "US", "coord": {"lon": -91.119881, "lat": 44.680241}}, {"id": 5244570, "name": "Baldwin", "country": "US", "coord": {"lon": -92.374359, "lat": 44.966629}}, {"id": 5244607, "name": "Balsam Lake", "country": "US", "coord": {"lon": -92.454643, "lat": 45.452179}}, {"id": 5244626, "name": "Bangor", "country": "US", "coord": {"lon": -90.99041, "lat": 43.893021}}, {"id": 5244638, "name": "Baraboo", "country": "US", "coord": {"lon": -89.744293, "lat": 43.471088}}, {"id": 5244703, "name": "Barneveld", "country": "US", "coord": {"lon": -89.895401, "lat": 43.015549}}, {"id": 5244738, "name": "Barron", "country": "US", "coord": {"lon": -91.84906, "lat": 45.401348}}, {"id": 5244980, "name": "Bayside", "country": "US", "coord": {"lon": -87.900642, "lat": 43.180561}}, {"id": 5245314, "name": "Belgium", "country": "US", "coord": {"lon": -87.850372, "lat": 43.499722}}, {"id": 5245354, "name": "Belleville", "country": "US", "coord": {"lon": -89.538177, "lat": 42.859718}}, {"id": 5245359, "name": "Bellevue", "country": "US", "coord": {"lon": -87.920097, "lat": 44.44416}}, {"id": 5245729, "name": "Big Bend", "country": "US", "coord": {"lon": -88.206757, "lat": 42.881401}}, {"id": 5246049, "name": "Black Creek", "country": "US", "coord": {"lon": -88.450661, "lat": 44.477489}}, {"id": 5246060, "name": "Black Earth", "country": "US", "coord": {"lon": -89.746788, "lat": 43.137218}}, {"id": 5246105, "name": "Black River Falls", "country": "US", "coord": {"lon": -90.851532, "lat": 44.294682}}, {"id": 5246172, "name": "Blair", "country": "US", "coord": {"lon": -91.235161, "lat": 44.294399}}, {"id": 5246228, "name": "Bloomer", "country": "US", "coord": {"lon": -91.48877, "lat": 45.100239}}, {"id": 5246401, "name": "Bohners Lake", "country": "US", "coord": {"lon": -88.280373, "lat": 42.62307}}, {"id": 5246437, "name": "Bonduel", "country": "US", "coord": {"lon": -88.444817, "lat": 44.740269}}, {"id": 5246509, "name": "Boscobel", "country": "US", "coord": {"lon": -90.705399, "lat": 43.13443}}, {"id": 5246565, "name": "Boyceville", "country": "US", "coord": {"lon": -92.041008, "lat": 45.043571}}, {"id": 5246709, "name": "Brice Prairie", "country": "US", "coord": {"lon": -91.299858, "lat": 43.938568}}, {"id": 5246766, "name": "Brillion", "country": "US", "coord": {"lon": -88.06427, "lat": 44.177212}}, {"id": 5246785, "name": "Bristol", "country": "US", "coord": {"lon": -88.049248, "lat": 42.55891}}, {"id": 5246832, "name": "Brodhead", "country": "US", "coord": {"lon": -89.376228, "lat": 42.61834}}, {"id": 5246849, "name": "Brooklyn", "country": "US", "coord": {"lon": -89.370399, "lat": 42.853611}}, {"id": 5246917, "name": "Brown Deer", "country": "US", "coord": {"lon": -87.964531, "lat": 43.163342}}, {"id": 5246937, "name": "Browns Lake", "country": "US", "coord": {"lon": -88.231201, "lat": 42.69252}}, {"id": 5247107, "name": "Buffalo City", "country": "US", "coord": {"lon": -91.864319, "lat": 44.230518}}, {"id": 5247214, "name": "Burlington", "country": "US", "coord": {"lon": -88.276199, "lat": 42.67807}}, {"id": 5247387, "name": "Cadott", "country": "US", "coord": {"lon": -91.150703, "lat": 44.948021}}, {"id": 5247533, "name": "Cambridge", "country": "US", "coord": {"lon": -89.016502, "lat": 43.003609}}, {"id": 5247547, "name": "Cameron", "country": "US", "coord": {"lon": -91.744057, "lat": 45.408569}}, {"id": 5247648, "name": "Camp Lake", "country": "US", "coord": {"lon": -88.1437, "lat": 42.53474}}, {"id": 5247758, "name": "Campbellsport", "country": "US", "coord": {"lon": -88.278992, "lat": 43.597771}}, {"id": 5247945, "name": "Cashton", "country": "US", "coord": {"lon": -90.779297, "lat": 43.741909}}, {"id": 5248102, "name": "Cedar Grove", "country": "US", "coord": {"lon": -87.823418, "lat": 43.569721}}, {"id": 5248171, "name": "Cedarburg", "country": "US", "coord": {"lon": -87.987587, "lat": 43.296669}}, {"id": 5248417, "name": "Chetek", "country": "US", "coord": {"lon": -91.651001, "lat": 45.314129}}, {"id": 5248469, "name": "Chilton", "country": "US", "coord": {"lon": -88.16288, "lat": 44.028881}}, {"id": 5248511, "name": "Chippewa Falls", "country": "US", "coord": {"lon": -91.392929, "lat": 44.936909}}, {"id": 5248897, "name": "Clear Lake", "country": "US", "coord": {"lon": -92.271301, "lat": 45.251911}}, {"id": 5248933, "name": "Cleveland", "country": "US", "coord": {"lon": -87.747307, "lat": 43.914989}}, {"id": 5248969, "name": "Clinton", "country": "US", "coord": {"lon": -88.865112, "lat": 42.557789}}, {"id": 5249095, "name": "Colby", "country": "US", "coord": {"lon": -90.315689, "lat": 44.909969}}, {"id": 5249152, "name": "Colfax", "country": "US", "coord": {"lon": -91.727119, "lat": 44.997459}}, {"id": 5249205, "name": "Columbus", "country": "US", "coord": {"lon": -89.015388, "lat": 43.338051}}, {"id": 5249224, "name": "Combined Locks", "country": "US", "coord": {"lon": -88.31427, "lat": 44.26582}}, {"id": 5249259, "name": "Como", "country": "US", "coord": {"lon": -88.482323, "lat": 42.61224}}, {"id": 5249461, "name": "Cornell", "country": "US", "coord": {"lon": -91.149307, "lat": 45.167191}}, {"id": 5249503, "name": "Cottage Grove", "country": "US", "coord": {"lon": -89.199562, "lat": 43.076111}}, {"id": 5249670, "name": "Crandon", "country": "US", "coord": {"lon": -88.902893, "lat": 45.571911}}, {"id": 5249778, "name": "Cross Plains", "country": "US", "coord": {"lon": -89.655678, "lat": 43.114441}}, {"id": 5249868, "name": "Cuba City", "country": "US", "coord": {"lon": -90.429848, "lat": 42.605549}}, {"id": 5249896, "name": "Cumberland", "country": "US", "coord": {"lon": -92.019348, "lat": 45.532181}}, {"id": 5250104, "name": "Darien", "country": "US", "coord": {"lon": -88.707603, "lat": 42.601681}}, {"id": 5250121, "name": "Darlington", "country": "US", "coord": {"lon": -90.11763, "lat": 42.68306}}, {"id": 5250188, "name": "De Forest", "country": "US", "coord": {"lon": -89.343727, "lat": 43.247768}}, {"id": 5250368, "name": "Deerfield", "country": "US", "coord": {"lon": -89.075668, "lat": 43.051941}}, {"id": 5250393, "name": "Delafield", "country": "US", "coord": {"lon": -88.403709, "lat": 43.060841}}, {"id": 5250399, "name": "Delavan", "country": "US", "coord": {"lon": -88.643707, "lat": 42.633072}}, {"id": 5250402, "name": "Delavan Lake", "country": "US", "coord": {"lon": -88.632599, "lat": 42.584179}}, {"id": 5250470, "name": "Denmark", "country": "US", "coord": {"lon": -87.827316, "lat": 44.347771}}, {"id": 5250593, "name": "Dickeyville", "country": "US", "coord": {"lon": -90.592072, "lat": 42.62722}}, {"id": 5250703, "name": "Dodgeville", "country": "US", "coord": {"lon": -90.130119, "lat": 42.96027}}, {"id": 5250847, "name": "Dousman", "country": "US", "coord": {"lon": -88.472603, "lat": 43.014179}}, {"id": 5251056, "name": "Durand", "country": "US", "coord": {"lon": -91.965729, "lat": 44.62635}}, {"id": 5251122, "name": "Eagle", "country": "US", "coord": {"lon": -88.474258, "lat": 42.879459}}, {"id": 5251145, "name": "Eagle Lake", "country": "US", "coord": {"lon": -88.128143, "lat": 42.706959}}, {"id": 5251171, "name": "Eagle River", "country": "US", "coord": {"lon": -89.244301, "lat": 45.917179}}, {"id": 5251390, "name": "East Troy", "country": "US", "coord": {"lon": -88.405098, "lat": 42.78529}}, {"id": 5251521, "name": "Edgar", "country": "US", "coord": {"lon": -89.963463, "lat": 44.927189}}, {"id": 5251524, "name": "Edgerton", "country": "US", "coord": {"lon": -89.067612, "lat": 42.835281}}, {"id": 5251729, "name": "Elkhorn", "country": "US", "coord": {"lon": -88.54454, "lat": 42.672791}}, {"id": 5251764, "name": "Ellsworth", "country": "US", "coord": {"lon": -92.487411, "lat": 44.732189}}, {"id": 5251784, "name": "Elm Grove", "country": "US", "coord": {"lon": -88.078979, "lat": 43.043072}}, {"id": 5251866, "name": "Elroy", "country": "US", "coord": {"lon": -90.272346, "lat": 43.740799}}, {"id": 5252182, "name": "Evansville", "country": "US", "coord": {"lon": -89.299278, "lat": 42.780281}}, {"id": 5252203, "name": "Evergreen", "country": "US", "coord": {"lon": -89.637619, "lat": 44.842468}}, {"id": 5252463, "name": "Fall Creek", "country": "US", "coord": {"lon": -91.2771, "lat": 44.763569}}, {"id": 5252474, "name": "Fall River", "country": "US", "coord": {"lon": -89.045113, "lat": 43.38443}}, {"id": 5252610, "name": "Fennimore", "country": "US", "coord": {"lon": -90.655403, "lat": 42.983601}}, {"id": 5253305, "name": "Florence", "country": "US", "coord": {"lon": -88.251801, "lat": 45.92218}}, {"id": 5253369, "name": "Fontana", "country": "US", "coord": {"lon": -88.575104, "lat": 42.551411}}, {"id": 5253498, "name": "Fort Atkinson", "country": "US", "coord": {"lon": -88.837051, "lat": 42.92889}}, {"id": 5253638, "name": "Fox Lake", "country": "US", "coord": {"lon": -88.906502, "lat": 43.56554}}, {"id": 5253662, "name": "Fox Point", "country": "US", "coord": {"lon": -87.901749, "lat": 43.157509}}, {"id": 5253762, "name": "Franksville", "country": "US", "coord": {"lon": -87.913406, "lat": 42.760021}}, {"id": 5253772, "name": "Frederic", "country": "US", "coord": {"lon": -92.46714, "lat": 45.659119}}, {"id": 5253778, "name": "Fredonia", "country": "US", "coord": {"lon": -87.950653, "lat": 43.470558}}, {"id": 5253845, "name": "French Island", "country": "US", "coord": {"lon": -91.260422, "lat": 43.858299}}, {"id": 5253884, "name": "Friendship", "country": "US", "coord": {"lon": -89.816788, "lat": 43.970531}}, {"id": 5253998, "name": "Galesville", "country": "US", "coord": {"lon": -91.349037, "lat": 44.081631}}, {"id": 5254150, "name": "Genoa City", "country": "US", "coord": {"lon": -88.328148, "lat": 42.498348}}, {"id": 5254298, "name": "Gillett", "country": "US", "coord": {"lon": -88.30732, "lat": 44.889992}}, {"id": 5254404, "name": "Glendale", "country": "US", "coord": {"lon": -87.935638, "lat": 43.135288}}, {"id": 5254435, "name": "Glenwood City", "country": "US", "coord": {"lon": -92.172409, "lat": 45.058571}}, {"id": 5254739, "name": "Grafton", "country": "US", "coord": {"lon": -87.953423, "lat": 43.319729}}, {"id": 5254880, "name": "Grantsburg", "country": "US", "coord": {"lon": -92.682701, "lat": 45.77634}}, {"id": 5255004, "name": "Green Lake", "country": "US", "coord": {"lon": -88.960114, "lat": 43.844151}}, {"id": 5255057, "name": "Greendale", "country": "US", "coord": {"lon": -87.995918, "lat": 42.940571}}, {"id": 5255102, "name": "Greenwood", "country": "US", "coord": {"lon": -90.599312, "lat": 44.770241}}, {"id": 5255320, "name": "Hales Corners", "country": "US", "coord": {"lon": -88.048698, "lat": 42.937519}}, {"id": 5255427, "name": "Hammond", "country": "US", "coord": {"lon": -92.435753, "lat": 44.978859}}, {"id": 5255628, "name": "Hartford", "country": "US", "coord": {"lon": -88.37899, "lat": 43.31778}}, {"id": 5255640, "name": "Hartland", "country": "US", "coord": {"lon": -88.342041, "lat": 43.105011}}, {"id": 5255882, "name": "Hayward", "country": "US", "coord": {"lon": -91.484619, "lat": 46.013008}}, {"id": 5255902, "name": "Hazel Green", "country": "US", "coord": {"lon": -90.43457, "lat": 42.53278}}, {"id": 5256281, "name": "Hilbert", "country": "US", "coord": {"lon": -88.163986, "lat": 44.14027}}, {"id": 5256376, "name": "Hillsboro", "country": "US", "coord": {"lon": -90.344017, "lat": 43.652199}}, {"id": 5256613, "name": "Holmen", "country": "US", "coord": {"lon": -91.256248, "lat": 43.963299}}, {"id": 5256908, "name": "Horicon", "country": "US", "coord": {"lon": -88.63121, "lat": 43.451382}}, {"id": 5257002, "name": "Hortonville", "country": "US", "coord": {"lon": -88.638161, "lat": 44.334702}}, {"id": 5257064, "name": "Howards Grove", "country": "US", "coord": {"lon": -87.820091, "lat": 43.833881}}, {"id": 5257080, "name": "Hudson", "country": "US", "coord": {"lon": -92.756866, "lat": 44.974689}}, {"id": 5257163, "name": "Hurley", "country": "US", "coord": {"lon": -90.186562, "lat": 46.449669}}, {"id": 5257183, "name": "Hustisford", "country": "US", "coord": {"lon": -88.600662, "lat": 43.346111}}, {"id": 5257353, "name": "Independence", "country": "US", "coord": {"lon": -91.420433, "lat": 44.356911}}, {"id": 5257499, "name": "Iola", "country": "US", "coord": {"lon": -89.130669, "lat": 44.50803}}, {"id": 5257646, "name": "Ixonia", "country": "US", "coord": {"lon": -88.597321, "lat": 43.14389}}, {"id": 5257669, "name": "Jackson", "country": "US", "coord": {"lon": -88.166763, "lat": 43.323891}}, {"id": 5257784, "name": "Jefferson", "country": "US", "coord": {"lon": -88.807327, "lat": 43.005562}}, {"id": 5257996, "name": "Johnson Creek", "country": "US", "coord": {"lon": -88.774269, "lat": 43.076111}}, {"id": 5258448, "name": "Keshena", "country": "US", "coord": {"lon": -88.63372, "lat": 44.883869}}, {"id": 5258480, "name": "Kewaskum", "country": "US", "coord": {"lon": -88.228989, "lat": 43.520828}}, {"id": 5258490, "name": "Kewaunee", "country": "US", "coord": {"lon": -87.503143, "lat": 44.458328}}, {"id": 5258525, "name": "Kiel", "country": "US", "coord": {"lon": -88.035652, "lat": 43.912491}}, {"id": 5258575, "name": "Kimberly", "country": "US", "coord": {"lon": -88.338997, "lat": 44.272209}}, {"id": 5258592, "name": "King", "country": "US", "coord": {"lon": -89.141777, "lat": 44.337479}}, {"id": 5258824, "name": "Little Kohler", "country": "US", "coord": {"lon": -88.02343, "lat": 43.496391}}, {"id": 5258916, "name": "Kronenwetter", "country": "US", "coord": {"lon": -89.590401, "lat": 44.822189}}, {"id": 5259036, "name": "Lac du Flambeau", "country": "US", "coord": {"lon": -89.892097, "lat": 45.969669}}, {"id": 5259048, "name": "Ladysmith", "country": "US", "coord": {"lon": -91.104042, "lat": 45.46302}}, {"id": 5259140, "name": "Lake Delton", "country": "US", "coord": {"lon": -89.793739, "lat": 43.601089}}, {"id": 5259169, "name": "Lake Geneva", "country": "US", "coord": {"lon": -88.433434, "lat": 42.591679}}, {"id": 5259182, "name": "Lake Hallie", "country": "US", "coord": {"lon": -91.440712, "lat": 44.87579}}, {"id": 5259196, "name": "Lake Koshkonong", "country": "US", "coord": {"lon": -88.919548, "lat": 42.909729}}, {"id": 5259218, "name": "Lake Mills", "country": "US", "coord": {"lon": -88.911774, "lat": 43.08139}}, {"id": 5259229, "name": "Lake Nebagamon", "country": "US", "coord": {"lon": -91.699913, "lat": 46.514938}}, {"id": 5259260, "name": "Lake Ripley", "country": "US", "coord": {"lon": -88.986221, "lat": 43.005829}}, {"id": 5259304, "name": "Lake Wazeecha", "country": "US", "coord": {"lon": -89.756508, "lat": 44.371078}}, {"id": 5259313, "name": "Lake Wisconsin", "country": "US", "coord": {"lon": -89.575684, "lat": 43.3736}}, {"id": 5259317, "name": "Lake Wissota", "country": "US", "coord": {"lon": -91.300987, "lat": 44.92635}}, {"id": 5259448, "name": "Lancaster", "country": "US", "coord": {"lon": -90.710678, "lat": 42.847488}}, {"id": 5259502, "name": "Lannon", "country": "US", "coord": {"lon": -88.166199, "lat": 43.146118}}, {"id": 5260262, "name": "Little Chute", "country": "US", "coord": {"lon": -88.318443, "lat": 44.279991}}, {"id": 5260521, "name": "Little Round Lake", "country": "US", "coord": {"lon": -91.36795, "lat": 45.964951}}, {"id": 5260732, "name": "Lomira", "country": "US", "coord": {"lon": -88.44371, "lat": 43.591381}}, {"id": 5261218, "name": "Loyal", "country": "US", "coord": {"lon": -90.495972, "lat": 44.736912}}, {"id": 5261340, "name": "Luxemburg", "country": "US", "coord": {"lon": -87.703979, "lat": 44.538609}}, {"id": 5261556, "name": "Manawa", "country": "US", "coord": {"lon": -88.91983, "lat": 44.464432}}, {"id": 5261638, "name": "Maple Bluff", "country": "US", "coord": {"lon": -89.379562, "lat": 43.118328}}, {"id": 5261788, "name": "Marathon", "country": "US", "coord": {"lon": -89.840401, "lat": 44.929131}}, {"id": 5261852, "name": "Marinette", "country": "US", "coord": {"lon": -87.630661, "lat": 45.099979}}, {"id": 5261872, "name": "Marion", "country": "US", "coord": {"lon": -88.889267, "lat": 44.670811}}, {"id": 5261891, "name": "Markesan", "country": "US", "coord": {"lon": -88.990112, "lat": 43.707199}}, {"id": 5261952, "name": "Marshall", "country": "US", "coord": {"lon": -89.06678, "lat": 43.168331}}, {"id": 5262113, "name": "Mauston", "country": "US", "coord": {"lon": -90.077347, "lat": 43.797192}}, {"id": 5262137, "name": "Mayville", "country": "US", "coord": {"lon": -88.544823, "lat": 43.49416}}, {"id": 5262150, "name": "Mazomanie", "country": "US", "coord": {"lon": -89.794853, "lat": 43.176659}}, {"id": 5262262, "name": "McFarland", "country": "US", "coord": {"lon": -89.289841, "lat": 43.012501}}, {"id": 5262475, "name": "Medford", "country": "US", "coord": {"lon": -90.340141, "lat": 45.13858}}, {"id": 5262680, "name": "Merrill", "country": "US", "coord": {"lon": -89.683456, "lat": 45.180519}}, {"id": 5262708, "name": "Merton", "country": "US", "coord": {"lon": -88.306763, "lat": 43.146671}}, {"id": 5263023, "name": "Milton", "country": "US", "coord": {"lon": -88.944, "lat": 42.775558}}, {"id": 5263113, "name": "Mineral Point", "country": "US", "coord": {"lon": -90.179848, "lat": 42.860001}}, {"id": 5263301, "name": "Mondovi", "country": "US", "coord": {"lon": -91.67099, "lat": 44.567741}}, {"id": 5263323, "name": "Monona", "country": "US", "coord": {"lon": -89.334007, "lat": 43.062222}}, {"id": 5263331, "name": "Monroe", "country": "US", "coord": {"lon": -89.638451, "lat": 42.60112}}, {"id": 5263366, "name": "Montello", "country": "US", "coord": {"lon": -89.319839, "lat": 43.79137}}, {"id": 5263389, "name": "Monticello", "country": "US", "coord": {"lon": -89.594841, "lat": 42.74556}}, {"id": 5263667, "name": "Mount Horeb", "country": "US", "coord": {"lon": -89.738457, "lat": 43.00861}}, {"id": 5263965, "name": "Mukwonago", "country": "US", "coord": {"lon": -88.333427, "lat": 42.86668}}, {"id": 5264038, "name": "Muscoda", "country": "US", "coord": {"lon": -90.443176, "lat": 43.18499}}, {"id": 5264158, "name": "Nashotah", "country": "US", "coord": {"lon": -88.402321, "lat": 43.09779}}, {"id": 5264241, "name": "Neillsville", "country": "US", "coord": {"lon": -90.596252, "lat": 44.559959}}, {"id": 5264253, "name": "Nekoosa", "country": "US", "coord": {"lon": -89.904289, "lat": 44.312462}}, {"id": 5264412, "name": "New Glarus", "country": "US", "coord": {"lon": -89.635117, "lat": 42.814449}}, {"id": 5264423, "name": "New Holstein", "country": "US", "coord": {"lon": -88.084259, "lat": 43.949989}}, {"id": 5264447, "name": "New Lisbon", "country": "US", "coord": {"lon": -90.165413, "lat": 43.879139}}, {"id": 5264455, "name": "New London", "country": "US", "coord": {"lon": -88.73983, "lat": 44.392761}}, {"id": 5264522, "name": "Newburg", "country": "US", "coord": {"lon": -88.046478, "lat": 43.431671}}, {"id": 5264569, "name": "Niagara", "country": "US", "coord": {"lon": -87.99485, "lat": 45.771351}}, {"id": 5264814, "name": "North Fond du Lac", "country": "US", "coord": {"lon": -88.483437, "lat": 43.811378}}, {"id": 5264862, "name": "North Hudson", "country": "US", "coord": {"lon": -92.756866, "lat": 44.993019}}, {"id": 5264924, "name": "North Prairie", "country": "US", "coord": {"lon": -88.405373, "lat": 42.93446}}, {"id": 5265404, "name": "Oakfield", "country": "US", "coord": {"lon": -88.546501, "lat": 43.6861}}, {"id": 5265522, "name": "Oconto Falls", "country": "US", "coord": {"lon": -88.142883, "lat": 44.873878}}, {"id": 5265585, "name": "Okauchee Lake", "country": "US", "coord": {"lon": -88.440651, "lat": 43.123341}}, {"id": 5265692, "name": "Omro", "country": "US", "coord": {"lon": -88.744278, "lat": 44.039429}}, {"id": 5265752, "name": "Oostburg", "country": "US", "coord": {"lon": -87.794533, "lat": 43.622768}}, {"id": 5265785, "name": "Oregon", "country": "US", "coord": {"lon": -89.38456, "lat": 42.926109}}, {"id": 5265792, "name": "Orfordville", "country": "US", "coord": {"lon": -89.253166, "lat": 42.62751}}, {"id": 5265824, "name": "Osceola", "country": "US", "coord": {"lon": -92.704933, "lat": 45.320518}}, {"id": 5265857, "name": "Osseo", "country": "US", "coord": {"lon": -91.227379, "lat": 44.572182}}, {"id": 5266129, "name": "Paddock Lake", "country": "US", "coord": {"lon": -88.105087, "lat": 42.577518}}, {"id": 5266156, "name": "Palmyra", "country": "US", "coord": {"lon": -88.586212, "lat": 42.877789}}, {"id": 5266199, "name": "Pardeeville", "country": "US", "coord": {"lon": -89.300117, "lat": 43.537762}}, {"id": 5266483, "name": "Pell Lake", "country": "US", "coord": {"lon": -88.350929, "lat": 42.538071}}, {"id": 5266653, "name": "Peshtigo", "country": "US", "coord": {"lon": -87.749268, "lat": 45.054428}}, {"id": 5266731, "name": "Pewaukee", "country": "US", "coord": {"lon": -88.2612, "lat": 43.08057}}, {"id": 5266764, "name": "Phillips", "country": "US", "coord": {"lon": -90.400429, "lat": 45.696629}}, {"id": 5267332, "name": "Platteville", "country": "US", "coord": {"lon": -90.478462, "lat": 42.734161}}, {"id": 5267537, "name": "Plover", "country": "US", "coord": {"lon": -89.544006, "lat": 44.45636}}, {"id": 5267585, "name": "Plymouth", "country": "US", "coord": {"lon": -87.977043, "lat": 43.748611}}, {"id": 5267776, "name": "Port Washington", "country": "US", "coord": {"lon": -87.875641, "lat": 43.387218}}, {"id": 5267881, "name": "Potter Lake", "country": "US", "coord": {"lon": -88.348984, "lat": 42.821678}}, {"id": 5267912, "name": "Powers Lake", "country": "US", "coord": {"lon": -88.29454, "lat": 42.553631}}, {"id": 5267923, "name": "Poynette", "country": "US", "coord": {"lon": -89.402901, "lat": 43.390259}}, {"id": 5268002, "name": "Prairie du Chien", "country": "US", "coord": {"lon": -91.141243, "lat": 43.051651}}, {"id": 5268010, "name": "Prairie du Sac", "country": "US", "coord": {"lon": -89.724007, "lat": 43.28693}}, {"id": 5268045, "name": "Prescott", "country": "US", "coord": {"lon": -92.802147, "lat": 44.748859}}, {"id": 5268096, "name": "Princeton", "country": "US", "coord": {"lon": -89.12178, "lat": 43.850811}}, {"id": 5268148, "name": "Pulaski", "country": "US", "coord": {"lon": -88.242599, "lat": 44.672218}}, {"id": 5268354, "name": "Randolph", "country": "US", "coord": {"lon": -89.006783, "lat": 43.53915}}, {"id": 5268368, "name": "Random Lake", "country": "US", "coord": {"lon": -87.961761, "lat": 43.552219}}, {"id": 5268544, "name": "Redgranite", "country": "US", "coord": {"lon": -89.09845, "lat": 44.04192}}, {"id": 5268570, "name": "Reedsburg", "country": "US", "coord": {"lon": -90.002632, "lat": 43.532478}}, {"id": 5268583, "name": "Reedsville", "country": "US", "coord": {"lon": -87.956757, "lat": 44.153599}}, {"id": 5268720, "name": "Rhinelander", "country": "US", "coord": {"lon": -89.412079, "lat": 45.63662}}, {"id": 5268742, "name": "Rib Mountain", "country": "US", "coord": {"lon": -89.6754, "lat": 44.91275}}, {"id": 5268798, "name": "Rice Lake", "country": "US", "coord": {"lon": -91.738228, "lat": 45.506069}}, {"id": 5268850, "name": "Richland Center", "country": "US", "coord": {"lon": -90.386787, "lat": 43.334709}}, {"id": 5268955, "name": "Ripon", "country": "US", "coord": {"lon": -88.835938, "lat": 43.842201}}, {"id": 5268977, "name": "Rio", "country": "US", "coord": {"lon": -89.239838, "lat": 43.447762}}, {"id": 5268986, "name": "River Falls", "country": "US", "coord": {"lon": -92.62381, "lat": 44.861359}}, {"id": 5269003, "name": "River Hills", "country": "US", "coord": {"lon": -87.924248, "lat": 43.174179}}, {"id": 5269196, "name": "Rochester", "country": "US", "coord": {"lon": -88.224258, "lat": 42.741409}}, {"id": 5269539, "name": "Rosendale", "country": "US", "coord": {"lon": -88.674828, "lat": 43.807758}}, {"id": 5269583, "name": "Rothschild", "country": "US", "coord": {"lon": -89.620117, "lat": 44.887192}}, {"id": 5270204, "name": "Saint Croix Falls", "country": "US", "coord": {"lon": -92.639648, "lat": 45.409962}}, {"id": 5271704, "name": "Saint Peter", "country": "US", "coord": {"lon": -88.341492, "lat": 43.83638}}, {"id": 5271991, "name": "Salem", "country": "US", "coord": {"lon": -88.110924, "lat": 42.554741}}, {"id": 5272227, "name": "Sauk City", "country": "US", "coord": {"lon": -89.722069, "lat": 43.270821}}, {"id": 5272249, "name": "Saukville", "country": "US", "coord": {"lon": -87.940651, "lat": 43.381672}}, {"id": 5272378, "name": "Schofield", "country": "US", "coord": {"lon": -89.604568, "lat": 44.909691}}, {"id": 5272775, "name": "Seymour", "country": "US", "coord": {"lon": -91.431267, "lat": 44.82663}}, {"id": 5272851, "name": "Sharon", "country": "US", "coord": {"lon": -88.728989, "lat": 42.502522}}, {"id": 5272873, "name": "Shawano", "country": "US", "coord": {"lon": -88.608994, "lat": 44.782211}}, {"id": 5272907, "name": "Sheboygan Falls", "country": "US", "coord": {"lon": -87.822128, "lat": 43.731972}}, {"id": 5272949, "name": "Shell Lake", "country": "US", "coord": {"lon": -91.925453, "lat": 45.739391}}, {"id": 5273018, "name": "Sherwood", "country": "US", "coord": {"lon": -88.259827, "lat": 44.173599}}, {"id": 5273084, "name": "Shorewood", "country": "US", "coord": {"lon": -87.887581, "lat": 43.08918}}, {"id": 5273087, "name": "Shorewood Hills", "country": "US", "coord": {"lon": -89.445679, "lat": 43.077499}}, {"id": 5273110, "name": "Shullsburg", "country": "US", "coord": {"lon": -90.230957, "lat": 42.573341}}, {"id": 5273204, "name": "Silver Lake", "country": "US", "coord": {"lon": -88.165642, "lat": 42.546131}}, {"id": 5273224, "name": "Silver Lake", "country": "US", "coord": {"lon": -89.226227, "lat": 44.05526}}, {"id": 5273324, "name": "Siren", "country": "US", "coord": {"lon": -92.381027, "lat": 45.785782}}, {"id": 5273439, "name": "Slinger", "country": "US", "coord": {"lon": -88.286209, "lat": 43.333611}}, {"id": 5273620, "name": "Somerset", "country": "US", "coord": {"lon": -92.673538, "lat": 45.124409}}, {"id": 5273927, "name": "Sparta", "country": "US", "coord": {"lon": -90.812912, "lat": 43.94413}}, {"id": 5273956, "name": "Spencer", "country": "US", "coord": {"lon": -90.296799, "lat": 44.75774}}, {"id": 5274034, "name": "Spooner", "country": "US", "coord": {"lon": -91.889343, "lat": 45.822449}}, {"id": 5274183, "name": "Spring Green", "country": "US", "coord": {"lon": -90.067902, "lat": 43.17527}}, {"id": 5274288, "name": "Spring Valley", "country": "US", "coord": {"lon": -92.2388, "lat": 44.845242}}, {"id": 5274473, "name": "Stanley", "country": "US", "coord": {"lon": -90.93708, "lat": 44.959969}}, {"id": 5274807, "name": "Stratford", "country": "US", "coord": {"lon": -90.0793, "lat": 44.801079}}, {"id": 5274842, "name": "Strum", "country": "US", "coord": {"lon": -91.392662, "lat": 44.54969}}, {"id": 5274867, "name": "Sturgeon Bay", "country": "US", "coord": {"lon": -87.377037, "lat": 44.83416}}, {"id": 5274885, "name": "Sturtevant", "country": "US", "coord": {"lon": -87.894524, "lat": 42.698071}}, {"id": 5274887, "name": "Suamico", "country": "US", "coord": {"lon": -88.039268, "lat": 44.631939}}, {"id": 5275222, "name": "Sussex", "country": "US", "coord": {"lon": -88.222038, "lat": 43.1339}}, {"id": 5275391, "name": "Tainter Lake", "country": "US", "coord": {"lon": -91.847679, "lat": 44.989128}}, {"id": 5275589, "name": "Theresa", "country": "US", "coord": {"lon": -88.45121, "lat": 43.51722}}, {"id": 5275601, "name": "Thiensville", "country": "US", "coord": {"lon": -87.978699, "lat": 43.237511}}, {"id": 5275704, "name": "Thorp", "country": "US", "coord": {"lon": -90.799858, "lat": 44.961079}}, {"id": 5275760, "name": "Tichigan", "country": "US", "coord": {"lon": -88.197594, "lat": 42.828899}}, {"id": 5275871, "name": "Tomah", "country": "US", "coord": {"lon": -90.504021, "lat": 43.97858}}, {"id": 5275884, "name": "Tomahawk", "country": "US", "coord": {"lon": -89.729858, "lat": 45.471081}}, {"id": 5276084, "name": "Trempealeau", "country": "US", "coord": {"lon": -91.442093, "lat": 44.00552}}, {"id": 5276435, "name": "Turtle Lake", "country": "US", "coord": {"lon": -92.14241, "lat": 45.394402}}, {"id": 5276542, "name": "Twin Lakes", "country": "US", "coord": {"lon": -88.248154, "lat": 42.531132}}, {"id": 5276609, "name": "Two Rivers", "country": "US", "coord": {"lon": -87.569252, "lat": 44.153881}}, {"id": 5276720, "name": "Union Grove", "country": "US", "coord": {"lon": -88.051468, "lat": 42.688068}}, {"id": 5277142, "name": "Verona", "country": "US", "coord": {"lon": -89.53318, "lat": 42.990829}}, {"id": 5277276, "name": "Viroqua", "country": "US", "coord": {"lon": -90.888741, "lat": 43.556919}}, {"id": 5277716, "name": "Wales", "country": "US", "coord": {"lon": -88.376762, "lat": 43.004452}}, {"id": 5277801, "name": "Walworth", "country": "US", "coord": {"lon": -88.599548, "lat": 42.531132}}, {"id": 5277856, "name": "Washburn", "country": "US", "coord": {"lon": -90.894913, "lat": 46.673271}}, {"id": 5277989, "name": "Waterloo", "country": "US", "coord": {"lon": -88.988441, "lat": 43.18388}}, {"id": 5278003, "name": "Waterford", "country": "US", "coord": {"lon": -88.214256, "lat": 42.763069}}, {"id": 5278073, "name": "Waunakee", "country": "US", "coord": {"lon": -89.455673, "lat": 43.19194}}, {"id": 5278083, "name": "Waupaca", "country": "US", "coord": {"lon": -89.085953, "lat": 44.358028}}, {"id": 5278106, "name": "Waupun", "country": "US", "coord": {"lon": -88.729553, "lat": 43.63332}}, {"id": 5278148, "name": "Wautoma", "country": "US", "coord": {"lon": -89.287903, "lat": 44.074699}}, {"id": 5278411, "name": "West Baraboo", "country": "US", "coord": {"lon": -89.770401, "lat": 43.47443}}, {"id": 5278580, "name": "West Milwaukee", "country": "US", "coord": {"lon": -87.972588, "lat": 43.012508}}, {"id": 5278608, "name": "West Salem", "country": "US", "coord": {"lon": -91.081253, "lat": 43.899132}}, {"id": 5278652, "name": "Westby", "country": "US", "coord": {"lon": -90.854301, "lat": 43.656921}}, {"id": 5278669, "name": "Westfield", "country": "US", "coord": {"lon": -89.493462, "lat": 43.883591}}, {"id": 5278693, "name": "Weston", "country": "US", "coord": {"lon": -89.547623, "lat": 44.8908}}, {"id": 5278723, "name": "Weyauwega", "country": "US", "coord": {"lon": -88.933723, "lat": 44.321369}}, {"id": 5278897, "name": "Whitefish Bay", "country": "US", "coord": {"lon": -87.900093, "lat": 43.113338}}, {"id": 5278914, "name": "Whitehall", "country": "US", "coord": {"lon": -91.316551, "lat": 44.367458}}, {"id": 5278931, "name": "Whitewater", "country": "US", "coord": {"lon": -88.73233, "lat": 42.833618}}, {"id": 5278948, "name": "Whiting", "country": "US", "coord": {"lon": -89.558731, "lat": 44.49358}}, {"id": 5279098, "name": "Williams Bay", "country": "US", "coord": {"lon": -88.540932, "lat": 42.578072}}, {"id": 5279285, "name": "Wind Lake", "country": "US", "coord": {"lon": -88.158699, "lat": 42.82946}}, {"id": 5279291, "name": "Wind Point", "country": "US", "coord": {"lon": -87.76619, "lat": 42.784458}}, {"id": 5279311, "name": "Windsor", "country": "US", "coord": {"lon": -89.341507, "lat": 43.21833}}, {"id": 5279356, "name": "Winneconne", "country": "US", "coord": {"lon": -88.712608, "lat": 44.110821}}, {"id": 5279422, "name": "Wisconsin Dells", "country": "US", "coord": {"lon": -89.770958, "lat": 43.62748}}, {"id": 5279483, "name": "Wittenberg", "country": "US", "coord": {"lon": -89.169563, "lat": 44.827202}}, {"id": 5279715, "name": "Woodville", "country": "US", "coord": {"lon": -92.291298, "lat": 44.953018}}, {"id": 5279757, "name": "Wrightstown", "country": "US", "coord": {"lon": -88.16288, "lat": 44.325821}}, {"id": 5280076, "name": "Benwood", "country": "US", "coord": {"lon": -80.734253, "lat": 40.018131}}, {"id": 5280084, "name": "Bethany", "country": "US", "coord": {"lon": -80.55674, "lat": 40.205631}}, {"id": 5280087, "name": "Bethlehem", "country": "US", "coord": {"lon": -80.690643, "lat": 40.043961}}, {"id": 5280161, "name": "Chester", "country": "US", "coord": {"lon": -80.562851, "lat": 40.613121}}, {"id": 5280285, "name": "Follansbee", "country": "US", "coord": {"lon": -80.595909, "lat": 40.327572}}, {"id": 5280378, "name": "Hooverson Heights", "country": "US", "coord": {"lon": -80.577568, "lat": 40.324791}}, {"id": 5280523, "name": "New Cumberland", "country": "US", "coord": {"lon": -80.606743, "lat": 40.496731}}, {"id": 5280534, "name": "Newell", "country": "US", "coord": {"lon": -80.60424, "lat": 40.618401}}, {"id": 5280835, "name": "Wellsburg", "country": "US", "coord": {"lon": -80.60952, "lat": 40.272011}}, {"id": 5280846, "name": "West Liberty", "country": "US", "coord": {"lon": -80.593689, "lat": 40.169788}}, {"id": 5280920, "name": "Baltic", "country": "US", "coord": {"lon": -72.084518, "lat": 41.617039}}, {"id": 5280935, "name": "Newtown", "country": "US", "coord": {"lon": -73.303452, "lat": 41.413979}}, {"id": 5280975, "name": "Three Rivers", "country": "US", "coord": {"lon": -72.360641, "lat": 42.181198}}, {"id": 5281007, "name": "South Duxbury", "country": "US", "coord": {"lon": -70.682808, "lat": 42.023159}}, {"id": 5281020, "name": "Groton", "country": "US", "coord": {"lon": -71.574509, "lat": 42.611198}}, {"id": 5281031, "name": "Sheffield", "country": "US", "coord": {"lon": -73.35511, "lat": 42.110371}}, {"id": 5281055, "name": "Carmel", "country": "US", "coord": {"lon": -69.051147, "lat": 44.797569}}, {"id": 5281077, "name": "Phillips", "country": "US", "coord": {"lon": -70.339508, "lat": 44.823109}}, {"id": 5281094, "name": "West Kennebunk", "country": "US", "coord": {"lon": -70.581444, "lat": 43.408699}}, {"id": 5281144, "name": "Nowthen", "country": "US", "coord": {"lon": -93.47023, "lat": 45.328018}}, {"id": 5281166, "name": "Castleton", "country": "US", "coord": {"lon": -73.179832, "lat": 43.610619}}, {"id": 5281340, "name": "Kohler", "country": "US", "coord": {"lon": -87.781754, "lat": 43.739159}}, {"id": 5282297, "name": "Bethel", "country": "US", "coord": {"lon": -73.414009, "lat": 41.371208}}, {"id": 5282550, "name": "Blue Hills", "country": "US", "coord": {"lon": -72.697594, "lat": 41.812881}}, {"id": 5282868, "name": "Broad Brook", "country": "US", "coord": {"lon": -72.54509, "lat": 41.912319}}, {"id": 5283149, "name": "Byram", "country": "US", "coord": {"lon": -73.65374, "lat": 41.004261}}, {"id": 5283386, "name": "Canaan", "country": "US", "coord": {"lon": -73.329277, "lat": 42.027309}}, {"id": 5283461, "name": "Canton Valley", "country": "US", "coord": {"lon": -72.891769, "lat": 41.834259}}, {"id": 5284202, "name": "Clinton", "country": "US", "coord": {"lon": -72.527588, "lat": 41.278709}},