[{"id": 6292273, "name": "Binzikon", "country": "CH", "coord": {"lon": 8.75842, "lat": 47.279491}}, {"id": 6292364, "name": "Hadlikon", "country": "CH", "coord": {"lon": 8.85719, "lat": 47.287498}}, {"id": 6292396, "name": "Rueti / Westlicher Dorfteil", "country": "CH", "coord": {"lon": 8.8449, "lat": 47.255482}}, {"id": 6292401, "name": "Pilgerhof", "country": "CH", "coord": {"lon": 8.86712, "lat": 47.26614}}, {"id": 6292398, "name": "Rueti / Oberdorf", "country": "CH", "coord": {"lon": 8.86512, "lat": 47.258942}}, {"id": 6292634, "name": "Widum", "country": "CH", "coord": {"lon": 8.79192, "lat": 47.328098}}, {"id": 6292590, "name": "Wetzikon / Robenhausen", "country": "CH", "coord": {"lon": 8.78762, "lat": 47.330891}}, {"id": 6292591, "name": "Wetzikon / Kempten", "country": "CH", "coord": {"lon": 8.80982, "lat": 47.333191}}, {"id": 6292636, "name": "Adliswil / Adliswil (Stadtkern)", "country": "CH", "coord": {"lon": 8.52675, "lat": 47.311279}}, {"id": 6292637, "name": "Adliswil / Oberleimbach", "country": "CH", "coord": {"lon": 8.51508, "lat": 47.320202}}, {"id": 6292638, "name": "Adliswil / Sood", "country": "CH", "coord": {"lon": 8.52425, "lat": 47.318699}}, {"id": 6292641, "name": "Adliswil / Sonnenberg", "country": "CH", "coord": {"lon": 8.52055, "lat": 47.309582}}, {"id": 6292642, "name": "Adliswil / Tal", "country": "CH", "coord": {"lon": 8.53446, "lat": 47.31142}}, {"id": 6292757, "name": "Horgen / Horgen (Dorfkern)", "country": "CH", "coord": {"lon": 8.60159, "lat": 47.256039}}, {"id": 6292759, "name": "Horgen / Allmend", "country": "CH", "coord": {"lon": 8.6066, "lat": 47.247292}}, {"id": 6292761, "name": "Horgen / Oberdorf", "country": "CH", "coord": {"lon": 8.59234, "lat": 47.255329}}, {"id": 6292878, "name": "Kilchberg / Baechler-Stocken", "country": "CH", "coord": {"lon": 8.53957, "lat": 47.327278}}, {"id": 6292881, "name": "Kilchberg / Kilchberg (Dorfkern)", "country": "CH", "coord": {"lon": 8.54306, "lat": 47.320122}}, {"id": 6292893, "name": "Langnau / Vitaquartier", "country": "CH", "coord": {"lon": 8.53758, "lat": 47.29377}}, {"id": 7286708, "name": "Oberrieden", "country": "CH", "coord": {"lon": 8.57158, "lat": 47.272549}}, {"id": 6292917, "name": "Oberrieden / Mitte", "country": "CH", "coord": {"lon": 8.58021, "lat": 47.272419}}, {"id": 6292918, "name": "Oberrieden / Berg", "country": "CH", "coord": {"lon": 8.57257, "lat": 47.276279}}, {"id": 6292919, "name": "Richterswil / Dorfkern", "country": "CH", "coord": {"lon": 8.70607, "lat": 47.20715}}, {"id": 6292920, "name": "Richterswil / Richterswil (Dorfkern)", "country": "CH", "coord": {"lon": 8.70516, "lat": 47.203232}}, {"id": 6292921, "name": "Richterswil / Burghalde", "country": "CH", "coord": {"lon": 8.69133, "lat": 47.209728}}, {"id": 6293080, "name": "Thalwil / Dorfkern", "country": "CH", "coord": {"lon": 8.56633, "lat": 47.29047}}, {"id": 6293081, "name": "Thalwil / Berg", "country": "CH", "coord": {"lon": 8.55602, "lat": 47.291779}}, {"id": 6293082, "name": "Thalwil / Nord", "country": "CH", "coord": {"lon": 8.55634, "lat": 47.297482}}, {"id": 6293088, "name": "Gattikon", "country": "CH", "coord": {"lon": 8.5483, "lat": 47.284389}}, {"id": 6293096, "name": "Waedenswil / Dorf (Waedenswil)", "country": "CH", "coord": {"lon": 8.6722, "lat": 47.229229}}, {"id": 6292810, "name": "Hintere Rietwies", "country": "CH", "coord": {"lon": 8.62485, "lat": 47.242249}}, {"id": 6293097, "name": "Au / Unter-Dorf", "country": "CH", "coord": {"lon": 8.6327, "lat": 47.247299}}, {"id": 6293098, "name": "Au / Mittel-Dorf", "country": "CH", "coord": {"lon": 8.64591, "lat": 47.243031}}, {"id": 6293101, "name": "Waedenswil / Hangenmoos", "country": "CH", "coord": {"lon": 8.65251, "lat": 47.233669}}, {"id": 6293103, "name": "Waedenswil / Untermosen-Fuhr", "country": "CH", "coord": {"lon": 8.66303, "lat": 47.227718}}, {"id": 6293104, "name": "Waedenswil / Leihof-Muehlebach", "country": "CH", "coord": {"lon": 8.67149, "lat": 47.22364}}, {"id": 6293105, "name": "Waedenswil / Eichweid", "country": "CH", "coord": {"lon": 8.6744, "lat": 47.218472}}, {"id": 6293106, "name": "Waedenswil / Boller-Giessen", "country": "CH", "coord": {"lon": 8.68385, "lat": 47.221149}}, {"id": 6293192, "name": "Erlenbach / rechts des Dorfbachs oberhalb Bahnlinie", "country": "CH", "coord": {"lon": 8.60271, "lat": 47.30658}}, {"id": 6293332, "name": "Kuesnacht / Itschnach", "country": "CH", "coord": {"lon": 8.60068, "lat": 47.327141}}, {"id": 6293333, "name": "Kuesnacht / Schiedhalden", "country": "CH", "coord": {"lon": 8.58881, "lat": 47.321121}}, {"id": 6293334, "name": "Kuesnacht / Heslibach", "country": "CH", "coord": {"lon": 8.58849, "lat": 47.313068}}, {"id": 6293364, "name": "Maennedorf / Ausserfeld", "country": "CH", "coord": {"lon": 8.70608, "lat": 47.246361}}, {"id": 7287364, "name": "Uetikon am See", "country": "CH", "coord": {"lon": 8.68171, "lat": 47.270302}}, {"id": 6293652, "name": "Uetikon / Grossdorf", "country": "CH", "coord": {"lon": 8.67765, "lat": 47.266541}}, {"id": 6293731, "name": "Zollikerberg", "country": "CH", "coord": {"lon": 8.60088, "lat": 47.3451}}, {"id": 6293909, "name": "Ober-Kempttal", "country": "CH", "coord": {"lon": 8.7058, "lat": 47.430302}}, {"id": 6293903, "name": "Effretikon / Watt", "country": "CH", "coord": {"lon": 8.69822, "lat": 47.427971}}, {"id": 6293906, "name": "Effretikon / Rappenhalde-Bannhalde", "country": "CH", "coord": {"lon": 8.69653, "lat": 47.423882}}, {"id": 6294255, "name": "Duebendorf / Vogelquartier", "country": "CH", "coord": {"lon": 8.61184, "lat": 47.39502}}, {"id": 6294257, "name": "Duebendorf / Wasserfurren", "country": "CH", "coord": {"lon": 8.6085, "lat": 47.39352}}, {"id": 6294276, "name": "Duebendorf / Sonnenberg", "country": "CH", "coord": {"lon": 8.63162, "lat": 47.394691}}, {"id": 6294285, "name": "Duebendorf / Kunklerstrasse", "country": "CH", "coord": {"lon": 8.62724, "lat": 47.401089}}, {"id": 6294318, "name": "Hinteregg", "country": "CH", "coord": {"lon": 8.68339, "lat": 47.307362}}, {"id": 6294319, "name": "Esslingen", "country": "CH", "coord": {"lon": 8.71038, "lat": 47.283249}}, {"id": 6294402, "name": "Benglen", "country": "CH", "coord": {"lon": 8.63687, "lat": 47.360771}}, {"id": 6294411, "name": "Greifensee / Muellerwis / Seilerwis", "country": "CH", "coord": {"lon": 8.68151, "lat": 47.370419}}, {"id": 6294425, "name": "Greifensee / Pfisterhoelzli", "country": "CH", "coord": {"lon": 8.68979, "lat": 47.3643}}, {"id": 6294446, "name": "Aesch", "country": "CH", "coord": {"lon": 8.6541, "lat": 47.3297}}, {"id": 6294449, "name": "Binz", "country": "CH", "coord": {"lon": 8.62657, "lat": 47.35635}}, {"id": 6294491, "name": "Moenchaltorf / Dorf", "country": "CH", "coord": {"lon": 8.72211, "lat": 47.304008}}, {"id": 7287128, "name": "Schwerzenbach", "country": "CH", "coord": {"lon": 8.65589, "lat": 47.381821}}, {"id": 6295514, "name": "Schwerzenbach", "country": "CH", "coord": {"lon": 8.65727, "lat": 47.38213}}, {"id": 6294531, "name": "Schwerzenbach / Chimli", "country": "CH", "coord": {"lon": 8.65888, "lat": 47.385921}}, {"id": 6294532, "name": "Schwerzenbach / Blatten", "country": "CH", "coord": {"lon": 8.64954, "lat": 47.38308}}, {"id": 6294547, "name": "Uster / Kirch-Uster", "country": "CH", "coord": {"lon": 8.71839, "lat": 47.345791}}, {"id": 6294548, "name": "Uster / Nieder-Uster", "country": "CH", "coord": {"lon": 8.70088, "lat": 47.347431}}, {"id": 6294549, "name": "Uster / Gschwader", "country": "CH", "coord": {"lon": 8.7139, "lat": 47.360161}}, {"id": 6294550, "name": "Uster / Ober-Uster", "country": "CH", "coord": {"lon": 8.73319, "lat": 47.34874}}, {"id": 6294551, "name": "Uster / Nossikon", "country": "CH", "coord": {"lon": 8.72555, "lat": 47.340881}}, {"id": 6294555, "name": "Naenikon / Naenikon (Dorfkern)", "country": "CH", "coord": {"lon": 8.69254, "lat": 47.370991}}, {"id": 6293910, "name": "Bietenholz", "country": "CH", "coord": {"lon": 8.6856, "lat": 47.41399}}, {"id": 6294594, "name": "Kindhausen / Kindhausen (Dorf)", "country": "CH", "coord": {"lon": 8.68296, "lat": 47.406441}}, {"id": 6294605, "name": "Hegnau / Sunnebueel-Eich", "country": "CH", "coord": {"lon": 8.6791, "lat": 47.39246}}, {"id": 6294614, "name": "Hegnau / Dammboden-Grindel", "country": "CH", "coord": {"lon": 8.66657, "lat": 47.387131}}, {"id": 6294553, "name": "Freudwil", "country": "CH", "coord": {"lon": 8.73338, "lat": 47.37574}}, {"id": 6294617, "name": "Gutenswil", "country": "CH", "coord": {"lon": 8.71763, "lat": 47.383869}}, {"id": 6294626, "name": "Wangen", "country": "CH", "coord": {"lon": 8.64516, "lat": 47.411819}}, {"id": 6294764, "name": "Elgg / Staedtchen und Umgebung", "country": "CH", "coord": {"lon": 8.8668, "lat": 47.492649}}, {"id": 6295077, "name": "Stadt Winterthur (Kreis 1) / Altstadt", "country": "CH", "coord": {"lon": 8.72872, "lat": 47.499512}}, {"id": 6295078, "name": "Stadt Winterthur (Kreis 1) / Lind", "country": "CH", "coord": {"lon": 8.73372, "lat": 47.505711}}, {"id": 6295079, "name": "Stadt Winterthur (Kreis 1) / Heiligberg", "country": "CH", "coord": {"lon": 8.72334, "lat": 47.494091}}, {"id": 6295080, "name": "Stadt Winterthur (Kreis 1) / Toessfeld", "country": "CH", "coord": {"lon": 8.71512, "lat": 47.493401}}, {"id": 6295081, "name": "Stadt Winterthur (Kreis 1) / Bruehlberg", "country": "CH", "coord": {"lon": 8.71272, "lat": 47.497639}}, {"id": 6295082, "name": "Stadt Winterthur (Kreis 1) / Neuwiesen", "country": "CH", "coord": {"lon": 8.71625, "lat": 47.502071}}, {"id": 6295092, "name": "Oberwinterthur (Kreis 2) / Talacker", "country": "CH", "coord": {"lon": 8.7515, "lat": 47.505959}}, {"id": 6295102, "name": "Oberwinterthur (Kreis 2) / Guggenbuehl", "country": "CH", "coord": {"lon": 8.75998, "lat": 47.51339}}, {"id": 6295111, "name": "Oberwinterthur (Kreis 2) / Zinzikon", "country": "CH", "coord": {"lon": 8.7564, "lat": 47.519501}}, {"id": 6295547, "name": "Mattenbach (Kreis 7)", "country": "CH", "coord": {"lon": 8.74681, "lat": 47.487049}}, {"id": 6295121, "name": "Seen (Kreis 3) / Waser", "country": "CH", "coord": {"lon": 8.76034, "lat": 47.489128}}, {"id": 6295126, "name": "Seen (Kreis 3) / Bueelwiesen", "country": "CH", "coord": {"lon": 8.76517, "lat": 47.484459}}, {"id": 6295131, "name": "Seen (Kreis 3) / Waldegg", "country": "CH", "coord": {"lon": 8.75586, "lat": 47.483929}}, {"id": 6295133, "name": "Seen (Kreis 3) / Ganzenbuehl", "country": "CH", "coord": {"lon": 8.76249, "lat": 47.480999}}, {"id": 6295135, "name": "Seen (Kreis 3) / Oberseen", "country": "CH", "coord": {"lon": 8.77289, "lat": 47.482052}}, {"id": 6295138, "name": "Toess (Kreis 4) / Vorder-Daettnau", "country": "CH", "coord": {"lon": 8.69855, "lat": 47.48135}}, {"id": 6295143, "name": "Toess (Kreis 4) / Schlosstal", "country": "CH", "coord": {"lon": 8.70223, "lat": 47.49279}}, {"id": 6295145, "name": "Toess (Kreis 4) / Eichliacker", "country": "CH", "coord": {"lon": 8.7074, "lat": 47.48727}}, {"id": 6295147, "name": "Veltheim (Kreis 5) / Rosenberg", "country": "CH", "coord": {"lon": 8.71583, "lat": 47.513859}}, {"id": 6295148, "name": "Veltheim (Kreis 5) / Blumenau", "country": "CH", "coord": {"lon": 8.71563, "lat": 47.50618}}, {"id": 6295166, "name": "Wuelflingen (Kreis 6) / Oberfeld", "country": "CH", "coord": {"lon": 8.69897, "lat": 47.49873}}, {"id": 6295524, "name": "Wuelflingen (Kreis 6)", "country": "CH", "coord": {"lon": 8.68333, "lat": 47.510361}}, {"id": 6295174, "name": "Wuelflingen (Kreis 6) / Lindenplatz", "country": "CH", "coord": {"lon": 8.6929, "lat": 47.510979}}, {"id": 6295177, "name": "Wuelflingen (Kreis 6) / Niederfeld", "country": "CH", "coord": {"lon": 8.67968, "lat": 47.509041}}, {"id": 6295179, "name": "Wuelflingen (Kreis 6) / Haerti", "country": "CH", "coord": {"lon": 8.684, "lat": 47.512619}}, {"id": 6295183, "name": "Mattenbach (Kreis 7) / Deutweg", "country": "CH", "coord": {"lon": 8.73948, "lat": 47.49419}}, {"id": 6295184, "name": "Mattenbach (Kreis 7) / Gutschick", "country": "CH", "coord": {"lon": 8.75258, "lat": 47.491039}}, {"id": 6295185, "name": "Mattenbach (Kreis 7) / Endliker", "country": "CH", "coord": {"lon": 8.74938, "lat": 47.488209}}, {"id": 6295186, "name": "Kollbrunn / Kollbrunn (Dorfkern)", "country": "CH", "coord": {"lon": 8.77413, "lat": 47.457481}}, {"id": 6295313, "name": "Bl\u00e4chen", "country": "CH", "coord": {"lon": 8.39147, "lat": 47.41074}}, {"id": 6295296, "name": "Dietikon / Vorstadt", "country": "CH", "coord": {"lon": 8.39719, "lat": 47.408192}}, {"id": 6295299, "name": "Dietikon / Almend", "country": "CH", "coord": {"lon": 8.39168, "lat": 47.40477}}, {"id": 6295307, "name": "Basi", "country": "CH", "coord": {"lon": 8.39132, "lat": 47.396912}}, {"id": 6295300, "name": "Dietikon / Oberdorf", "country": "CH", "coord": {"lon": 8.39416, "lat": 47.40065}}, {"id": 6295302, "name": "Dietikon / Kreuzacker", "country": "CH", "coord": {"lon": 8.40146, "lat": 47.399189}}, {"id": 6295304, "name": "Dietikon / Guggenbuehl", "country": "CH", "coord": {"lon": 8.40818, "lat": 47.400089}}, {"id": 6295305, "name": "Dietikon / Hofacker", "country": "CH", "coord": {"lon": 8.41609, "lat": 47.397179}}, {"id": 6295306, "name": "Dietikon / Schoenenwerd", "country": "CH", "coord": {"lon": 8.42576, "lat": 47.39706}}, {"id": 7286686, "name": "Oberengstringen", "country": "CH", "coord": {"lon": 8.46598, "lat": 47.410229}}, {"id": 6295329, "name": "Oberengstringen / Zentrum", "country": "CH", "coord": {"lon": 8.46276, "lat": 47.407108}}, {"id": 6295331, "name": "Oberengstringen / Sonnenberg", "country": "CH", "coord": {"lon": 8.46055, "lat": 47.412109}}, {"id": 6295332, "name": "Oberengstringen / Rauchacher", "country": "CH", "coord": {"lon": 8.45627, "lat": 47.409191}}, {"id": 6295347, "name": "Schlieren / Engstingerquartier", "country": "CH", "coord": {"lon": 8.44352, "lat": 47.403381}}, {"id": 6295349, "name": "Schlieren / Spital", "country": "CH", "coord": {"lon": 8.43027, "lat": 47.39489}}, {"id": 6295352, "name": "Schlieren / Freiestrasse", "country": "CH", "coord": {"lon": 8.44202, "lat": 47.395981}}, {"id": 6295354, "name": "Schlieren / Kamp", "country": "CH", "coord": {"lon": 8.44453, "lat": 47.393581}}, {"id": 6295357, "name": "Schlieren / Boden", "country": "CH", "coord": {"lon": 8.45734, "lat": 47.397209}}, {"id": 6295397, "name": "Urdorf / Bodenfeld", "country": "CH", "coord": {"lon": 8.42265, "lat": 47.389198}}, {"id": 6295398, "name": "Urdorf / Moos", "country": "CH", "coord": {"lon": 8.42886, "lat": 47.389771}}, {"id": 6295402, "name": "Urdorf / Oberurdorf", "country": "CH", "coord": {"lon": 8.42343, "lat": 47.380718}}, {"id": 6291327, "name": "Au", "country": "CH", "coord": {"lon": 8.57187, "lat": 47.421349}}, {"id": 6295432, "name": "Zuerich (Kreis 12) / Auzelg", "country": "CH", "coord": {"lon": 8.57014, "lat": 47.415112}}, {"id": 6295436, "name": "Zuerich (Kreis 11) / Schwandenholz", "country": "CH", "coord": {"lon": 8.52125, "lat": 47.424759}}, {"id": 6295444, "name": "Zuerich (Kreis 2) / Mittel-Leimbach", "country": "CH", "coord": {"lon": 8.51391, "lat": 47.325378}}, {"id": 6292655, "name": "Moos", "country": "CH", "coord": {"lon": 8.52985, "lat": 47.325771}}, {"id": 6295447, "name": "Zuerich (Kreis 2) / Unter-Leimbach", "country": "CH", "coord": {"lon": 8.51433, "lat": 47.333618}}, {"id": 6295481, "name": "Zuerich (Kreis 10) / Ruetihof", "country": "CH", "coord": {"lon": 8.47928, "lat": 47.41444}}, {"id": 6295483, "name": "Zuerich (Kreis 1) / Rathaus", "country": "CH", "coord": {"lon": 8.54501, "lat": 47.371609}}, {"id": 6940972, "name": "Glattpark", "country": "CH", "coord": {"lon": 8.56453, "lat": 47.420769}}, {"id": 6295490, "name": "Zuerich (Kreis 12) / Saatlen", "country": "CH", "coord": {"lon": 8.5648, "lat": 47.41127}}, {"id": 6295491, "name": "Zuerich (Kreis 12) / Schwamendingen-Mitte", "country": "CH", "coord": {"lon": 8.57242, "lat": 47.4063}}, {"id": 6295492, "name": "Zuerich (Kreis 12) / Hirzenbach", "country": "CH", "coord": {"lon": 8.58633, "lat": 47.401871}}, {"id": 6295493, "name": "Zuerich (Kreis 1) / Lindenhof", "country": "CH", "coord": {"lon": 8.54036, "lat": 47.37188}}, {"id": 6295494, "name": "Zuerich (Kreis 1) / City", "country": "CH", "coord": {"lon": 8.53576, "lat": 47.372688}}, {"id": 6295496, "name": "Zuerich (Kreis 2) / Enge", "country": "CH", "coord": {"lon": 8.53127, "lat": 47.3605}}, {"id": 6295497, "name": "Zuerich (Kreis 3) / Friesenberg", "country": "CH", "coord": {"lon": 8.50417, "lat": 47.36372}}, {"id": 6295499, "name": "Zuerich (Kreis 4) / Werd", "country": "CH", "coord": {"lon": 8.52584, "lat": 47.37178}}, {"id": 6295500, "name": "Zuerich (Kreis 4) / Langstrasse", "country": "CH", "coord": {"lon": 8.52854, "lat": 47.37767}}, {"id": 6295501, "name": "Zuerich (Kreis 4) / Hard", "country": "CH", "coord": {"lon": 8.50942, "lat": 47.38311}}, {"id": 6295502, "name": "Zuerich (Kreis 5) / Gewerbeschule", "country": "CH", "coord": {"lon": 8.53011, "lat": 47.384811}}, {"id": 6295503, "name": "Zuerich (Kreis 5) / Escher-Wyss", "country": "CH", "coord": {"lon": 8.51292, "lat": 47.390518}}, {"id": 6295505, "name": "Zuerich (Kreis 6) / Oberstrass", "country": "CH", "coord": {"lon": 8.5504, "lat": 47.389172}}, {"id": 6295506, "name": "Zuerich (Kreis 7) / Fluntern", "country": "CH", "coord": {"lon": 8.56133, "lat": 47.380131}}, {"id": 6295507, "name": "Zuerich (Kreis 7) / Hottingen", "country": "CH", "coord": {"lon": 8.56306, "lat": 47.37011}}, {"id": 6295508, "name": "Zuerich (Kreis 7) / Hirslanden", "country": "CH", "coord": {"lon": 8.56755, "lat": 47.3624}}, {"id": 6295509, "name": "Zuerich (Kreis 8) / Seefeld", "country": "CH", "coord": {"lon": 8.55537, "lat": 47.354622}}, {"id": 6295510, "name": "Zuerich (Kreis 8) / Muehlebach", "country": "CH", "coord": {"lon": 8.55744, "lat": 47.357269}}, {"id": 6295511, "name": "Zuerich (Kreis 8) / Weinegg", "country": "CH", "coord": {"lon": 8.57011, "lat": 47.352501}}, {"id": 6295515, "name": "Steinmaur", "country": "CH", "coord": {"lon": 8.45216, "lat": 47.497101}}, {"id": 6295518, "name": "Gockhausen", "country": "CH", "coord": {"lon": 8.59978, "lat": 47.380981}}, {"id": 6295521, "name": "Zuerich (Kreis 5)", "country": "CH", "coord": {"lon": 8.52152, "lat": 47.387669}}, {"id": 7285623, "name": "D\u00e4nikon", "country": "CH", "coord": {"lon": 8.40577, "lat": 47.44463}}, {"id": 6295522, "name": "Daenikon", "country": "CH", "coord": {"lon": 8.40648, "lat": 47.446739}}, {"id": 6295525, "name": "Sulz", "country": "CH", "coord": {"lon": 8.78887, "lat": 47.539539}}, {"id": 6295527, "name": "Seglingen", "country": "CH", "coord": {"lon": 8.52093, "lat": 47.572441}}, {"id": 6295530, "name": "Ebmatingen", "country": "CH", "coord": {"lon": 8.64013, "lat": 47.349869}}, {"id": 7285906, "name": "Geroldswil", "country": "CH", "coord": {"lon": 8.41192, "lat": 47.420681}}, {"id": 6295537, "name": "Geroldswil", "country": "CH", "coord": {"lon": 8.41085, "lat": 47.422131}}, {"id": 6295543, "name": "Wolfhausen", "country": "CH", "coord": {"lon": 8.7991, "lat": 47.256191}}, {"id": 6295546, "name": "Zuerich (Kreis 1)", "country": "CH", "coord": {"lon": 8.54177, "lat": 47.370548}}, {"id": 6295645, "name": "Thalwil / See", "country": "CH", "coord": {"lon": 8.56929, "lat": 47.29409}}, {"id": 7286835, "name": "Pr\u00e9verenges", "country": "CH", "coord": {"lon": 6.52907, "lat": 46.516048}}, {"id": 6639664, "name": "Preverenges", "country": "CH", "coord": {"lon": 6.52682, "lat": 46.518539}}, {"id": 6640317, "name": "Langnau am Albis", "country": "CH", "coord": {"lon": 8.5411, "lat": 47.288849}}, {"id": 7286258, "name": "Langendorf", "country": "CH", "coord": {"lon": 7.51552, "lat": 47.221691}}, {"id": 6691324, "name": "Langendorf", "country": "CH", "coord": {"lon": 7.51469, "lat": 47.219742}}, {"id": 7287338, "name": "Troinex", "country": "CH", "coord": {"lon": 6.15109, "lat": 46.15881}}, {"id": 6691631, "name": "Troinex", "country": "CH", "coord": {"lon": 6.14745, "lat": 46.163132}}, {"id": 7286365, "name": "L\u00f6hningen", "country": "CH", "coord": {"lon": 8.54659, "lat": 47.703339}}, {"id": 6695944, "name": "Loehningen", "country": "CH", "coord": {"lon": 8.55236, "lat": 47.70121}}, {"id": 6697288, "name": "Lauffohr (Brugg)", "country": "CH", "coord": {"lon": 8.23122, "lat": 47.501541}}, {"id": 7286165, "name": "Jongny", "country": "CH", "coord": {"lon": 6.84659, "lat": 46.48761}}, {"id": 6697711, "name": "Jongny", "country": "CH", "coord": {"lon": 6.84114, "lat": 46.478828}}, {"id": 6940549, "name": "Haag (Rheintal)", "country": "CH", "coord": {"lon": 9.48931, "lat": 47.209888}}, {"id": 7285043, "name": "Aire-la-Ville", "country": "CH", "coord": {"lon": 6.04226, "lat": 46.19022}}, {"id": 6946577, "name": "Aire-la-Ville", "country": "CH", "coord": {"lon": 6.04287, "lat": 46.190571}}, {"id": 7286037, "name": "Hausen (AG)", "country": "CH", "coord": {"lon": 8.20726, "lat": 47.461449}}, {"id": 6956026, "name": "Hausen", "country": "CH", "coord": {"lon": 8.20988, "lat": 47.463959}}, {"id": 7286179, "name": "K\u00e4nerkinden", "country": "CH", "coord": {"lon": 7.83234, "lat": 47.411598}}, {"id": 7290028, "name": "Kaenerkinden", "country": "CH", "coord": {"lon": 7.83716, "lat": 47.41188}}, {"id": 7701334, "name": "Cancori", "country": "CH", "coord": {"lon": 8.89944, "lat": 46.459438}}, {"id": 7779000, "name": "Les Avanchets", "country": "CH", "coord": {"lon": 6.10814, "lat": 46.22168}}, {"id": 2280333, "name": "Toulepleu Guere", "country": "CI", "coord": {"lon": -8.42592, "lat": 6.57395}}, {"id": 2284744, "name": "Mafere", "country": "CI", "coord": {"lon": -3.03006, "lat": 5.4151}}, {"id": 2287778, "name": "Jacqueville", "country": "CI", "coord": {"lon": -4.4146, "lat": 5.20515}}, {"id": 2287970, "name": "Guiberoua", "country": "CI", "coord": {"lon": -6.17272, "lat": 6.2392}}, {"id": 2290609, "name": "Dabakala", "country": "CI", "coord": {"lon": -4.43333, "lat": 8.36667}}, {"id": 2290985, "name": "Botro", "country": "CI", "coord": {"lon": -5.31063, "lat": 7.85249}}, {"id": 2291383, "name": "Bocanda", "country": "CI", "coord": {"lon": -4.49948, "lat": 7.06264}}, {"id": 2292542, "name": "Ayame", "country": "CI", "coord": {"lon": -3.1563, "lat": 5.60831}}, {"id": 2596951, "name": "Agou", "country": "CI", "coord": {"lon": -3.94393, "lat": 5.98289}}, {"id": 2597172, "name": "Tiapoum", "country": "CI", "coord": {"lon": -3.02308, "lat": 5.13622}}, {"id": 3874552, "name": "Putre", "country": "CL", "coord": {"lon": -69.560707, "lat": -18.19821}}, {"id": 3893516, "name": "Corral", "country": "CL", "coord": {"lon": -73.427467, "lat": -39.889721}}, {"id": 3894406, "name": "Coihueco", "country": "CL", "coord": {"lon": -71.833328, "lat": -36.616669}}, {"id": 3897334, "name": "Calbuco", "country": "CL", "coord": {"lon": -73.127296, "lat": -41.768009}}, {"id": 3950166, "name": "Puerto Chacabuco", "country": "CL", "coord": {"lon": -72.816673, "lat": -45.466671}}, {"id": 3969755, "name": "La Junta", "country": "CL", "coord": {"lon": -72.440277, "lat": -43.960281}}, {"id": 6458705, "name": "Las Gaviotas", "country": "CL", "coord": {"lon": -73.188339, "lat": -39.866531}}, {"id": 6930873, "name": "Ostrov Paskhi", "country": "CL", "coord": {"lon": -109.350533, "lat": -27.11124}}, {"id": 7874740, "name": "Villa Presidente Frei, Nunoa, Santiago, Chile", "country": "CL", "coord": {"lon": -70.580238, "lat": -33.46069}}, {"id": 2220849, "name": "Yoko", "country": "CM", "coord": {"lon": 12.31667, "lat": 5.53333}}, {"id": 2220853, "name": "Yokadouma", "country": "CM", "coord": {"lon": 15.05, "lat": 3.51667}}, {"id": 2221513, "name": "Tignere", "country": "CM", "coord": {"lon": 12.65, "lat": 7.36667}}, {"id": 2222366, "name": "Saa", "country": "CM", "coord": {"lon": 11.45, "lat": 4.36667}}, {"id": 2222439, "name": "Rey Bouba", "country": "CM", "coord": {"lon": 14.1786, "lat": 8.6724}}, {"id": 2222539, "name": "Poli", "country": "CM", "coord": {"lon": 13.25, "lat": 8.48333}}, {"id": 2222568, "name": "Pitoa", "country": "CM", "coord": {"lon": 13.53333, "lat": 9.38333}}, {"id": 2223162, "name": "Ombesa", "country": "CM", "coord": {"lon": 11.25, "lat": 4.6}}, {"id": 2223216, "name": "Okola", "country": "CM", "coord": {"lon": 11.38333, "lat": 4.01667}}, {"id": 2223226, "name": "Okoa", "country": "CM", "coord": {"lon": 11.6, "lat": 3.98333}}, {"id": 2223421, "name": "Ntui", "country": "CM", "coord": {"lon": 11.63333, "lat": 4.45}}, {"id": 2224212, "name": "Njinikom", "country": "CM", "coord": {"lon": 10.28333, "lat": 6.23333}}, {"id": 2224413, "name": "Nguti", "country": "CM", "coord": {"lon": 9.4185, "lat": 5.3299}}, {"id": 2224584, "name": "Ngoro", "country": "CM", "coord": {"lon": 11.38333, "lat": 4.95}}, {"id": 2224641, "name": "Ngomedzap", "country": "CM", "coord": {"lon": 11.2, "lat": 3.25}}, {"id": 2224863, "name": "Ngambe", "country": "CM", "coord": {"lon": 10.61667, "lat": 4.23333}}, {"id": 2225263, "name": "Ndikinimeki", "country": "CM", "coord": {"lon": 10.83333, "lat": 4.76667}}, {"id": 2225325, "name": "Ndelele", "country": "CM", "coord": {"lon": 14.93333, "lat": 4.03333}}, {"id": 2225703, "name": "Mvangue", "country": "CM", "coord": {"lon": 11.51667, "lat": 2.96667}}, {"id": 2225745, "name": "Mundemba", "country": "CM", "coord": {"lon": 8.8724, "lat": 4.9479}}, {"id": 2225940, "name": "Mouanko", "country": "CM", "coord": {"lon": 9.77694, "lat": 3.63972}}, {"id": 2226441, "name": "Mme-Bafumen", "country": "CM", "coord": {"lon": 10.23333, "lat": 6.33333}}, {"id": 2226515, "name": "Minta", "country": "CM", "coord": {"lon": 12.8, "lat": 4.58333}}, {"id": 2226641, "name": "Mindif", "country": "CM", "coord": {"lon": 14.43626, "lat": 10.39757}}, {"id": 2227853, "name": "Mbengwi", "country": "CM", "coord": {"lon": 10, "lat": 6.01667}}, {"id": 2227980, "name": "Mbankomo", "country": "CM", "coord": {"lon": 11.38333, "lat": 3.78333}}, {"id": 2228019, "name": "Mbang", "country": "CM", "coord": {"lon": 13.33333, "lat": 4.58333}}, {"id": 2228881, "name": "Makary", "country": "CM", "coord": {"lon": 14.46662, "lat": 12.5717}}, {"id": 2229780, "name": "Koza", "country": "CM", "coord": {"lon": 13.87855, "lat": 10.87079}}, {"id": 2230028, "name": "Kontcha", "country": "CM", "coord": {"lon": 12.23333, "lat": 7.96667}}, {"id": 2230285, "name": "Bankim", "country": "CM", "coord": {"lon": 11.4905, "lat": 6.08303}}, {"id": 2230641, "name": "Jakiri", "country": "CM", "coord": {"lon": 10.65, "lat": 6.1}}, {"id": 2231775, "name": "Evodoula", "country": "CM", "coord": {"lon": 11.2, "lat": 4.08333}}, {"id": 2231851, "name": "Esse", "country": "CM", "coord": {"lon": 11.9, "lat": 4.1}}, {"id": 2232497, "name": "Doume", "country": "CM", "coord": {"lon": 13.45, "lat": 4.23333}}, {"id": 2232774, "name": "Djohong", "country": "CM", "coord": {"lon": 14.7, "lat": 6.83333}}, {"id": 2233056, "name": "Dimako", "country": "CM", "coord": {"lon": 13.56667, "lat": 4.38333}}, {"id": 2233100, "name": "Dibombari", "country": "CM", "coord": {"lon": 9.6561, "lat": 4.1787}}, {"id": 2233118, "name": "Diang", "country": "CM", "coord": {"lon": 10.01667, "lat": 4.25}}, {"id": 2233704, "name": "Bonaberi", "country": "CM", "coord": {"lon": 9.6759, "lat": 4.0779}}, {"id": 2234339, "name": "Betare Oya", "country": "CM", "coord": {"lon": 14.08333, "lat": 5.6}}, {"id": 2234455, "name": "Belo", "country": "CM", "coord": {"lon": 10.25, "lat": 6.13333}}, {"id": 2234520, "name": "Belel", "country": "CM", "coord": {"lon": 14.43333, "lat": 7.05}}, {"id": 2234545, "name": "Bekondo", "country": "CM", "coord": {"lon": 9.3214, "lat": 4.6819}}, {"id": 2234635, "name": "Bazou", "country": "CM", "coord": {"lon": 10.46978, "lat": 5.05695}}, {"id": 2234684, "name": "Batibo", "country": "CM", "coord": {"lon": 9.8553, "lat": 5.8358}}, {"id": 2234803, "name": "Bansoa", "country": "CM", "coord": {"lon": 10.31514, "lat": 5.44718}}, {"id": 2234842, "name": "Ngou", "country": "CM", "coord": {"lon": 10.38441, "lat": 5.1959}}, {"id": 2234904, "name": "Bandjoun", "country": "CM", "coord": {"lon": 10.41816, "lat": 5.37878}}, {"id": 2234936, "name": "Bana", "country": "CM", "coord": {"lon": 10.2762, "lat": 5.1481}}, {"id": 2234968, "name": "Bamendjou", "country": "CM", "coord": {"lon": 10.33161, "lat": 5.38875}}, {"id": 2235293, "name": "Babanki", "country": "CM", "coord": {"lon": 10.25, "lat": 6.11667}}, {"id": 2235660, "name": "Ambam", "country": "CM", "coord": {"lon": 11.28333, "lat": 2.38333}}, {"id": 2235780, "name": "Akono", "country": "CM", "coord": {"lon": 11.33333, "lat": 3.5}}, {"id": 2235814, "name": "Akom II", "country": "CM", "coord": {"lon": 10.56667, "lat": 2.78333}}, {"id": 2236053, "name": "Abong Mbang", "country": "CM", "coord": {"lon": 13.18333, "lat": 3.98333}}, {"id": 2595172, "name": "Ndom", "country": "CM", "coord": {"lon": 9.5628, "lat": 4.4978}}, {"id": 6620518, "name": "Somie", "country": "CM", "coord": {"lon": 11.43299, "lat": 6.45843}}, {"id": 1279423, "name": "Zongzhai", "country": "CN", "coord": {"lon": 98.599998, "lat": 39.616669}}, {"id": 1279429, "name": "Zongga", "country": "CN", "coord": {"lon": 85.25, "lat": 29}}, {"id": 1279435, "name": "Zito", "country": "CN", "coord": {"lon": 95.883331, "lat": 30.783331}}, {"id": 1279472, "name": "Zhedao", "country": "CN", "coord": {"lon": 98.276268, "lat": 24.81934}}, {"id": 1279485, "name": "Zhangfeng", "country": "CN", "coord": {"lon": 97.786827, "lat": 24.22085}}, {"id": 1279489, "name": "Zhamog", "country": "CN", "coord": {"lon": 95.75, "lat": 29.83333}}, {"id": 1279491, "name": "Zham", "country": "CN", "coord": {"lon": 85.98333, "lat": 27.98333}}, {"id": 1279497, "name": "Zhadong", "country": "CN", "coord": {"lon": 84.166672, "lat": 29.65}}, {"id": 1279531, "name": "Zaindainxoi", "country": "CN", "coord": {"lon": 93.666672, "lat": 31.85}}, {"id": 1279548, "name": "Yumendong Zhen", "country": "CN", "coord": {"lon": 97.900002, "lat": 39.799999}}, {"id": 1279553, "name": "Yuhu", "country": "CN", "coord": {"lon": 99.982918, "lat": 26.106791}}, {"id": 1279592, "name": "Yanduo", "country": "CN", "coord": {"lon": 97.683327, "lat": 30.65}}, {"id": 1279690, "name": "Xitieshan", "country": "CN", "coord": {"lon": 95.51667, "lat": 37.283329}}, {"id": 1279716, "name": "Xidong", "country": "CN", "coord": {"lon": 98.400002, "lat": 39.599998}}, {"id": 1279746, "name": "Xiexiong", "country": "CN", "coord": {"lon": 95.620003, "lat": 31.41}}, {"id": 1279749, "name": "Xegar", "country": "CN", "coord": {"lon": 87.083328, "lat": 28.633329}}, {"id": 1279754, "name": "Xarsingma", "country": "CN", "coord": {"lon": 88.952957, "lat": 27.49402}}, {"id": 1279812, "name": "Wangda", "country": "CN", "coord": {"lon": 97.900002, "lat": 29.683331}}, {"id": 1279843, "name": "Tungdor", "country": "CN", "coord": {"lon": 94.083328, "lat": 29.200001}}, {"id": 1279865, "name": "Toding", "country": "CN", "coord": {"lon": 79.833328, "lat": 31.533331}}, {"id": 1279891, "name": "Tengyue", "country": "CN", "coord": {"lon": 98.512756, "lat": 24.994921}}, {"id": 1280003, "name": "Shiquanhe", "country": "CN", "coord": {"lon": 80.066673, "lat": 32.51667}}, {"id": 1280004, "name": "Shimen", "country": "CN", "coord": {"lon": 99.429359, "lat": 25.894791}}, {"id": 1280008, "name": "Dianyang", "country": "CN", "coord": {"lon": 99.159187, "lat": 24.70261}}, {"id": 1280013, "name": "Shengping", "country": "CN", "coord": {"lon": 99.015923, "lat": 28.510969}}, {"id": 1280031, "name": "Shangpa", "country": "CN", "coord": {"lon": 98.951576, "lat": 26.919479}}, {"id": 1280048, "name": "Segong", "country": "CN", "coord": {"lon": 92.116669, "lat": 32.216671}}, {"id": 1280107, "name": "Sajia", "country": "CN", "coord": {"lon": 88.050003, "lat": 28.91667}}, {"id": 1280116, "name": "Rutog", "country": "CN", "coord": {"lon": 79.639191, "lat": 33.418442}}, {"id": 1280174, "name": "Racaka", "country": "CN", "coord": {"lon": 96.51667, "lat": 31.4}}, {"id": 1280181, "name": "Quxar", "country": "CN", "coord": {"lon": 87.650002, "lat": 29.1}}, {"id": 1280194, "name": "Qumong", "country": "CN", "coord": {"lon": 98.097954, "lat": 32.977711}}, {"id": 1280277, "name": "Qiangqinxue", "country": "CN", "coord": {"lon": 89.900002, "lat": 29.26667}}, {"id": 1280284, "name": "Jiajuedibu", "country": "CN", "coord": {"lon": 88.633331, "lat": 30.933331}}, {"id": 1280315, "name": "Nyingchi", "country": "CN", "coord": {"lon": 94.416672, "lat": 29.533331}}, {"id": 1280317, "name": "Pubu", "country": "CN", "coord": {"lon": 89.833328, "lat": 31.75}}, {"id": 1280328, "name": "Pingyuan", "country": "CN", "coord": {"lon": 97.913582, "lat": 24.73642}}, {"id": 1280356, "name": "Pagnag", "country": "CN", "coord": {"lon": 91.666672, "lat": 32.333328}}, {"id": 1280425, "name": "Luobuqiongzi", "country": "CN", "coord": {"lon": 89.25, "lat": 29.16667}}, {"id": 1280466, "name": "Ngamring", "country": "CN", "coord": {"lon": 87.166672, "lat": 29.23333}}, {"id": 1280477, "name": "Napug", "country": "CN", "coord": {"lon": 81.083328, "lat": 32.416672}}, {"id": 1280485, "name": "Nangxian", "country": "CN", "coord": {"lon": 93.199997, "lat": 29.049999}}, {"id": 1280564, "name": "Mengsuo", "country": "CN", "coord": {"lon": 99.551369, "lat": 22.60199}}, {"id": 1280568, "name": "Mengmeng", "country": "CN", "coord": {"lon": 99.802063, "lat": 23.465019}}, {"id": 1280574, "name": "Menglang", "country": "CN", "coord": {"lon": 99.910294, "lat": 22.56214}}, {"id": 1280579, "name": "Mengdong", "country": "CN", "coord": {"lon": 99.202263, "lat": 23.16152}}, {"id": 1280590, "name": "Motuo", "country": "CN", "coord": {"lon": 95.316673, "lat": 29.316669}}, {"id": 1280645, "name": "Maindong", "country": "CN", "coord": {"lon": 85.416672, "lat": 31.33333}}, {"id": 1280659, "name": "Luzhang", "country": "CN", "coord": {"lon": 98.823448, "lat": 25.973089}}, {"id": 1280679, "name": "Luring", "country": "CN", "coord": {"lon": 84.199997, "lat": 32.26667}}, {"id": 1280694, "name": "Longshan", "country": "CN", "coord": {"lon": 98.704178, "lat": 24.600889}}, {"id": 1280706, "name": "Linshui", "country": "CN", "coord": {"lon": 98.816673, "lat": 39.783329}}, {"id": 1280759, "name": "Laojie", "country": "CN", "coord": {"lon": 99.556099, "lat": 25.44829}}, {"id": 1280889, "name": "Kangmar", "country": "CN", "coord": {"lon": 89.75, "lat": 28.5}}, {"id": 1280927, "name": "Jomda", "country": "CN", "coord": {"lon": 98.26667, "lat": 31.5}}, {"id": 1280943, "name": "Jinta", "country": "CN", "coord": {"lon": 98.866669, "lat": 39.98333}}, {"id": 1280945, "name": "Jinhua", "country": "CN", "coord": {"lon": 99.917152, "lat": 26.538}}, {"id": 1280948, "name": "Jinding", "country": "CN", "coord": {"lon": 99.440613, "lat": 26.43903}}, {"id": 1281038, "name": "Hoit Taria", "country": "CN", "coord": {"lon": 96.749741, "lat": 37.351551}}, {"id": 1281054, "name": "Heimahe", "country": "CN", "coord": {"lon": 99.77684, "lat": 36.728931}}, {"id": 1281098, "name": "Gyigang", "country": "CN", "coord": {"lon": 97.51667, "lat": 28.66667}}, {"id": 1281119, "name": "Jiangzi", "country": "CN", "coord": {"lon": 89.633331, "lat": 28.950001}}, {"id": 1281124, "name": "Gyangkar", "country": "CN", "coord": {"lon": 87.800003, "lat": 28.4}}, {"id": 1281127, "name": "Gyamotang", "country": "CN", "coord": {"lon": 95.433327, "lat": 31.533331}}, {"id": 1281189, "name": "Gengqing", "country": "CN", "coord": {"lon": 98.595787, "lat": 31.81649}}, {"id": 1281203, "name": "Gengma", "country": "CN", "coord": {"lon": 99.378601, "lat": 23.523251}}, {"id": 1281208, "name": "Jiding", "country": "CN", "coord": {"lon": 88.25, "lat": 29.366671}}, {"id": 1281219, "name": "Gar", "country": "CN", "coord": {"lon": 79.98333, "lat": 32.200001}}, {"id": 1281221, "name": "Gartog", "country": "CN", "coord": {"lon": 98.550003, "lat": 29.683331}}, {"id": 1281256, "name": "Kambaxoi", "country": "CN", "coord": {"lon": 88.533333, "lat": 28.299999}}, {"id": 1281269, "name": "Nansan", "country": "CN", "coord": {"lon": 98.80397, "lat": 23.79574}}, {"id": 1281270, "name": "Fengshan", "country": "CN", "coord": {"lon": 99.900002, "lat": 24.58333}}, {"id": 1281315, "name": "Dongdong", "country": "CN", "coord": {"lon": 98.666672, "lat": 39.5}}, {"id": 1281323, "name": "Domartang", "country": "CN", "coord": {"lon": 94.833328, "lat": 30.9}}, {"id": 1281386, "name": "Dedang", "country": "CN", "coord": {"lon": 99.239639, "lat": 24.011801}}, {"id": 1281405, "name": "Dartang", "country": "CN", "coord": {"lon": 94, "lat": 31.933331}}, {"id": 1281484, "name": "Chongdui", "country": "CN", "coord": {"lon": 85.966667, "lat": 28.15}}, {"id": 1281497, "name": "Cikai", "country": "CN", "coord": {"lon": 98.711052, "lat": 27.763439}}, {"id": 1281542, "name": "Youdian", "country": "CN", "coord": {"lon": 99.592323, "lat": 24.828939}}, {"id": 1281544, "name": "Changma", "country": "CN", "coord": {"lon": 96.76667, "lat": 39.866669}}, {"id": 1281593, "name": "Burang", "country": "CN", "coord": {"lon": 81.166672, "lat": 30.25}}, {"id": 1281674, "name": "Baohe", "country": "CN", "coord": {"lon": 99.324829, "lat": 27.19582}}, {"id": 1281708, "name": "Baima", "country": "CN", "coord": {"lon": 96.900002, "lat": 30.049999}}, {"id": 1346620, "name": "Yilkiqi", "country": "CN", "coord": {"lon": 77.249168, "lat": 37.961109}}, {"id": 1360995, "name": "Wanjheri Sharif", "country": "CN", "coord": {"lon": 110.63324, "lat": 29.02634}}, {"id": 1528998, "name": "Yumen", "country": "CN", "coord": {"lon": 97.199997, "lat": 40.283329}}, {"id": 1529004, "name": "Yuanquan", "country": "CN", "coord": {"lon": 95.800003, "lat": 40.5}}, {"id": 1529061, "name": "Xiaxihao", "country": "CN", "coord": {"lon": 97.166672, "lat": 40.299999}}, {"id": 1529103, "name": "Urho", "country": "CN", "coord": {"lon": 85.666672, "lat": 46.099998}}, {"id": 1529492, "name": "Guazhou", "country": "CN", "coord": {"lon": 95.76667, "lat": 40.400002}}, {"id": 1529512, "name": "Ewirgol", "country": "CN", "coord": {"lon": 87.66111, "lat": 42.964439}}, {"id": 1529528, "name": "Dushanzi", "country": "CN", "coord": {"lon": 84.849998, "lat": 44.333328}}, {"id": 1529625, "name": "Baikouquan", "country": "CN", "coord": {"lon": 85.449997, "lat": 45.966671}}, {"id": 1532301, "name": "Anningqu", "country": "CN", "coord": {"lon": 87.533333, "lat": 43.98333}}, {"id": 1532362, "name": "Ergong", "country": "CN", "coord": {"lon": 87.566673, "lat": 43.849998}}, {"id": 1532368, "name": "Tiechanggou", "country": "CN", "coord": {"lon": 87.783333, "lat": 43.916672}}, {"id": 1532378, "name": "Lucaogou", "country": "CN", "coord": {"lon": 87.783333, "lat": 43.866669}}, {"id": 1538459, "name": "Changshanzi", "country": "CN", "coord": {"lon": 87.585281, "lat": 44.060558}}, {"id": 1538460, "name": "Sandaoba", "country": "CN", "coord": {"lon": 87.616943, "lat": 44.110001}}, {"id": 1538461, "name": "Yangmaogong", "country": "CN", "coord": {"lon": 87.577217, "lat": 44.136669}}, {"id": 1547549, "name": "Hechen", "country": "CN", "coord": {"lon": 120.236778, "lat": 33.00576}}, {"id": 1547557, "name": "Xiaohai", "country": "CN", "coord": {"lon": 120.47596, "lat": 33.02956}}, {"id": 1547574, "name": "Guanyinsi", "country": "CN", "coord": {"lon": 120.179893, "lat": 33.087742}}, {"id": 1547621, "name": "Xindu", "country": "CN", "coord": {"lon": 120.133331, "lat": 33.341671}}, {"id": 1547724, "name": "Gaojiazhuang", "country": "CN", "coord": {"lon": 119.983002, "lat": 33.04459}}, {"id": 1548357, "name": "Baizhang", "country": "CN", "coord": {"lon": 119.970551, "lat": 31.922541}}, {"id": 1548396, "name": "Changdai", "country": "CN", "coord": {"lon": 120.216667, "lat": 32.03611}}, {"id": 1548397, "name": "Shengci", "country": "CN", "coord": {"lon": 120.163887, "lat": 32.03611}}, {"id": 1548399, "name": "Hongguang", "country": "CN", "coord": {"lon": 120.099998, "lat": 32.063889}}, {"id": 1548404, "name": "Sunjiadaqiao", "country": "CN", "coord": {"lon": 120.277359, "lat": 32.085999}}, {"id": 1548422, "name": "Jiangan", "country": "CN", "coord": {"lon": 120.405563, "lat": 32.169441}}, {"id": 1548423, "name": "Shanhu", "country": "CN", "coord": {"lon": 120.321808, "lat": 32.178028}}, {"id": 1548424, "name": "Nansha", "country": "CN", "coord": {"lon": 120.219971, "lat": 32.17284}}, {"id": 1548433, "name": "Changqing", "country": "CN", "coord": {"lon": 120.455559, "lat": 32.261108}}, {"id": 1548435, "name": "Gaoming", "country": "CN", "coord": {"lon": 120.377777, "lat": 32.255562}}, {"id": 1548444, "name": "Taoyuan", "country": "CN", "coord": {"lon": 120.616669, "lat": 32.297218}}, {"id": 1548449, "name": "Liuchen", "country": "CN", "coord": {"lon": 120.150002, "lat": 32.26667}}, {"id": 1548459, "name": "Hengduo", "country": "CN", "coord": {"lon": 120.280296, "lat": 32.319439}}, {"id": 1548471, "name": "Yuanzhu", "country": "CN", "coord": {"lon": 120.174843, "lat": 32.32415}}, {"id": 1548480, "name": "Guba", "country": "CN", "coord": {"lon": 120.951576, "lat": 32.404961}}, {"id": 1548494, "name": "Yuanzhuang", "country": "CN", "coord": {"lon": 120.772881, "lat": 32.44561}}, {"id": 1548495, "name": "Xuean", "country": "CN", "coord": {"lon": 120.683327, "lat": 32.46389}}, {"id": 1548509, "name": "Liangxu", "country": "CN", "coord": {"lon": 120.116669, "lat": 32.46944}}, {"id": 1548514, "name": "Xichang", "country": "CN", "coord": {"lon": 120.591667, "lat": 32.525002}}, {"id": 1548531, "name": "Shengao", "country": "CN", "coord": {"lon": 120.133331, "lat": 32.586109}}, {"id": 1548535, "name": "Dagong", "country": "CN", "coord": {"lon": 120.522217, "lat": 32.625}}, {"id": 1548548, "name": "Yuduo", "country": "CN", "coord": {"lon": 120.012833, "lat": 32.64077}}, {"id": 1548554, "name": "Baidian", "country": "CN", "coord": {"lon": 120.263893, "lat": 32.67778}}, {"id": 1548555, "name": "Xingtai", "country": "CN", "coord": {"lon": 120.074997, "lat": 32.686111}}, {"id": 1548558, "name": "Fudong", "country": "CN", "coord": {"lon": 120.558327, "lat": 32.71944}}, {"id": 1548565, "name": "Tainan", "country": "CN", "coord": {"lon": 120.26944, "lat": 32.762051}}, {"id": 1548566, "name": "Zhaowanzhuang", "country": "CN", "coord": {"lon": 120.166672, "lat": 32.744862}}, {"id": 1548593, "name": "Taozhuang", "country": "CN", "coord": {"lon": 120.138893, "lat": 32.866669}}, {"id": 1548609, "name": "Daiyao", "country": "CN", "coord": {"lon": 120.214256, "lat": 32.929131}}, {"id": 1548681, "name": "Minggou", "country": "CN", "coord": {"lon": 119.907501, "lat": 32.249168}}, {"id": 1548728, "name": "Yexu", "country": "CN", "coord": {"lon": 119.927979, "lat": 32.397331}}, {"id": 1548757, "name": "Jingtailu", "country": "CN", "coord": {"lon": 119.972221, "lat": 32.505562}}, {"id": 1548797, "name": "Tianshan", "country": "CN", "coord": {"lon": 119.243607, "lat": 32.632778}}, {"id": 1548817, "name": "Guoji", "country": "CN", "coord": {"lon": 119.330559, "lat": 32.702782}}, {"id": 1548831, "name": "Hanliu", "country": "CN", "coord": {"lon": 119.672218, "lat": 32.76944}}, {"id": 1548832, "name": "Xiejia", "country": "CN", "coord": {"lon": 119.596939, "lat": 32.75972}}, {"id": 1548878, "name": "Dongbaozhuang", "country": "CN", "coord": {"lon": 119.920471, "lat": 32.983761}}, {"id": 1548916, "name": "Zhougang", "country": "CN", "coord": {"lon": 118.960732, "lat": 31.79702}}, {"id": 1549035, "name": "Wangdian", "country": "CN", "coord": {"lon": 118.587784, "lat": 32.790279}}, {"id": 1549042, "name": "Guiwu", "country": "CN", "coord": {"lon": 118.508331, "lat": 32.866669}}, {"id": 1549060, "name": "Gusang", "country": "CN", "coord": {"lon": 118.508331, "lat": 32.95417}}, {"id": 1549904, "name": "Huayuan", "country": "CN", "coord": {"lon": 119.449997, "lat": 34.075001}}, {"id": 1549913, "name": "Tangjian", "country": "CN", "coord": {"lon": 119.004173, "lat": 34.133331}}, {"id": 1549929, "name": "Changmao", "country": "CN", "coord": {"lon": 119.574997, "lat": 34.216671}}, {"id": 1549939, "name": "Mengxingzhuang", "country": "CN", "coord": {"lon": 119.216667, "lat": 34.174999}}, {"id": 1549961, "name": "Tuhe", "country": "CN", "coord": {"lon": 119.550003, "lat": 34.333328}}, {"id": 1549987, "name": "Baixian", "country": "CN", "coord": {"lon": 119.333328, "lat": 34.325001}}, {"id": 1549995, "name": "Muxu", "country": "CN", "coord": {"lon": 119.112503, "lat": 34.39167}}, {"id": 1549997, "name": "Gaoxu", "country": "CN", "coord": {"lon": 119.008331, "lat": 34.333328}}, {"id": 1549999, "name": "Duigougang", "country": "CN", "coord": {"lon": 119.775002, "lat": 34.416672}}, {"id": 1550003, "name": "Xufeng", "country": "CN", "coord": {"lon": 119.550003, "lat": 34.450001}}, {"id": 1550032, "name": "Gaogongdao", "country": "CN", "coord": {"lon": 119.474998, "lat": 34.695831}}, {"id": 1550035, "name": "Zhongyun", "country": "CN", "coord": {"lon": 119.408333, "lat": 34.650002}}, {"id": 1550037, "name": "Yunshan", "country": "CN", "coord": {"lon": 119.366669, "lat": 34.700001}}, {"id": 1550038, "name": "Huaguoshan", "country": "CN", "coord": {"lon": 119.23333, "lat": 34.64167}}, {"id": 1550044, "name": "Luoyang", "country": "CN", "coord": {"lon": 119.107018, "lat": 34.710812}}, {"id": 1550048, "name": "Songzhuang", "country": "CN", "coord": {"lon": 119.140244, "lat": 34.783321}}, {"id": 1550084, "name": "Youyupu", "country": "CN", "coord": {"lon": 109.137779, "lat": 27.559719}}, {"id": 1550143, "name": "Zhujiachang", "country": "CN", "coord": {"lon": 108.938332, "lat": 27.3575}}, {"id": 1550222, "name": "Xujiaba", "country": "CN", "coord": {"lon": 108.113609, "lat": 27.88472}}, {"id": 1552093, "name": "Sanchahe", "country": "CN", "coord": {"lon": 106.428329, "lat": 28.495279}}, {"id": 1552140, "name": "Sihe", "country": "CN", "coord": {"lon": 119.258331, "lat": 30.700001}}, {"id": 1552144, "name": "Yuewan", "country": "CN", "coord": {"lon": 119.141434, "lat": 30.7547}}, {"id": 1552180, "name": "Sanlidian", "country": "CN", "coord": {"lon": 119.400002, "lat": 30.883329}}, {"id": 1552183, "name": "Fengqiao", "country": "CN", "coord": {"lon": 119.305901, "lat": 30.84094}}, {"id": 1552224, "name": "Wangxi", "country": "CN", "coord": {"lon": 118.972816, "lat": 30.686729}}, {"id": 1552251, "name": "Yishan", "country": "CN", "coord": {"lon": 118.816978, "lat": 30.827591}}, {"id": 1552260, "name": "Gaoqiao", "country": "CN", "coord": {"lon": 118.573441, "lat": 30.79957}}, {"id": 1552266, "name": "Xiangyang", "country": "CN", "coord": {"lon": 118.866783, "lat": 30.895639}}, {"id": 1552269, "name": "Xiadu", "country": "CN", "coord": {"lon": 118.777588, "lat": 30.923639}}, {"id": 1552274, "name": "Jinba", "country": "CN", "coord": {"lon": 118.669861, "lat": 30.87929}}, {"id": 1552285, "name": "Shuangxi", "country": "CN", "coord": {"lon": 118.804543, "lat": 30.958151}}, {"id": 1552286, "name": "Dingdian", "country": "CN", "coord": {"lon": 118.861519, "lat": 30.983761}}, {"id": 1552304, "name": "Qinxi", "country": "CN", "coord": {"lon": 118.491058, "lat": 30.729429}}, {"id": 1552307, "name": "Taiyuan", "country": "CN", "coord": {"lon": 118.400482, "lat": 30.71093}}, {"id": 1552318, "name": "Beigong", "country": "CN", "coord": {"lon": 118.199249, "lat": 30.68092}}, {"id": 1552321, "name": "Yandun", "country": "CN", "coord": {"lon": 118.15757, "lat": 30.721741}}, {"id": 1552324, "name": "Youhua", "country": "CN", "coord": {"lon": 118.006737, "lat": 30.677959}}, {"id": 1552330, "name": "Gufeng", "country": "CN", "coord": {"lon": 118.36483, "lat": 30.761829}}, {"id": 1552332, "name": "Tongtuan", "country": "CN", "coord": {"lon": 118.341667, "lat": 30.825001}}, {"id": 1552346, "name": "Wenchang", "country": "CN", "coord": {"lon": 118.488693, "lat": 30.90403}}, {"id": 1552349, "name": "Shipu", "country": "CN", "coord": {"lon": 118.383537, "lat": 30.915199}}, {"id": 1552350, "name": "Gelin", "country": "CN", "coord": {"lon": 118.381958, "lat": 30.882669}}, {"id": 1552361, "name": "Luling", "country": "CN", "coord": {"lon": 118.126518, "lat": 30.84893}}, {"id": 1552364, "name": "Wenwucao", "country": "CN", "coord": {"lon": 118.110291, "lat": 30.9209}}, {"id": 1552376, "name": "Donghe", "country": "CN", "coord": {"lon": 118.455727, "lat": 30.979111}}, {"id": 1552377, "name": "Jiulian", "country": "CN", "coord": {"lon": 118.382271, "lat": 30.95565}}, {"id": 1552382, "name": "Gongshan", "country": "CN", "coord": {"lon": 118.250481, "lat": 30.935659}}, {"id": 1552384, "name": "Jiafa", "country": "CN", "coord": {"lon": 118.251022, "lat": 30.99301}}, {"id": 1552391, "name": "Chisha", "country": "CN", "coord": {"lon": 118.132431, "lat": 30.990231}}, {"id": 1552397, "name": "Zhuyang", "country": "CN", "coord": {"lon": 118.002151, "lat": 30.730471}}, {"id": 1552492, "name": "Qiucun", "country": "CN", "coord": {"lon": 119.439491, "lat": 31.01408}}, {"id": 1552494, "name": "Dongchong", "country": "CN", "coord": {"lon": 119.377098, "lat": 31.020229}}, {"id": 1552501, "name": "Nanfeng", "country": "CN", "coord": {"lon": 119.214241, "lat": 31.070471}}, {"id": 1552504, "name": "Shuiming", "country": "CN", "coord": {"lon": 119.150002, "lat": 31.033331}}, {"id": 1552510, "name": "Xinhang", "country": "CN", "coord": {"lon": 119.556961, "lat": 31.073059}}, {"id": 1552568, "name": "Doumenkou", "country": "CN", "coord": {"lon": 118.783333, "lat": 31.008329}}, {"id": 1552574, "name": "Guquan", "country": "CN", "coord": {"lon": 118.651443, "lat": 31.02017}}, {"id": 1552590, "name": "Rencunwan", "country": "CN", "coord": {"lon": 118.758331, "lat": 31.091669}}, {"id": 1552618, "name": "Huaqiao", "country": "CN", "coord": {"lon": 118.693359, "lat": 31.18668}}, {"id": 1552638, "name": "Dongqi", "country": "CN", "coord": {"lon": 118.432854, "lat": 31.006161}}, {"id": 1552658, "name": "Eshan", "country": "CN", "coord": {"lon": 118.21579, "lat": 31.064289}}, {"id": 1552707, "name": "Jingshan", "country": "CN", "coord": {"lon": 118.446983, "lat": 31.313419}}, {"id": 1552729, "name": "Xiaojiangba", "country": "CN", "coord": {"lon": 118.062134, "lat": 31.28495}}, {"id": 1552834, "name": "Shiqiao", "country": "CN", "coord": {"lon": 118.600182, "lat": 31.443199}}, {"id": 1552877, "name": "Liuan", "country": "CN", "coord": {"lon": 118.525002, "lat": 31.65}}, {"id": 1552881, "name": "Niandou", "country": "CN", "coord": {"lon": 118.458328, "lat": 31.433331}}, {"id": 1552882, "name": "Guandou", "country": "CN", "coord": {"lon": 118.389542, "lat": 31.37739}}, {"id": 1552907, "name": "Longshanqiao", "country": "CN", "coord": {"lon": 118.481216, "lat": 31.49622}}, {"id": 1552931, "name": "Dongjiang Matoukou", "country": "CN", "coord": {"lon": 118.450996, "lat": 31.596439}}, {"id": 1552971, "name": "Yushan", "country": "CN", "coord": {"lon": 118.494583, "lat": 31.678671}}, {"id": 1553033, "name": "Shiyang", "country": "CN", "coord": {"lon": 118.275002, "lat": 31.950001}}, {"id": 1553046, "name": "Erlangkou", "country": "CN", "coord": {"lon": 118.127678, "lat": 31.96969}}, {"id": 1553247, "name": "Shichuan", "country": "CN", "coord": {"lon": 118.166389, "lat": 29.441111}}, {"id": 1553285, "name": "Banqiao", "country": "CN", "coord": {"lon": 117.948608, "lat": 29.61278}}, {"id": 1553299, "name": "Shanhou", "country": "CN", "coord": {"lon": 117.864067, "lat": 29.66169}}, {"id": 1553356, "name": "Liyang", "country": "CN", "coord": {"lon": 118.28624, "lat": 29.7057}}, {"id": 1553369, "name": "Xintan", "country": "CN", "coord": {"lon": 118.280853, "lat": 29.736099}}, {"id": 1553396, "name": "Zhengcun", "country": "CN", "coord": {"lon": 118.374069, "lat": 29.860319}}, {"id": 1553399, "name": "Chengkan", "country": "CN", "coord": {"lon": 118.283607, "lat": 29.923611}}, {"id": 1553429, "name": "Jiangtan", "country": "CN", "coord": {"lon": 117.958328, "lat": 29.695829}}, {"id": 1553431, "name": "Bingtan", "country": "CN", "coord": {"lon": 117.91658, "lat": 29.72258}}, {"id": 1553475, "name": "Xuling", "country": "CN", "coord": {"lon": 117.72406, "lat": 29.892349}}, {"id": 1553484, "name": "Bishan", "country": "CN", "coord": {"lon": 117.909019, "lat": 29.954229}}, {"id": 1553488, "name": "Datan", "country": "CN", "coord": {"lon": 117.751022, "lat": 29.94565}}, {"id": 1553493, "name": "Guxi", "country": "CN", "coord": {"lon": 117.57634, "lat": 29.947781}}, {"id": 1553494, "name": "Yangshu", "country": "CN", "coord": {"lon": 117.509048, "lat": 29.945539}}, {"id": 1553496, "name": "Longjiang", "country": "CN", "coord": {"lon": 117.952362, "lat": 29.963499}}, {"id": 1553509, "name": "Zhupu", "country": "CN", "coord": {"lon": 118.832169, "lat": 30.037531}}, {"id": 1553528, "name": "Changan", "country": "CN", "coord": {"lon": 118.519119, "lat": 30.152399}}, {"id": 1553531, "name": "Jingzhou", "country": "CN", "coord": {"lon": 118.862419, "lat": 30.19281}}, {"id": 1553539, "name": "Banqiaotou", "country": "CN", "coord": {"lon": 118.599998, "lat": 30.200001}}, {"id": 1553563, "name": "Shichuan", "country": "CN", "coord": {"lon": 118.67057, "lat": 30.294861}}, {"id": 1553566, "name": "Jingqiao", "country": "CN", "coord": {"lon": 118.588211, "lat": 30.314619}}, {"id": 1553567, "name": "Huatan", "country": "CN", "coord": {"lon": 118.538101, "lat": 30.328911}}, {"id": 1553570, "name": "Daguyun", "country": "CN", "coord": {"lon": 118.422081, "lat": 30.061001}}, {"id": 1553571, "name": "Huangcun", "country": "CN", "coord": {"lon": 118.403671, "lat": 30.014509}}, {"id": 1553596, "name": "Shangzhuang", "country": "CN", "coord": {"lon": 118.433594, "lat": 30.124411}}, {"id": 1553623, "name": "Gengcheng", "country": "CN", "coord": {"lon": 118.158974, "lat": 30.23044}}, {"id": 1553629, "name": "Suncun", "country": "CN", "coord": {"lon": 118.41349, "lat": 30.316059}}, {"id": 1553729, "name": "Wanjia", "country": "CN", "coord": {"lon": 119.133331, "lat": 30.404169}}, {"id": 1553739, "name": "Zhongxi", "country": "CN", "coord": {"lon": 119.158501, "lat": 30.48657}}, {"id": 1553794, "name": "Xiaxi", "country": "CN", "coord": {"lon": 118.933327, "lat": 30.5}}, {"id": 1553800, "name": "Fangtang", "country": "CN", "coord": {"lon": 118.729172, "lat": 30.47917}}, {"id": 1553803, "name": "Yunle", "country": "CN", "coord": {"lon": 118.633331, "lat": 30.450001}}, {"id": 1553826, "name": "Tingxi", "country": "CN", "coord": {"lon": 118.610321, "lat": 30.60655}}, {"id": 1553829, "name": "Suhong", "country": "CN", "coord": {"lon": 118.54583, "lat": 30.57917}}, {"id": 1553833, "name": "Qinglong", "country": "CN", "coord": {"lon": 118.900002, "lat": 30.620831}}, {"id": 1553840, "name": "Aimin", "country": "CN", "coord": {"lon": 118.617241, "lat": 30.64748}}, {"id": 1553845, "name": "Caijiaqiao", "country": "CN", "coord": {"lon": 118.470139, "lat": 30.34281}}, {"id": 1553849, "name": "Xinming", "country": "CN", "coord": {"lon": 118.244247, "lat": 30.336}}, {"id": 1553853, "name": "Pinghu", "country": "CN", "coord": {"lon": 118.00544, "lat": 30.32815}}, {"id": 1553870, "name": "Xinhua", "country": "CN", "coord": {"lon": 118.039299, "lat": 30.448231}}, {"id": 1553878, "name": "Xinfeng", "country": "CN", "coord": {"lon": 118.077782, "lat": 30.50419}}, {"id": 1553908, "name": "Dingjiaqiao", "country": "CN", "coord": {"lon": 118.308418, "lat": 30.6455}}, {"id": 1553911, "name": "Zhongcun", "country": "CN", "coord": {"lon": 118.183327, "lat": 30.616671}}, {"id": 1554340, "name": "Muta", "country": "CN", "coord": {"lon": 117.04995, "lat": 29.775921}}, {"id": 1554363, "name": "Makeng", "country": "CN", "coord": {"lon": 117.084709, "lat": 29.924681}}, {"id": 1554371, "name": "Huayuanli", "country": "CN", "coord": {"lon": 117.014709, "lat": 29.96497}}, {"id": 1783552, "name": "Yuele", "country": "CN", "coord": {"lon": 107.909447, "lat": 36.265659}}, {"id": 1783553, "name": "Yingge", "country": "CN", "coord": {"lon": 107.648567, "lat": 34.095589}}, {"id": 1783554, "name": "Yaxing", "country": "CN", "coord": {"lon": 109.262733, "lat": 19.447781}}, {"id": 1783556, "name": "Xianshui", "country": "CN", "coord": {"lon": 101.127007, "lat": 30.991449}}, {"id": 1783557, "name": "Lintan Chengguanzhen", "country": "CN", "coord": {"lon": 103.352417, "lat": 34.68885}}, {"id": 1783573, "name": "Hangkou", "country": "CN", "coord": {"lon": 114.441841, "lat": 29.04739}}, {"id": 1783581, "name": "Changjing", "country": "CN", "coord": {"lon": 120.477501, "lat": 31.75111}}, {"id": 1783596, "name": "Longtan", "country": "CN", "coord": {"lon": 114.105911, "lat": 23.71242}}, {"id": 1783600, "name": "Liaoyang", "country": "CN", "coord": {"lon": 113.339859, "lat": 37.079769}}, {"id": 1783625, "name": "Zuitou", "country": "CN", "coord": {"lon": 107.31266, "lat": 34.062191}}, {"id": 1783626, "name": "Zuitai", "country": "CN", "coord": {"lon": 105.604668, "lat": 33.33083}}, {"id": 1783628, "name": "Zuhu", "country": "CN", "coord": {"lon": 112.030884, "lat": 39.731781}}, {"id": 1783631, "name": "Zuan", "country": "CN", "coord": {"lon": 108.484444, "lat": 34.095558}}, {"id": 1783636, "name": "Zoushi", "country": "CN", "coord": {"lon": 111.538857, "lat": 29.04397}}, {"id": 1783639, "name": "Zouqiao", "country": "CN", "coord": {"lon": 115.48539, "lat": 29.42384}}, {"id": 1783643, "name": "Zouma", "country": "CN", "coord": {"lon": 110.423058, "lat": 29.828329}}, {"id": 1783649, "name": "Zongying", "country": "CN", "coord": {"lon": 106.980423, "lat": 33.15794}}, {"id": 1783651, "name": "Zongyang", "country": "CN", "coord": {"lon": 117.20417, "lat": 30.698891}}, {"id": 1783657, "name": "Zongluzui", "country": "CN", "coord": {"lon": 115.060364, "lat": 30.696831}}, {"id": 1783690, "name": "Zixi", "country": "CN", "coord": {"lon": 117.783997, "lat": 28.06949}}, {"id": 1783694, "name": "Ziwu", "country": "CN", "coord": {"lon": 108.893623, "lat": 34.058048}}, {"id": 1783699, "name": "Wenchang", "country": "CN", "coord": {"lon": 105.155022, "lat": 31.636259}}, {"id": 1783707, "name": "Zishan", "country": "CN", "coord": {"lon": 115.541222, "lat": 25.959949}}, {"id": 1783708, "name": "Zirun", "country": "CN", "coord": {"lon": 112.683578, "lat": 39.303459}}, {"id": 1783719, "name": "Zilingpu", "country": "CN", "coord": {"lon": 112.218163, "lat": 31.131399}}, {"id": 1783720, "name": "Zilang", "country": "CN", "coord": {"lon": 111.210579, "lat": 30.003929}}, {"id": 1783731, "name": "Zicheng", "country": "CN", "coord": {"lon": 115.1726, "lat": 23.644421}}, {"id": 1783750, "name": "Zibu", "country": "CN", "coord": {"lon": 116.86293, "lat": 28.853319}}, {"id": 1783752, "name": "Zhuzuo", "country": "CN", "coord": {"lon": 115.979782, "lat": 26.38674}}, {"id": 1783762, "name": "Zhuzhoujiang Miaozuxiang", "country": "CN", "coord": {"lon": 110.071938, "lat": 26.67528}}, {"id": 1783774, "name": "Zhuyuan", "country": "CN", "coord": {"lon": 103.41861, "lat": 24.10778}}, {"id": 1783779, "name": "Zhuyeping", "country": "CN", "coord": {"lon": 110.541931, "lat": 29.472361}}, {"id": 1783786, "name": "Zhuyang", "country": "CN", "coord": {"lon": 107.201157, "lat": 30.73674}}, {"id": 1783792, "name": "Zhuxi Chengguanzhen", "country": "CN", "coord": {"lon": 109.723373, "lat": 32.325691}}, {"id": 1783800, "name": "Zhuwa", "country": "CN", "coord": {"lon": 115.116562, "lat": 30.595079}}, {"id": 1783804, "name": "Zhuting", "country": "CN", "coord": {"lon": 114.078506, "lat": 27.776011}}, {"id": 1783808, "name": "Zhutian", "country": "CN", "coord": {"lon": 117.081146, "lat": 28.75848}}, {"id": 1783813, "name": "Zhutan", "country": "CN", "coord": {"lon": 114.160553, "lat": 28.05261}}, {"id": 1783820, "name": "Zhushi", "country": "CN", "coord": {"lon": 113.888817, "lat": 33.061588}}, {"id": 1783825, "name": "Zhushan Chengguanzhen", "country": "CN", "coord": {"lon": 110.236137, "lat": 32.22179}}, {"id": 1783836, "name": "Jiahe Chengguanzhen", "country": "CN", "coord": {"lon": 112.363518, "lat": 25.559361}}, {"id": 1783842, "name": "Zhuqi", "country": "CN", "coord": {"lon": 119.101936, "lat": 26.146111}}, {"id": 1783856, "name": "Zhuoyang", "country": "CN", "coord": {"lon": 119.0215, "lat": 26.630039}}, {"id": 1783857, "name": "Zhuotian", "country": "CN", "coord": {"lon": 116.275681, "lat": 25.558229}}, {"id": 1783886, "name": "Zhulin", "country": "CN", "coord": {"lon": 115.491608, "lat": 30.369459}}, {"id": 1783891, "name": "Zhuliang", "country": "CN", "coord": {"lon": 116.600891, "lat": 27.46838}}, {"id": 1783894, "name": "Zhulan", "country": "CN", "coord": {"lon": 115.711121, "lat": 25.62681}}, {"id": 1783898, "name": "Zhukou", "country": "CN", "coord": {"lon": 117.260483, "lat": 26.978991}}, {"id": 1783903, "name": "Zhujing", "country": "CN", "coord": {"lon": 121.15966, "lat": 30.900999}}, {"id": 1783906, "name": "Zhujiazhuang", "country": "CN", "coord": {"lon": 107.780602, "lat": 34.472359}}, {"id": 1783913, "name": "Zhujiang", "country": "CN", "coord": {"lon": 114.70443, "lat": 27.27685}}, {"id": 1783920, "name": "Zhujiajiao", "country": "CN", "coord": {"lon": 121.056961, "lat": 31.107571}}, {"id": 1783924, "name": "Zhuangxing", "country": "CN", "coord": {"lon": 121.333519, "lat": 30.85157}}, {"id": 1783946, "name": "Zhuhong", "country": "CN", "coord": {"lon": 119.983353, "lat": 32.87883}}, {"id": 1783949, "name": "Zhuhang", "country": "CN", "coord": {"lon": 120.982498, "lat": 31.90139}}, {"id": 1783956, "name": "Zhouqu Chengguanzhen", "country": "CN", "coord": {"lon": 104.362778, "lat": 33.784168}}, {"id": 1783964, "name": "Zhushi", "country": "CN", "coord": {"lon": 110.676941, "lat": 27.08778}}, {"id": 1783970, "name": "Zhufeng", "country": "CN", "coord": {"lon": 118.936417, "lat": 30.56813}}, {"id": 1783978, "name": "Zhudian", "country": "CN", "coord": {"lon": 105.946602, "lat": 35.115669}}, {"id": 1783986, "name": "Zhucun", "country": "CN", "coord": {"lon": 113.687851, "lat": 23.2796}}, {"id": 1784001, "name": "Zhuantang", "country": "CN", "coord": {"lon": 120.076134, "lat": 30.1635}}, {"id": 1784008, "name": "Zhuanqiang", "country": "CN", "coord": {"lon": 118.813728, "lat": 31.263729}}, {"id": 1784033, "name": "Zhuangtou", "country": "CN", "coord": {"lon": 117.291672, "lat": 39.65778}}, {"id": 1784037, "name": "Zhuangtou", "country": "CN", "coord": {"lon": 108.451668, "lat": 34.2575}}, {"id": 1784040, "name": "Zhuangta", "country": "CN", "coord": {"lon": 110.9011, "lat": 29.628151}}, {"id": 1784041, "name": "Zhuangshi", "country": "CN", "coord": {"lon": 121.609619, "lat": 29.93306}}, {"id": 1784044, "name": "Zhuangqiao", "country": "CN", "coord": {"lon": 121.548332, "lat": 29.93}}, {"id": 1784050, "name": "Zhuangli", "country": "CN", "coord": {"lon": 109.059837, "lat": 34.81958}}, {"id": 1784073, "name": "Zhouzhuang", "country": "CN", "coord": {"lon": 120.410461, "lat": 31.865391}}, {"id": 1784082, "name": "Zhouxin", "country": "CN", "coord": {"lon": 113.084938, "lat": 23.68078}}, {"id": 1784083, "name": "Zhouxi", "country": "CN", "coord": {"lon": 116.389442, "lat": 29.1859}}, {"id": 1784084, "name": "Zhouxiang", "country": "CN", "coord": {"lon": 119.549721, "lat": 32.983891}}, {"id": 1784087, "name": "Zhouxiang", "country": "CN", "coord": {"lon": 121.127693, "lat": 30.174431}}, {"id": 1784090, "name": "Zhouwang", "country": "CN", "coord": {"lon": 111.194443, "lat": 27.194441}}, {"id": 1784091, "name": "Zhouwangmiao", "country": "CN", "coord": {"lon": 120.504478, "lat": 30.463671}}, {"id": 1784094, "name": "Zhoutou", "country": "CN", "coord": {"lon": 116.318161, "lat": 29.86409}}, {"id": 1784098, "name": "Zhoutian", "country": "CN", "coord": {"lon": 115.727829, "lat": 25.328819}}, {"id": 1784099, "name": "Zhoutian", "country": "CN", "coord": {"lon": 113.816673, "lat": 24.966669}}, {"id": 1784103, "name": "Zhoushi", "country": "CN", "coord": {"lon": 120.986389, "lat": 31.46361}}, {"id": 1784109, "name": "Zhouquan", "country": "CN", "coord": {"lon": 120.347481, "lat": 30.57926}}, {"id": 1784123, "name": "Zhouling", "country": "CN", "coord": {"lon": 108.727219, "lat": 34.405281}}, {"id": 1784131, "name": "Zhoukou", "country": "CN", "coord": {"lon": 106.401131, "lat": 31.034719}}, {"id": 1784132, "name": "Zhoukou", "country": "CN", "coord": {"lon": 112.044998, "lat": 29.01528}}, {"id": 1784155, "name": "Zhoujiadian", "country": "CN", "coord": {"lon": 111.900002, "lat": 29.24798}}, {"id": 1784163, "name": "Zhouhu", "country": "CN", "coord": {"lon": 114.520264, "lat": 27.159201}}, {"id": 1784174, "name": "Zhoufang", "country": "CN", "coord": {"lon": 117.166618, "lat": 28.529341}}, {"id": 1784182, "name": "Zhoucheng", "country": "CN", "coord": {"lon": 108.121109, "lat": 34.43639}}, {"id": 1784206, "name": "Zhongzhai", "country": "CN", "coord": {"lon": 103.964851, "lat": 34.64851}}, {"id": 1784207, "name": "Zhongzhai", "country": "CN", "coord": {"lon": 104.42009, "lat": 33.19133}}, {"id": 1784209, "name": "Zhongzhai", "country": "CN", "coord": {"lon": 109.268608, "lat": 27.19528}}, {"id": 1784213, "name": "Zhongzhai", "country": "CN", "coord": {"lon": 114.396477, "lat": 24.741819}}, {"id": 1784217, "name": "Zhongyun", "country": "CN", "coord": {"lon": 117.685944, "lat": 29.22126}}, {"id": 1784220, "name": "Zhongyuan", "country": "CN", "coord": {"lon": 110.46759, "lat": 19.147869}}, {"id": 1784239, "name": "Ningxiang", "country": "CN", "coord": {"lon": 111.205231, "lat": 37.34}}, {"id": 1784244, "name": "Zhongxinqiao", "country": "CN", "coord": {"lon": 117.542503, "lat": 39.034721}}, {"id": 1784261, "name": "Zhongxing", "country": "CN", "coord": {"lon": 109.852478, "lat": 19.56856}}, {"id": 1784272, "name": "Zhongxin", "country": "CN", "coord": {"lon": 101.271538, "lat": 26.616671}}, {"id": 1784273, "name": "Zhongxin", "country": "CN", "coord": {"lon": 114.716019, "lat": 24.216261}}, {"id": 1784274, "name": "Zhongxin", "country": "CN", "coord": {"lon": 113.613564, "lat": 23.289539}}, {"id": 1784291, "name": "Zhongtou", "country": "CN", "coord": {"lon": 113.339546, "lat": 33.988361}}, {"id": 1784292, "name": "Zhongtong", "country": "CN", "coord": {"lon": 116.968109, "lat": 28.30127}}, {"id": 1784298, "name": "Zhongtang", "country": "CN", "coord": {"lon": 113.657188, "lat": 23.09668}}, {"id": 1784305, "name": "Zhonghe", "country": "CN", "coord": {"lon": 106.173843, "lat": 36.032921}}, {"id": 1784309, "name": "Zhongshu", "country": "CN", "coord": {"lon": 103.662979, "lat": 25.0273}}, {"id": 1784319, "name": "Laocheng", "country": "CN", "coord": {"lon": 116.035782, "lat": 25.02737}}, {"id": 1784320, "name": "Zhongshan", "country": "CN", "coord": {"lon": 111.300003, "lat": 24.533331}}, {"id": 1784337, "name": "Jinzhong", "country": "CN", "coord": {"lon": 103.306389, "lat": 26.37595}}, {"id": 1784347, "name": "Zhongnan", "country": "CN", "coord": {"lon": 108.360168, "lat": 34.14677}}, {"id": 1784350, "name": "Zhongming", "country": "CN", "coord": {"lon": 118.050751, "lat": 30.984819}}, {"id": 1784361, "name": "Zhongling", "country": "CN", "coord": {"lon": 116.477837, "lat": 28.438219}}, {"id": 1784369, "name": "Zhongjiapu", "country": "CN", "coord": {"lon": 111.05011, "lat": 29.089001}}, {"id": 1784373, "name": "Kaijiang", "country": "CN", "coord": {"lon": 104.674477, "lat": 31.039591}}, {"id": 1784380, "name": "Zhonghuopu", "country": "CN", "coord": {"lon": 114.001053, "lat": 29.76034}}, {"id": 1784404, "name": "Zhongguan", "country": "CN", "coord": {"lon": 120.184509, "lat": 30.64958}}, {"id": 1784414, "name": "Zhongfang", "country": "CN", "coord": {"lon": 109.931938, "lat": 27.41139}}, {"id": 1784415, "name": "Zhongfang", "country": "CN", "coord": {"lon": 119.425827, "lat": 26.60083}}, {"id": 1784429, "name": "Zhongdeng", "country": "CN", "coord": {"lon": 117.353058, "lat": 39.590561}}, {"id": 1784430, "name": "Lianhuashan", "country": "CN", "coord": {"lon": 116.992493, "lat": 29.618521}}, {"id": 1784444, "name": "Zhongcun", "country": "CN", "coord": {"lon": 115.827713, "lat": 26.96044}}, {"id": 1784447, "name": "Zhongcun", "country": "CN", "coord": {"lon": 115.83506, "lat": 25.3578}}, {"id": 1784452, "name": "Zhongchao", "country": "CN", "coord": {"lon": 109.220001, "lat": 26.137501}}, {"id": 1784457, "name": "Zhongbu", "country": "CN", "coord": {"lon": 117.296333, "lat": 28.846189}}, {"id": 1784461, "name": "Mingxing", "country": "CN", "coord": {"lon": 109.270622, "lat": 29.68033}}, {"id": 1784462, "name": "Zhongbao", "country": "CN", "coord": {"lon": 116.265244, "lat": 25.195431}}, {"id": 1784463, "name": "Zhongfan", "country": "CN", "coord": {"lon": 117.378197, "lat": 28.54038}}, {"id": 1784468, "name": "Zhongba", "country": "CN", "coord": {"lon": 104.739319, "lat": 31.778191}}, {"id": 1784469, "name": "Jiangyou", "country": "CN", "coord": {"lon": 104.739319, "lat": 31.778191}}, {"id": 1784474, "name": "Zhongba", "country": "CN", "coord": {"lon": 115.341042, "lat": 23.70731}}, {"id": 1784477, "name": "Zhongan", "country": "CN", "coord": {"lon": 104.23333, "lat": 25.66667}}, {"id": 1784480, "name": "Zhizhong", "country": "CN", "coord": {"lon": 109.259941, "lat": 18.63101}}, {"id": 1784488, "name": "Zhixia", "country": "CN", "coord": {"lon": 115.110809, "lat": 26.981991}}, {"id": 1784495, "name": "Zhitang", "country": "CN", "coord": {"lon": 120.953072, "lat": 31.61158}}, {"id": 1784497, "name": "Zhitan", "country": "CN", "coord": {"lon": 117.30909, "lat": 29.62052}}, {"id": 1784513, "name": "Zhili", "country": "CN", "coord": {"lon": 120.256668, "lat": 30.873581}}, {"id": 1784525, "name": "Zhijiang", "country": "CN", "coord": {"lon": 109.659203, "lat": 27.458139}}, {"id": 1784543, "name": "Zhifang", "country": "CN", "coord": {"lon": 114.316673, "lat": 30.35}}, {"id": 1784556, "name": "Zhibu", "country": "CN", "coord": {"lon": 120.248482, "lat": 29.82065}}, {"id": 1784567, "name": "Zhetian", "country": "CN", "coord": {"lon": 114.407799, "lat": 27.234249}}, {"id": 1784568, "name": "Zhetang", "country": "CN", "coord": {"lon": 118.91552, "lat": 31.75614}}, {"id": 1784579, "name": "Zhenzhushan", "country": "CN", "coord": {"lon": 117.461243, "lat": 29.18907}}, {"id": 1784581, "name": "Zhenze", "country": "CN", "coord": {"lon": 120.500053, "lat": 30.91571}}, {"id": 1784586, "name": "Zhenyuan", "country": "CN", "coord": {"lon": 108.199959, "lat": 34.32502}}, {"id": 1784592, "name": "Wufeng", "country": "CN", "coord": {"lon": 104.833328, "lat": 27.450001}}, {"id": 1784617, "name": "Zhenping Chengguanzhen", "country": "CN", "coord": {"lon": 112.233208, "lat": 33.033138}}, {"id": 1784648, "name": "Zhenhai", "country": "CN", "coord": {"lon": 118.090492, "lat": 24.25823}}, {"id": 1784702, "name": "Zhengguo", "country": "CN", "coord": {"lon": 113.888443, "lat": 23.41823}}, {"id": 1784706, "name": "Zhengfang", "country": "CN", "coord": {"lon": 117.889153, "lat": 28.700979}}, {"id": 1784707, "name": "Zhengfang", "country": "CN", "coord": {"lon": 117.707397, "lat": 26.71343}}, {"id": 1784708, "name": "Zhengdun", "country": "CN", "coord": {"lon": 118.694717, "lat": 27.49667}}, {"id": 1784715, "name": "Zhengdian", "country": "CN", "coord": {"lon": 114.25, "lat": 30.33333}}, {"id": 1784721, "name": "Zhengcun", "country": "CN", "coord": {"lon": 114.529343, "lat": 28.95454}}, {"id": 1784730, "name": "Zhengang", "country": "CN", "coord": {"lon": 115.315208, "lat": 25.000441}}, {"id": 1784733, "name": "Zhendong", "country": "CN", "coord": {"lon": 120.216667, "lat": 34.133331}}, {"id": 1784734, "name": "Zhendeqiao", "country": "CN", "coord": {"lon": 111.828072, "lat": 29.137939}}, {"id": 1784755, "name": "Zhelin", "country": "CN", "coord": {"lon": 121.46917, "lat": 30.8325}}, {"id": 1784756, "name": "Zhelin", "country": "CN", "coord": {"lon": 115.466667, "lat": 29.23333}}, {"id": 1784757, "name": "Zhelin", "country": "CN", "coord": {"lon": 117.09111, "lat": 23.581499}}, {"id": 1784760, "name": "Zhelang", "country": "CN", "coord": {"lon": 115.557953, "lat": 22.6721}}, {"id": 1784790, "name": "Zhaxi", "country": "CN", "coord": {"lon": 104.968742, "lat": 27.850809}}, {"id": 1784800, "name": "Zhapu", "country": "CN", "coord": {"lon": 121.086861, "lat": 30.60153}}, {"id": 1784811, "name": "Zhaozhen", "country": "CN", "coord": {"lon": 104.436058, "lat": 30.8563}}, {"id": 1784822, "name": "Zhaoxie", "country": "CN", "coord": {"lon": 115.870583, "lat": 27.16778}}, {"id": 1784823, "name": "Zhaoxiang", "country": "CN", "coord": {"lon": 121.192032, "lat": 31.151939}}, {"id": 1784827, "name": "Zhaoxian", "country": "CN", "coord": {"lon": 107.623352, "lat": 34.749828}}, {"id": 1784846, "name": "Zhaoshi", "country": "CN", "coord": {"lon": 109.425522, "lat": 29.235741}}, {"id": 1784860, "name": "Zhaoping", "country": "CN", "coord": {"lon": 110.787033, "lat": 24.17244}}, {"id": 1784874, "name": "Zhaokang", "country": "CN", "coord": {"lon": 111.247253, "lat": 35.720531}}, {"id": 1784892, "name": "Zhaopeng", "country": "CN", "coord": {"lon": 113.848587, "lat": 31.4132}}, {"id": 1784919, "name": "Zhaohe", "country": "CN", "coord": {"lon": 112.845268, "lat": 33.18774}}, {"id": 1784920, "name": "Zhaoguli", "country": "CN", "coord": {"lon": 117.243607, "lat": 39.178329}}, {"id": 1784928, "name": "Zhaogezhuang", "country": "CN", "coord": {"lon": 117.195831, "lat": 39.784439}}, {"id": 1784947, "name": "Zhaozhen", "country": "CN", "coord": {"lon": 108.496941, "lat": 34.55722}}, {"id": 1784950, "name": "Zhaocun", "country": "CN", "coord": {"lon": 112.479607, "lat": 33.754822}}, {"id": 1784960, "name": "Zhaobei", "country": "CN", "coord": {"lon": 114.032784, "lat": 39.48444}}, {"id": 1784969, "name": "Xiping", "country": "CN", "coord": {"lon": 103.79612, "lat": 25.597839}}, {"id": 1784972, "name": "Zhanxi", "country": "CN", "coord": {"lon": 115.2285, "lat": 28.048019}}, {"id": 1784974, "name": "Zhantian", "country": "CN", "coord": {"lon": 116.161072, "lat": 26.592079}}, {"id": 1784976, "name": "Zhantang", "country": "CN", "coord": {"lon": 115.792168, "lat": 25.416149}}, {"id": 1784982, "name": "Zhanping", "country": "CN", "coord": {"lon": 116.240578, "lat": 28.029739}}, {"id": 1784991, "name": "Zhanjiaji", "country": "CN", "coord": {"lon": 114.351799, "lat": 30.669001}}, {"id": 1785000, "name": "Danzhu", "country": "CN", "coord": {"lon": 112.861008, "lat": 36.1245}}, {"id": 1785003, "name": "Zhangjiazhuang", "country": "CN", "coord": {"lon": 112.793892, "lat": 39.263329}}, {"id": 1785015, "name": "Zhangzhuang", "country": "CN", "coord": {"lon": 114.358917, "lat": 27.526461}}, {"id": 1785019, "name": "Zhangzhishan", "country": "CN", "coord": {"lon": 121.00708, "lat": 31.9247}}, {"id": 1785021, "name": "Zhangzhen", "country": "CN", "coord": {"lon": 120.86837, "lat": 29.809311}}, {"id": 1785041, "name": "Zhangyan", "country": "CN", "coord": {"lon": 121.280083, "lat": 30.806629}}, {"id": 1785055, "name": "Zhangwu", "country": "CN", "coord": {"lon": 119.543892, "lat": 30.77972}}, {"id": 1785066, "name": "Zhangwan", "country": "CN", "coord": {"lon": 119.591942, "lat": 26.71139}}, {"id": 1785068, "name": "Zhangting", "country": "CN", "coord": {"lon": 121.284241, "lat": 30.01528}}, {"id": 1785104, "name": "Zhangpu", "country": "CN", "coord": {"lon": 120.939552, "lat": 31.28746}}, {"id": 1785132, "name": "Zhangliang", "country": "CN", "coord": {"lon": 113.040466, "lat": 33.669491}}, {"id": 1785140, "name": "Zhangjin", "country": "CN", "coord": {"lon": 112.597687, "lat": 30.19726}}, {"id": 1785157, "name": "Zhangjiayuan", "country": "CN", "coord": {"lon": 106.333, "lat": 36.721851}}, {"id": 1785176, "name": "Zhangjiashan", "country": "CN", "coord": {"lon": 115.479263, "lat": 28.08523}}, {"id": 1785177, "name": "Zhangqiao", "country": "CN", "coord": {"lon": 120.059692, "lat": 32.115929}}, {"id": 1785195, "name": "Zhangji", "country": "CN", "coord": {"lon": 112.778412, "lat": 31.5116}}, {"id": 1785197, "name": "Zhangjiahe", "country": "CN", "coord": {"lon": 106.564468, "lat": 33.441399}}, {"id": 1785205, "name": "Zhangfang", "country": "CN", "coord": {"lon": 114.10302, "lat": 28.327209}}, {"id": 1785224, "name": "Zhangji", "country": "CN", "coord": {"lon": 119.650002, "lat": 34.049999}}, {"id": 1785238, "name": "Zhanghuban", "country": "CN", "coord": {"lon": 118.484077, "lat": 26.386539}}, {"id": 1785258, "name": "Zhanggu", "country": "CN", "coord": {"lon": 101.884132, "lat": 30.869499}}, {"id": 1785273, "name": "Zhanggang", "country": "CN", "coord": {"lon": 112.876663, "lat": 30.572041}}, {"id": 1785285, "name": "Zhangdu", "country": "CN", "coord": {"lon": 118.227959, "lat": 30.596371}}, {"id": 1785290, "name": "Zhangdian", "country": "CN", "coord": {"lon": 119.300003, "lat": 34.200001}}, {"id": 1785292, "name": "Zhangdian", "country": "CN", "coord": {"lon": 120.051468, "lat": 32.404179}}, {"id": 1785309, "name": "Zhangcun", "country": "CN", "coord": {"lon": 111.349442, "lat": 35.650108}}, {"id": 1785326, "name": "Zhangcheng", "country": "CN", "coord": {"lon": 118.93692, "lat": 25.84676}}, {"id": 1785333, "name": "Zhangba", "country": "CN", "coord": {"lon": 107.647903, "lat": 34.896542}}, {"id": 1785341, "name": "Zhanerxiang", "country": "CN", "coord": {"lon": 106.300339, "lat": 33.779861}}, {"id": 1785348, "name": "Zhakou", "country": "CN", "coord": {"lon": 111.50074, "lat": 29.851959}}, {"id": 1785351, "name": "Zhajin", "country": "CN", "coord": {"lon": 114.23597, "lat": 29.009609}}, {"id": 1785372, "name": "Zhaishi Miaozudongzuxiang", "country": "CN", "coord": {"lon": 110.044441, "lat": 26.50083}}, {"id": 1785389, "name": "Zhaike", "country": "CN", "coord": {"lon": 106.42337, "lat": 36.291561}}, {"id": 1785400, "name": "Zhaigang", "country": "CN", "coord": {"lon": 112.348587, "lat": 24.520399}}, {"id": 1785414, "name": "Zezhang", "country": "CN", "coord": {"lon": 111.155533, "lat": 35.715729}}, {"id": 1785420, "name": "Zengtian", "country": "CN", "coord": {"lon": 115.838966, "lat": 27.3563}}, {"id": 1785421, "name": "Zengtian", "country": "CN", "coord": {"lon": 114.981018, "lat": 24.020321}}, {"id": 1785427, "name": "Zengji", "country": "CN", "coord": {"lon": 112.369827, "lat": 30.72028}}, {"id": 1785432, "name": "Zengjia", "country": "CN", "coord": {"lon": 106.101181, "lat": 32.619572}}, {"id": 1785434, "name": "Zengdian", "country": "CN", "coord": {"lon": 113.770271, "lat": 31.12582}}, {"id": 1785439, "name": "Zekou", "country": "CN", "coord": {"lon": 112.871521, "lat": 30.487061}}, {"id": 1785464, "name": "Zaoxi", "country": "CN", "coord": {"lon": 119.490097, "lat": 30.2006}}, {"id": 1785468, "name": "Zaoshi", "country": "CN", "coord": {"lon": 111.235649, "lat": 29.654381}}, {"id": 1785469, "name": "Zaoshi", "country": "CN", "coord": {"lon": 113.444717, "lat": 26.67083}}, {"id": 1785483, "name": "Xicun", "country": "CN", "coord": {"lon": 113.115448, "lat": 39.15139}}, {"id": 1785486, "name": "Zaolin", "country": "CN", "coord": {"lon": 107.696182, "lat": 34.363522}}, {"id": 1785489, "name": "Zaojiacheng", "country": "CN", "coord": {"lon": 117.431671, "lat": 39.276112}}, {"id": 1785501, "name": "Zangzhai", "country": "CN", "coord": {"lon": 113.11367, "lat": 39.629532}}, {"id": 1785522, "name": "Zagunao", "country": "CN", "coord": {"lon": 103.171783, "lat": 31.442881}}, {"id": 1785529, "name": "Shangyuzhuang", "country": "CN", "coord": {"lon": 112.205788, "lat": 38.907558}}, {"id": 1785541, "name": "Yuyue", "country": "CN", "coord": {"lon": 113.963249, "lat": 30.0182}}, {"id": 1785549, "name": "Yuyang", "country": "CN", "coord": {"lon": 112.902832, "lat": 30.17375}}, {"id": 1785555, "name": "Yuxin", "country": "CN", "coord": {"lon": 120.788483, "lat": 30.668791}}, {"id": 1785556, "name": "Yuxin", "country": "CN", "coord": {"lon": 112.990952, "lat": 30.67293}}, {"id": 1785565, "name": "Xiushui", "country": "CN", "coord": {"lon": 113.388649, "lat": 38.10379}}, {"id": 1785574, "name": "Yuxi", "country": "CN", "coord": {"lon": 119.997803, "lat": 32.582001}}, {"id": 1785583, "name": "Yuwang", "country": "CN", "coord": {"lon": 106.37767, "lat": 36.81929}}, {"id": 1785587, "name": "Yuwan", "country": "CN", "coord": {"lon": 113.665024, "lat": 24.16407}}, {"id": 1785591, "name": "Yutou", "country": "CN", "coord": {"lon": 118.505661, "lat": 28.62149}}, {"id": 1785593, "name": "Yuting", "country": "CN", "coord": {"lon": 117.969681, "lat": 29.84038}}, {"id": 1785614, "name": "Jicheng", "country": "CN", "coord": {"lon": 112.957687, "lat": 37.063591}}, {"id": 1785620, "name": "Yushan", "country": "CN", "coord": {"lon": 109.501579, "lat": 34.205631}}, {"id": 1785621, "name": "Yushan", "country": "CN", "coord": {"lon": 113.815498, "lat": 33.199478}}, {"id": 1785622, "name": "Yushan", "country": "CN", "coord": {"lon": 112.367851, "lat": 31.98946}}, {"id": 1785625, "name": "Yushan", "country": "CN", "coord": {"lon": 118.567131, "lat": 26.90863}}, {"id": 1785642, "name": "Yuping", "country": "CN", "coord": {"lon": 103.710854, "lat": 22.976931}}, {"id": 1785654, "name": "Yunyang", "country": "CN", "coord": {"lon": 108.808609, "lat": 34.637218}}, {"id": 1785657, "name": "Junyang", "country": "CN", "coord": {"lon": 115.366669, "lat": 28.41667}}, {"id": 1785661, "name": "Yunxian Chengguanzhen", "country": "CN", "coord": {"lon": 110.808746, "lat": 32.831291}}, {"id": 1785662, "name": "Aihua", "country": "CN", "coord": {"lon": 100.099998, "lat": 24.41667}}, {"id": 1785665, "name": "Yunxixian Chengguanzhen", "country": "CN", "coord": {"lon": 110.423058, "lat": 32.982761}}, {"id": 1785666, "name": "Yunxi", "country": "CN", "coord": {"lon": 105.386139, "lat": 31.2264}}, {"id": 1785669, "name": "Yunxi", "country": "CN", "coord": {"lon": 118.93969, "lat": 29.026119}}, {"id": 1785675, "name": "Yunting", "country": "CN", "coord": {"lon": 120.337273, "lat": 31.86441}}, {"id": 1785677, "name": "Yunti", "country": "CN", "coord": {"lon": 119.282219, "lat": 30.374439}}, {"id": 1785683, "name": "Yuntai", "country": "CN", "coord": {"lon": 105.665611, "lat": 33.446339}}, {"id": 1785689, "name": "Yunshan", "country": "CN", "coord": {"lon": 116.2995, "lat": 28.17593}}, {"id": 1785695, "name": "Yunmenling", "country": "CN", "coord": {"lon": 115.7444, "lat": 25.2407}}, {"id": 1785700, "name": "Yunluo", "country": "CN", "coord": {"lon": 116.07486, "lat": 23.25259}}, {"id": 1785705, "name": "Yunlong", "country": "CN", "coord": {"lon": 110.467056, "lat": 19.876539}}, {"id": 1785706, "name": "Yunling", "country": "CN", "coord": {"lon": 118.224091, "lat": 30.65332}}, {"id": 1785707, "name": "Yunling", "country": "CN", "coord": {"lon": 117.336037, "lat": 23.95384}}, {"id": 1785717, "name": "Yunhe", "country": "CN", "coord": {"lon": 119.716667, "lat": 34.083328}}, {"id": 1785719, "name": "Yunhe", "country": "CN", "coord": {"lon": 100.1978, "lat": 26.524969}}, {"id": 1785741, "name": "Yuncao", "country": "CN", "coord": {"lon": 118.074097, "lat": 31.422661}}, {"id": 1785766, "name": "Yuling", "country": "CN", "coord": {"lon": 112.429443, "lat": 39.555828}}, {"id": 1785800, "name": "Yujing", "country": "CN", "coord": {"lon": 112.602898, "lat": 39.675522}}, {"id": 1785802, "name": "Yujin", "country": "CN", "coord": {"lon": 109.244652, "lat": 34.515079}}, {"id": 1785803, "name": "Yujin", "country": "CN", "coord": {"lon": 103.945557, "lat": 29.209089}}, {"id": 1785805, "name": "Wulingyuan", "country": "CN", "coord": {"lon": 110.544067, "lat": 29.34936}}, {"id": 1785829, "name": "Yujia", "country": "CN", "coord": {"lon": 117.022972, "lat": 28.1744}}, {"id": 1785843, "name": "Yuhuangmiao", "country": "CN", "coord": {"lon": 106.948914, "lat": 33.72715}}, {"id": 1785858, "name": "Yuguzhuang", "country": "CN", "coord": {"lon": 117.358887, "lat": 39.639999}}, {"id": 1785866, "name": "Yugan", "country": "CN", "coord": {"lon": 116.684387, "lat": 28.695629}}, {"id": 1785871, "name": "Yufang", "country": "CN", "coord": {"lon": 117.254822, "lat": 26.902189}}, {"id": 1785882, "name": "Yueyang", "country": "CN", "coord": {"lon": 111.914543, "lat": 36.2896}}, {"id": 1785896, "name": "Yuecheng", "country": "CN", "coord": {"lon": 102.508698, "lat": 28.641569}}, {"id": 1785922, "name": "Yuelai", "country": "CN", "coord": {"lon": 121.432449, "lat": 31.935699}}, {"id": 1785946, "name": "Jiulong", "country": "CN", "coord": {"lon": 106.437134, "lat": 30.536221}}, {"id": 1785961, "name": "Yudongzi", "country": "CN", "coord": {"lon": 106.322533, "lat": 33.3251}}, {"id": 1785963, "name": "Yudong", "country": "CN", "coord": {"lon": 121.355003, "lat": 32.027229}}, {"id": 1785972, "name": "Yucun", "country": "CN", "coord": {"lon": 118.631393, "lat": 30.34889}}, {"id": 1785981, "name": "Yucheng", "country": "CN", "coord": {"lon": 120.852287, "lat": 30.53507}}, {"id": 1785998, "name": "Yuanzhou", "country": "CN", "coord": {"lon": 113.953438, "lat": 23.12323}}, {"id": 1786039, "name": "Yuantan", "country": "CN", "coord": {"lon": 113.195877, "lat": 23.66353}}, {"id": 1786050, "name": "Yuanshan", "country": "CN", "coord": {"lon": 114.48439, "lat": 24.372789}}, {"id": 1786052, "name": "Yuanren", "country": "CN", "coord": {"lon": 109.454872, "lat": 34.79681}}, {"id": 1786063, "name": "Yuanma", "country": "CN", "coord": {"lon": 101.872002, "lat": 25.681971}}, {"id": 1786066, "name": "Yuanling", "country": "CN", "coord": {"lon": 110.402222, "lat": 28.44861}}, {"id": 1786071, "name": "Yuankeng", "country": "CN", "coord": {"lon": 117.710678, "lat": 26.761339}}, {"id": 1786088, "name": "Yuanhua", "country": "CN", "coord": {"lon": 120.771553, "lat": 30.414539}}, {"id": 1786092, "name": "Yuanguping", "country": "CN", "coord": {"lon": 110.724541, "lat": 29.015829}}, {"id": 1786099, "name": "Yuandun", "country": "CN", "coord": {"lon": 106.639198, "lat": 33.02784}}, {"id": 1786110, "name": "Yuancheng", "country": "CN", "coord": {"lon": 107.789574, "lat": 36.65202}}, {"id": 1786113, "name": "Yuanbuzi", "country": "CN", "coord": {"lon": 112.53434, "lat": 39.822201}}, {"id": 1786119, "name": "Yuanba", "country": "CN", "coord": {"lon": 105.961777, "lat": 32.325642}}, {"id": 1786125, "name": "Youzha", "country": "CN", "coord": {"lon": 121.063057, "lat": 32.01878}}, {"id": 1786129, "name": "Youzha", "country": "CN", "coord": {"lon": 103.274719, "lat": 24.46611}}, {"id": 1786131, "name": "Youzai", "country": "CN", "coord": {"lon": 113.888512, "lat": 39.950909}}, {"id": 1786140, "name": "Youxikou", "country": "CN", "coord": {"lon": 118.443901, "lat": 26.398121}}, {"id": 1786141, "name": "Youxian Chengguanzhen", "country": "CN", "coord": {"lon": 113.362312, "lat": 26.98399}}, {"id": 1786148, "name": "Youxi Chengguanzhen", "country": "CN", "coord": {"lon": 118.178886, "lat": 26.173611}}, {"id": 1786151, "name": "Youtian", "country": "CN", "coord": {"lon": 114.792763, "lat": 27.512079}}, {"id": 1786157, "name": "Youshui", "country": "CN", "coord": {"lon": 115.669739, "lat": 25.44347}}, {"id": 1786169, "name": "Youlan", "country": "CN", "coord": {"lon": 116.150002, "lat": 28.580021}}, {"id": 1786182, "name": "Youguzhuang", "country": "CN", "coord": {"lon": 117.246109, "lat": 39.90583}}, {"id": 1786202, "name": "Youdunjie", "country": "CN", "coord": {"lon": 116.637421, "lat": 29.377001}}, {"id": 1786211, "name": "Youcheng", "country": "CN", "coord": {"lon": 116.830772, "lat": 29.2365}}, {"id": 1786244, "name": "Yongxing", "country": "CN", "coord": {"lon": 118.368912, "lat": 27.92927}}, {"id": 1786247, "name": "Yongxing Chengguanzhen", "country": "CN", "coord": {"lon": 113.132782, "lat": 26.106649}}, {"id": 1786248, "name": "Yongxing", "country": "CN", "coord": {"lon": 110.262939, "lat": 19.893841}}, {"id": 1786257, "name": "Yongtai", "country": "CN", "coord": {"lon": 108.150002, "lat": 34.889439}}, {"id": 1786259, "name": "Yongtai", "country": "CN", "coord": {"lon": 115.442101, "lat": 27.942961}}, {"id": 1786266, "name": "Yongshan", "country": "CN", "coord": {"lon": 117.314842, "lat": 29.1497}}, {"id": 1786278, "name": "Yongping", "country": "CN", "coord": {"lon": 117.777702, "lat": 28.21554}}, {"id": 1786279, "name": "Yongping", "country": "CN", "coord": {"lon": 116.114166, "lat": 25.28212}}, {"id": 1786288, "name": "Yongning", "country": "CN", "coord": {"lon": 106.188652, "lat": 33.839561}}, {"id": 1786290, "name": "Yongning", "country": "CN", "coord": {"lon": 114.365761, "lat": 28.52449}}, {"id": 1786293, "name": "Yongning", "country": "CN", "coord": {"lon": 118.690002, "lat": 24.68}}, {"id": 1786301, "name": "Yonglong", "country": "CN", "coord": {"lon": 115.931168, "lat": 25.4174}}, {"id": 1786306, "name": "Yongle", "country": "CN", "coord": {"lon": 108.938057, "lat": 34.53278}}, {"id": 1786334, "name": "Yonghe", "country": "CN", "coord": {"lon": 117.475563, "lat": 39.075279}}, {"id": 1786336, "name": "Zhihe", "country": "CN", "coord": {"lon": 110.639557, "lat": 36.779961}}, {"id": 1786342, "name": "Yonghe", "country": "CN", "coord": {"lon": 112.03228, "lat": 24.62594}}, {"id": 1786343, "name": "Yonghe", "country": "CN", "coord": {"lon": 115.799377, "lat": 24.144711}}, {"id": 1786344, "name": "Yonghan", "country": "CN", "coord": {"lon": 113.968208, "lat": 23.57003}}, {"id": 1786346, "name": "Yonggu", "country": "CN", "coord": {"lon": 111.363098, "lat": 35.721298}}, {"id": 1786354, "name": "Yongfeng", "country": "CN", "coord": {"lon": 109.859261, "lat": 34.999168}}, {"id": 1786356, "name": "Yongfeng", "country": "CN", "coord": {"lon": 118.213661, "lat": 28.41893}}, {"id": 1786364, "name": "Yongding", "country": "CN", "coord": {"lon": 101.686417, "lat": 26.04122}}, {"id": 1786365, "name": "Yongding", "country": "CN", "coord": {"lon": 102.461891, "lat": 25.198601}}, {"id": 1786370, "name": "Taocheng", "country": "CN", "coord": {"lon": 118.30056, "lat": 25.3123}}, {"id": 1786382, "name": "Yongbei", "country": "CN", "coord": {"lon": 100.780731, "lat": 26.646231}}, {"id": 1786412, "name": "Yizhang Chengguanzhen", "country": "CN", "coord": {"lon": 112.978973, "lat": 25.38323}}, {"id": 1786430, "name": "Yixi", "country": "CN", "coord": {"lon": 116.644562, "lat": 23.69644}}, {"id": 1786444, "name": "Yitao", "country": "CN", "coord": {"lon": 119.099998, "lat": 34.083328}}, {"id": 1786448, "name": "Yitang", "country": "CN", "coord": {"lon": 113.704422, "lat": 31.09568}}, {"id": 1786449, "name": "Yisuhe", "country": "CN", "coord": {"lon": 112.926826, "lat": 27.76544}}, {"id": 1786457, "name": "Yishi", "country": "CN", "coord": {"lon": 121.474716, "lat": 29.19944}}, {"id": 1786458, "name": "Yishi", "country": "CN", "coord": {"lon": 110.745979, "lat": 35.16497}}, {"id": 1786462, "name": "Yishan", "country": "CN", "coord": {"lon": 119.254173, "lat": 34.299438}}, {"id": 1786467, "name": "Yisa", "country": "CN", "coord": {"lon": 102.447113, "lat": 23.33231}}, {"id": 1786469, "name": "Yirong", "country": "CN", "coord": {"lon": 114.8283, "lat": 23.521099}}, {"id": 1786474, "name": "Yiqiao", "country": "CN", "coord": {"lon": 120.197838, "lat": 30.069559}}, {"id": 1786478, "name": "Yinzu", "country": "CN", "coord": {"lon": 114.886597, "lat": 29.9603}}, {"id": 1786480, "name": "Yinzhu", "country": "CN", "coord": {"lon": 119.416847, "lat": 29.98185}}, {"id": 1786485, "name": "Yinzhen", "country": "CN", "coord": {"lon": 109.097656, "lat": 34.08268}}, {"id": 1786487, "name": "Yinying", "country": "CN", "coord": {"lon": 113.557503, "lat": 37.936939}}, {"id": 1786488, "name": "Yinyang", "country": "CN", "coord": {"lon": 121.86187, "lat": 31.71483}}, {"id": 1786499, "name": "Yintang", "country": "CN", "coord": {"lon": 118.530891, "lat": 31.597561}}, {"id": 1786517, "name": "Yinliu", "country": "CN", "coord": {"lon": 117.396393, "lat": 39.982498}}, {"id": 1786519, "name": "Yinkeng", "country": "CN", "coord": {"lon": 115.614731, "lat": 26.21512}}, {"id": 1786525, "name": "Yinjiang", "country": "CN", "coord": {"lon": 121.355186, "lat": 29.7742}}, {"id": 1786529, "name": "Yinji", "country": "CN", "coord": {"lon": 112.07386, "lat": 31.940741}}, {"id": 1786531, "name": "Yinjiacheng", "country": "CN", "coord": {"lon": 106.941269, "lat": 36.18866}}, {"id": 1786535, "name": "Yinji", "country": "CN", "coord": {"lon": 113.574997, "lat": 33.25082}}, {"id": 1786538, "name": "Yining", "country": "CN", "coord": {"lon": 114.563622, "lat": 29.03614}}, {"id": 1786545, "name": "Yingzhou", "country": "CN", "coord": {"lon": 109.849419, "lat": 18.42149}}, {"id": 1786559, "name": "Jincheng", "country": "CN", "coord": {"lon": 113.185539, "lat": 39.55912}}, {"id": 1786572, "name": "Yingtou", "country": "CN", "coord": {"lon": 107.75386, "lat": 34.160141}}, {"id": 1786590, "name": "Yingqiao", "country": "CN", "coord": {"lon": 113.585297, "lat": 33.963421}}, {"id": 1786620, "name": "Yinggen", "country": "CN", "coord": {"lon": 109.839996, "lat": 19.03833}}, {"id": 1786622, "name": "Yinggehai", "country": "CN", "coord": {"lon": 108.689438, "lat": 18.511419}}, {"id": 1786630, "name": "Yingdu", "country": "CN", "coord": {"lon": 118.244171, "lat": 24.97167}}, {"id": 1786632, "name": "Yingdianjie", "country": "CN", "coord": {"lon": 120.113892, "lat": 29.817221}}, {"id": 1786634, "name": "Yingcheng", "country": "CN", "coord": {"lon": 113.412682, "lat": 24.16588}}, {"id": 1786635, "name": "Yingcui", "country": "CN", "coord": {"lon": 106.45108, "lat": 32.482399}}, {"id": 1786696, "name": "Yijing", "country": "CN", "coord": {"lon": 113.214027, "lat": 39.639301}}, {"id": 1786697, "name": "Yijing", "country": "CN", "coord": {"lon": 111.99984, "lat": 39.064491}}, {"id": 1786699, "name": "Yijing", "country": "CN", "coord": {"lon": 113.601936, "lat": 37.83556}}, {"id": 1786702, "name": "Yijing", "country": "CN", "coord": {"lon": 108.105003, "lat": 34.57222}}, {"id": 1786706, "name": "Yijiang", "country": "CN", "coord": {"lon": 118.486061, "lat": 30.90745}}, {"id": 1786738, "name": "Yidian", "country": "CN", "coord": {"lon": 107.75309, "lat": 34.403759}}, {"id": 1786751, "name": "Yichongqiao", "country": "CN", "coord": {"lon": 110.86113, "lat": 29.33136}}, {"id": 1786756, "name": "Tangxing", "country": "CN", "coord": {"lon": 111.698723, "lat": 35.745209}}, {"id": 1786778, "name": "Yezhou", "country": "CN", "coord": {"lon": 109.723328, "lat": 30.603689}}, {"id": 1786789, "name": "Yexie", "country": "CN", "coord": {"lon": 121.316429, "lat": 30.945431}}, {"id": 1786790, "name": "Kunyang", "country": "CN", "coord": {"lon": 113.345001, "lat": 33.619999}}, {"id": 1786796, "name": "Yetan", "country": "CN", "coord": {"lon": 115.173523, "lat": 23.9056}}, {"id": 1786803, "name": "Yeping", "country": "CN", "coord": {"lon": 116.069702, "lat": 25.90567}}, {"id": 1786811, "name": "Yeliguan", "country": "CN", "coord": {"lon": 103.660492, "lat": 34.964401}}, {"id": 1786841, "name": "Yazhou", "country": "CN", "coord": {"lon": 120.325562, "lat": 32.390831}}, {"id": 1786854, "name": "Yatunpu", "country": "CN", "coord": {"lon": 109.626671, "lat": 26.155001}}, {"id": 1786866, "name": "Yashan", "country": "CN", "coord": {"lon": 118.01667, "lat": 30.816669}}, {"id": 1786872, "name": "Yaqueling", "country": "CN", "coord": {"lon": 111.586151, "lat": 30.64543}}, {"id": 1786875, "name": "Yaqian", "country": "CN", "coord": {"lon": 116.452881, "lat": 28.289829}}, {"id": 1786893, "name": "Yaoxu", "country": "CN", "coord": {"lon": 115.208122, "lat": 27.85428}}, {"id": 1786900, "name": "Yaozhou", "country": "CN", "coord": {"lon": 108.970001, "lat": 34.905281}}, {"id": 1786926, "name": "Yaoshi", "country": "CN", "coord": {"lon": 109.936592, "lat": 34.057961}}, {"id": 1786927, "name": "Yaoshi", "country": "CN", "coord": {"lon": 109.530281, "lat": 27.639441}}, {"id": 1786928, "name": "Yaoshi", "country": "CN", "coord": {"lon": 110.789169, "lat": 26.29306}}, {"id": 1786948, "name": "Yaopi", "country": "CN", "coord": {"lon": 113.644173, "lat": 26.88694}}, {"id": 1786955, "name": "Yaoli", "country": "CN", "coord": {"lon": 117.57502, "lat": 29.546209}}, {"id": 1786960, "name": "Yaowang", "country": "CN", "coord": {"lon": 120.066673, "lat": 32.216671}}, {"id": 1786964, "name": "Yaojiagou", "country": "CN", "coord": {"lon": 107.521477, "lat": 34.56641}}, {"id": 1786990, "name": "Yaodu", "country": "CN", "coord": {"lon": 117.01667, "lat": 30.1}}, {"id": 1786996, "name": "Yaodian", "country": "CN", "coord": {"lon": 108.851936, "lat": 34.407501}}, {"id": 1786997, "name": "Yaojiadian", "country": "CN", "coord": {"lon": 111.43763, "lat": 30.36681}}, {"id": 1787003, "name": "Yaocun", "country": "CN", "coord": {"lon": 119.100578, "lat": 30.891809}}, {"id": 1787016, "name": "Yanzihe", "country": "CN", "coord": {"lon": 113.605057, "lat": 31.968969}}, {"id": 1787020, "name": "Yanzibian", "country": "CN", "coord": {"lon": 105.9254, "lat": 32.901192}}, {"id": 1787022, "name": "Yanzi", "country": "CN", "coord": {"lon": 110.220284, "lat": 29.96806}}, {"id": 1787046, "name": "Yanxia", "country": "CN", "coord": {"lon": 114.862793, "lat": 29.56974}}, {"id": 1787048, "name": "Yanxi", "country": "CN", "coord": {"lon": 115.039047, "lat": 27.64255}}, {"id": 1787053, "name": "Yanwu", "country": "CN", "coord": {"lon": 107.073677, "lat": 36.1577}}, {"id": 1787057, "name": "Yanweigang", "country": "CN", "coord": {"lon": 119.76667, "lat": 34.466671}}, {"id": 1787059, "name": "Yanwan", "country": "CN", "coord": {"lon": 106.978302, "lat": 34.033699}}, {"id": 1787065, "name": "Yantou", "country": "CN", "coord": {"lon": 113.329018, "lat": 39.060589}}, {"id": 1787072, "name": "Yantian", "country": "CN", "coord": {"lon": 114.37429, "lat": 27.36594}}, {"id": 1787073, "name": "Yantian", "country": "CN", "coord": {"lon": 119.857498, "lat": 26.853331}}, {"id": 1787075, "name": "Yantian", "country": "CN", "coord": {"lon": 114.26722, "lat": 22.584221}}, {"id": 1787079, "name": "Yantang", "country": "CN", "coord": {"lon": 113.695831, "lat": 26.78833}}, {"id": 1787080, "name": "Yantan", "country": "CN", "coord": {"lon": 104.873802, "lat": 29.27396}}, {"id": 1787094, "name": "Yansi", "country": "CN", "coord": {"lon": 118.336792, "lat": 29.82365}}, {"id": 1787123, "name": "Yanqiao", "country": "CN", "coord": {"lon": 120.330948, "lat": 31.712721}}, {"id": 1787125, "name": "Yanqian", "country": "CN", "coord": {"lon": 117.451637, "lat": 26.26259}}, {"id": 1787129, "name": "Yanmenguan", "country": "CN", "coord": {"lon": 112.859459, "lat": 39.190182}}, {"id": 1787131, "name": "Yanmen", "country": "CN", "coord": {"lon": 109.74028, "lat": 27.855}}, {"id": 1787143, "name": "Yanling", "country": "CN", "coord": {"lon": 104.661079, "lat": 29.530649}}, {"id": 1787151, "name": "Yankou", "country": "CN", "coord": {"lon": 106.28669, "lat": 30.351151}}, {"id": 1787152, "name": "Yankou", "country": "CN", "coord": {"lon": 111.088058, "lat": 27.34833}}, {"id": 1787163, "name": "Yanjing", "country": "CN", "coord": {"lon": 111.759438, "lat": 29.84277}}, {"id": 1787164, "name": "Yanjing", "country": "CN", "coord": {"lon": 101.509682, "lat": 27.426991}}, {"id": 1787166, "name": "Yanjing", "country": "CN", "coord": {"lon": 104.189003, "lat": 28.072069}}, {"id": 1787178, "name": "Yanjiao", "country": "CN", "coord": {"lon": 118.041107, "lat": 29.82}}, {"id": 1787204, "name": "Yangzongnan Hengjie", "country": "CN", "coord": {"lon": 102.969452, "lat": 24.82222}}, {"id": 1787206, "name": "Yangzi", "country": "CN", "coord": {"lon": 116.604118, "lat": 29.6413}}, {"id": 1787208, "name": "Yangzi", "country": "CN", "coord": {"lon": 112.632431, "lat": 31.292101}}, {"id": 1787228, "name": "Yangzhou", "country": "CN", "coord": {"lon": 115.38028, "lat": 29.16279}}, {"id": 1787230, "name": "Yangzhong", "country": "CN", "coord": {"lon": 119.374443, "lat": 26.705561}}, {"id": 1787231, "name": "Hutou", "country": "CN", "coord": {"lon": 118.476303, "lat": 26.2771}}, {"id": 1787246, "name": "Yangyu", "country": "CN", "coord": {"lon": 111.090973, "lat": 35.42012}}, {"id": 1787247, "name": "Yangyu", "country": "CN", "coord": {"lon": 108.206421, "lat": 34.651211}}, {"id": 1787255, "name": "Yangxu", "country": "CN", "coord": {"lon": 115.158493, "lat": 28.369221}}, {"id": 1787272, "name": "Yangxi", "country": "CN", "coord": {"lon": 118.642097, "lat": 30.15667}}, {"id": 1787274, "name": "Yangxi", "country": "CN", "coord": {"lon": 116.731918, "lat": 28.229771}}, {"id": 1787277, "name": "Yangxi", "country": "CN", "coord": {"lon": 114.213249, "lat": 27.297991}}, {"id": 1787278, "name": "Yangxi", "country": "CN", "coord": {"lon": 117.726723, "lat": 26.311411}}, {"id": 1787285, "name": "Yangwang", "country": "CN", "coord": {"lon": 111.115211, "lat": 35.50716}}, {"id": 1787304, "name": "Yangtou", "country": "CN", "coord": {"lon": 109.413887, "lat": 27.68944}}, {"id": 1787313, "name": "Yangtan", "country": "CN", "coord": {"lon": 111.538467, "lat": 35.775162}}, {"id": 1787314, "name": "Yangtan", "country": "CN", "coord": {"lon": 119.16806, "lat": 30.70583}}, {"id": 1787339, "name": "Yangsha", "country": "CN", "coord": {"lon": 103.668159, "lat": 34.831551}}, {"id": 1787367, "name": "Yangqiao", "country": "CN", "coord": {"lon": 114.589973, "lat": 27.95746}},