[{"id": 7285431, "name": "Capriasca", "country": "CH", "coord": {"lon": 8.98639, "lat": 46.091099}}, {"id": 6534699, "name": "Capriata dOrba", "country": "IT", "coord": {"lon": 8.69085, "lat": 44.727852}}, {"id": 3180625, "name": "Capriate San Gervasio", "country": "IT", "coord": {"lon": 9.52875, "lat": 45.612579}}, {"id": 3180626, "name": "Capriate San Gervasio", "country": "IT", "coord": {"lon": 9.52974, "lat": 45.612808}}, {"id": 3180624, "name": "Capriati al Volturno", "country": "IT", "coord": {"lon": 14.14542, "lat": 41.46862}}, {"id": 3180621, "name": "Caprie", "country": "IT", "coord": {"lon": 7.33191, "lat": 45.118839}}, {"id": 3180620, "name": "Capriglia Irpina", "country": "IT", "coord": {"lon": 14.77724, "lat": 40.96032}}, {"id": 6534313, "name": "Capriglio", "country": "IT", "coord": {"lon": 8.00893, "lat": 45.003551}}, {"id": 6534687, "name": "Caprile", "country": "IT", "coord": {"lon": 8.21582, "lat": 45.689571}}, {"id": 3180612, "name": "Caprino Bergamasco", "country": "IT", "coord": {"lon": 9.48175, "lat": 45.745281}}, {"id": 3180611, "name": "Caprino Veronese", "country": "IT", "coord": {"lon": 10.79518, "lat": 45.604889}}, {"id": 3180608, "name": "Capriolo", "country": "IT", "coord": {"lon": 9.93236, "lat": 45.635281}}, {"id": 3217360, "name": "Capriva del Friuli", "country": "IT", "coord": {"lon": 13.51111, "lat": 45.943062}}, {"id": 1090052, "name": "Caprivi", "country": "NA", "coord": {"lon": 23.75, "lat": -17.83333}}, {"id": 4886584, "name": "Capron", "country": "US", "coord": {"lon": -88.740379, "lat": 42.399738}}, {"id": 2520187, "name": "Capr\u00e9s", "country": "ES", "coord": {"lon": -1.13658, "lat": 38.231258}}, {"id": 5857264, "name": "Captain Cook", "country": "US", "coord": {"lon": -155.921677, "lat": 19.496941}}, {"id": 7231955, "name": "Captains Cove", "country": "US", "coord": {"lon": -75.422722, "lat": 37.98996}}, {"id": 2172389, "name": "Captains Flat", "country": "AU", "coord": {"lon": 149.433334, "lat": -35.583328}}, {"id": 6448441, "name": "Captieux", "country": "FR", "coord": {"lon": -0.25, "lat": 44.283329}}, {"id": 3028684, "name": "Captieux", "country": "FR", "coord": {"lon": -0.26196, "lat": 44.2924}}, {"id": 6541985, "name": "Capua", "country": "IT", "coord": {"lon": 14.22013, "lat": 41.099709}}, {"id": 3180601, "name": "Capua", "country": "IT", "coord": {"lon": 14.22013, "lat": 41.099709}}, {"id": 1718600, "name": "Capucnasan", "country": "PH", "coord": {"lon": 123.216667, "lat": 13.6}}, {"id": 1718594, "name": "Capul", "country": "PH", "coord": {"lon": 124.181099, "lat": 12.4237}}, {"id": 3531604, "name": "Capula", "country": "MX", "coord": {"lon": -99.916672, "lat": 18.866671}}, {"id": 4015520, "name": "Capula", "country": "MX", "coord": {"lon": -101.800003, "lat": 19.700001}}, {"id": 1718593, "name": "Capulaan", "country": "PH", "coord": {"lon": 120.540833, "lat": 15.9}}, {"id": 3531598, "name": "Capulhuac", "country": "MX", "coord": {"lon": -99.466942, "lat": 19.191389}}, {"id": 1718585, "name": "Capuluan", "country": "PH", "coord": {"lon": 122.518059, "lat": 13.81472}}, {"id": 3180600, "name": "Capurso", "country": "IT", "coord": {"lon": 16.921591, "lat": 41.046928}}, {"id": 682750, "name": "Capusu Mare", "country": "RO", "coord": {"lon": 23.299999, "lat": 46.783329}}, {"id": 2940315, "name": "Caputh", "country": "DE", "coord": {"lon": 13, "lat": 52.349998}}, {"id": 3467123, "name": "Caputira", "country": "BR", "coord": {"lon": -42.270561, "lat": -20.17194}}, {"id": 1718564, "name": "Capuy", "country": "PH", "coord": {"lon": 123.933327, "lat": 12.98333}}, {"id": 3028680, "name": "Capvern", "country": "FR", "coord": {"lon": 0.31604, "lat": 43.103569}}, {"id": 4563183, "name": "Cap\u00e1", "country": "PR", "coord": {"lon": -67.057404, "lat": 18.37689}}, {"id": 3467353, "name": "Cap\u00e3o do Le\u00e3o", "country": "BR", "coord": {"lon": -52.483891, "lat": -31.76333}}, {"id": 3687476, "name": "Caqueza", "country": "CO", "coord": {"lon": -73.946831, "lat": 4.40569}}, {"id": 3587148, "name": "Cara Sucia", "country": "SV", "coord": {"lon": -90.035828, "lat": 13.77917}}, {"id": 1718558, "name": "Carabalan", "country": "PH", "coord": {"lon": 122.948059, "lat": 10.10611}}, {"id": 3646767, "name": "Caraballeda", "country": "VE", "coord": {"lon": -66.85215, "lat": 10.61119}}, {"id": 3126454, "name": "Carabana", "country": "ES", "coord": {"lon": -3.23572, "lat": 40.254238}}, {"id": 6361107, "name": "Carabantes", "country": "ES", "coord": {"lon": -1.99117, "lat": 41.550079}}, {"id": 3126450, "name": "Carabantes", "country": "ES", "coord": {"lon": -1.9981, "lat": 41.552109}}, {"id": 3945612, "name": "Carabayllo", "country": "PE", "coord": {"lon": -77.037781, "lat": -11.85333}}, {"id": 6359261, "name": "Caraba\u00f1a", "country": "ES", "coord": {"lon": -3.24683, "lat": 40.255371}}, {"id": 3862719, "name": "Carabelas", "country": "AR", "coord": {"lon": -60.867111, "lat": -34.035851}}, {"id": 2172388, "name": "Carabost", "country": "AU", "coord": {"lon": 147.716675, "lat": -35.599998}}, {"id": 682747, "name": "Caracal", "country": "RO", "coord": {"lon": 24.35, "lat": 44.116669}}, {"id": 1718541, "name": "Caracal", "country": "PH", "coord": {"lon": 122.845001, "lat": 8.12722}}, {"id": 3664684, "name": "Caracara\u00ed", "country": "BR", "coord": {"lon": -61.128059, "lat": 1.81611}}, {"id": 3646738, "name": "Caracas", "country": "VE", "coord": {"lon": -66.879189, "lat": 10.48801}}, {"id": 6361108, "name": "Caracena", "country": "ES", "coord": {"lon": -3.10426, "lat": 41.393108}}, {"id": 3126443, "name": "Caracena", "country": "ES", "coord": {"lon": -3.09146, "lat": 41.383209}}, {"id": 3126440, "name": "Caracenilla", "country": "ES", "coord": {"lon": -2.56872, "lat": 40.141022}}, {"id": 3646731, "name": "Carache", "country": "VE", "coord": {"lon": -70.228554, "lat": 9.62872}}, {"id": 3728428, "name": "Caracol", "country": "HT", "coord": {"lon": -72.016113, "lat": 19.69083}}, {"id": 3687451, "name": "Caracoli", "country": "CO", "coord": {"lon": -74.760559, "lat": 6.41194}}, {"id": 6459938, "name": "Caracovo", "country": "BG", "coord": {"lon": 24.683331, "lat": 42.200001}}, {"id": 4015471, "name": "Caracuaro", "country": "MX", "coord": {"lon": -101.126389, "lat": 19.010559}}, {"id": 2525370, "name": "Caraffa del Bianco", "country": "IT", "coord": {"lon": 16.086399, "lat": 38.09267}}, {"id": 2525369, "name": "Caraffa di Catanzaro", "country": "IT", "coord": {"lon": 16.4856, "lat": 38.88129}}, {"id": 2172382, "name": "Carag Carag", "country": "AU", "coord": {"lon": 144.916672, "lat": -36.466671}}, {"id": 7521299, "name": "Caraga", "country": "PH", "coord": {"lon": 125.741669, "lat": 9}}, {"id": 1718530, "name": "Caraga", "country": "PH", "coord": {"lon": 126.567497, "lat": 7.32972}}, {"id": 2172384, "name": "Caragabal", "country": "AU", "coord": {"lon": 147.75, "lat": -33.833328}}, {"id": 3180597, "name": "Caraglio", "country": "IT", "coord": {"lon": 7.43293, "lat": 44.41943}}, {"id": 6322184, "name": "Caraguatatuba", "country": "BR", "coord": {"lon": -45.489922, "lat": -23.633841}}, {"id": 3467081, "name": "Caraguatatuba", "country": "BR", "coord": {"lon": -45.413059, "lat": -23.620279}}, {"id": 3435679, "name": "Caraguatay", "country": "AR", "coord": {"lon": -54.78093, "lat": -26.605869}}, {"id": 3439175, "name": "Caraguatay", "country": "PY", "coord": {"lon": -56.816669, "lat": -25.23333}}, {"id": 618136, "name": "Carahasani", "country": "MD", "coord": {"lon": 29.81222, "lat": 46.467499}}, {"id": 3896774, "name": "Carahue", "country": "CL", "coord": {"lon": -73.166672, "lat": -38.700001}}, {"id": 3467078, "name": "Carai", "country": "BR", "coord": {"lon": -41.694721, "lat": -17.18889}}, {"id": 6535846, "name": "Caramagna Piemonte", "country": "IT", "coord": {"lon": 7.73943, "lat": 44.782242}}, {"id": 3028674, "name": "Caraman", "country": "FR", "coord": {"lon": 1.76002, "lat": 43.532711}}, {"id": 3180593, "name": "Caramanico Terme", "country": "IT", "coord": {"lon": 14.00551, "lat": 42.159142}}, {"id": 3687426, "name": "Caramanta", "country": "CO", "coord": {"lon": -75.643677, "lat": 5.54782}}, {"id": 1718517, "name": "Caramay", "country": "PH", "coord": {"lon": 119.236, "lat": 10.1815}}, {"id": 3467042, "name": "Carambei", "country": "BR", "coord": {"lon": -50.097221, "lat": -24.91778}}, {"id": 1718508, "name": "Caramoan", "country": "PH", "coord": {"lon": 123.863098, "lat": 13.7707}}, {"id": 1718503, "name": "Caramoran", "country": "PH", "coord": {"lon": 124.134697, "lat": 13.9849}}, {"id": 8012682, "name": "Caramos", "country": "PT", "coord": {"lon": -8.16996, "lat": 41.341942}}, {"id": 3638655, "name": "Caramuca", "country": "VE", "coord": {"lon": -70.320557, "lat": 8.59708}}, {"id": 2172378, "name": "Caramut", "country": "AU", "coord": {"lon": 142.516663, "lat": -37.950001}}, {"id": 1718497, "name": "Caramutan", "country": "PH", "coord": {"lon": 120.616669, "lat": 15.91667}}, {"id": 1718495, "name": "Caranan", "country": "PH", "coord": {"lon": 123.015602, "lat": 13.5167}}, {"id": 3922037, "name": "Caranavi", "country": "BO", "coord": {"lon": -67.550003, "lat": -15.81667}}, {"id": 682734, "name": "Carand", "country": "RO", "coord": {"lon": 22.08333, "lat": 46.450001}}, {"id": 3467026, "name": "Carandai", "country": "BR", "coord": {"lon": -43.806389, "lat": -20.953609}}, {"id": 6621253, "name": "Carandayti", "country": "BO", "coord": {"lon": -63.06842, "lat": -20.74353}}, {"id": 3922032, "name": "Carandayti", "country": "BO", "coord": {"lon": -63.066669, "lat": -20.75}}, {"id": 3467027, "name": "Caranda\u00ed", "country": "BR", "coord": {"lon": -43.916672, "lat": -20.933331}}, {"id": 3126431, "name": "Carand\u00eda", "country": "ES", "coord": {"lon": -3.97566, "lat": 43.335178}}, {"id": 3467012, "name": "Carangola", "country": "BR", "coord": {"lon": -42.029442, "lat": -20.733061}}, {"id": 8012361, "name": "Caranguejeira", "country": "PT", "coord": {"lon": -8.7011, "lat": 39.744999}}, {"id": 2270211, "name": "Caranguejeira", "country": "PT", "coord": {"lon": -8.7074, "lat": 39.746189}}, {"id": 6535253, "name": "Carano", "country": "IT", "coord": {"lon": 11.43978, "lat": 46.291512}}, {"id": 682729, "name": "Caransebes", "country": "RO", "coord": {"lon": 22.216669, "lat": 45.416672}}, {"id": 3028667, "name": "Carantec", "country": "FR", "coord": {"lon": -3.91545, "lat": 48.66811}}, {"id": 6449509, "name": "Carantilly", "country": "FR", "coord": {"lon": -1.23333, "lat": 49.066669}}, {"id": 3028666, "name": "Carantilly", "country": "FR", "coord": {"lon": -1.24068, "lat": 49.065659}}, {"id": 3467003, "name": "Carapebus", "country": "BR", "coord": {"lon": -41.66111, "lat": -22.18722}}, {"id": 3439167, "name": "Carapegua", "country": "PY", "coord": {"lon": -57.23333, "lat": -25.799999}}, {"id": 3180588, "name": "Carapelle", "country": "IT", "coord": {"lon": 15.69376, "lat": 41.365231}}, {"id": 3180586, "name": "Carapelle Calvisio", "country": "IT", "coord": {"lon": 13.6847, "lat": 42.299339}}, {"id": 8010966, "name": "Carape\u00e7os", "country": "PT", "coord": {"lon": -8.64674, "lat": 41.590801}}, {"id": 2741513, "name": "Carape\u00e7os", "country": "PT", "coord": {"lon": -8.63277, "lat": 41.58466}}, {"id": 3646673, "name": "Carapiapa", "country": "VE", "coord": {"lon": -61.633331, "lat": 6.616667}}, {"id": 3466998, "name": "Carapicuiba", "country": "BR", "coord": {"lon": -46.83556, "lat": -23.522499}}, {"id": 6322185, "name": "Carapicu\u00edba", "country": "BR", "coord": {"lon": -46.848518, "lat": -23.553391}}, {"id": 8011899, "name": "Carapinha", "country": "PT", "coord": {"lon": -8.09435, "lat": 40.284248}}, {"id": 2741510, "name": "Carapinha", "country": "PT", "coord": {"lon": -8.09445, "lat": 40.288132}}, {"id": 2741509, "name": "Carapinhal", "country": "PT", "coord": {"lon": -8.32878, "lat": 40.101292}}, {"id": 2172376, "name": "Carapooee", "country": "AU", "coord": {"lon": 143.333328, "lat": -36.700001}}, {"id": 1274974, "name": "Carapur", "country": "IN", "coord": {"lon": 73.966667, "lat": 15.55}}, {"id": 6942803, "name": "Caraquet", "country": "CA", "coord": {"lon": -64.938599, "lat": 47.794128}}, {"id": 3698841, "name": "Caras", "country": "PE", "coord": {"lon": -77.811394, "lat": -9.04667}}, {"id": 3180583, "name": "Carasco", "country": "IT", "coord": {"lon": 9.34567, "lat": 44.349751}}, {"id": 1718465, "name": "Carasi", "country": "PH", "coord": {"lon": 120.868332, "lat": 18.198891}}, {"id": 682716, "name": "Carasova", "country": "RO", "coord": {"lon": 21.870001, "lat": 45.198608}}, {"id": 3180582, "name": "Carassai", "country": "IT", "coord": {"lon": 13.68499, "lat": 43.032051}}, {"id": 682712, "name": "Carastelec", "country": "RO", "coord": {"lon": 22.700001, "lat": 47.299999}}, {"id": 6357675, "name": "Carataunas", "country": "ES", "coord": {"lon": -3.39361, "lat": 36.921909}}, {"id": 2520172, "name": "Carataunas", "country": "ES", "coord": {"lon": -3.40834, "lat": 36.922039}}, {"id": 6540332, "name": "Carate Brianza", "country": "IT", "coord": {"lon": 9.23594, "lat": 45.673679}}, {"id": 3180581, "name": "Carate Brianza", "country": "IT", "coord": {"lon": 9.23594, "lat": 45.673679}}, {"id": 6534414, "name": "Carate Urio", "country": "IT", "coord": {"lon": 9.12214, "lat": 45.87178}}, {"id": 3466988, "name": "Caratinga", "country": "BR", "coord": {"lon": -42.139172, "lat": -19.789721}}, {"id": 3664659, "name": "Carauari", "country": "BR", "coord": {"lon": -66.895828, "lat": -4.88278}}, {"id": 3402944, "name": "Caraubas", "country": "BR", "coord": {"lon": -37.556671, "lat": -5.7925}}, {"id": 682707, "name": "Caraula", "country": "RO", "coord": {"lon": 23.25, "lat": 44.183331}}, {"id": 2520171, "name": "Caravaca", "country": "ES", "coord": {"lon": -1.86342, "lat": 38.105579}}, {"id": 6539488, "name": "Caravaggio", "country": "IT", "coord": {"lon": 9.64046, "lat": 45.498878}}, {"id": 3180580, "name": "Caravaggio", "country": "IT", "coord": {"lon": 9.64046, "lat": 45.498878}}, {"id": 3180579, "name": "Caravate", "country": "IT", "coord": {"lon": 8.65793, "lat": 45.87888}}, {"id": 3466980, "name": "Caravelas", "country": "BR", "coord": {"lon": -39.248138, "lat": -17.712549}}, {"id": 3180578, "name": "Caravino", "country": "IT", "coord": {"lon": 7.96032, "lat": 45.398258}}, {"id": 3180577, "name": "Caravonica", "country": "IT", "coord": {"lon": 7.95805, "lat": 43.993019}}, {"id": 4104566, "name": "Caraway", "country": "US", "coord": {"lon": -90.322319, "lat": 35.758129}}, {"id": 3439163, "name": "Carayao", "country": "PY", "coord": {"lon": -56.400002, "lat": -25.183331}}, {"id": 1718448, "name": "Caraycaray", "country": "PH", "coord": {"lon": 124.415001, "lat": 11.5551}}, {"id": 1718446, "name": "Caraycayon", "country": "PH", "coord": {"lon": 123.48333, "lat": 13.61667}}, {"id": 3466978, "name": "Carazinho", "country": "BR", "coord": {"lon": -52.786388, "lat": -28.28389}}, {"id": 6356387, "name": "Carazo", "country": "ES", "coord": {"lon": -3.34972, "lat": 41.969742}}, {"id": 3126417, "name": "Carazo", "country": "ES", "coord": {"lon": -3.3531, "lat": 41.968319}}, {"id": 3687418, "name": "Cara\u00f1o", "country": "CO", "coord": {"lon": -78.183327, "lat": 1.66667}}, {"id": 3402945, "name": "Cara\u00fabas", "country": "BR", "coord": {"lon": -37.303059, "lat": -5.53}}, {"id": 3126408, "name": "Carbajal", "country": "ES", "coord": {"lon": -6.05648, "lat": 43.557209}}, {"id": 3126406, "name": "Carbajal de la Legua", "country": "ES", "coord": {"lon": -5.60699, "lat": 42.655811}}, {"id": 3614113, "name": "Carbajales", "country": "HN", "coord": {"lon": -86.349998, "lat": 15.51667}}, {"id": 6362483, "name": "Carbajales de Alba", "country": "ES", "coord": {"lon": -5.99235, "lat": 41.641529}}, {"id": 3126403, "name": "Carbajales de Alba", "country": "ES", "coord": {"lon": -5.99706, "lat": 41.653469}}, {"id": 6356743, "name": "Carbajo", "country": "ES", "coord": {"lon": -7.17521, "lat": 39.627419}}, {"id": 2520169, "name": "Carbajo", "country": "ES", "coord": {"lon": -7.19565, "lat": 39.603329}}, {"id": 3126398, "name": "Carbajosa de Armu\u00f1a", "country": "ES", "coord": {"lon": -5.6161, "lat": 41.073639}}, {"id": 6360334, "name": "Carbajosa de la Sagrada", "country": "ES", "coord": {"lon": -5.62988, "lat": 40.92366}}, {"id": 3126397, "name": "Carbajosa de la Sagrada", "country": "ES", "coord": {"lon": -5.65026, "lat": 40.933048}}, {"id": 6359836, "name": "Carballeda de Avia", "country": "ES", "coord": {"lon": -8.18119, "lat": 42.336781}}, {"id": 3126384, "name": "Carballeda de Avia", "country": "ES", "coord": {"lon": -8.16456, "lat": 42.3214}}, {"id": 6359171, "name": "Carballedo", "country": "ES", "coord": {"lon": -7.81118, "lat": 42.52459}}, {"id": 3126382, "name": "Carballedo", "country": "ES", "coord": {"lon": -7.8284, "lat": 42.521912}}, {"id": 6359837, "name": "Carballi\u00f1o (O)", "country": "ES", "coord": {"lon": -8.08081, "lat": 42.442139}}, {"id": 6357289, "name": "Carballo", "country": "ES", "coord": {"lon": -8.6919, "lat": 43.21677}}, {"id": 3126369, "name": "Carballo", "country": "ES", "coord": {"lon": -8.69104, "lat": 43.213001}}, {"id": 3126361, "name": "Carbay\u00edn", "country": "ES", "coord": {"lon": -5.63333, "lat": 43.349998}}, {"id": 6362484, "name": "Carbellino", "country": "ES", "coord": {"lon": -6.14326, "lat": 41.228088}}, {"id": 3126360, "name": "Carbellino", "country": "ES", "coord": {"lon": -6.14901, "lat": 41.229752}}, {"id": 5916706, "name": "Carberry", "country": "CA", "coord": {"lon": -99.360207, "lat": 49.868931}}, {"id": 5916708, "name": "Carberry Junction", "country": "CA", "coord": {"lon": -99.354111, "lat": 49.865318}}, {"id": 3180576, "name": "Carbognano", "country": "IT", "coord": {"lon": 12.26437, "lat": 42.331619}}, {"id": 4886590, "name": "Carbon Cliff", "country": "US", "coord": {"lon": -90.390678, "lat": 41.494759}}, {"id": 5820552, "name": "Carbon County", "country": "US", "coord": {"lon": -106.833931, "lat": 41.66663}}, {"id": 5536454, "name": "Carbon County", "country": "US", "coord": {"lon": -110.501266, "lat": 39.74107}}, {"id": 5183193, "name": "Carbon County", "country": "US", "coord": {"lon": -75.674629, "lat": 41.125359}}, {"id": 5643686, "name": "Carbon County", "country": "US", "coord": {"lon": -109.067368, "lat": 45.21661}}, {"id": 4053671, "name": "Carbon Hill", "country": "US", "coord": {"lon": -87.526123, "lat": 33.891769}}, {"id": 6448442, "name": "Carbon-Blanc", "country": "FR", "coord": {"lon": -0.5059, "lat": 44.894699}}, {"id": 3028653, "name": "Carbon-Blanc", "country": "FR", "coord": {"lon": -0.50107, "lat": 44.89642}}, {"id": 6535532, "name": "Carbonara Scrivia", "country": "IT", "coord": {"lon": 8.86975, "lat": 44.849152}}, {"id": 3180572, "name": "Carbonara al Ticino", "country": "IT", "coord": {"lon": 9.06155, "lat": 45.165661}}, {"id": 3180571, "name": "Carbonara di Bari", "country": "IT", "coord": {"lon": 16.866671, "lat": 41.066669}}, {"id": 6535636, "name": "Carbonara di Nola", "country": "IT", "coord": {"lon": 14.57884, "lat": 40.874409}}, {"id": 3180570, "name": "Carbonara di Po", "country": "IT", "coord": {"lon": 11.2328, "lat": 45.036579}}, {"id": 6534415, "name": "Carbonate", "country": "IT", "coord": {"lon": 8.93814, "lat": 45.68507}}, {"id": 5334145, "name": "Carbondale", "country": "US", "coord": {"lon": -121.006889, "lat": 38.408798}}, {"id": 4235193, "name": "Carbondale", "country": "US", "coord": {"lon": -89.216751, "lat": 37.727268}}, {"id": 4269076, "name": "Carbondale", "country": "US", "coord": {"lon": -95.689148, "lat": 38.818619}}, {"id": 5183204, "name": "Carbondale", "country": "US", "coord": {"lon": -75.501846, "lat": 41.573689}}, {"id": 5416113, "name": "Carbondale", "country": "US", "coord": {"lon": -107.211159, "lat": 39.40221}}, {"id": 3180565, "name": "Carbone", "country": "IT", "coord": {"lon": 16.08938, "lat": 40.14241}}, {"id": 5916722, "name": "Carbonear", "country": "CA", "coord": {"lon": -53.214779, "lat": 47.733189}}, {"id": 3180563, "name": "Carbonera", "country": "IT", "coord": {"lon": 12.28833, "lat": 45.680561}}, {"id": 6538293, "name": "Carbonera", "country": "IT", "coord": {"lon": 12.28441, "lat": 45.683601}}, {"id": 6355547, "name": "Carboneras", "country": "ES", "coord": {"lon": -1.92125, "lat": 37.00153}}, {"id": 2520163, "name": "Carboneras", "country": "ES", "coord": {"lon": -1.89651, "lat": 36.996658}}, {"id": 2520156, "name": "Carboneras de Guadazaon", "country": "ES", "coord": {"lon": -1.8, "lat": 39.883331}}, {"id": 6357411, "name": "Carboneras de Guadaza\u00f3n", "country": "ES", "coord": {"lon": -1.81583, "lat": 39.906761}}, {"id": 6360784, "name": "Carbonero el Mayor", "country": "ES", "coord": {"lon": -4.29246, "lat": 41.151081}}, {"id": 3126344, "name": "Carbonero el Mayor", "country": "ES", "coord": {"lon": -4.26478, "lat": 41.12257}}, {"id": 6358475, "name": "Carboneros", "country": "ES", "coord": {"lon": -3.63107, "lat": 38.219341}}, {"id": 2520155, "name": "Carboneros", "country": "ES", "coord": {"lon": -3.63139, "lat": 38.22958}}, {"id": 6539583, "name": "Carbonia", "country": "IT", "coord": {"lon": 8.52783, "lat": 39.165329}}, {"id": 2525362, "name": "Carbonia", "country": "IT", "coord": {"lon": 8.52222, "lat": 39.167221}}, {"id": 3466975, "name": "Carbonita", "country": "BR", "coord": {"lon": -43.015831, "lat": -17.526939}}, {"id": 6431494, "name": "Carbonne", "country": "FR", "coord": {"lon": 1.23333, "lat": 43.299999}}, {"id": 3028652, "name": "Carbonne", "country": "FR", "coord": {"lon": 1.2252, "lat": 43.298569}}, {"id": 5536462, "name": "Carbonville", "country": "US", "coord": {"lon": -110.834328, "lat": 39.619961}}, {"id": 2172360, "name": "Carboor", "country": "AU", "coord": {"lon": 146.550003, "lat": -36.633331}}, {"id": 2172356, "name": "Carbrook", "country": "AU", "coord": {"lon": 153.25, "lat": -27.683331}}, {"id": 682700, "name": "Carbunari", "country": "RO", "coord": {"lon": 21.744169, "lat": 44.834438}}, {"id": 682695, "name": "Carbunesti", "country": "RO", "coord": {"lon": 26.200001, "lat": 45.23333}}, {"id": 2965780, "name": "Carbury", "country": "IE", "coord": {"lon": -6.96583, "lat": 53.358608}}, {"id": 6356744, "name": "Carcaboso", "country": "ES", "coord": {"lon": -6.20982, "lat": 40.044159}}, {"id": 3126335, "name": "Carcaboso", "country": "ES", "coord": {"lon": -6.21376, "lat": 40.049679}}, {"id": 6357210, "name": "Carcabuey", "country": "ES", "coord": {"lon": -4.29916, "lat": 37.44083}}, {"id": 2520151, "name": "Carcabuey", "country": "ES", "coord": {"lon": -4.27471, "lat": 37.444199}}, {"id": 6361948, "name": "Carcaixent", "country": "ES", "coord": {"lon": -0.45551, "lat": 39.10899}}, {"id": 2520150, "name": "Carcaixent", "country": "ES", "coord": {"lon": -0.45, "lat": 39.133331}}, {"id": 682691, "name": "Carcaliu", "country": "RO", "coord": {"lon": 28.15, "lat": 45.183331}}, {"id": 6448443, "name": "Carcans", "country": "FR", "coord": {"lon": -1.05, "lat": 45.083328}}, {"id": 3028647, "name": "Carcans", "country": "FR", "coord": {"lon": -1.04429, "lat": 45.07869}}, {"id": 1718437, "name": "Carcar", "country": "PH", "coord": {"lon": 123.633331, "lat": 10.11667}}, {"id": 1718436, "name": "Carcar", "country": "PH", "coord": {"lon": 123.640198, "lat": 10.1061}}, {"id": 3126332, "name": "Carcar", "country": "ES", "coord": {"lon": -1.97904, "lat": 42.393139}}, {"id": 3862655, "name": "Carcarana", "country": "AR", "coord": {"lon": -61.153309, "lat": -32.856789}}, {"id": 3180557, "name": "Carcare", "country": "IT", "coord": {"lon": 8.29205, "lat": 44.354141}}, {"id": 6447020, "name": "Carcassonne", "country": "FR", "coord": {"lon": 2.35, "lat": 43.216671}}, {"id": 3028641, "name": "Carcassonne", "country": "FR", "coord": {"lon": 2.35, "lat": 43.216671}}, {"id": 6359615, "name": "Carcastillo", "country": "ES", "coord": {"lon": -1.42712, "lat": 42.361778}}, {"id": 3126331, "name": "Carcastillo", "country": "ES", "coord": {"lon": -1.44376, "lat": 42.379082}}, {"id": 2270184, "name": "Carcavelos", "country": "PT", "coord": {"lon": -9.32215, "lat": 38.691051}}, {"id": 8012456, "name": "Carcavelos", "country": "PT", "coord": {"lon": -9.33327, "lat": 38.6922}}, {"id": 6356388, "name": "Carcedo de Bureba", "country": "ES", "coord": {"lon": -3.50482, "lat": 42.57637}}, {"id": 3126324, "name": "Carcedo de Bureba", "country": "ES", "coord": {"lon": -3.4983, "lat": 42.578178}}, {"id": 6356389, "name": "Carcedo de Burgos", "country": "ES", "coord": {"lon": -3.62343, "lat": 42.286331}}, {"id": 3126323, "name": "Carcedo de Burgos", "country": "ES", "coord": {"lon": -3.62274, "lat": 42.286961}}, {"id": 2520145, "name": "Carcelen", "country": "ES", "coord": {"lon": -1.30879, "lat": 39.10202}}, {"id": 6355312, "name": "Carcel\u00e9n", "country": "ES", "coord": {"lon": -1.28877, "lat": 39.109921}}, {"id": 6448868, "name": "Carcen-Ponson", "country": "FR", "coord": {"lon": -0.8, "lat": 43.883331}}, {"id": 3028638, "name": "Carcen-Ponson", "country": "FR", "coord": {"lon": -0.80714, "lat": 43.882259}}, {"id": 2520144, "name": "Carcer", "country": "ES", "coord": {"lon": -0.56667, "lat": 39.066669}}, {"id": 3180554, "name": "Carceri", "country": "IT", "coord": {"lon": 11.61931, "lat": 45.196091}}, {"id": 3028637, "name": "Carces", "country": "FR", "coord": {"lon": 6.18308, "lat": 43.476318}}, {"id": 2520139, "name": "Carchelejo", "country": "ES", "coord": {"lon": -3.64058, "lat": 37.63596}}, {"id": 2172352, "name": "Carcoar", "country": "AU", "coord": {"lon": 149.133331, "lat": -33.599998}}, {"id": 3180552, "name": "Carcoforo", "country": "IT", "coord": {"lon": 8.04967, "lat": 45.908581}}, {"id": 2653825, "name": "Carcroft", "country": "GB", "coord": {"lon": -1.17648, "lat": 53.582821}}, {"id": 5916754, "name": "Carcross", "country": "CA", "coord": {"lon": -134.703674, "lat": 60.166088}}, {"id": 392051, "name": "Cardakli", "country": "TR", "coord": {"lon": 42.570278, "lat": 37.237782}}, {"id": 3443356, "name": "Cardal", "country": "UY", "coord": {"lon": -56.388889, "lat": -34.290562}}, {"id": 6448444, "name": "Cardan", "country": "FR", "coord": {"lon": -0.33333, "lat": 44.683331}}, {"id": 3028630, "name": "Cardan", "country": "FR", "coord": {"lon": -0.33721, "lat": 44.681381}}, {"id": 6534233, "name": "Cardano al Campo", "country": "IT", "coord": {"lon": 8.76934, "lat": 45.648869}}, {"id": 6535847, "name": "Carde", "country": "IT", "coord": {"lon": 7.47762, "lat": 44.744438}}, {"id": 6316808, "name": "Cardeal Mota", "country": "BR", "coord": {"lon": -43.621391, "lat": -19.33333}}, {"id": 3466973, "name": "Cardeal da Silva", "country": "BR", "coord": {"lon": -37.948608, "lat": -11.94167}}, {"id": 3126317, "name": "Cardedeu", "country": "ES", "coord": {"lon": 2.35739, "lat": 41.639759}}, {"id": 2592655, "name": "Cardedu", "country": "IT", "coord": {"lon": 9.62528, "lat": 39.796669}}, {"id": 6693025, "name": "Carden", "country": "GB", "coord": {"lon": -2.79735, "lat": 53.07214}}, {"id": 2520134, "name": "Cardena", "country": "ES", "coord": {"lon": -4.32358, "lat": 38.270222}}, {"id": 3126310, "name": "Cardenadijo", "country": "ES", "coord": {"lon": -3.66779, "lat": 42.30217}}, {"id": 3126308, "name": "Cardenajimeno", "country": "ES", "coord": {"lon": -3.62103, "lat": 42.330379}}, {"id": 3620479, "name": "Cardenas", "country": "NI", "coord": {"lon": -85.508904, "lat": 11.19639}}, {"id": 3531576, "name": "Cardenas", "country": "MX", "coord": {"lon": -93.366669, "lat": 17.98333}}, {"id": 3531574, "name": "Cardenas", "country": "MX", "coord": {"lon": -99.666672, "lat": 22}}, {"id": 3565432, "name": "Cardenas", "country": "CU", "coord": {"lon": -81.20472, "lat": 23.0375}}, {"id": 3126306, "name": "Cardenas", "country": "ES", "coord": {"lon": -2.76726, "lat": 42.374641}}, {"id": 2653824, "name": "Cardenden", "country": "GB", "coord": {"lon": -3.25687, "lat": 56.143101}}, {"id": 6357412, "name": "Cardenete", "country": "ES", "coord": {"lon": -1.70244, "lat": 39.807781}}, {"id": 2520131, "name": "Cardenete", "country": "ES", "coord": {"lon": -1.68333, "lat": 39.76667}}, {"id": 3126304, "name": "Cardenosa", "country": "ES", "coord": {"lon": -4.74579, "lat": 40.742401}}, {"id": 3126302, "name": "Cardenosa de Volpejera", "country": "ES", "coord": {"lon": -4.70197, "lat": 42.23214}}, {"id": 6440333, "name": "Cardesse", "country": "FR", "coord": {"lon": -0.58333, "lat": 43.26667}}, {"id": 3028628, "name": "Cardesse", "country": "FR", "coord": {"lon": -0.58333, "lat": 43.26667}}, {"id": 2525360, "name": "Cardeto", "country": "IT", "coord": {"lon": 15.7666, "lat": 38.084572}}, {"id": 6357211, "name": "Carde\u00f1a", "country": "ES", "coord": {"lon": -4.36118, "lat": 38.271278}}, {"id": 6356390, "name": "Carde\u00f1adijo", "country": "ES", "coord": {"lon": -3.66489, "lat": 42.29644}}, {"id": 6356391, "name": "Carde\u00f1ajimeno", "country": "ES", "coord": {"lon": -3.61931, "lat": 42.33139}}, {"id": 6355658, "name": "Carde\u00f1osa", "country": "ES", "coord": {"lon": -4.72573, "lat": 40.739639}}, {"id": 6360013, "name": "Carde\u00f1osa de Volpejera", "country": "ES", "coord": {"lon": -4.69784, "lat": 42.227959}}, {"id": 6361696, "name": "Cardiel de los Montes", "country": "ES", "coord": {"lon": -4.6392, "lat": 40.07325}}, {"id": 3126296, "name": "Cardiel de los Montes", "country": "ES", "coord": {"lon": -4.65488, "lat": 40.06348}}, {"id": 8013381, "name": "Cardielos", "country": "PT", "coord": {"lon": -8.73615, "lat": 41.713001}}, {"id": 2172349, "name": "Cardiff", "country": "AU", "coord": {"lon": 151.666672, "lat": -32.950001}}, {"id": 2653822, "name": "Cardiff", "country": "GB", "coord": {"lon": -3.18, "lat": 51.48}}, {"id": 7296014, "name": "Cardigan", "country": "GB", "coord": {"lon": -4.65469, "lat": 52.084251}}, {"id": 2653818, "name": "Cardigan", "country": "GB", "coord": {"lon": -4.65906, "lat": 52.084728}}, {"id": 2172346, "name": "Cardigan", "country": "AU", "coord": {"lon": 143.75, "lat": -37.533329}}, {"id": 5916775, "name": "Cardigan", "country": "CA", "coord": {"lon": -62.615349, "lat": 46.23341}}, {"id": 8013017, "name": "Cardigos", "country": "PT", "coord": {"lon": -8.00605, "lat": 39.70034}}, {"id": 2270173, "name": "Cardigos", "country": "PT", "coord": {"lon": -8.02144, "lat": 39.695061}}, {"id": 5916786, "name": "Cardinal", "country": "CA", "coord": {"lon": -75.382629, "lat": 44.783409}}, {"id": 2525358, "name": "Cardinale", "country": "IT", "coord": {"lon": 16.385401, "lat": 38.649479}}, {"id": 2653812, "name": "Cardington", "country": "GB", "coord": {"lon": -2.73333, "lat": 52.549999}}, {"id": 2653813, "name": "Cardington", "country": "GB", "coord": {"lon": -0.41289, "lat": 52.11742}}, {"id": 5149253, "name": "Cardington", "country": "US", "coord": {"lon": -82.893509, "lat": 40.500622}}, {"id": 7839536, "name": "Cardinia", "country": "AU", "coord": {"lon": 145.564545, "lat": -38.095081}}, {"id": 2172340, "name": "Cardinia", "country": "AU", "coord": {"lon": 145.416672, "lat": -38.150002}}, {"id": 6539992, "name": "Cardito", "country": "IT", "coord": {"lon": 14.29943, "lat": 40.942009}}, {"id": 3180541, "name": "Cardito", "country": "IT", "coord": {"lon": 14.29943, "lat": 40.942009}}, {"id": 1718427, "name": "Cardona", "country": "PH", "coord": {"lon": 121.216667, "lat": 14.45}}, {"id": 3443352, "name": "Cardona", "country": "UY", "coord": {"lon": -57.383331, "lat": -33.883331}}, {"id": 1718426, "name": "Cardona", "country": "PH", "coord": {"lon": 121.228897, "lat": 14.486}}, {"id": 3126293, "name": "Cardona", "country": "ES", "coord": {"lon": 1.67855, "lat": 41.913712}}, {"id": 1718425, "name": "Cardona", "country": "PH", "coord": {"lon": 120.589699, "lat": 15.5722}}, {"id": 3531570, "name": "Cardonal", "country": "MX", "coord": {"lon": -99.116669, "lat": 20.616671}}, {"id": 3531571, "name": "Cardonal", "country": "MX", "coord": {"lon": -99.133331, "lat": 20.6}}, {"id": 8012440, "name": "Cardosas", "country": "PT", "coord": {"lon": -9.03935, "lat": 38.9734}}, {"id": 2270170, "name": "Cardosas", "country": "PT", "coord": {"lon": -9.04048, "lat": 38.976841}}, {"id": 3466970, "name": "Cardoso", "country": "BR", "coord": {"lon": -49.914169, "lat": -20.08194}}, {"id": 6357861, "name": "Cardoso de la Sierra (El)", "country": "ES", "coord": {"lon": -3.41719, "lat": 41.123909}}, {"id": 2653806, "name": "Cardross", "country": "GB", "coord": {"lon": -4.63333, "lat": 55.966671}}, {"id": 5916821, "name": "Cardston", "country": "CA", "coord": {"lon": -113.301903, "lat": 49.199982}}, {"id": 2074927, "name": "Cardup", "country": "AU", "coord": {"lon": 116, "lat": -32.25}}, {"id": 5588062, "name": "Cardwell", "country": "US", "coord": {"lon": -116.563499, "lat": 47.209068}}, {"id": 3466959, "name": "Carea\u00e7u", "country": "BR", "coord": {"lon": -45.699169, "lat": -22.04306}}, {"id": 5288523, "name": "Carefree", "country": "US", "coord": {"lon": -111.918198, "lat": 33.822262}}, {"id": 6535614, "name": "Careggine", "country": "IT", "coord": {"lon": 10.3254, "lat": 44.119949}}, {"id": 682685, "name": "Carei", "country": "RO", "coord": {"lon": 22.466669, "lat": 47.683331}}, {"id": 3402920, "name": "Careiro da Varzea", "country": "BR", "coord": {"lon": -59.811939, "lat": -3.20028}}, {"id": 3126287, "name": "Carelle", "country": "ES", "coord": {"lon": -8.05791, "lat": 43.016781}}, {"id": 3180531, "name": "Carema", "country": "IT", "coord": {"lon": 7.81072, "lat": 45.583561}}, {"id": 7766082, "name": "Carenang Lor", "country": "ID", "coord": {"lon": 105.865898, "lat": -6.4623}}, {"id": 6362765, "name": "Carenas", "country": "ES", "coord": {"lon": -1.79857, "lat": 41.262878}}, {"id": 3126286, "name": "Carenas", "country": "ES", "coord": {"lon": -1.79754, "lat": 41.27755}}, {"id": 4319030, "name": "Carencro", "country": "US", "coord": {"lon": -92.049011, "lat": 30.317141}}, {"id": 6541382, "name": "Carenno", "country": "IT", "coord": {"lon": 9.46205, "lat": 45.803478}}, {"id": 3180529, "name": "Carenno", "country": "IT", "coord": {"lon": 9.46205, "lat": 45.803478}}, {"id": 3028610, "name": "Carentan", "country": "FR", "coord": {"lon": -1.24806, "lat": 49.30312}}, {"id": 6535533, "name": "Carentino", "country": "IT", "coord": {"lon": 8.47134, "lat": 44.82885}}, {"id": 6449840, "name": "Carentoir", "country": "FR", "coord": {"lon": -2.13333, "lat": 47.816669}}, {"id": 3028608, "name": "Carentoir", "country": "FR", "coord": {"lon": -2.13333, "lat": 47.816669}}, {"id": 3792375, "name": "Carepa", "country": "CO", "coord": {"lon": -76.652542, "lat": 7.75849}}, {"id": 2525357, "name": "Careri", "country": "IT", "coord": {"lon": 16.1178, "lat": 38.176571}}, {"id": 3402916, "name": "Caresalzinho", "country": "BR", "coord": {"lon": -57.633331, "lat": -6.23333}}, {"id": 3180526, "name": "Caresana", "country": "IT", "coord": {"lon": 8.50524, "lat": 45.22086}}, {"id": 6535430, "name": "Caresanablot", "country": "IT", "coord": {"lon": 8.39203, "lat": 45.357361}}, {"id": 3245419, "name": "Careva Cuprija", "country": "BA", "coord": {"lon": 18.429171, "lat": 44.265831}}, {"id": 792043, "name": "Carevac", "country": "RS", "coord": {"lon": 21.49333, "lat": 44.679169}}, {"id": 3345130, "name": "Carew Newton", "country": "GB", "coord": {"lon": -4.82917, "lat": 51.705559}}, {"id": 5518301, "name": "Carey", "country": "US", "coord": {"lon": -100.325668, "lat": 34.471169}}, {"id": 5149257, "name": "Carey", "country": "US", "coord": {"lon": -83.382423, "lat": 40.95256}}, {"id": 2074920, "name": "Carey Gully", "country": "AU", "coord": {"lon": 138.761795, "lat": -34.96468}}, {"id": 6534392, "name": "Carezzano Maggiore", "country": "IT", "coord": {"lon": 8.90055, "lat": 44.807049}}, {"id": 2525354, "name": "Carfizzi", "country": "IT", "coord": {"lon": 16.973909, "lat": 39.3074}}, {"id": 3180518, "name": "Cargeghe", "country": "IT", "coord": {"lon": 8.61361, "lat": 40.668331}}, {"id": 3028606, "name": "Cargese", "country": "FR", "coord": {"lon": 8.59586, "lat": 42.136292}}, {"id": 5916883, "name": "Cargill", "country": "CA", "coord": {"lon": -81.249741, "lat": 44.200089}}, {"id": 2172318, "name": "Cargo", "country": "AU", "coord": {"lon": 148.809036, "lat": -33.424061}}, {"id": 3028603, "name": "Carhaix-Plouguer", "country": "FR", "coord": {"lon": -3.57326, "lat": 48.27594}}, {"id": 3313218, "name": "Carhoon", "country": "IE", "coord": {"lon": -8.33694, "lat": 53.15667}}, {"id": 3945466, "name": "Carhuamayo", "country": "PE", "coord": {"lon": -76.033333, "lat": -10.91667}}, {"id": 3698814, "name": "Carhuaz", "country": "PE", "coord": {"lon": -77.644722, "lat": -9.28194}}, {"id": 3862634, "name": "Carhu\u00e9", "country": "AR", "coord": {"lon": -62.757919, "lat": -37.176682}}, {"id": 8013826, "name": "Caria", "country": "PT", "coord": {"lon": -7.60609, "lat": 40.919319}}, {"id": 2741470, "name": "Caria", "country": "PT", "coord": {"lon": -8.02885, "lat": 40.70734}}, {"id": 3466954, "name": "Cariacica", "country": "BR", "coord": {"lon": -40.419998, "lat": -20.263889}}, {"id": 3646581, "name": "Cariaco", "country": "VE", "coord": {"lon": -63.553989, "lat": 10.49573}}, {"id": 3659711, "name": "Cariamanga", "country": "EC", "coord": {"lon": -79.550003, "lat": -4.33333}}, {"id": 8068641, "name": "Carian", "country": "ID", "coord": {"lon": 111.524902, "lat": -6.7221}}, {"id": 7874484, "name": "Carianos", "country": "BR", "coord": {"lon": -48.543179, "lat": -27.660879}}, {"id": 2525352, "name": "Cariati", "country": "IT", "coord": {"lon": 16.95941, "lat": 39.492199}}, {"id": 3687355, "name": "Caribe", "country": "CO", "coord": {"lon": -73.25, "lat": 10.43333}}, {"id": 4960140, "name": "Caribou", "country": "US", "coord": {"lon": -68.011971, "lat": 46.8606}}, {"id": 5416138, "name": "Caribou City", "country": "US", "coord": {"lon": -105.512779, "lat": 39.98999}}, {"id": 5916974, "name": "Caribou Ferry", "country": "CA", "coord": {"lon": -62.681938, "lat": 45.73344}}, {"id": 3728386, "name": "Carice", "country": "HT", "coord": {"lon": -71.833328, "lat": 19.383329}}, {"id": 3481364, "name": "Caricuao", "country": "VE", "coord": {"lon": -66.983131, "lat": 10.43337}}, {"id": 1718412, "name": "Caridad", "country": "PH", "coord": {"lon": 124.751801, "lat": 10.8315}}, {"id": 1718415, "name": "Caridad", "country": "PH", "coord": {"lon": 122.89444, "lat": 10.48833}}, {"id": 3180517, "name": "Carife", "country": "IT", "coord": {"lon": 15.20895, "lat": 41.026321}}, {"id": 1718396, "name": "Carig", "country": "PH", "coord": {"lon": 121.746674, "lat": 17.66361}}, {"id": 1718394, "name": "Carigara", "country": "PH", "coord": {"lon": 124.683327, "lat": 11.25}}, {"id": 1718393, "name": "Carigara", "country": "PH", "coord": {"lon": 124.67556, "lat": 11.29917}}, {"id": 6454940, "name": "Carignan", "country": "FR", "coord": {"lon": 5.16667, "lat": 49.633331}}, {"id": 3028600, "name": "Carignan", "country": "FR", "coord": {"lon": 5.16796, "lat": 49.631592}}, {"id": 5917117, "name": "Carignan", "country": "CA", "coord": {"lon": -73.299156, "lat": 45.450081}}, {"id": 3028601, "name": "Carignan-de-Bordeaux", "country": "FR", "coord": {"lon": -0.48333, "lat": 44.799999}}, {"id": 3180511, "name": "Carignano", "country": "IT", "coord": {"lon": 7.67322, "lat": 44.90694}}, {"id": 7334991, "name": "Carik", "country": "ID", "coord": {"lon": 115.076897, "lat": -8.4834}}, {"id": 7116865, "name": "Carilo", "country": "AR", "coord": {"lon": -56.891331, "lat": -37.165241}}, {"id": 3180510, "name": "Carimate", "country": "IT", "coord": {"lon": 9.11064, "lat": 45.70298}}, {"id": 3755632, "name": "Carinagua", "country": "VE", "coord": {"lon": -67.60952, "lat": 5.63197}}, {"id": 6535626, "name": "Carinaro", "country": "IT", "coord": {"lon": 14.21963, "lat": 40.98291}}, {"id": 2172312, "name": "Carinda", "country": "AU", "coord": {"lon": 147.683334, "lat": -30.466669}}, {"id": 7281839, "name": "Carindale", "country": "AU", "coord": {"lon": 153.102356, "lat": -27.505779}}, {"id": 3126278, "name": "Carinena", "country": "ES", "coord": {"lon": -1.22444, "lat": 41.33733}}, {"id": 2172311, "name": "Caringbah", "country": "AU", "coord": {"lon": 151.133331, "lat": -34.049999}}, {"id": 1647298, "name": "Caringin", "country": "ID", "coord": {"lon": 106.821388, "lat": -6.70611}}, {"id": 1647295, "name": "Caringin", "country": "ID", "coord": {"lon": 107.513901, "lat": -7.4546}}, {"id": 1647297, "name": "Caringin", "country": "ID", "coord": {"lon": 106.400398, "lat": -6.9178}}, {"id": 1647299, "name": "Caringin Lor", "country": "ID", "coord": {"lon": 105.827202, "lat": -6.3503}}, {"id": 3466950, "name": "Carinhanha", "country": "BR", "coord": {"lon": -43.764999, "lat": -14.30472}}, {"id": 6542099, "name": "Carini", "country": "IT", "coord": {"lon": 13.17764, "lat": 38.156651}}, {"id": 2525350, "name": "Carini", "country": "IT", "coord": {"lon": 13.17764, "lat": 38.156651}}, {"id": 3126276, "name": "Carino", "country": "ES", "coord": {"lon": -7.86715, "lat": 43.741341}}, {"id": 3180507, "name": "Carinola", "country": "IT", "coord": {"lon": 13.98152, "lat": 41.18721}}, {"id": 7771963, "name": "Carioca", "country": "BR", "coord": {"lon": -52.573521, "lat": -23.4109}}, {"id": 3646534, "name": "Caripito", "country": "VE", "coord": {"lon": -63.096329, "lat": 10.11026}}, {"id": 3466941, "name": "Carira", "country": "BR", "coord": {"lon": -37.701111, "lat": -10.36083}}, {"id": 3402893, "name": "Carire", "country": "BR", "coord": {"lon": -40.473331, "lat": -3.95056}}, {"id": 3402882, "name": "Caririacu", "country": "BR", "coord": {"lon": -39.283611, "lat": -7.04222}}, {"id": 2172308, "name": "Carisbrook", "country": "AU", "coord": {"lon": 143.816666, "lat": -37.033329}}, {"id": 3180504, "name": "Carisio", "country": "IT", "coord": {"lon": 8.19903, "lat": 45.409359}}, {"id": 3180503, "name": "Carisolo", "country": "IT", "coord": {"lon": 10.75887, "lat": 46.1688}}, {"id": 1647294, "name": "Carita", "country": "ID", "coord": {"lon": 105.838203, "lat": -6.3178}}, {"id": 3687339, "name": "Carito", "country": "CO", "coord": {"lon": -75.804077, "lat": 9.0568}}, {"id": 6362766, "name": "Cari\u00f1ena", "country": "ES", "coord": {"lon": -1.2122, "lat": 41.351349}}, {"id": 6357361, "name": "Cari\u00f1o", "country": "ES", "coord": {"lon": -7.8869, "lat": 43.736691}}, {"id": 4380043, "name": "Carl Junction", "country": "US", "coord": {"lon": -94.565514, "lat": 37.17672}}, {"id": 1718367, "name": "Carlagan", "country": "PH", "coord": {"lon": 122.045563, "lat": 14.975}}, {"id": 2965773, "name": "Carlanstown", "country": "IE", "coord": {"lon": -6.83944, "lat": 53.757778}}, {"id": 3180501, "name": "Carlantino", "country": "IT", "coord": {"lon": 14.97594, "lat": 41.595131}}, {"id": 3180500, "name": "Carlazzo", "country": "IT", "coord": {"lon": 9.15954, "lat": 46.04808}}, {"id": 5111533, "name": "Carle Place", "country": "US", "coord": {"lon": -73.610413, "lat": 40.752602}}, {"id": 6539208, "name": "Carlentini", "country": "IT", "coord": {"lon": 15.01259, "lat": 37.26955}}, {"id": 2525349, "name": "Carlentini", "country": "IT", "coord": {"lon": 15.01259, "lat": 37.26955}}, {"id": 3028591, "name": "Carlepont", "country": "FR", "coord": {"lon": 3.02327, "lat": 49.514381}}, {"id": 1718362, "name": "Carles", "country": "PH", "coord": {"lon": 123.134201, "lat": 11.5726}}, {"id": 6361950, "name": "Carlet", "country": "ES", "coord": {"lon": -0.52416, "lat": 39.232948}}, {"id": 2520121, "name": "Carlet", "country": "ES", "coord": {"lon": -0.51667, "lat": 39.23333}}, {"id": 5917144, "name": "Carleton", "country": "CA", "coord": {"lon": -63.666821, "lat": 46.25703}}, {"id": 4988024, "name": "Carleton", "country": "US", "coord": {"lon": -83.39077, "lat": 42.059212}}, {"id": 5917158, "name": "Carleton Place", "country": "CA", "coord": {"lon": -76.149384, "lat": 45.133411}}, {"id": 6693777, "name": "Carleton-sur-Mer", "country": "CA", "coord": {"lon": -66.127998, "lat": 48.107491}}, {"id": 1014073, "name": "Carletonville", "country": "ZA", "coord": {"lon": 27.397671, "lat": -26.360941}}, {"id": 681569, "name": "Carlibaba", "country": "RO", "coord": {"lon": 25.133329, "lat": 47.583328}}, {"id": 681559, "name": "Carligele", "country": "RO", "coord": {"lon": 27.1, "lat": 45.683331}}, {"id": 5702255, "name": "Carlin", "country": "US", "coord": {"lon": -116.103973, "lat": 40.71381}}, {"id": 3028590, "name": "Carling", "country": "FR", "coord": {"lon": 6.71596, "lat": 49.16761}}, {"id": 2172303, "name": "Carlingford", "country": "AU", "coord": {"lon": 151.048874, "lat": -33.782688}}, {"id": 3180498, "name": "Carlino", "country": "IT", "coord": {"lon": 13.18806, "lat": 45.802219}}, {"id": 4235211, "name": "Carlinville", "country": "US", "coord": {"lon": -89.881767, "lat": 39.27977}}, {"id": 2653775, "name": "Carlisle", "country": "GB", "coord": {"lon": -2.9382, "lat": 54.8951}}, {"id": 5183234, "name": "Carlisle", "country": "US", "coord": {"lon": -77.188873, "lat": 40.201481}}, {"id": 4104602, "name": "Carlisle", "country": "US", "coord": {"lon": -91.746521, "lat": 34.78315}}, {"id": 4286981, "name": "Carlisle", "country": "US", "coord": {"lon": -84.027428, "lat": 38.312019}}, {"id": 4507937, "name": "Carlisle", "country": "US", "coord": {"lon": -84.320221, "lat": 39.582001}}, {"id": 4850411, "name": "Carlisle", "country": "US", "coord": {"lon": -93.491051, "lat": 41.50082}}, {"id": 4932328, "name": "Carlisle", "country": "US", "coord": {"lon": -71.349503, "lat": 42.529259}}, {"id": 7290664, "name": "Carlisle District", "country": "GB", "coord": {"lon": -2.83114, "lat": 54.982498}}, {"id": 2172299, "name": "Carlisle River", "country": "AU", "coord": {"lon": 143.383331, "lat": -38.566669}}, {"id": 2525348, "name": "Carloforte", "country": "IT", "coord": {"lon": 8.30583, "lat": 39.145}}, {"id": 681549, "name": "Carlogani", "country": "RO", "coord": {"lon": 24.15, "lat": 44.51667}}, {"id": 2525347, "name": "Carlopoli", "country": "IT", "coord": {"lon": 16.454901, "lat": 39.05669}}, {"id": 3531556, "name": "Carlos A. Carrillo", "country": "MX", "coord": {"lon": -95.75, "lat": 18.366671}}, {"id": 3439159, "name": "Carlos Antonio Lopez", "country": "PY", "coord": {"lon": -54.76667, "lat": -26.4}}, {"id": 3466933, "name": "Carlos Barbosa", "country": "BR", "coord": {"lon": -51.503609, "lat": -29.297501}}, {"id": 3466931, "name": "Carlos Chagas", "country": "BR", "coord": {"lon": -40.766392, "lat": -17.70306}}, {"id": 3620473, "name": "Carlos Fonseca Amador", "country": "NI", "coord": {"lon": -86.505707, "lat": 11.98009}}, {"id": 3443342, "name": "Carlos Reyles", "country": "UY", "coord": {"lon": -56.48333, "lat": -33.01667}}, {"id": 3862600, "name": "Carlos Tejedor", "country": "AR", "coord": {"lon": -62.421459, "lat": -35.392651}}, {"id": 3687335, "name": "Carlosama", "country": "CO", "coord": {"lon": -77.727341, "lat": 0.86292}}, {"id": 6357212, "name": "Carlota (La)", "country": "ES", "coord": {"lon": -4.92924, "lat": 37.676819}}, {"id": 2965768, "name": "Carlow", "country": "IE", "coord": {"lon": -6.92611, "lat": 52.840832}}, {"id": 6548170, "name": "Carlow", "country": "DE", "coord": {"lon": 10.9333, "lat": 53.766701}}, {"id": 2940311, "name": "Carlow", "country": "DE", "coord": {"lon": 10.93333, "lat": 53.76667}}, {"id": 5460459, "name": "Carlsbad", "country": "US", "coord": {"lon": -104.228844, "lat": 32.42067}}, {"id": 5334223, "name": "Carlsbad", "country": "US", "coord": {"lon": -117.350594, "lat": 33.158089}}, {"id": 6554891, "name": "Carlsberg", "country": "DE", "coord": {"lon": 8.04167, "lat": 49.503899}}, {"id": 2940309, "name": "Carlsberg", "country": "DE", "coord": {"lon": 8.04167, "lat": 49.503891}}, {"id": 2940299, "name": "Carlsgr\u00fcn", "country": "DE", "coord": {"lon": 11.61667, "lat": 50.383331}}, {"id": 2172295, "name": "Carlsruhe", "country": "AU", "coord": {"lon": 144.5, "lat": -37.283329}}, {"id": 5096289, "name": "Carlstadt", "country": "US", "coord": {"lon": -74.090698, "lat": 40.840382}}, {"id": 5917254, "name": "Carlton", "country": "CA", "coord": {"lon": -106.501137, "lat": 52.833382}}, {"id": 2653762, "name": "Carlton", "country": "GB", "coord": {"lon": -1.4, "lat": 54.583328}}, {"id": 5020428, "name": "Carlton", "country": "US", "coord": {"lon": -92.424911, "lat": 46.66383}}, {"id": 5717982, "name": "Carlton", "country": "US", "coord": {"lon": -123.176491, "lat": 45.294281}}, {"id": 2653756, "name": "Carluke", "country": "GB", "coord": {"lon": -3.83019, "lat": 55.73595}}, {"id": 5917262, "name": "Carlyle", "country": "CA", "coord": {"lon": -102.267647, "lat": 49.633339}}, {"id": 4235229, "name": "Carlyle", "country": "US", "coord": {"lon": -89.372581, "lat": 38.610329}}, {"id": 7201401, "name": "Carlyle West", "country": "US", "coord": {"lon": -73.830559, "lat": 42.935558}}, {"id": 4319058, "name": "Carlyss", "country": "US", "coord": {"lon": -93.375992, "lat": 30.168819}}, {"id": 8013541, "name": "Carl\u00e3o", "country": "PT", "coord": {"lon": -7.41006, "lat": 41.311352}}, {"id": 2741466, "name": "Carl\u00e3o", "country": "PT", "coord": {"lon": -7.40872, "lat": 41.3176}}, {"id": 3466936, "name": "Carl\u00f3polis", "country": "BR", "coord": {"lon": -49.720829, "lat": -23.424999}}, {"id": 5917270, "name": "Carmacks", "country": "CA", "coord": {"lon": -136.292953, "lat": 62.088348}}, {"id": 6537265, "name": "Carmagnola", "country": "IT", "coord": {"lon": 7.71803, "lat": 44.847038}}, {"id": 3180496, "name": "Carmagnola", "country": "IT", "coord": {"lon": 7.71803, "lat": 44.847038}}, {"id": 5917275, "name": "Carman", "country": "CA", "coord": {"lon": -98.001556, "lat": 49.499199}}, {"id": 5917287, "name": "Carmangay", "country": "CA", "coord": {"lon": -113.118584, "lat": 50.133331}}, {"id": 5694072, "name": "Carmans Mobile Park", "country": "US", "coord": {"lon": -101.640999, "lat": 40.512501}}, {"id": 5917294, "name": "Carmanville", "country": "CA", "coord": {"lon": -54.2981, "lat": 49.399921}}, {"id": 7295999, "name": "Carmarthen", "country": "GB", "coord": {"lon": -4.33155, "lat": 51.856049}}, {"id": 2653755, "name": "Carmarthen", "country": "GB", "coord": {"lon": -4.30535, "lat": 51.855518}}, {"id": 2653753, "name": "Carmarthenshire", "country": "GB", "coord": {"lon": -4.16667, "lat": 51.833328}}, {"id": 6455284, "name": "Carmaux", "country": "FR", "coord": {"lon": 2.15, "lat": 44.049999}}, {"id": 3028580, "name": "Carmaux", "country": "FR", "coord": {"lon": 2.15795, "lat": 44.050991}}, {"id": 3126266, "name": "Carme", "country": "ES", "coord": {"lon": 1.62074, "lat": 41.531979}}, {"id": 2074876, "name": "Carmel", "country": "AU", "coord": {"lon": 116.099998, "lat": -32.01667}}, {"id": 5917301, "name": "Carmel", "country": "CA", "coord": {"lon": -72.3769, "lat": 45.97226}}, {"id": 4255466, "name": "Carmel", "country": "US", "coord": {"lon": -86.118042, "lat": 39.978371}}, {"id": 5111576, "name": "Carmel", "country": "US", "coord": {"lon": -73.68013, "lat": 41.430092}}, {"id": 5281055, "name": "Carmel", "country": "US", "coord": {"lon": -69.051147, "lat": 44.797569}}, {"id": 7258078, "name": "Carmel Hamlet", "country": "US", "coord": {"lon": -73.685242, "lat": 41.414848}}, {"id": 5334312, "name": "Carmel Valley Village", "country": "US", "coord": {"lon": -121.765938, "lat": 36.50605}}, {"id": 5334320, "name": "Carmel-by-the-Sea", "country": "US", "coord": {"lon": -121.923286, "lat": 36.555241}}, {"id": 3443341, "name": "Carmelo", "country": "UY", "coord": {"lon": -58.285561, "lat": -33.98917}}, {"id": 1718347, "name": "Carmelo", "country": "PH", "coord": {"lon": 122.816673, "lat": 11.01667}}, {"id": 1718349, "name": "Carmelo", "country": "PH", "coord": {"lon": 123.793503, "lat": 10.7051}}, {"id": 1718319, "name": "Carmen", "country": "PH", "coord": {"lon": 120.599998, "lat": 15.88333}}, {"id": 1718320, "name": "Carmen", "country": "PH", "coord": {"lon": 120.823097, "lat": 15.4428}}, {"id": 1718324, "name": "Carmen", "country": "PH", "coord": {"lon": 122.121101, "lat": 12.6171}}, {"id": 1718332, "name": "Carmen", "country": "PH", "coord": {"lon": 124.196404, "lat": 9.8223}}, {"id": 1718333, "name": "Carmen", "country": "PH", "coord": {"lon": 126.01722, "lat": 9.22639}}, {"id": 1718334, "name": "Carmen", "country": "PH", "coord": {"lon": 125.292503, "lat": 8.98861}}, {"id": 1718337, "name": "Carmen", "country": "PH", "coord": {"lon": 125.70639, "lat": 7.36056}}, {"id": 1718338, "name": "Carmen", "country": "PH", "coord": {"lon": 124.791672, "lat": 7.20444}}, {"id": 1718330, "name": "Carmen Grande", "country": "PH", "coord": {"lon": 122.915604, "lat": 10.3787}}, {"id": 3687324, "name": "Carmen de Apicala", "country": "CO", "coord": {"lon": -74.720139, "lat": 4.14725}}, {"id": 3435644, "name": "Carmen de Areco", "country": "AR", "coord": {"lon": -59.822788, "lat": -34.375332}}, {"id": 3687321, "name": "Carmen de Carupa", "country": "CO", "coord": {"lon": -73.90168, "lat": 5.34862}}, {"id": 3862583, "name": "Carmen de Patagones", "country": "AR", "coord": {"lon": -62.980968, "lat": -40.798279}}, {"id": 3687318, "name": "Carmen de Viboral", "country": "CO", "coord": {"lon": -75.335091, "lat": 6.08236}}, {"id": 3439156, "name": "Carmen del Parana", "country": "PY", "coord": {"lon": -56.216671, "lat": -27.23333}}, {"id": 3862584, "name": "Carmen del Sauce", "country": "AR", "coord": {"lon": -60.811161, "lat": -33.236}}, {"id": 6361697, "name": "Carmena", "country": "ES", "coord": {"lon": -4.39432, "lat": 39.935131}}, {"id": 2520119, "name": "Carmena", "country": "ES", "coord": {"lon": -4.40148, "lat": 39.95562}}, {"id": 3126263, "name": "Carmenes", "country": "ES", "coord": {"lon": -5.57346, "lat": 42.95863}}, {"id": 4235246, "name": "Carmi", "country": "US", "coord": {"lon": -88.158653, "lat": 38.090881}}, {"id": 3180495, "name": "Carmiano", "country": "IT", "coord": {"lon": 18.04302, "lat": 40.34483}}, {"id": 5334336, "name": "Carmichael", "country": "US", "coord": {"lon": -121.328278, "lat": 38.61713}}, {"id": 6539891, "name": "Carmignano", "country": "IT", "coord": {"lon": 11.01552, "lat": 43.811352}}, {"id": 3180494, "name": "Carmignano", "country": "IT", "coord": {"lon": 11.01552, "lat": 43.811352}}, {"id": 3180491, "name": "Carmignano di Brenta", "country": "IT", "coord": {"lon": 11.7065, "lat": 45.630901}}, {"id": 2172276, "name": "Carmila", "country": "AU", "coord": {"lon": 149.416672, "lat": -21.91667}}, {"id": 3466913, "name": "Carmo", "country": "BR", "coord": {"lon": -42.608608, "lat": -21.933611}}, {"id": 3466907, "name": "Carmo da Cachoeira", "country": "BR", "coord": {"lon": -45.22361, "lat": -21.460831}}, {"id": 3466905, "name": "Carmo da Mata", "country": "BR", "coord": {"lon": -44.87056, "lat": -20.557779}}, {"id": 3466904, "name": "Carmo de Minas", "country": "BR", "coord": {"lon": -45.129169, "lat": -22.122219}}, {"id": 3466903, "name": "Carmo do Cajuru", "country": "BR", "coord": {"lon": -44.771111, "lat": -20.18417}}, {"id": 3466902, "name": "Carmo do Paranaiba", "country": "BR", "coord": {"lon": -46.316109, "lat": -19.00083}}, {"id": 3466901, "name": "Carmo do Rio Claro", "country": "BR", "coord": {"lon": -46.118889, "lat": -20.971939}}, {"id": 3466900, "name": "Carmo do Rio Verde", "country": "BR", "coord": {"lon": -49.7075, "lat": -15.35361}}, {"id": 6360979, "name": "Carmona", "country": "ES", "coord": {"lon": -5.63152, "lat": 37.46553}}, {"id": 2520118, "name": "Carmona", "country": "ES", "coord": {"lon": -5.64608, "lat": 37.471249}}, {"id": 1718307, "name": "Carmona", "country": "PH", "coord": {"lon": 121.01667, "lat": 14.3}}, {"id": 1718306, "name": "Carmona", "country": "PH", "coord": {"lon": 121.057602, "lat": 14.3132}}, {"id": 6355896, "name": "Carmonita", "country": "ES", "coord": {"lon": -6.36413, "lat": 39.1506}}, {"id": 2520114, "name": "Carmonita", "country": "ES", "coord": {"lon": -6.33864, "lat": 39.154549}}, {"id": 2653745, "name": "Carmunnock", "country": "GB", "coord": {"lon": -4.23584, "lat": 55.790619}}, {"id": 2940276, "name": "Carmzow", "country": "DE", "coord": {"lon": 14.05, "lat": 53.383331}}, {"id": 3466915, "name": "Carm\u00e9sia", "country": "BR", "coord": {"lon": -43.14167, "lat": -19.08889}}, {"id": 3466898, "name": "Carm\u00f3polis", "country": "BR", "coord": {"lon": -36.988892, "lat": -10.64806}}, {"id": 3466897, "name": "Carm\u00f3polis de Minas", "country": "BR", "coord": {"lon": -44.634998, "lat": -20.541389}}, {"id": 8012564, "name": "Carm\u00f5es", "country": "PT", "coord": {"lon": -9.14225, "lat": 39.053471}}, {"id": 2965765, "name": "Carn", "country": "IE", "coord": {"lon": -7.84056, "lat": 54.574169}}, {"id": 2965764, "name": "Carna", "country": "IE", "coord": {"lon": -9.82778, "lat": 53.330559}}, {"id": 2653742, "name": "Carnaby", "country": "GB", "coord": {"lon": -0.24934, "lat": 54.072578}}, {"id": 6455179, "name": "Carnac", "country": "FR", "coord": {"lon": -3.08333, "lat": 47.583328}}, {"id": 3028575, "name": "Carnac", "country": "FR", "coord": {"lon": -3.07884, "lat": 47.583511}}, {"id": 3180488, "name": "Carnago", "country": "IT", "coord": {"lon": 8.83424, "lat": 45.722069}}, {"id": 6540322, "name": "Carnago", "country": "IT", "coord": {"lon": 8.83424, "lat": 45.722069}}, {"id": 3402848, "name": "Carnaiba", "country": "BR", "coord": {"lon": -37.666672, "lat": -8.7}}, {"id": 7839481, "name": "Carnamah", "country": "AU", "coord": {"lon": 115.520393, "lat": -29.73126}}, {"id": 2074866, "name": "Carnamah", "country": "AU", "coord": {"lon": 115.883331, "lat": -29.700001}}, {"id": 2965762, "name": "Carnaross", "country": "IE", "coord": {"lon": -6.95417, "lat": 53.75111}}, {"id": 2074865, "name": "Carnarvon", "country": "AU", "coord": {"lon": 113.633331, "lat": -24.866671}}, {"id": 1014034, "name": "Carnarvon", "country": "ZA", "coord": {"lon": 22.13303, "lat": -30.968269}}, {"id": 3180483, "name": "Carnate", "country": "IT", "coord": {"lon": 9.37695, "lat": 45.651581}}, {"id": 5789198, "name": "Carnation", "country": "US", "coord": {"lon": -121.914009, "lat": 47.647881}}, {"id": 3402791, "name": "Carnaubais", "country": "BR", "coord": {"lon": -36.834438, "lat": -5.34833}}, {"id": 3402787, "name": "Carnaubal", "country": "BR", "coord": {"lon": -40.94278, "lat": -4.16667}}, {"id": 8012539, "name": "Carnaxide", "country": "PT", "coord": {"lon": -9.23721, "lat": 38.72736}}, {"id": 2270157, "name": "Carnaxide", "country": "PT", "coord": {"lon": -9.24671, "lat": 38.727058}}, {"id": 3402795, "name": "Carna\u00faba dos Dantas", "country": "BR", "coord": {"lon": -36.595001, "lat": -6.55556}}, {"id": 2965761, "name": "Carndonagh", "country": "IE", "coord": {"lon": -7.26667, "lat": 55.25}}, {"id": 5917349, "name": "Carnduff", "country": "CA", "coord": {"lon": -101.80088, "lat": 49.16674}}, {"id": 5917353, "name": "Carnegie", "country": "CA", "coord": {"lon": -100.090881, "lat": 49.97472}}, {"id": 7932636, "name": "Carnegie", "country": "AU", "coord": {"lon": 145.057129, "lat": -37.888672}}, {"id": 4532357, "name": "Carnegie", "country": "US", "coord": {"lon": -98.603668, "lat": 35.103668}}, {"id": 4833478, "name": "Carnegie", "country": "US", "coord": {"lon": -80.083389, "lat": 40.40868}}, {"id": 7250946, "name": "Carnegie Hill", "country": "US", "coord": {"lon": -73.95472, "lat": 40.783329}}, {"id": 8012637, "name": "Carneiro", "country": "PT", "coord": {"lon": -7.96491, "lat": 41.213371}}, {"id": 2741464, "name": "Carneiro", "country": "PT", "coord": {"lon": -7.96861, "lat": 41.218479}}, {"id": 3862575, "name": "Carnerillo", "country": "AR", "coord": {"lon": -64.021751, "lat": -32.9137}}, {"id": 4186352, "name": "Carnesville", "country": "US", "coord": {"lon": -83.235161, "lat": 34.369831}}, {"id": 6435358, "name": "Carnet", "country": "FR", "coord": {"lon": -1.35, "lat": 48.51667}}, {"id": 3028568, "name": "Carnet", "country": "FR", "coord": {"lon": -1.35737, "lat": 48.50956}}, {"id": 6435359, "name": "Carneville", "country": "FR", "coord": {"lon": -1.45, "lat": 49.666672}}, {"id": 3028565, "name": "Carneville", "country": "FR", "coord": {"lon": -1.45028, "lat": 49.665661}}, {"id": 2965760, "name": "Carnew", "country": "IE", "coord": {"lon": -6.49444, "lat": 52.708061}}, {"id": 2965759, "name": "Carney", "country": "IE", "coord": {"lon": -8.52722, "lat": 54.340561}}, {"id": 4350413, "name": "Carney", "country": "US", "coord": {"lon": -76.523582, "lat": 39.394272}}, {"id": 4501073, "name": "Carneys Point", "country": "US", "coord": {"lon": -75.4702, "lat": 39.71122}}, {"id": 2653715, "name": "Carnforth", "country": "GB", "coord": {"lon": -2.76667, "lat": 54.116669}}, {"id": 2172261, "name": "Carngham", "country": "AU", "coord": {"lon": 143.583328, "lat": -37.583328}}, {"id": 460659, "name": "Carnikava", "country": "LV", "coord": {"lon": 24.274441, "lat": 57.12944}}, {"id": 7628326, "name": "Carnikavas Novads", "country": "LV", "coord": {"lon": 24.245831, "lat": 57.117222}}, {"id": 2653712, "name": "Carnlough", "country": "GB", "coord": {"lon": -5.99038, "lat": 54.991852}}, {"id": 2387495, "name": "Carnot", "country": "CF", "coord": {"lon": 15.86645, "lat": 4.9409}}, {"id": 7258082, "name": "Carnot-Moon", "country": "US", "coord": {"lon": -80.217361, "lat": 40.518559}}, {"id": 6357290, "name": "Carnota", "country": "ES", "coord": {"lon": -9.12952, "lat": 42.847179}}, {"id": 3126254, "name": "Carnota", "country": "ES", "coord": {"lon": -9.08913, "lat": 42.823299}}, {"id": 3028558, "name": "Carnoules", "country": "FR", "coord": {"lon": 6.18804, "lat": 43.301929}}, {"id": 2653704, "name": "Carnoustie", "country": "GB", "coord": {"lon": -2.70905, "lat": 56.501362}}, {"id": 6615537, "name": "Carnoux-en-Provence", "country": "FR", "coord": {"lon": 5.56444, "lat": 43.25639}}, {"id": 5460489, "name": "Carnuel", "country": "US", "coord": {"lon": -106.457253, "lat": 35.063938}}, {"id": 2653701, "name": "Carnwath", "country": "GB", "coord": {"lon": -3.62579, "lat": 55.700359}}, {"id": 3126257, "name": "Carn\u00e9s", "country": "ES", "coord": {"lon": -9.11246, "lat": 43.114639}}, {"id": 3028554, "name": "Caro", "country": "FR", "coord": {"lon": -2.31924, "lat": 47.864288}}, {"id": 4988059, "name": "Caro", "country": "US", "coord": {"lon": -83.396896, "lat": 43.491131}}, {"id": 6534493, "name": "Carobbio degli Angeli", "country": "IT", "coord": {"lon": 9.82916, "lat": 45.66518}}, {"id": 7764853, "name": "Carodok", "country": "ID", "coord": {"lon": 105.8508, "lat": -6.5823}}, {"id": 7609558, "name": "Carohatan", "country": "PH", "coord": {"lon": 120.850304, "lat": 15.6059}}, {"id": 4150066, "name": "Carol City", "country": "US", "coord": {"lon": -80.245598, "lat": 25.940651}}, {"id": 4886662, "name": "Carol Stream", "country": "US", "coord": {"lon": -88.134789, "lat": 41.912529}}, {"id": 6539034, "name": "Carolei", "country": "IT", "coord": {"lon": 16.220091, "lat": 39.25629}}, {"id": 2525346, "name": "Carolei", "country": "IT", "coord": {"lon": 16.220091, "lat": 39.25629}}, {"id": 1014012, "name": "Carolina", "country": "ZA", "coord": {"lon": 30.114889, "lat": -26.069269}}, {"id": 3402724, "name": "Carolina", "country": "BR", "coord": {"lon": -47.46944, "lat": -7.33278}}, {"id": 4563243, "name": "Carolina", "country": "PR", "coord": {"lon": -65.95739, "lat": 18.380779}}, {"id": 3687310, "name": "Carolina", "country": "CO", "coord": {"lon": -75.281677, "lat": 6.72439}}, {"id": 6358476, "name": "Carolina (La)", "country": "ES", "coord": {"lon": -3.60023, "lat": 38.318329}}, {"id": 4459261, "name": "Carolina Beach", "country": "US", "coord": {"lon": -77.8936, "lat": 34.035172}}, {"id": 4563244, "name": "Carolina Municipio", "country": "PR", "coord": {"lon": -65.957939, "lat": 18.37578}}, {"id": 4459298, "name": "Carolina Shores", "country": "US", "coord": {"lon": -78.580566, "lat": 33.901009}}, {"id": 2172258, "name": "Caroline", "country": "AU", "coord": {"lon": 140.933334, "lat": -37.900002}}, {"id": 5917390, "name": "Caroline", "country": "CA", "coord": {"lon": -114.752052, "lat": 52.083408}}, {"id": 4751013, "name": "Caroline County", "country": "US", "coord": {"lon": -77.349701, "lat": 38.03347}}, {"id": 7281805, "name": "Caroline Springs", "country": "AU", "coord": {"lon": 144.736313, "lat": -37.741241}}, {"id": 6435360, "name": "Carolles", "country": "FR", "coord": {"lon": -1.55, "lat": 48.75}}, {"id": 3028552, "name": "Carolles", "country": "FR", "coord": {"lon": -1.5606, "lat": 48.75069}}, {"id": 1709172, "name": "Caromatan", "country": "PH", "coord": {"lon": 123.7145, "lat": 7.7959}}, {"id": 3028551, "name": "Caromb", "country": "FR", "coord": {"lon": 5.1058, "lat": 44.11076}}, {"id": 3180470, "name": "Carona", "country": "IT", "coord": {"lon": 9.78285, "lat": 46.021389}}, {"id": 2525344, "name": "Caronia", "country": "IT", "coord": {"lon": 14.44057, "lat": 38.024361}}, {"id": 6534234, "name": "Caronno Pertusella", "country": "IT", "coord": {"lon": 9.04634, "lat": 45.597771}}, {"id": 6534913, "name": "Caronno Varesino", "country": "IT", "coord": {"lon": 8.83173, "lat": 45.735771}}, {"id": 1718236, "name": "Caronoan West", "country": "PH", "coord": {"lon": 120.446297, "lat": 16.2633}}, {"id": 5917430, "name": "Caronport", "country": "CA", "coord": {"lon": -105.817871, "lat": 50.450062}}, {"id": 2172251, "name": "Carool", "country": "AU", "coord": {"lon": 153.416672, "lat": -28.23333}}, {"id": 2172249, "name": "Caroona", "country": "AU", "coord": {"lon": 150.416672, "lat": -31.4}}, {"id": 3646487, "name": "Carora", "country": "VE", "coord": {"lon": -70.082741, "lat": 10.17554}}, {"id": 3180466, "name": "Carosino", "country": "IT", "coord": {"lon": 17.3976, "lat": 40.46582}}, {"id": 1718276, "name": "Carot", "country": "PH", "coord": {"lon": 119.983398, "lat": 16.346701}}, {"id": 2661265, "name": "Carouge", "country": "CH", "coord": {"lon": 6.13921, "lat": 46.180962}}, {"id": 7285435, "name": "Carouge (GE)", "country": "CH", "coord": {"lon": 6.14037, "lat": 46.18166}}, {"id": 3180462, "name": "Carovigno", "country": "IT", "coord": {"lon": 17.65501, "lat": 40.708031}}, {"id": 3180461, "name": "Carovilli", "country": "IT", "coord": {"lon": 14.29472, "lat": 41.713531}}, {"id": 3862555, "name": "Caroya", "country": "AR", "coord": {"lon": -64.116669, "lat": -31.033331}}, {"id": 3180460, "name": "Carozzo", "country": "IT", "coord": {"lon": 9.85886, "lat": 44.13208}}, {"id": 5917434, "name": "Carp", "country": "CA", "coord": {"lon": -76.032669, "lat": 45.350101}}, {"id": 6538411, "name": "Carpaneto Piacentino", "country": "IT", "coord": {"lon": 9.78927, "lat": 44.91526}}, {"id": 3180457, "name": "Carpaneto Piacentino", "country": "IT", "coord": {"lon": 9.78927, "lat": 44.91526}}, {"id": 2525341, "name": "Carpanzano", "country": "IT", "coord": {"lon": 16.303301, "lat": 39.147491}}, {"id": 3180456, "name": "Carpasio", "country": "IT", "coord": {"lon": 7.86585, "lat": 43.959221}}, {"id": 3180455, "name": "Carpegna", "country": "IT", "coord": {"lon": 12.33665, "lat": 43.782059}}, {"id": 682672, "name": "Carpen", "country": "RO", "coord": {"lon": 23.25, "lat": 44.333328}}, {"id": 3214817, "name": "Carpena", "country": "IT", "coord": {"lon": 12.07861, "lat": 44.183891}}, {"id": 2172243, "name": "Carpendeit", "country": "AU", "coord": {"lon": 143.266663, "lat": -38.383331}}, {"id": 3180450, "name": "Carpenedolo", "country": "IT", "coord": {"lon": 10.43128, "lat": 45.364479}}, {"id": 6534872, "name": "Carpeneto", "country": "IT", "coord": {"lon": 8.60555, "lat": 44.678349}}, {"id": 7839568, "name": "Carpentaria", "country": "AU", "coord": {"lon": 141.353104, "lat": -17.322161}}, {"id": 1718271, "name": "Carpenter", "country": "PH", "coord": {"lon": 124.872498, "lat": 6.45417}}, {"id": 4886676, "name": "Carpentersville", "country": "US", "coord": {"lon": -88.257858, "lat": 42.12114}}, {"id": 6451534, "name": "Carpentras", "country": "FR", "coord": {"lon": 5.05, "lat": 44.049999}}, {"id": 3028542, "name": "Carpentras", "country": "FR", "coord": {"lon": 5.05, "lat": 44.049999}}, {"id": 6538450, "name": "Carpi", "country": "IT", "coord": {"lon": 10.8777, "lat": 44.782372}}, {"id": 3180445, "name": "Carpi", "country": "IT", "coord": {"lon": 10.8777, "lat": 44.782372}}, {"id": 3180444, "name": "Carpiano", "country": "IT", "coord": {"lon": 9.27275, "lat": 45.34087}}, {"id": 6537585, "name": "Carpignano Salentino", "country": "IT", "coord": {"lon": 18.338329, "lat": 40.196918}}, {"id": 3180442, "name": "Carpignano Salentino", "country": "IT", "coord": {"lon": 18.338329, "lat": 40.196918}}, {"id": 3180441, "name": "Carpignano Sesia", "country": "IT", "coord": {"lon": 8.41843, "lat": 45.53426}}, {"id": 6547997, "name": "Carpin", "country": "DE", "coord": {"lon": 13.25, "lat": 53.349998}}, {"id": 2940259, "name": "Carpin", "country": "DE", "coord": {"lon": 13.25, "lat": 53.349998}}, {"id": 3402721, "name": "Carpina", "country": "BR", "coord": {"lon": -35.254719, "lat": -7.85083}}, {"id": 682664, "name": "Carpinet", "country": "RO", "coord": {"lon": 22.48333, "lat": 46.450001}}, {"id": 6538437, "name": "Carpineti", "country": "IT", "coord": {"lon": 10.51969, "lat": 44.455959}}, {"id": 3180433, "name": "Carpineti", "country": "IT", "coord": {"lon": 10.51969, "lat": 44.455959}}, {"id": 3180431, "name": "Carpineto Romano", "country": "IT", "coord": {"lon": 13.0851, "lat": 41.60442}}, {"id": 3180430, "name": "Carpineto Sinello", "country": "IT", "coord": {"lon": 14.50502, "lat": 42.012039}}, {"id": 3180432, "name": "Carpineto della Nora", "country": "IT", "coord": {"lon": 13.8608, "lat": 42.333038}}, {"id": 682660, "name": "Carpinis", "country": "RO", "coord": {"lon": 20.904169, "lat": 45.78722}}, {"id": 6537535, "name": "Carpino", "country": "IT", "coord": {"lon": 15.85615, "lat": 41.844238}}, {"id": 3180428, "name": "Carpino", "country": "IT", "coord": {"lon": 15.85615, "lat": 41.844238}}, {"id": 3180426, "name": "Carpinone", "country": "IT", "coord": {"lon": 14.32332, "lat": 41.590431}}, {"id": 5334423, "name": "Carpinteria", "country": "US", "coord": {"lon": -119.518463, "lat": 34.39888}}, {"id": 6362163, "name": "Carpio", "country": "ES", "coord": {"lon": -5.11449, "lat": 41.217319}}, {"id": 3126243, "name": "Carpio", "country": "ES", "coord": {"lon": -5.10907, "lat": 41.213291}}, {"id": 6357213, "name": "Carpio (El)", "country": "ES", "coord": {"lon": -4.49432, "lat": 37.945671}}, {"id": 6360335, "name": "Carpio de Azaba", "country": "ES", "coord": {"lon": -6.62722, "lat": 40.576069}}, {"id": 3126241, "name": "Carpio de Azaba", "country": "ES", "coord": {"lon": -6.6468, "lat": 40.59602}}, {"id": 6361698, "name": "Carpio de Tajo (El)", "country": "ES", "coord": {"lon": -4.47496, "lat": 39.857899}}, {"id": 6427123, "name": "Carpiquet", "country": "FR", "coord": {"lon": -0.45, "lat": 49.183331}}, {"id": 3028537, "name": "Carpiquet", "country": "FR", "coord": {"lon": -0.44623, "lat": 49.185219}}, {"id": 6435361, "name": "Carquebut", "country": "FR", "coord": {"lon": -1.33333, "lat": 49.366669}}, {"id": 3028536, "name": "Carquebut", "country": "FR", "coord": {"lon": -1.32941, "lat": 49.372139}}, {"id": 3028535, "name": "Carquefou", "country": "FR", "coord": {"lon": -1.49024, "lat": 47.298222}}, {"id": 6449079, "name": "Carquefou", "country": "FR", "coord": {"lon": -1.5, "lat": 47.299999}}, {"id": 3028534, "name": "Carqueiranne", "country": "FR", "coord": {"lon": 6.07297, "lat": 43.09531}}, {"id": 4150103, "name": "Carrabelle", "country": "US", "coord": {"lon": -84.664352, "lat": 29.85326}}, {"id": 2074834, "name": "Carrabin", "country": "AU", "coord": {"lon": 118.683327, "lat": -31.383329}}, {"id": 2965750, "name": "Carracastle", "country": "IE", "coord": {"lon": -8.6925, "lat": 53.950279}}, {"id": 6358587, "name": "Carracedelo", "country": "ES", "coord": {"lon": -6.7309, "lat": 42.557079}}, {"id": 3126237, "name": "Carracedelo", "country": "ES", "coord": {"lon": -6.73317, "lat": 42.556019}}, {"id": 2653694, "name": "Carradale", "country": "GB", "coord": {"lon": -5.47197, "lat": 55.58926}}, {"id": 2172232, "name": "Carrajung", "country": "AU", "coord": {"lon": 146.683334, "lat": -38.366669}}, {"id": 2172231, "name": "Carrajung Lower", "country": "AU", "coord": {"lon": 146.733337, "lat": -38.400002}}, {"id": 2172230, "name": "Carrajung South", "country": "AU", "coord": {"lon": 146.733337, "lat": -38.383331}}, {"id": 3126223, "name": "Carral", "country": "ES", "coord": {"lon": -7.65, "lat": 43.133331}}, {"id": 6357291, "name": "Carral", "country": "ES", "coord": {"lon": -8.33759, "lat": 43.222599}}, {"id": 3126222, "name": "Carral", "country": "ES", "coord": {"lon": -8.35545, "lat": 43.2286}}, {"id": 3311804, "name": "Carran", "country": "IE", "coord": {"lon": -9.07806, "lat": 53.038059}}, {"id": 3466871, "name": "Carrancas", "country": "BR", "coord": {"lon": -44.642502, "lat": -21.487499}}, {"id": 1718266, "name": "Carranglan", "country": "PH", "coord": {"lon": 121.064102, "lat": 15.9613}}, {"id": 6361699, "name": "Carranque", "country": "ES", "coord": {"lon": -3.90006, "lat": 40.169559}}, {"id": 3126214, "name": "Carranque", "country": "ES", "coord": {"lon": -3.90092, "lat": 40.169762}}, {"id": 8012078, "name": "Carrapichana", "country": "PT", "coord": {"lon": -7.48972, "lat": 40.561401}}, {"id": 2741438, "name": "Carrapichana", "country": "PT", "coord": {"lon": -7.48606, "lat": 40.562351}}, {"id": 6542087, "name": "Carrara", "country": "IT", "coord": {"lon": 10.06069, "lat": 44.062939}}, {"id": 3180423, "name": "Carrara", "country": "IT", "coord": {"lon": 10.06069, "lat": 44.062939}}, {"id": 2965746, "name": "Carraroe", "country": "IE", "coord": {"lon": -9.58361, "lat": 53.26556}}, {"id": 1718262, "name": "Carrascal", "country": "PH", "coord": {"lon": 125.949173, "lat": 9.37028}}, {"id": 6360336, "name": "Carrascal de Barregas", "country": "ES", "coord": {"lon": -5.8043, "lat": 40.941292}}, {"id": 3126209, "name": "Carrascal de Barregas", "country": "ES", "coord": {"lon": -5.76226, "lat": 40.97868}}, {"id": 6360337, "name": "Carrascal del Obispo", "country": "ES", "coord": {"lon": -5.99921, "lat": 40.771332}}, {"id": 3126207, "name": "Carrascal del Obispo", "country": "ES", "coord": {"lon": -5.99913, "lat": 40.76376}}, {"id": 3126205, "name": "Carrascal del Rio", "country": "ES", "coord": {"lon": -3.89819, "lat": 41.368011}}, {"id": 6360785, "name": "Carrascal del R\u00edo", "country": "ES", "coord": {"lon": -3.88465, "lat": 41.346931}}, {"id": 6356745, "name": "Carrascalejo", "country": "ES", "coord": {"lon": -5.21363, "lat": 39.63979}}, {"id": 2520092, "name": "Carrascalejo", "country": "ES", "coord": {"lon": -5.21667, "lat": 39.633331}}, {"id": 3480823, "name": "Carrasco", "country": "UY", "coord": {"lon": -56.060558, "lat": -34.885281}}, {"id": 6357413, "name": "Carrascosa", "country": "ES", "coord": {"lon": -2.19778, "lat": 40.563438}}, {"id": 3126197, "name": "Carrascosa", "country": "ES", "coord": {"lon": -2.16305, "lat": 40.590919}}, {"id": 6361109, "name": "Carrascosa de Abajo", "country": "ES", "coord": {"lon": -3.09153, "lat": 41.430882}}, {"id": 3126195, "name": "Carrascosa de Abajo", "country": "ES", "coord": {"lon": -3.08955, "lat": 41.423382}}, {"id": 6357414, "name": "Carrascosa de Haro", "country": "ES", "coord": {"lon": -2.53843, "lat": 39.585949}}, {"id": 2520087, "name": "Carrascosa de Haro", "country": "ES", "coord": {"lon": -2.54182, "lat": 39.597569}}, {"id": 6361110, "name": "Carrascosa de la Sierra", "country": "ES", "coord": {"lon": -2.25673, "lat": 41.913609}}, {"id": 3126192, "name": "Carrascosa de la Sierra", "country": "ES", "coord": {"lon": -2.28003, "lat": 41.895351}}, {"id": 3126191, "name": "Carrascosa del Campo", "country": "ES", "coord": {"lon": -2.73675, "lat": 40.037701}}, {"id": 7839708, "name": "Carrathool", "country": "AU", "coord": {"lon": 145.425232, "lat": -33.62571}}, {"id": 2172225, "name": "Carrathool", "country": "AU", "coord": {"lon": 145.433334, "lat": -34.416672}}, {"id": 6359441, "name": "Carratraca", "country": "ES", "coord": {"lon": -4.82179, "lat": 36.846802}}, {"id": 2520083, "name": "Carratraca", "country": "ES", "coord": {"lon": -4.81998, "lat": 36.852901}}, {"id": 8014605, "name": "Carrazedo de Montenegro", "country": "PT", "coord": {"lon": -7.42369, "lat": 41.561878}}, {"id": 2741419, "name": "Carrazedo de Montenegro", "country": "PT", "coord": {"lon": -7.42438, "lat": 41.56691}}, {"id": 4459343, "name": "Carrboro", "country": "US", "coord": {"lon": -79.075287, "lat": 35.910141}}, {"id": 6535006, "name": "Carre", "country": "IT", "coord": {"lon": 11.45779, "lat": 45.748798}}, {"id": 1106819, "name": "Carreau Lalo", "country": "MU", "coord": {"lon": 57.520279, "lat": -20.15361}}, {"id": 3728338, "name": "Carrefour", "country": "HT", "coord": {"lon": -72.399223, "lat": 18.54114}}, {"id": 3728319, "name": "Carrefour Canot", "country": "HT", "coord": {"lon": -74.083328, "lat": 18.616671}}, {"id": 3728308, "name": "Carrefour des Quatre Chemins", "country": "HT", "coord": {"lon": -73.75, "lat": 18.200001}}, {"id": 6535534, "name": "Carrega Ligure", "country": "IT", "coord": {"lon": 9.17564, "lat": 44.61879}}, {"id": 8012436, "name": "Carregado", "country": "PT", "coord": {"lon": -8.9645, "lat": 39.023338}}, {"id": 2270084, "name": "Carregado", "country": "PT", "coord": {"lon": -8.97692, "lat": 39.023621}}, {"id": 2741411, "name": "Carregal", "country": "PT", "coord": {"lon": -8.27374, "lat": 40.672932}}, {"id": 7116056, "name": "Carregal do Sal", "country": "PT", "coord": {"lon": -7.99819, "lat": 40.450069}}, {"id": 2741405, "name": "Carregal do Sal", "country": "PT", "coord": {"lon": -8, "lat": 40.433331}}, {"id": 2741404, "name": "Carregosa", "country": "PT", "coord": {"lon": -8.67248, "lat": 40.086441}}, {"id": 8012996, "name": "Carregueira", "country": "PT", "coord": {"lon": -8.36416, "lat": 39.400871}}, {"id": 2270070, "name": "Carregueira", "country": "PT", "coord": {"lon": -8.41667, "lat": 39.416672}}, {"id": 8013063, "name": "Carregueiros", "country": "PT", "coord": {"lon": -8.44439, "lat": 39.625011}}, {"id": 2741401, "name": "Carreira", "country": "PT", "coord": {"lon": -7.9972, "lat": 40.83633}}, {"id": 8011303, "name": "Carreira", "country": "PT", "coord": {"lon": -8.43879, "lat": 41.375431}}, {"id": 2741399, "name": "Carreira", "country": "PT", "coord": {"lon": -8.44016, "lat": 41.38475}}, {"id": 3126185, "name": "Carreira", "country": "ES", "coord": {"lon": -9.00613, "lat": 42.549}}, {"id": 3126180, "name": "Carrejo", "country": "ES", "coord": {"lon": -4.23754, "lat": 43.294159}}, {"id": 3126178, "name": "Carrena", "country": "ES", "coord": {"lon": -4.84609, "lat": 43.317371}}, {"id": 3862537, "name": "Carreras", "country": "AR", "coord": {"lon": -61.309818, "lat": -33.597038}}, {"id": 6617350, "name": "Carresse-Cassaber", "country": "FR", "coord": {"lon": -0.9946, "lat": 43.4781}}, {"id": 3028523, "name": "Carresse-Cassaber", "country": "FR", "coord": {"lon": -1, "lat": 43.48333}}, {"id": 3862525, "name": "Carreta Quebrada", "country": "AR", "coord": {"lon": -64.180779, "lat": -31.157721}}, {"id": 8013382, "name": "Carre\u00e7o", "country": "PT", "coord": {"lon": -8.84626, "lat": 41.745659}}, {"id": 5416200, "name": "Carriage Club", "country": "US", "coord": {"lon": -104.901093, "lat": 39.53249}}, {"id": 5065242, "name": "Carriage House Estates", "country": "US", "coord": {"lon": -97.332817, "lat": 41.441681}}, {"id": 6356393, "name": "Carrias", "country": "ES", "coord": {"lon": -3.29624, "lat": 42.477951}}, {"id": 3126172, "name": "Carrias", "country": "ES", "coord": {"lon": -3.28319, "lat": 42.481411}}, {"id": 3126171, "name": "Carriazo", "country": "ES", "coord": {"lon": -3.67169, "lat": 43.454491}}, {"id": 6361700, "name": "Carriches", "country": "ES", "coord": {"lon": -4.45717, "lat": 39.964771}}, {"id": 2520078, "name": "Carriches", "country": "ES", "coord": {"lon": -4.45864, "lat": 39.964169}}, {"id": 4015304, "name": "Carricito", "country": "MX", "coord": {"lon": -110.866669, "lat": 28.133329}}, {"id": 2172219, "name": "Carrick", "country": "AU", "coord": {"lon": 147, "lat": -41.533329}}, {"id": 2965727, "name": "Carrick-on-Shannon", "country": "IE", "coord": {"lon": -8.09, "lat": 53.946941}}, {"id": 2965726, "name": "Carrick-on-Suir", "country": "IE", "coord": {"lon": -7.41306, "lat": 52.349171}}, {"id": 7838905, "name": "Carrickaboy", "country": "IE", "coord": {"lon": -7.28475, "lat": 53.937901}}, {"id": 2965739, "name": "Carrickboy", "country": "IE", "coord": {"lon": -7.68333, "lat": 53.633331}}, {"id": 2653680, "name": "Carrickfergus", "country": "GB", "coord": {"lon": -5.8058, "lat": 54.715801}}, {"id": 2653681, "name": "Carrickfergus District", "country": "GB", "coord": {"lon": -5.83333, "lat": 54.75}}, {"id": 2965733, "name": "Carrickmacross", "country": "IE", "coord": {"lon": -6.71889, "lat": 53.972778}}, {"id": 2965731, "name": "Carrickmines", "country": "IE", "coord": {"lon": -6.17111, "lat": 53.251942}}, {"id": 3301342, "name": "Carrickphilip", "country": "IE", "coord": {"lon": -7.3, "lat": 52.200829}}, {"id": 3310670, "name": "Carrickroe", "country": "IE", "coord": {"lon": -7.02778, "lat": 54.356941}}, {"id": 2520077, "name": "Carricola", "country": "ES", "coord": {"lon": -0.4726, "lat": 38.841331}}, {"id": 1718253, "name": "Carriedo", "country": "PH", "coord": {"lon": 120.754898, "lat": 16.031}}, {"id": 1718254, "name": "Carriedo", "country": "PH", "coord": {"lon": 124.105003, "lat": 12.9344}}, {"id": 4235274, "name": "Carrier Mills", "country": "US", "coord": {"lon": -88.632828, "lat": 37.684219}}, {"id": 3028521, "name": "Carrieres-sous-Poissy", "country": "FR", "coord": {"lon": 2.04068, "lat": 48.94952}}, {"id": 3028520, "name": "Carrieres-sur-Seine", "country": "FR", "coord": {"lon": 2.1792, "lat": 48.906872}}, {"id": 2074813, "name": "Carrieton", "country": "AU", "coord": {"lon": 138.533325, "lat": -32.433331}}, {"id": 2965705, "name": "Carrig East", "country": "IE", "coord": {"lon": -9.63333, "lat": 51.933331}}, {"id": 2965715, "name": "Carrigaline", "country": "IE", "coord": {"lon": -8.39861, "lat": 51.811668}}, {"id": 2965714, "name": "Carrigallen", "country": "IE", "coord": {"lon": -7.64583, "lat": 53.977219}}, {"id": 3310905, "name": "Carrigans", "country": "IE", "coord": {"lon": -8.48972, "lat": 54.107498}}, {"id": 2965741, "name": "Carrigart", "country": "IE", "coord": {"lon": -7.79778, "lat": 55.174438}}, {"id": 3301750, "name": "Carrigeen", "country": "IE", "coord": {"lon": -7.20806, "lat": 52.269169}}, {"id": 2965699, "name": "Carrignavar", "country": "IE", "coord": {"lon": -8.47972, "lat": 51.988609}}, {"id": 2965694, "name": "Carrigtwohill", "country": "IE", "coord": {"lon": -8.26333, "lat": 51.908329}}, {"id": 3624379, "name": "Carrillos", "country": "CR", "coord": {"lon": -84.27404, "lat": 10.02918}}, {"id": 3862515, "name": "Carrilobo", "country": "AR", "coord": {"lon": -63.117161, "lat": -31.872959}}, {"id": 7301607, "name": "Carrington", "country": "GB", "coord": {"lon": -2.38954, "lat": 53.42535}}, {"id": 2172215, "name": "Carrington", "country": "AU", "coord": {"lon": 152.016663, "lat": -32.666672}}, {"id": 2653673, "name": "Carrington", "country": "GB", "coord": {"lon": -2.38333, "lat": 53.433331}}, {"id": 5058552, "name": "Carrington", "country": "US", "coord": {"lon": -99.126221, "lat": 47.449718}}, {"id": 3126167, "name": "Carrio", "country": "ES", "coord": {"lon": -5.57183, "lat": 43.25135}}, {"id": 2520072, "name": "Carrion de Calatrava", "country": "ES", "coord": {"lon": -3.81683, "lat": 39.018978}}, {"id": 2520071, "name": "Carrion de los Cespedes", "country": "ES", "coord": {"lon": -6.32923, "lat": 37.370071}}, {"id": 3126161, "name": "Carrion de los Condes", "country": "ES", "coord": {"lon": -4.60071, "lat": 42.341301}}, {"id": 3646451, "name": "Carrizal", "country": "VE", "coord": {"lon": -66.98632, "lat": 10.34985}}, {"id": 4563249, "name": "Carrizales", "country": "PR", "coord": {"lon": -66.789902, "lat": 18.48189}}, {"id": 6358588, "name": "Carrizo", "country": "ES", "coord": {"lon": -5.85169, "lat": 42.593399}}, {"id": 4679148, "name": "Carrizo Springs", "country": "US", "coord": {"lon": -99.860611, "lat": 28.521931}}, {"id": 3126155, "name": "Carrizo de la Ribera", "country": "ES", "coord": {"lon": -5.82881, "lat": 42.58395}}, {"id": 6357126, "name": "Carrizosa", "country": "ES", "coord": {"lon": -2.99288, "lat": 38.841572}}, {"id": 2520064, "name": "Carrizosa", "country": "ES", "coord": {"lon": -2.9925, "lat": 38.842041}}, {"id": 5460567, "name": "Carrizozo", "country": "US", "coord": {"lon": -105.877213, "lat": 33.641739}}, {"id": 8012405, "name": "Carri\u00e7o", "country": "PT", "coord": {"lon": -8.8517, "lat": 39.997169}}, {"id": 6443933, "name": "Carri\u00e8res-sous-Poissy", "country": "FR", "coord": {"lon": 2.03333, "lat": 48.950001}}, {"id": 6357125, "name": "Carri\u00f3n de Calatrava", "country": "ES", "coord": {"lon": -3.83144, "lat": 39.05978}}, {"id": 6360014, "name": "Carri\u00f3n de los Condes", "country": "ES", "coord": {"lon": -4.62336, "lat": 42.317009}}, {"id": 6360980, "name": "Carri\u00f3n de los C\u00e9spedes", "country": "ES", "coord": {"lon": -6.32792, "lat": 37.363251}}, {"id": 6539612, "name": "Carro", "country": "IT", "coord": {"lon": 9.60888, "lat": 44.272148}}, {"id": 3180413, "name": "Carro", "country": "IT", "coord": {"lon": 9.60888, "lat": 44.272148}}, {"id": 6358589, "name": "Carrocera", "country": "ES", "coord": {"lon": -5.75812, "lat": 42.807892}}, {"id": 3126152, "name": "Carrocera", "country": "ES", "coord": {"lon": -5.74374, "lat": 42.796051}}, {"id": 6534725, "name": "Carrodano", "country": "IT", "coord": {"lon": 9.65578, "lat": 44.24155}}, {"id": 2172210, "name": "Carroll", "country": "AU", "coord": {"lon": 150.433334, "lat": -30.98333}}, {"id": 4850478, "name": "Carroll", "country": "US", "coord": {"lon": -94.866928, "lat": 42.065819}}, {"id": 4186396, "name": "Carroll County", "country": "US", "coord": {"lon": -85.049942, "lat": 33.583439}}, {"id": 4611490, "name": "Carroll County", "country": "US", "coord": {"lon": -88.466721, "lat": 35.966728}}, {"id": 4350461, "name": "Carroll County", "country": "US", "coord": {"lon": -77.016373, "lat": 39.550098}}, {"id": 4380138, "name": "Carroll County", "country": "US", "coord": {"lon": -93.516876, "lat": 39.45002}}, {"id": 5084247, "name": "Carroll County", "country": "US", "coord": {"lon": -71.216179, "lat": 43.866741}}, {"id": 4287048, "name": "Carroll County", "country": "US", "coord": {"lon": -85.116623, "lat": 38.650059}}, {"id": 4886694, "name": "Carroll County", "country": "US", "coord": {"lon": -89.916786, "lat": 42.066689}}, {"id": 4850488, "name": "Carroll County", "country": "US", "coord": {"lon": -94.883598, "lat": 42.033321}}, {"id": 4557014, "name": "Carroll Valley", "country": "US", "coord": {"lon": -77.383041, "lat": 39.74926}}, {"id": 4186416, "name": "Carrollton", "country": "US", "coord": {"lon": -85.076607, "lat": 33.580109}}, {"id": 4679195, "name": "Carrollton", "country": "US", "coord": {"lon": -96.890282, "lat": 32.953732}}, {"id": 4053823, "name": "Carrollton", "country": "US", "coord": {"lon": -88.095032, "lat": 33.261791}}, {"id": 4235288, "name": "Carrollton", "country": "US", "coord": {"lon": -90.407059, "lat": 39.302269}}, {"id": 4287050, "name": "Carrollton", "country": "US", "coord": {"lon": -85.179398, "lat": 38.680901}}, {"id": 4380145, "name": "Carrollton", "country": "US", "coord": {"lon": -93.495773, "lat": 39.358349}}, {"id": 4420729, "name": "Carrollton", "country": "US", "coord": {"lon": -89.920357, "lat": 33.508179}}, {"id": 4751066, "name": "Carrollton", "country": "US", "coord": {"lon": -76.560509, "lat": 36.946819}}, {"id": 4988132, "name": "Carrollton", "country": "US", "coord": {"lon": -83.930252, "lat": 43.458641}}, {"id": 5149327, "name": "Carrollton", "country": "US", "coord": {"lon": -81.085648, "lat": 40.572842}}, {"id": 4150115, "name": "Carrollwood", "country": "US", "coord": {"lon": -82.492867, "lat": 28.05002}}, {"id": 4150118, "name": "Carrollwood Village", "country": "US", "coord": {"lon": -82.520927, "lat": 28.06752}}, {"id": 2074804, "name": "Carrolup", "country": "AU", "coord": {"lon": 117.433327, "lat": -33.75}}, {"id": 3028513, "name": "Carros", "country": "FR", "coord": {"lon": 7.18395, "lat": 43.78941}}, {"id": 3180406, "name": "Carrosio", "country": "IT", "coord": {"lon": 8.83155, "lat": 44.658249}}, {"id": 5917605, "name": "Carrot River", "country": "CA", "coord": {"lon": -103.584229, "lat": 53.283371}}, {"id": 6613068, "name": "Carrouges", "country": "FR", "coord": {"lon": -0.15, "lat": 48.566669}}, {"id": 3028512, "name": "Carrouges", "country": "FR", "coord": {"lon": -0.14564, "lat": 48.567421}}, {"id": 3310955, "name": "Carrowreagh", "country": "IE", "coord": {"lon": -8.7225, "lat": 54.040001}}, {"id": 3180405, "name": "Carru", "country": "IT", "coord": {"lon": 7.87444, "lat": 44.481041}}, {"id": 2172195, "name": "Carruchan", "country": "AU", "coord": {"lon": 145.916672, "lat": -18.216669}}, {"id": 2172192, "name": "Carrum", "country": "AU", "coord": {"lon": 145.133331, "lat": -38.083328}}, {"id": 2172191, "name": "Carrum Downs", "country": "AU", "coord": {"lon": 145.183334, "lat": -38.099998}}, {"id": 5917622, "name": "Carruthers", "country": "CA", "coord": {"lon": -109.268173, "lat": 52.866852}}, {"id": 3028510, "name": "Carry-le-Rouet", "country": "FR", "coord": {"lon": 5.15237, "lat": 43.33139}}, {"id": 2653656, "name": "Carryduff", "country": "GB", "coord": {"lon": -5.88713, "lat": 54.51799}}, {"id": 6440335, "name": "Carr\u00e8re", "country": "FR", "coord": {"lon": -0.28, "lat": 43.483501}}, {"id": 3028524, "name": "Carr\u00e8re", "country": "FR", "coord": {"lon": -0.28333, "lat": 43.466671}}, {"id": 6361951, "name": "Carr\u00edcola", "country": "ES", "coord": {"lon": -0.47028, "lat": 38.84396}}, {"id": 3028509, "name": "Cars", "country": "FR", "coord": {"lon": -0.61952, "lat": 45.129169}}, {"id": 3028507, "name": "Carsac-Aillac", "country": "FR", "coord": {"lon": 1.25, "lat": 44.833328}}, {"id": 6447794, "name": "Carsac-de-Gurson", "country": "FR", "coord": {"lon": 0.1, "lat": 44.950001}}, {"id": 3028506, "name": "Carsac-de-Gurson", "country": "FR", "coord": {"lon": 0.1, "lat": 44.950001}}, {"id": 749704, "name": "Carsamba", "country": "TR", "coord": {"lon": 36.721939, "lat": 41.198891}}, {"id": 5917652, "name": "Carseland", "country": "CA", "coord": {"lon": -113.468643, "lat": 50.850109}}, {"id": 3180400, "name": "Carsoli", "country": "IT", "coord": {"lon": 13.08489, "lat": 42.09893}}, {"id": 5334519, "name": "Carson", "country": "US", "coord": {"lon": -118.282021, "lat": 33.831409}}, {"id": 5688351, "name": "Carson", "country": "US", "coord": {"lon": -101.564873, "lat": 46.417782}}, {"id": 5789244, "name": "Carson", "country": "US", "coord": {"lon": -121.819237, "lat": 45.725391}}, {"id": 5501350, "name": "Carson City", "country": "US", "coord": {"lon": -119.776299, "lat": 39.164619}}, {"id": 5501344, "name": "Carson City", "country": "US", "coord": {"lon": -119.767403, "lat": 39.163799}}, {"id": 4988138, "name": "Carson City", "country": "US", "coord": {"lon": -84.84639, "lat": 43.176979}}, {"id": 3028503, "name": "Carspach", "country": "FR", "coord": {"lon": 7.2115, "lat": 47.61628}}, {"id": 5917688, "name": "Carstairs", "country": "CA", "coord": {"lon": -114.101997, "lat": 51.566811}}, {"id": 681523, "name": "Carta", "country": "RO", "coord": {"lon": 25.75, "lat": 46.533329}}, {"id": 3896433, "name": "Cartagena", "country": "CL", "coord": {"lon": -71.605278, "lat": -33.554169}}, {"id": 6359521, "name": "Cartagena", "country": "ES", "coord": {"lon": -0.93397, "lat": 37.604}}, {"id": 2520058, "name": "Cartagena", "country": "ES", "coord": {"lon": -0.98623, "lat": 37.605122}}, {"id": 3687238, "name": "Cartagena", "country": "CO", "coord": {"lon": -75.514442, "lat": 10.39972}}, {"id": 1718247, "name": "Cartagena", "country": "PH", "coord": {"lon": 122.398888, "lat": 9.82167}}, {"id": 3792382, "name": "Cartagena del Chaira", "country": "CO", "coord": {"lon": -74.842888, "lat": 1.33488}}, {"id": 3687230, "name": "Cartago", "country": "CO", "coord": {"lon": -75.911667, "lat": 4.74639}}, {"id": 3624370, "name": "Cartago", "country": "CR", "coord": {"lon": -83.916672, "lat": 9.86667}}, {"id": 3687231, "name": "Cartago", "country": "CO", "coord": {"lon": -77.117599, "lat": 1.56305}}, {"id": 600202, "name": "Cartai", "country": "LT", "coord": {"lon": 21.200001, "lat": 55.816669}}, {"id": 6359442, "name": "Cartajima", "country": "ES", "coord": {"lon": -5.15113, "lat": 36.65271}}, {"id": 2520056, "name": "Cartajima", "country": "ES", "coord": {"lon": -5.1541, "lat": 36.645481}}, {"id": 2520055, "name": "Cartama", "country": "ES", "coord": {"lon": -4.63297, "lat": 36.710678}}, {"id": 3028502, "name": "Cartas", "country": "FR", "coord": {"lon": 3.33719, "lat": 45.650162}}, {"id": 3698743, "name": "Cartavio", "country": "PE", "coord": {"lon": -79.222778, "lat": -7.89167}}, {"id": 8010599, "name": "Cartaxo", "country": "PT", "coord": {"lon": -8.81373, "lat": 39.15377}}, {"id": 2270023, "name": "Cartaxo", "country": "PT", "coord": {"lon": -8.78741, "lat": 39.160221}}, {"id": 6358197, "name": "Cartaya", "country": "ES", "coord": {"lon": -7.16817, "lat": 37.315681}}, {"id": 2520052, "name": "Cartaya", "country": "ES", "coord": {"lon": -7.15071, "lat": 37.281139}}, {"id": 6359838, "name": "Cartelle", "country": "ES", "coord": {"lon": -8.03093, "lat": 42.234089}}, {"id": 3126141, "name": "Cartelle", "country": "ES", "coord": {"lon": -8.07062, "lat": 42.251091}}, {"id": 6432171, "name": "Cartel\u00e8gue", "country": "FR", "coord": {"lon": -0.58333, "lat": 45.183331}}, {"id": 3028501, "name": "Cartel\u00e8gue", "country": "FR", "coord": {"lon": -0.58138, "lat": 45.18494}}, {"id": 4611599, "name": "Carter County", "country": "US", "coord": {"lon": -82.133179, "lat": 36.30011}}, {"id": 5643864, "name": "Carter County", "country": "US", "coord": {"lon": -104.550507, "lat": 45.46666}}, {"id": 4380170, "name": "Carter County", "country": "US", "coord": {"lon": -90.933456, "lat": 36.95005}}, {"id": 4532398, "name": "Carter County", "country": "US", "coord": {"lon": -97.300301, "lat": 34.233429}}, {"id": 4850531, "name": "Carter Lake", "country": "US", "coord": {"lon": -95.918068, "lat": 41.29055}}, {"id": 3028499, "name": "Carteret", "country": "FR", "coord": {"lon": -1.78726, "lat": 49.379292}}, {"id": 5096316, "name": "Carteret", "country": "US", "coord": {"lon": -74.228203, "lat": 40.577332}}, {"id": 4459410, "name": "Carteret County", "country": "US", "coord": {"lon": -76.699654, "lat": 34.800159}}, {"id": 2192573, "name": "Carters Beach", "country": "NZ", "coord": {"lon": 171.566666, "lat": -41.75}}, {"id": 4186531, "name": "Cartersville", "country": "US", "coord": {"lon": -84.799942, "lat": 34.1651}}, {"id": 2653634, "name": "Carterton", "country": "GB", "coord": {"lon": -1.59435, "lat": 51.759048}}, {"id": 4235311, "name": "Carterville", "country": "US", "coord": {"lon": -89.077301, "lat": 37.760052}}, {"id": 4380199, "name": "Carterville", "country": "US", "coord": {"lon": -94.443001, "lat": 37.149231}}, {"id": 6360665, "name": "Cartes", "country": "ES", "coord": {"lon": -4.09372, "lat": 43.316299}}, {"id": 3126139, "name": "Cartes", "country": "ES", "coord": {"lon": -4.06893, "lat": 43.325958}}, {"id": 4886716, "name": "Carthage", "country": "US", "coord": {"lon": -91.136253, "lat": 40.416431}}, {"id": 2468245, "name": "Carthage", "country": "TN", "coord": {"lon": 10.33161, "lat": 36.86108}}, {"id": 4380202, "name": "Carthage", "country": "US", "coord": {"lon": -94.310219, "lat": 37.176449}}, {"id": 4420799, "name": "Carthage", "country": "US", "coord": {"lon": -89.536179, "lat": 32.732639}}, {"id": 4459426, "name": "Carthage", "country": "US", "coord": {"lon": -79.416969, "lat": 35.345989}}, {"id": 4611656, "name": "Carthage", "country": "US", "coord": {"lon": -85.951653, "lat": 36.252281}}, {"id": 4679272, "name": "Carthage", "country": "US", "coord": {"lon": -94.337418, "lat": 32.157379}}, {"id": 4886717, "name": "Carthage", "country": "US", "coord": {"lon": -89.313713, "lat": 41.918919}}, {"id": 5111656, "name": "Carthage", "country": "US", "coord": {"lon": -75.60936, "lat": 43.978119}}, {"id": 3712951, "name": "Carti Suitupo", "country": "PA", "coord": {"lon": -78.966667, "lat": 9.47417}}, {"id": 5917771, "name": "Cartier", "country": "CA", "coord": {"lon": -81.549782, "lat": 46.700081}}, {"id": 5917781, "name": "Cartierville", "country": "CA", "coord": {"lon": -73.703583, "lat": 45.531181}}, {"id": 6543561, "name": "Cartigliano", "country": "IT", "coord": {"lon": 11.6956, "lat": 45.713001}}, {"id": 6535580, "name": "Cartigliano", "country": "IT", "coord": {"lon": 11.6956, "lat": 45.713001}}, {"id": 3180394, "name": "Cartignano", "country": "IT", "coord": {"lon": 7.28572, "lat": 44.478329}}, {"id": 3028493, "name": "Cartignies", "country": "FR", "coord": {"lon": 3.84473, "lat": 50.092899}}, {"id": 681517, "name": "Cartisoara", "country": "RO", "coord": {"lon": 24.58333, "lat": 45.716671}}, {"id": 3180393, "name": "Cartoceto", "country": "IT", "coord": {"lon": 12.81667, "lat": 43.616669}}, {"id": 6535604, "name": "Cartoceto", "country": "IT", "coord": {"lon": 12.88346, "lat": 43.765659}}, {"id": 6535535, "name": "Cartosio", "country": "IT", "coord": {"lon": 8.42065, "lat": 44.59024}}, {"id": 6535018, "name": "Cartura", "country": "IT", "coord": {"lon": 11.85681, "lat": 45.268391}}, {"id": 6943726, "name": "Cartwright", "country": "CA", "coord": {"lon": -57.01741, "lat": 53.719471}}, {"id": 5917796, "name": "Cartwright", "country": "CA", "coord": {"lon": -99.340828, "lat": 49.095619}}, {"id": 5917819, "name": "Cartyville", "country": "CA", "coord": {"lon": -58.798519, "lat": 48.233311}}, {"id": 6320490, "name": "Caruaru", "country": "BR", "coord": {"lon": -36.027939, "lat": -8.17924}}, {"id": 3402655, "name": "Caruaru", "country": "BR", "coord": {"lon": -35.976109, "lat": -8.28333}}, {"id": 6358590, "name": "Carucedo", "country": "ES", "coord": {"lon": -6.79336, "lat": 42.482712}}, {"id": 3126135, "name": "Carucedo", "country": "ES", "coord": {"lon": -6.76565, "lat": 42.490292}}, {"id": 3180389, "name": "Carugate", "country": "IT", "coord": {"lon": 9.34375, "lat": 45.54977}}, {"id": 6539477, "name": "Carugate", "country": "IT", "coord": {"lon": 9.34375, "lat": 45.54977}}, {"id": 6535116, "name": "Carugo", "country": "IT", "coord": {"lon": 9.19684, "lat": 45.708481}}, {"id": 2940252, "name": "Carum", "country": "DE", "coord": {"lon": 8.11667, "lat": 52.716671}}, {"id": 3180388, "name": "Carunchio", "country": "IT", "coord": {"lon": 14.52672, "lat": 41.91663}}, {"id": 3646382, "name": "Carupano", "country": "VE", "coord": {"lon": -63.258492, "lat": 10.66781}}, {"id": 1718234, "name": "Caruray", "country": "PH", "coord": {"lon": 119.012802, "lat": 10.3094}}, {"id": 1718277, "name": "Carusucan", "country": "PH", "coord": {"lon": 120.637779, "lat": 15.96861}}, {"id": 3402648, "name": "Carutapera", "country": "BR", "coord": {"lon": -46.02, "lat": -1.195}}, {"id": 5334575, "name": "Caruthers", "country": "US", "coord": {"lon": -119.833199, "lat": 36.542728}}, {"id": 4380211, "name": "Caruthersville", "country": "US", "coord": {"lon": -89.65564, "lat": 36.193119}}, {"id": 8013909, "name": "Carvalhais", "country": "PT", "coord": {"lon": -8.09933, "lat": 40.800011}}, {"id": 2741359, "name": "Carvalhais", "country": "PT", "coord": {"lon": -8.11388, "lat": 40.788551}}, {"id": 8012335, "name": "Carvalhal", "country": "PT", "coord": {"lon": -9.12567, "lat": 39.291241}}, {"id": 8013850, "name": "Carvalhal Redondo", "country": "PT", "coord": {"lon": -7.90405, "lat": 40.538071}}, {"id": 2741310, "name": "Carvalhal Redondo", "country": "PT", "coord": {"lon": -7.90228, "lat": 40.538071}}, {"id": 2741291, "name": "Carvalhinho", "country": "PT", "coord": {"lon": -8.54458, "lat": 41.53429}}, {"id": 2741285, "name": "Carvalho", "country": "PT", "coord": {"lon": -7.86667, "lat": 41.183331}}, {"id": 8012784, "name": "Carvalhosa", "country": "PT", "coord": {"lon": -8.36866, "lat": 41.293839}}, {"id": 2741266, "name": "Carvalhosa", "country": "PT", "coord": {"lon": -8.3608, "lat": 41.300571}}, {"id": 5718099, "name": "Carver", "country": "US", "coord": {"lon": -122.497307, "lat": 45.394569}}, {"id": 4932388, "name": "Carver", "country": "US", "coord": {"lon": -70.762543, "lat": 41.883438}}, {"id": 5020496, "name": "Carver", "country": "US", "coord": {"lon": -93.625793, "lat": 44.763569}}, {"id": 5020499, "name": "Carver County", "country": "US", "coord": {"lon": -93.783569, "lat": 44.799961}}, {"id": 4150159, "name": "Carver Ranches", "country": "US", "coord": {"lon": -80.192268, "lat": 25.98842}},