[{"id": 5123400, "name": "Kinderhook", "country": "US", "coord": {"lon": -73.697899, "lat": 42.395359}}, {"id": 5123459, "name": "Kings Point", "country": "US", "coord": {"lon": -73.73513, "lat": 40.81982}}, {"id": 5123777, "name": "Lake Carmel", "country": "US", "coord": {"lon": -73.670959, "lat": 41.461479}}, {"id": 5123788, "name": "Lake Erie Beach", "country": "US", "coord": {"lon": -79.066978, "lat": 42.624229}}, {"id": 5123796, "name": "Lake Grove", "country": "US", "coord": {"lon": -73.115112, "lat": 40.852879}}, {"id": 5123809, "name": "Lake Katrine", "country": "US", "coord": {"lon": -73.98819, "lat": 41.985649}}, {"id": 5123823, "name": "Lake Mohegan", "country": "US", "coord": {"lon": -73.846252, "lat": 41.317871}}, {"id": 5123831, "name": "Lake Placid", "country": "US", "coord": {"lon": -73.979874, "lat": 44.279491}}, {"id": 5123834, "name": "Lake Pleasant", "country": "US", "coord": {"lon": -74.412651, "lat": 43.470901}}, {"id": 5123853, "name": "Lake Success", "country": "US", "coord": {"lon": -73.717628, "lat": 40.77066}}, {"id": 5123872, "name": "Lakeland", "country": "US", "coord": {"lon": -76.240479, "lat": 43.09034}}, {"id": 5123907, "name": "Lakeview", "country": "US", "coord": {"lon": -75.865471, "lat": 42.432018}}, {"id": 5123908, "name": "Lakeview", "country": "US", "coord": {"lon": -73.652634, "lat": 40.685379}}, {"id": 5123929, "name": "Lakewood", "country": "US", "coord": {"lon": -79.333099, "lat": 42.104221}}, {"id": 5123954, "name": "Lancaster", "country": "US", "coord": {"lon": -78.670311, "lat": 42.900612}}, {"id": 5124017, "name": "Larchmont", "country": "US", "coord": {"lon": -73.751801, "lat": 40.927879}}, {"id": 5124049, "name": "Lattingtown", "country": "US", "coord": {"lon": -73.60096, "lat": 40.895378}}, {"id": 5124059, "name": "Laurel", "country": "US", "coord": {"lon": -72.562027, "lat": 40.96954}}, {"id": 5124069, "name": "Laurel Hollow", "country": "US", "coord": {"lon": -73.469566, "lat": 40.85677}}, {"id": 5124087, "name": "Lawrence", "country": "US", "coord": {"lon": -73.729584, "lat": 40.615662}}, {"id": 5124128, "name": "Le Roy", "country": "US", "coord": {"lon": -77.984177, "lat": 42.97839}}, {"id": 5124307, "name": "Lewiston", "country": "US", "coord": {"lon": -79.035881, "lat": 43.172562}}, {"id": 5124323, "name": "Liberty", "country": "US", "coord": {"lon": -74.746552, "lat": 41.801201}}, {"id": 5124352, "name": "Lido Beach", "country": "US", "coord": {"lon": -73.625412, "lat": 40.588989}}, {"id": 5124411, "name": "Lima", "country": "US", "coord": {"lon": -77.611389, "lat": 42.904789}}, {"id": 5124463, "name": "Lincoln Park", "country": "US", "coord": {"lon": -73.994034, "lat": 41.950649}}, {"id": 5124482, "name": "Lincolndale", "country": "US", "coord": {"lon": -73.718193, "lat": 41.322868}}, {"id": 5124642, "name": "Little Falls", "country": "US", "coord": {"lon": -74.859596, "lat": 43.0434}}, {"id": 5124889, "name": "Little Valley", "country": "US", "coord": {"lon": -78.805588, "lat": 42.25256}}, {"id": 5124925, "name": "Liverpool", "country": "US", "coord": {"lon": -76.217697, "lat": 43.106461}}, {"id": 5124931, "name": "Livingston Manor", "country": "US", "coord": {"lon": -74.828217, "lat": 41.900372}}, {"id": 5124936, "name": "Livonia", "country": "US", "coord": {"lon": -77.66861, "lat": 42.821449}}, {"id": 5124946, "name": "Lloyd Harbor", "country": "US", "coord": {"lon": -73.459839, "lat": 40.903431}}, {"id": 5125041, "name": "Locust Valley", "country": "US", "coord": {"lon": -73.597069, "lat": 40.875931}}, {"id": 5125295, "name": "Lorenz Park", "country": "US", "coord": {"lon": -73.768463, "lat": 42.263699}}, {"id": 5125461, "name": "Lowville", "country": "US", "coord": {"lon": -75.491852, "lat": 43.786739}}, {"id": 5125529, "name": "Lyncourt", "country": "US", "coord": {"lon": -76.125763, "lat": 43.081459}}, {"id": 5125554, "name": "Lyons", "country": "US", "coord": {"lon": -76.99025, "lat": 43.064232}}, {"id": 5125591, "name": "Macedon", "country": "US", "coord": {"lon": -77.298866, "lat": 43.069229}}, {"id": 5125657, "name": "Mahopac", "country": "US", "coord": {"lon": -73.733459, "lat": 41.372318}}, {"id": 5125717, "name": "Malone", "country": "US", "coord": {"lon": -74.294899, "lat": 44.84866}}, {"id": 5125734, "name": "Malverne", "country": "US", "coord": {"lon": -73.674019, "lat": 40.678989}}, {"id": 5125757, "name": "Manchester", "country": "US", "coord": {"lon": -77.230263, "lat": 42.969791}}, {"id": 5125766, "name": "Manhasset", "country": "US", "coord": {"lon": -73.69957, "lat": 40.797878}}, {"id": 5125768, "name": "Manhasset Hills", "country": "US", "coord": {"lon": -73.679848, "lat": 40.75927}}, {"id": 5125790, "name": "Manlius", "country": "US", "coord": {"lon": -75.97686, "lat": 43.00201}}, {"id": 5125813, "name": "Manorhaven", "country": "US", "coord": {"lon": -73.714851, "lat": 40.843159}}, {"id": 5125817, "name": "Manorville", "country": "US", "coord": {"lon": -72.807877, "lat": 40.873711}}, {"id": 5125818, "name": "Manorville", "country": "US", "coord": {"lon": -74.035973, "lat": 42.142311}}, {"id": 5125966, "name": "Marcellus", "country": "US", "coord": {"lon": -76.340492, "lat": 42.982841}}, {"id": 5126015, "name": "Marion", "country": "US", "coord": {"lon": -77.189148, "lat": 43.143398}}, {"id": 5126055, "name": "Marlboro", "country": "US", "coord": {"lon": -73.971527, "lat": 41.605652}}, {"id": 5126194, "name": "Massena", "country": "US", "coord": {"lon": -74.891861, "lat": 44.928101}}, {"id": 5126209, "name": "Mastic Beach", "country": "US", "coord": {"lon": -72.852051, "lat": 40.766769}}, {"id": 5126239, "name": "Mattituck", "country": "US", "coord": {"lon": -72.534248, "lat": 40.991211}}, {"id": 5126246, "name": "Mattydale", "country": "US", "coord": {"lon": -76.145203, "lat": 43.097839}}, {"id": 5126268, "name": "Maybrook", "country": "US", "coord": {"lon": -74.217651, "lat": 41.483978}}, {"id": 5126287, "name": "Mayville", "country": "US", "coord": {"lon": -79.504494, "lat": 42.253948}}, {"id": 5126360, "name": "McGraw", "country": "US", "coord": {"lon": -76.093262, "lat": 42.59618}}, {"id": 5126509, "name": "Mechanicstown", "country": "US", "coord": {"lon": -74.388489, "lat": 41.442871}}, {"id": 5126510, "name": "Mechanicville", "country": "US", "coord": {"lon": -73.68734, "lat": 42.902851}}, {"id": 5126554, "name": "Melrose Park", "country": "US", "coord": {"lon": -76.540222, "lat": 42.90868}}, {"id": 5126588, "name": "Menands", "country": "US", "coord": {"lon": -73.724564, "lat": 42.69202}}, {"id": 5126705, "name": "Mexico", "country": "US", "coord": {"lon": -76.228821, "lat": 43.459511}}, {"id": 5126787, "name": "Middle Island", "country": "US", "coord": {"lon": -72.937332, "lat": 40.88427}}, {"id": 5126828, "name": "Middleburgh", "country": "US", "coord": {"lon": -74.332916, "lat": 42.59869}}, {"id": 5126836, "name": "Middleport", "country": "US", "coord": {"lon": -75.559898, "lat": 42.790619}}, {"id": 5126837, "name": "Middleport", "country": "US", "coord": {"lon": -78.47641, "lat": 43.212559}}, {"id": 5127007, "name": "Millbrook", "country": "US", "coord": {"lon": -73.694023, "lat": 41.785091}}, {"id": 5127043, "name": "Miller Place", "country": "US", "coord": {"lon": -72.996208, "lat": 40.95982}}, {"id": 5127098, "name": "Milton", "country": "US", "coord": {"lon": -73.852623, "lat": 43.033691}}, {"id": 5127099, "name": "Milton", "country": "US", "coord": {"lon": -73.957077, "lat": 41.659821}}, {"id": 5127147, "name": "Minetto", "country": "US", "coord": {"lon": -76.47744, "lat": 43.398121}}, {"id": 5127150, "name": "Mineville", "country": "US", "coord": {"lon": -73.518181, "lat": 44.092831}}, {"id": 5127179, "name": "Minoa", "country": "US", "coord": {"lon": -76.000748, "lat": 43.07618}}, {"id": 5127233, "name": "Mohawk", "country": "US", "coord": {"lon": -75.004044, "lat": 43.011459}}, {"id": 5127302, "name": "Monroe", "country": "US", "coord": {"lon": -74.186813, "lat": 41.33065}}, {"id": 5127321, "name": "Montauk", "country": "US", "coord": {"lon": -71.954514, "lat": 41.035938}}, {"id": 5127353, "name": "Montgomery", "country": "US", "coord": {"lon": -74.236816, "lat": 41.527592}}, {"id": 5127359, "name": "Monticello", "country": "US", "coord": {"lon": -74.689331, "lat": 41.655651}}, {"id": 5127364, "name": "Montour Falls", "country": "US", "coord": {"lon": -76.845238, "lat": 42.347301}}, {"id": 5127368, "name": "Montrose", "country": "US", "coord": {"lon": -73.931534, "lat": 41.252319}}, {"id": 5127474, "name": "Moravia", "country": "US", "coord": {"lon": -76.4216, "lat": 42.71257}}, {"id": 5127519, "name": "Moriches", "country": "US", "coord": {"lon": -72.821213, "lat": 40.80732}}, {"id": 5127555, "name": "Morrisonville", "country": "US", "coord": {"lon": -73.56208, "lat": 44.6931}}, {"id": 5127561, "name": "Morrisville", "country": "US", "coord": {"lon": -75.640182, "lat": 42.898682}}, {"id": 5127741, "name": "Mount Ivy", "country": "US", "coord": {"lon": -74.034859, "lat": 41.18676}}, {"id": 5127744, "name": "Mount Kisco", "country": "US", "coord": {"lon": -73.727081, "lat": 41.204262}}, {"id": 5127766, "name": "Mount Morris", "country": "US", "coord": {"lon": -77.874168, "lat": 42.72562}}, {"id": 5127824, "name": "Mount Sinai", "country": "US", "coord": {"lon": -73.029549, "lat": 40.947041}}, {"id": 5127890, "name": "Mountain Lodge Park", "country": "US", "coord": {"lon": -74.141808, "lat": 41.388432}}, {"id": 5128156, "name": "Munsey Park", "country": "US", "coord": {"lon": -73.679848, "lat": 40.79871}}, {"id": 5128163, "name": "Munsons Corners", "country": "US", "coord": {"lon": -76.209099, "lat": 42.582291}}, {"id": 5128238, "name": "Myers Corner", "country": "US", "coord": {"lon": -73.87291, "lat": 41.606201}}, {"id": 5128241, "name": "Muttontown", "country": "US", "coord": {"lon": -73.54763, "lat": 40.82399}}, {"id": 5128267, "name": "Napanoch", "country": "US", "coord": {"lon": -74.371536, "lat": 41.74398}}, {"id": 5128276, "name": "Naples", "country": "US", "coord": {"lon": -77.402489, "lat": 42.615349}}, {"id": 5128313, "name": "Nassau", "country": "US", "coord": {"lon": -73.610123, "lat": 42.515911}}, {"id": 5128368, "name": "Nedrow", "country": "US", "coord": {"lon": -76.141312, "lat": 42.975071}}, {"id": 5128433, "name": "Nesconset", "country": "US", "coord": {"lon": -73.153999, "lat": 40.852039}}, {"id": 5128465, "name": "New Berlin", "country": "US", "coord": {"lon": -75.331558, "lat": 42.624241}}, {"id": 5128478, "name": "New Cassel", "country": "US", "coord": {"lon": -73.569572, "lat": 40.758991}}, {"id": 5128503, "name": "New Hartford", "country": "US", "coord": {"lon": -75.287666, "lat": 43.073399}}, {"id": 5128514, "name": "New Hyde Park", "country": "US", "coord": {"lon": -73.687912, "lat": 40.7351}}, {"id": 5128539, "name": "New Paltz", "country": "US", "coord": {"lon": -74.086807, "lat": 41.747589}}, {"id": 5128568, "name": "New Square", "country": "US", "coord": {"lon": -74.029419, "lat": 41.139561}}, {"id": 5128577, "name": "New Windsor", "country": "US", "coord": {"lon": -74.02375, "lat": 41.476761}}, {"id": 5128616, "name": "New York Mills", "country": "US", "coord": {"lon": -75.291283, "lat": 43.10535}}, {"id": 5128639, "name": "Newark", "country": "US", "coord": {"lon": -77.095253, "lat": 43.04673}}, {"id": 5128670, "name": "Newfane", "country": "US", "coord": {"lon": -78.710312, "lat": 43.28672}}, {"id": 5128824, "name": "Niskayuna", "country": "US", "coord": {"lon": -73.84568, "lat": 42.7798}}, {"id": 5128827, "name": "Nissequogue", "country": "US", "coord": {"lon": -73.197891, "lat": 40.903992}}, {"id": 5128833, "name": "Niverville", "country": "US", "coord": {"lon": -73.66095, "lat": 42.440922}}, {"id": 5128862, "name": "Norfolk", "country": "US", "coord": {"lon": -74.991028, "lat": 44.800892}}, {"id": 5128905, "name": "North Bellport", "country": "US", "coord": {"lon": -72.942879, "lat": 40.774269}}, {"id": 5128914, "name": "North Boston", "country": "US", "coord": {"lon": -78.776703, "lat": 42.685619}}, {"id": 5128996, "name": "North Collins", "country": "US", "coord": {"lon": -78.941147, "lat": 42.595341}}, {"id": 5129050, "name": "North Gates", "country": "US", "coord": {"lon": -77.701393, "lat": 43.176449}}, {"id": 5129057, "name": "North Great River", "country": "US", "coord": {"lon": -73.169838, "lat": 40.747318}}, {"id": 5129093, "name": "North Hills", "country": "US", "coord": {"lon": -73.676521, "lat": 40.78093}}, {"id": 5129125, "name": "North Lindenhurst", "country": "US", "coord": {"lon": -73.381508, "lat": 40.714272}}, {"id": 5129141, "name": "North Merrick", "country": "US", "coord": {"lon": -73.563179, "lat": 40.691212}}, {"id": 5129147, "name": "North New Hyde Park", "country": "US", "coord": {"lon": -73.693192, "lat": 40.74316}}, {"id": 5129157, "name": "North Patchogue", "country": "US", "coord": {"lon": -73.009003, "lat": 40.787041}}, {"id": 5129210, "name": "North Sea", "country": "US", "coord": {"lon": -72.414253, "lat": 40.93288}}, {"id": 5129242, "name": "North Syracuse", "country": "US", "coord": {"lon": -76.129921, "lat": 43.134789}}, {"id": 5129254, "name": "North Wantagh", "country": "US", "coord": {"lon": -73.507629, "lat": 40.693432}}, {"id": 5129290, "name": "Northport", "country": "US", "coord": {"lon": -73.34317, "lat": 40.900928}}, {"id": 5129313, "name": "Northville", "country": "US", "coord": {"lon": -74.172081, "lat": 43.225632}}, {"id": 5129314, "name": "Northville", "country": "US", "coord": {"lon": -72.61898, "lat": 40.9701}}, {"id": 5129325, "name": "Northwest Harbor", "country": "US", "coord": {"lon": -72.221191, "lat": 41.009819}}, {"id": 5129359, "name": "Norwich", "country": "US", "coord": {"lon": -75.523514, "lat": 42.531181}}, {"id": 5129364, "name": "Norwood", "country": "US", "coord": {"lon": -74.994362, "lat": 44.75145}}, {"id": 5129395, "name": "Noyack", "country": "US", "coord": {"lon": -72.341187, "lat": 40.995659}}, {"id": 5129425, "name": "Nunda", "country": "US", "coord": {"lon": -77.942497, "lat": 42.57951}}, {"id": 5129433, "name": "Nyack", "country": "US", "coord": {"lon": -73.917908, "lat": 41.090649}}, {"id": 5129540, "name": "Oakdale", "country": "US", "coord": {"lon": -73.780128, "lat": 42.251202}}, {"id": 5129541, "name": "Oakdale", "country": "US", "coord": {"lon": -73.138718, "lat": 40.743992}}, {"id": 5129545, "name": "Oakfield", "country": "US", "coord": {"lon": -78.269737, "lat": 43.065891}}, {"id": 5129626, "name": "Ogdensburg", "country": "US", "coord": {"lon": -75.486343, "lat": 44.694229}}, {"id": 5129654, "name": "Olcott", "country": "US", "coord": {"lon": -78.71476, "lat": 43.33783}}, {"id": 5129662, "name": "Old Bethpage", "country": "US", "coord": {"lon": -73.453178, "lat": 40.7626}}, {"id": 5129665, "name": "Old Brookville", "country": "US", "coord": {"lon": -73.604851, "lat": 40.832039}}, {"id": 5129770, "name": "Old Westbury", "country": "US", "coord": {"lon": -73.599571, "lat": 40.788712}}, {"id": 5129780, "name": "Olean", "country": "US", "coord": {"lon": -78.429741, "lat": 42.07756}}, {"id": 5129837, "name": "Oneida", "country": "US", "coord": {"lon": -75.651291, "lat": 43.092571}}, {"id": 5129852, "name": "Oneonta", "country": "US", "coord": {"lon": -75.063766, "lat": 42.452862}}, {"id": 5129887, "name": "Ontario", "country": "US", "coord": {"lon": -77.283043, "lat": 43.220901}}, {"id": 5129919, "name": "Orange Lake", "country": "US", "coord": {"lon": -74.098198, "lat": 41.539822}}, {"id": 5129923, "name": "Orangeburg", "country": "US", "coord": {"lon": -73.949577, "lat": 41.04649}}, {"id": 5129951, "name": "Orchard Park", "country": "US", "coord": {"lon": -78.743919, "lat": 42.767559}}, {"id": 5129988, "name": "Oriskany", "country": "US", "coord": {"lon": -75.332672, "lat": 43.157291}}, {"id": 5130084, "name": "Otego", "country": "US", "coord": {"lon": -75.1735, "lat": 42.397301}}, {"id": 5130102, "name": "Otisville", "country": "US", "coord": {"lon": -74.53849, "lat": 41.473431}}, {"id": 5130273, "name": "Owego", "country": "US", "coord": {"lon": -76.262154, "lat": 42.103409}}, {"id": 5130319, "name": "Oxford", "country": "US", "coord": {"lon": -75.597687, "lat": 42.44202}}, {"id": 5130327, "name": "Oyster Bay", "country": "US", "coord": {"lon": -73.532066, "lat": 40.86565}}, {"id": 5130328, "name": "Oyster Bay Cove", "country": "US", "coord": {"lon": -73.510963, "lat": 40.87093}}, {"id": 5130394, "name": "Painted Post", "country": "US", "coord": {"lon": -77.094139, "lat": 42.162022}}, {"id": 5130402, "name": "Palenville", "country": "US", "coord": {"lon": -74.020142, "lat": 42.17453}}, {"id": 5130441, "name": "Palmyra", "country": "US", "coord": {"lon": -77.233322, "lat": 43.06395}}, {"id": 5130672, "name": "Patchogue", "country": "US", "coord": {"lon": -73.015106, "lat": 40.765652}}, {"id": 5130719, "name": "Pawling", "country": "US", "coord": {"lon": -73.602631, "lat": 41.562038}}, {"id": 5130748, "name": "Peach Lake", "country": "US", "coord": {"lon": -73.577904, "lat": 41.367592}}, {"id": 5130854, "name": "Pelham", "country": "US", "coord": {"lon": -73.807907, "lat": 40.909821}}, {"id": 5130862, "name": "Pelham Manor", "country": "US", "coord": {"lon": -73.807083, "lat": 40.895378}}, {"id": 5130915, "name": "Penn Yan", "country": "US", "coord": {"lon": -77.053864, "lat": 42.6609}}, {"id": 5130979, "name": "Perry", "country": "US", "coord": {"lon": -78.005562, "lat": 42.715618}}, {"id": 5131009, "name": "Peru", "country": "US", "coord": {"lon": -73.526802, "lat": 44.578381}}, {"id": 5131010, "name": "Peru", "country": "US", "coord": {"lon": -76.40799, "lat": 43.082291}}, {"id": 5131073, "name": "Phelps", "country": "US", "coord": {"lon": -77.057472, "lat": 42.957561}}, {"id": 5131095, "name": "Philadelphia", "country": "US", "coord": {"lon": -75.708817, "lat": 44.154499}}, {"id": 5131121, "name": "Philmont", "country": "US", "coord": {"lon": -73.653183, "lat": 42.248421}}, {"id": 5131135, "name": "Phoenix", "country": "US", "coord": {"lon": -76.300758, "lat": 43.231178}}, {"id": 5131248, "name": "Piermont", "country": "US", "coord": {"lon": -73.91819, "lat": 41.042042}}, {"id": 5131321, "name": "Pine Bush", "country": "US", "coord": {"lon": -74.299042, "lat": 41.60815}}, {"id": 5131457, "name": "Pine Plains", "country": "US", "coord": {"lon": -73.65596, "lat": 41.979809}}, {"id": 5131614, "name": "Pittsford", "country": "US", "coord": {"lon": -77.514999, "lat": 43.090618}}, {"id": 5131628, "name": "Plainedge", "country": "US", "coord": {"lon": -73.483742, "lat": 40.717319}}, {"id": 5131642, "name": "Plandome", "country": "US", "coord": {"lon": -73.703461, "lat": 40.80677}}, {"id": 5131643, "name": "Plandome Heights", "country": "US", "coord": {"lon": -73.7043, "lat": 40.802601}}, {"id": 5131671, "name": "Plattekill", "country": "US", "coord": {"lon": -74.075981, "lat": 41.617592}}, {"id": 5131725, "name": "Pleasant Valley", "country": "US", "coord": {"lon": -73.821243, "lat": 41.744541}}, {"id": 5131757, "name": "Pleasantville", "country": "US", "coord": {"lon": -73.792633, "lat": 41.13287}}, {"id": 5131826, "name": "Poestenkill", "country": "US", "coord": {"lon": -73.56456, "lat": 42.690361}}, {"id": 5131837, "name": "Point Lookout", "country": "US", "coord": {"lon": -73.580681, "lat": 40.592331}}, {"id": 5131894, "name": "Pomona", "country": "US", "coord": {"lon": -74.043198, "lat": 41.167042}}, {"id": 5132001, "name": "Port Byron", "country": "US", "coord": {"lon": -76.623833, "lat": 43.034512}}, {"id": 5132005, "name": "Port Dickinson", "country": "US", "coord": {"lon": -75.896309, "lat": 42.133411}}, {"id": 5132008, "name": "Port Ewen", "country": "US", "coord": {"lon": -73.97625, "lat": 41.905369}}, {"id": 5132011, "name": "Port Henry", "country": "US", "coord": {"lon": -73.459846, "lat": 44.048389}}, {"id": 5132013, "name": "Port Jefferson", "country": "US", "coord": {"lon": -73.069267, "lat": 40.946491}}, {"id": 5132015, "name": "Port Jefferson Station", "country": "US", "coord": {"lon": -73.047333, "lat": 40.925381}}, {"id": 5132016, "name": "Port Jervis", "country": "US", "coord": {"lon": -74.692657, "lat": 41.375092}}, {"id": 5132030, "name": "Port Washington North", "country": "US", "coord": {"lon": -73.701797, "lat": 40.844818}}, {"id": 5132065, "name": "Portville", "country": "US", "coord": {"lon": -78.340851, "lat": 42.038681}}, {"id": 5132103, "name": "Potsdam", "country": "US", "coord": {"lon": -74.981308, "lat": 44.669781}}, {"id": 5133084, "name": "Pulaski", "country": "US", "coord": {"lon": -76.127701, "lat": 43.567009}}, {"id": 5133171, "name": "Putnam Lake", "country": "US", "coord": {"lon": -73.546242, "lat": 41.46204}}, {"id": 5133279, "name": "Queensbury", "country": "US", "coord": {"lon": -73.613167, "lat": 43.377289}}, {"id": 5133416, "name": "Randolph", "country": "US", "coord": {"lon": -78.975319, "lat": 42.161999}}, {"id": 5133419, "name": "Ransomville", "country": "US", "coord": {"lon": -78.90976, "lat": 43.23867}}, {"id": 5133423, "name": "Rapids", "country": "US", "coord": {"lon": -78.640862, "lat": 43.098389}}, {"id": 5133471, "name": "Ravena", "country": "US", "coord": {"lon": -73.816238, "lat": 42.46841}}, {"id": 5133545, "name": "Red Hook", "country": "US", "coord": {"lon": -73.875412, "lat": 41.99509}}, {"id": 5133576, "name": "Red Oaks Mill", "country": "US", "coord": {"lon": -73.874863, "lat": 41.655651}}, {"id": 5133667, "name": "Rensselaer", "country": "US", "coord": {"lon": -73.742897, "lat": 42.642578}}, {"id": 5133742, "name": "Rhinebeck", "country": "US", "coord": {"lon": -73.912643, "lat": 41.926762}}, {"id": 5133795, "name": "Richfield Springs", "country": "US", "coord": {"lon": -74.985428, "lat": 42.853409}}, {"id": 5133832, "name": "Ridge", "country": "US", "coord": {"lon": -72.895943, "lat": 40.89399}}, {"id": 5133926, "name": "Riverhead", "country": "US", "coord": {"lon": -72.662041, "lat": 40.917042}}, {"id": 5133934, "name": "Riverside", "country": "US", "coord": {"lon": -72.677872, "lat": 40.88121}}, {"id": 5134115, "name": "Rock Hill", "country": "US", "coord": {"lon": -74.597656, "lat": 41.625931}}, {"id": 5134415, "name": "Roslyn", "country": "US", "coord": {"lon": -73.650963, "lat": 40.79982}}, {"id": 5134417, "name": "Roslyn Estates", "country": "US", "coord": {"lon": -73.660408, "lat": 40.79427}}, {"id": 5134419, "name": "Roslyn Harbor", "country": "US", "coord": {"lon": -73.63707, "lat": 40.81649}}, {"id": 5134420, "name": "Roslyn Heights", "country": "US", "coord": {"lon": -73.647346, "lat": 40.788712}}, {"id": 5134565, "name": "Rouses Point", "country": "US", "coord": {"lon": -73.364861, "lat": 44.993931}}, {"id": 5134696, "name": "Rye Brook", "country": "US", "coord": {"lon": -73.683456, "lat": 41.01926}}, {"id": 5134736, "name": "Sackets Harbor", "country": "US", "coord": {"lon": -76.119087, "lat": 43.946171}}, {"id": 5134800, "name": "Sag Harbor", "country": "US", "coord": {"lon": -72.29258, "lat": 40.997879}}, {"id": 5135192, "name": "Saint James", "country": "US", "coord": {"lon": -73.156776, "lat": 40.87899}}, {"id": 5135356, "name": "Saint Johnsville", "country": "US", "coord": {"lon": -74.682922, "lat": 42.998131}}, {"id": 5136088, "name": "Salamanca", "country": "US", "coord": {"lon": -78.715027, "lat": 42.157841}}, {"id": 5136107, "name": "Salisbury", "country": "US", "coord": {"lon": -73.560127, "lat": 40.745659}}, {"id": 5136245, "name": "Sands Point", "country": "US", "coord": {"lon": -73.718742, "lat": 40.851768}}, {"id": 5136322, "name": "Saranac Lake", "country": "US", "coord": {"lon": -74.131271, "lat": 44.329498}}, {"id": 5136353, "name": "Saugerties", "country": "US", "coord": {"lon": -73.952911, "lat": 42.077591}}, {"id": 5136494, "name": "Schoharie", "country": "US", "coord": {"lon": -74.309578, "lat": 42.665909}}, {"id": 5137380, "name": "Schuylerville", "country": "US", "coord": {"lon": -73.581779, "lat": 43.100079}}, {"id": 5137423, "name": "Scotia", "country": "US", "coord": {"lon": -73.964287, "lat": 42.826469}}, {"id": 5137454, "name": "Scottsville", "country": "US", "coord": {"lon": -77.745277, "lat": 43.025902}}, {"id": 5137484, "name": "Sea Cliff", "country": "US", "coord": {"lon": -73.644852, "lat": 40.848991}}, {"id": 5137517, "name": "Searingtown", "country": "US", "coord": {"lon": -73.655678, "lat": 40.774818}}, {"id": 5137622, "name": "Seneca Falls", "country": "US", "coord": {"lon": -76.796623, "lat": 42.910622}}, {"id": 5137631, "name": "Seneca Knolls", "country": "US", "coord": {"lon": -76.286324, "lat": 43.120071}}, {"id": 5137894, "name": "Shelter Island", "country": "US", "coord": {"lon": -72.338692, "lat": 41.06815}}, {"id": 5137895, "name": "Shelter Island Heights", "country": "US", "coord": {"lon": -72.355919, "lat": 41.083988}}, {"id": 5137909, "name": "Shenorock", "country": "US", "coord": {"lon": -73.73819, "lat": 41.33176}}, {"id": 5137925, "name": "Sherburne", "country": "US", "coord": {"lon": -75.498512, "lat": 42.678131}}, {"id": 5137957, "name": "Sherrill", "country": "US", "coord": {"lon": -75.598244, "lat": 43.073681}}, {"id": 5138007, "name": "Shinnecock Hills", "country": "US", "coord": {"lon": -72.463699, "lat": 40.89093}}, {"id": 5138029, "name": "Shokan", "country": "US", "coord": {"lon": -74.21209, "lat": 41.973431}}, {"id": 5138071, "name": "Shortsville", "country": "US", "coord": {"lon": -77.22081, "lat": 42.955898}}, {"id": 5138077, "name": "Shrub Oak", "country": "US", "coord": {"lon": -73.81958, "lat": 41.327591}}, {"id": 5138113, "name": "Sidney", "country": "US", "coord": {"lon": -75.391571, "lat": 42.3148}}, {"id": 5138151, "name": "Silver Creek", "country": "US", "coord": {"lon": -79.16671, "lat": 42.544231}}, {"id": 5138286, "name": "Skaneateles", "country": "US", "coord": {"lon": -76.4291, "lat": 42.94701}}, {"id": 5138371, "name": "Sleepy Hollow", "country": "US", "coord": {"lon": -73.858467, "lat": 41.085651}}, {"id": 5138409, "name": "Sloan", "country": "US", "coord": {"lon": -78.793922, "lat": 42.893391}}, {"id": 5138414, "name": "Sloatsburg", "country": "US", "coord": {"lon": -74.192917, "lat": 41.154541}}, {"id": 5138652, "name": "Sodus", "country": "US", "coord": {"lon": -77.061363, "lat": 43.237839}}, {"id": 5138674, "name": "Solvay", "country": "US", "coord": {"lon": -76.207428, "lat": 43.058121}}, {"id": 5138704, "name": "Sound Beach", "country": "US", "coord": {"lon": -72.96788, "lat": 40.956211}}, {"id": 5138811, "name": "South Corning", "country": "US", "coord": {"lon": -77.037193, "lat": 42.121738}}, {"id": 5138836, "name": "South Fallsburg", "country": "US", "coord": {"lon": -74.634331, "lat": 41.72065}}, {"id": 5138837, "name": "South Farmingdale", "country": "US", "coord": {"lon": -73.440117, "lat": 40.720661}}, {"id": 5138840, "name": "South Floral Park", "country": "US", "coord": {"lon": -73.700127, "lat": 40.714272}}, {"id": 5138847, "name": "South Glens Falls", "country": "US", "coord": {"lon": -73.635117, "lat": 43.29924}}, {"id": 5138869, "name": "South Hempstead", "country": "US", "coord": {"lon": -73.61541, "lat": 40.680939}}, {"id": 5138884, "name": "South Hill", "country": "US", "coord": {"lon": -76.494942, "lat": 42.429241}}, {"id": 5138892, "name": "South Huntington", "country": "US", "coord": {"lon": -73.398727, "lat": 40.823711}}, {"id": 5138918, "name": "South Lockport", "country": "US", "coord": {"lon": -78.696701, "lat": 43.150059}}, {"id": 5138940, "name": "South Nyack", "country": "US", "coord": {"lon": -73.920143, "lat": 41.083149}}, {"id": 5139015, "name": "South Valley Stream", "country": "US", "coord": {"lon": -73.717628, "lat": 40.655941}}, {"id": 5139030, "name": "Southampton", "country": "US", "coord": {"lon": -72.389526, "lat": 40.88427}}, {"id": 5139054, "name": "Southold", "country": "US", "coord": {"lon": -72.426201, "lat": 41.064819}}, {"id": 5139058, "name": "Southport", "country": "US", "coord": {"lon": -76.819122, "lat": 42.054798}}, {"id": 5139084, "name": "Spackenkill", "country": "US", "coord": {"lon": -73.913467, "lat": 41.65593}}, {"id": 5139097, "name": "Sparkill", "country": "US", "coord": {"lon": -73.927078, "lat": 41.031212}}, {"id": 5139152, "name": "Spencerport", "country": "US", "coord": {"lon": -77.803902, "lat": 43.186451}}, {"id": 5139294, "name": "Springs", "country": "US", "coord": {"lon": -72.159241, "lat": 41.016209}}, {"id": 5139298, "name": "Springville", "country": "US", "coord": {"lon": -78.667252, "lat": 42.5084}}, {"id": 5139399, "name": "Saint Bonaventure", "country": "US", "coord": {"lon": -78.475021, "lat": 42.080341}}, {"id": 5139428, "name": "Stamford", "country": "US", "coord": {"lon": -74.614319, "lat": 42.407299}}, {"id": 5139698, "name": "Stewart Manor", "country": "US", "coord": {"lon": -73.688461, "lat": 40.719269}}, {"id": 5139732, "name": "Stillwater", "country": "US", "coord": {"lon": -73.653168, "lat": 42.938412}}, {"id": 5139832, "name": "Stone Ridge", "country": "US", "coord": {"lon": -74.13903, "lat": 41.853149}}, {"id": 5139865, "name": "Stony Brook", "country": "US", "coord": {"lon": -73.140938, "lat": 40.925652}}, {"id": 5139927, "name": "Stony Point", "country": "US", "coord": {"lon": -73.987083, "lat": 41.229542}}, {"id": 5139953, "name": "Stottville", "country": "US", "coord": {"lon": -73.738731, "lat": 42.286201}}, {"id": 5140072, "name": "Suffern", "country": "US", "coord": {"lon": -74.14959, "lat": 41.114819}}, {"id": 5140390, "name": "Sylvan Beach", "country": "US", "coord": {"lon": -77.108299, "lat": 42.46479}}, {"id": 5140532, "name": "Tappan", "country": "US", "coord": {"lon": -73.947357, "lat": 41.022041}}, {"id": 5140538, "name": "Tarrytown", "country": "US", "coord": {"lon": -73.858749, "lat": 41.07621}}, {"id": 5140694, "name": "Terryville", "country": "US", "coord": {"lon": -73.065109, "lat": 40.908989}}, {"id": 5140789, "name": "Thiells", "country": "US", "coord": {"lon": -74.017639, "lat": 41.210651}}, {"id": 5140849, "name": "Thomaston", "country": "US", "coord": {"lon": -73.713737, "lat": 40.786209}}, {"id": 5140895, "name": "Thornwood", "country": "US", "coord": {"lon": -73.779022, "lat": 41.123428}}, {"id": 5141002, "name": "Ticonderoga", "country": "US", "coord": {"lon": -73.423447, "lat": 43.848671}}, {"id": 5141025, "name": "Tillson", "country": "US", "coord": {"lon": -74.068481, "lat": 41.828979}}, {"id": 5141073, "name": "Tivoli", "country": "US", "coord": {"lon": -73.909302, "lat": 42.058418}}, {"id": 5141246, "name": "Town Line", "country": "US", "coord": {"lon": -78.577797, "lat": 42.89061}}, {"id": 5141366, "name": "Tribes Hill", "country": "US", "coord": {"lon": -74.285133, "lat": 42.955349}}, {"id": 5141508, "name": "Trumansburg", "country": "US", "coord": {"lon": -76.666061, "lat": 42.54229}}, {"id": 5141528, "name": "Tuckahoe", "country": "US", "coord": {"lon": -73.827362, "lat": 40.950378}}, {"id": 5141580, "name": "Tupper Lake", "country": "US", "coord": {"lon": -74.464058, "lat": 44.223949}}, {"id": 5141796, "name": "Unadilla", "country": "US", "coord": {"lon": -75.312401, "lat": 42.325359}}, {"id": 5141912, "name": "Union Springs", "country": "US", "coord": {"lon": -76.693283, "lat": 42.83979}}, {"id": 5141962, "name": "University Gardens", "country": "US", "coord": {"lon": -73.722633, "lat": 40.777321}}, {"id": 5141980, "name": "Upper Brookville", "country": "US", "coord": {"lon": -73.565132, "lat": 40.838711}}, {"id": 5142011, "name": "Upper Nyack", "country": "US", "coord": {"lon": -73.920143, "lat": 41.10704}}, {"id": 5142073, "name": "Vails Gate", "country": "US", "coord": {"lon": -74.05764, "lat": 41.454262}}, {"id": 5142075, "name": "Valatie", "country": "US", "coord": {"lon": -73.673172, "lat": 42.413422}}, {"id": 5142090, "name": "Valhalla", "country": "US", "coord": {"lon": -73.775131, "lat": 41.074821}}, {"id": 5142101, "name": "Valley Cottage", "country": "US", "coord": {"lon": -73.955421, "lat": 41.118149}}, {"id": 5142269, "name": "Vernon", "country": "US", "coord": {"lon": -75.539337, "lat": 43.07951}}, {"id": 5142287, "name": "Verplanck", "country": "US", "coord": {"lon": -73.959862, "lat": 41.252869}}, {"id": 5142315, "name": "Victor", "country": "US", "coord": {"lon": -77.408882, "lat": 42.982559}}, {"id": 5142343, "name": "Village Green", "country": "US", "coord": {"lon": -76.312988, "lat": 43.1334}}, {"id": 5142351, "name": "Village of the Branch", "country": "US", "coord": {"lon": -73.187332, "lat": 40.856209}}, {"id": 5142362, "name": "Viola", "country": "US", "coord": {"lon": -74.082359, "lat": 41.136478}}, {"id": 5142415, "name": "Voorheesville", "country": "US", "coord": {"lon": -73.928741, "lat": 42.653969}}, {"id": 5143022, "name": "Wading River", "country": "US", "coord": {"lon": -72.8209, "lat": 40.945549}}, {"id": 5143066, "name": "Walden", "country": "US", "coord": {"lon": -74.188477, "lat": 41.561199}}, {"id": 5143116, "name": "Wallkill", "country": "US", "coord": {"lon": -74.184036, "lat": 41.605652}}, {"id": 5143156, "name": "Walton", "country": "US", "coord": {"lon": -75.129341, "lat": 42.169529}}, {"id": 5143168, "name": "Walton Park", "country": "US", "coord": {"lon": -74.229042, "lat": 41.309818}}, {"id": 5143186, "name": "Wampsville", "country": "US", "coord": {"lon": -75.706848, "lat": 43.075352}}, {"id": 5143208, "name": "Wanakah", "country": "US", "coord": {"lon": -78.903091, "lat": 42.74617}}, {"id": 5143211, "name": "Wappingers Falls", "country": "US", "coord": {"lon": -73.910973, "lat": 41.596481}}, {"id": 5143279, "name": "Warrensburg", "country": "US", "coord": {"lon": -73.77623, "lat": 43.496738}}, {"id": 5143282, "name": "Warsaw", "country": "US", "coord": {"lon": -78.13279, "lat": 42.740059}}, {"id": 5143285, "name": "Warwick", "country": "US", "coord": {"lon": -74.359879, "lat": 41.256481}}, {"id": 5143308, "name": "Washington Heights", "country": "US", "coord": {"lon": -74.41571, "lat": 41.470089}}, {"id": 5143323, "name": "Washington Mills", "country": "US", "coord": {"lon": -75.272942, "lat": 43.050072}}, {"id": 5143344, "name": "Washingtonville", "country": "US", "coord": {"lon": -74.165977, "lat": 41.427872}}, {"id": 5143364, "name": "Water Mill", "country": "US", "coord": {"lon": -72.36203, "lat": 40.90593}}, {"id": 5143370, "name": "Waterford", "country": "US", "coord": {"lon": -73.681229, "lat": 42.79258}}, {"id": 5143380, "name": "Waterloo", "country": "US", "coord": {"lon": -76.86274, "lat": 42.904789}}, {"id": 5143386, "name": "Watermill", "country": "US", "coord": {"lon": -72.34758, "lat": 40.928989}}, {"id": 5143405, "name": "Waterville", "country": "US", "coord": {"lon": -75.37989, "lat": 42.931179}}, {"id": 5143419, "name": "Watkins Glen", "country": "US", "coord": {"lon": -76.873291, "lat": 42.38063}}, {"id": 5143435, "name": "Waverly", "country": "US", "coord": {"lon": -76.527168, "lat": 42.010349}}, {"id": 5143495, "name": "Webster", "country": "US", "coord": {"lon": -77.429993, "lat": 43.212292}}, {"id": 5143527, "name": "Weedsport", "country": "US", "coord": {"lon": -76.562721, "lat": 43.048679}}, {"id": 5143586, "name": "Wellsville", "country": "US", "coord": {"lon": -77.948059, "lat": 42.122009}}, {"id": 5143587, "name": "Wellsville", "country": "US", "coord": {"lon": -74.272346, "lat": 42.875912}}, {"id": 5143610, "name": "Wesley Hills", "country": "US", "coord": {"lon": -74.069862, "lat": 41.15926}}, {"id": 5143644, "name": "West Bay Shore", "country": "US", "coord": {"lon": -73.281227, "lat": 40.70871}}, {"id": 5143737, "name": "West Carthage", "country": "US", "coord": {"lon": -75.615189, "lat": 43.974232}}, {"id": 5143786, "name": "West Elmira", "country": "US", "coord": {"lon": -76.845238, "lat": 42.078129}}, {"id": 5143789, "name": "West End", "country": "US", "coord": {"lon": -75.093781, "lat": 42.468689}}, {"id": 5143817, "name": "West Glens Falls", "country": "US", "coord": {"lon": -73.684013, "lat": 43.300072}}, {"id": 5143830, "name": "West Haverstraw", "country": "US", "coord": {"lon": -73.98542, "lat": 41.209541}}, {"id": 5143857, "name": "West Hills", "country": "US", "coord": {"lon": -73.432343, "lat": 40.816212}}, {"id": 5143862, "name": "West Hurley", "country": "US", "coord": {"lon": -74.104858, "lat": 41.997311}}, {"id": 5143946, "name": "West Nyack", "country": "US", "coord": {"lon": -73.972923, "lat": 41.096481}}, {"id": 5143966, "name": "West Point", "country": "US", "coord": {"lon": -73.955971, "lat": 41.391479}}, {"id": 5143986, "name": "West Sand Lake", "country": "US", "coord": {"lon": -73.608727, "lat": 42.64341}}, {"id": 5143988, "name": "West Sayville", "country": "US", "coord": {"lon": -73.09761, "lat": 40.727879}}, {"id": 5144083, "name": "Westfield", "country": "US", "coord": {"lon": -79.578102, "lat": 42.322281}}, {"id": 5144089, "name": "Westhampton", "country": "US", "coord": {"lon": -72.666206, "lat": 40.824539}}, {"id": 5144090, "name": "Westhampton Beach", "country": "US", "coord": {"lon": -72.61454, "lat": 40.803162}}, {"id": 5144097, "name": "Westmere", "country": "US", "coord": {"lon": -73.868729, "lat": 42.691189}}, {"id": 5144110, "name": "Weston Mills", "country": "US", "coord": {"lon": -78.37252, "lat": 42.075901}}, {"id": 5144114, "name": "Westons Mills", "country": "US", "coord": {"lon": -78.377243, "lat": 42.06229}}, {"id": 5144123, "name": "Westvale", "country": "US", "coord": {"lon": -76.220482, "lat": 43.047569}}, {"id": 5144182, "name": "Wheatley Heights", "country": "US", "coord": {"lon": -73.369843, "lat": 40.76371}}, {"id": 5144375, "name": "Whitehall", "country": "US", "coord": {"lon": -73.403717, "lat": 43.555618}}, {"id": 5144396, "name": "Whitesboro", "country": "US", "coord": {"lon": -75.291557, "lat": 43.122009}}, {"id": 5144583, "name": "Williamson", "country": "US", "coord": {"lon": -77.186089, "lat": 43.223949}}, {"id": 5144588, "name": "Williamsville", "country": "US", "coord": {"lon": -78.737808, "lat": 42.963951}}, {"id": 5144606, "name": "Williston Park", "country": "US", "coord": {"lon": -73.644852, "lat": 40.756489}}, {"id": 5144698, "name": "Wilson", "country": "US", "coord": {"lon": -78.826149, "lat": 43.30978}}, {"id": 5144861, "name": "Wolcott", "country": "US", "coord": {"lon": -76.814957, "lat": 43.220619}}, {"id": 5144947, "name": "Woodbury", "country": "US", "coord": {"lon": -73.467621, "lat": 40.825649}}, {"id": 5144948, "name": "Woodbury", "country": "US", "coord": {"lon": -74.10598, "lat": 41.36454}}, {"id": 5145072, "name": "Woodstock", "country": "US", "coord": {"lon": -74.118202, "lat": 42.04092}}, {"id": 5145094, "name": "Worcester", "country": "US", "coord": {"lon": -74.750427, "lat": 42.591461}}, {"id": 5145131, "name": "Wurtsboro", "country": "US", "coord": {"lon": -74.487099, "lat": 41.576759}}, {"id": 5145135, "name": "Wyandanch", "country": "US", "coord": {"lon": -73.360397, "lat": 40.75399}}, {"id": 5145157, "name": "Wynantskill", "country": "US", "coord": {"lon": -73.644279, "lat": 42.696751}}, {"id": 5145197, "name": "Yaphank", "country": "US", "coord": {"lon": -72.917053, "lat": 40.836769}}, {"id": 5145250, "name": "Yorkshire", "country": "US", "coord": {"lon": -78.472801, "lat": 42.53006}}, {"id": 5145253, "name": "Yorktown Heights", "country": "US", "coord": {"lon": -73.777634, "lat": 41.270931}}, {"id": 5145257, "name": "Yorkville", "country": "US", "coord": {"lon": -75.271004, "lat": 43.11285}}, {"id": 5145282, "name": "Youngstown", "country": "US", "coord": {"lon": -79.050049, "lat": 43.24728}}, {"id": 5145295, "name": "Zena", "country": "US", "coord": {"lon": -74.076248, "lat": 42.016762}}, {"id": 5145374, "name": "Ada", "country": "US", "coord": {"lon": -83.822708, "lat": 40.769501}}, {"id": 5145695, "name": "Amherst", "country": "US", "coord": {"lon": -82.222382, "lat": 41.39782}}, {"id": 5145770, "name": "Andover", "country": "US", "coord": {"lon": -80.572304, "lat": 41.60672}}, {"id": 5145788, "name": "Anna", "country": "US", "coord": {"lon": -84.172722, "lat": 40.394489}}, {"id": 5145808, "name": "Ansonia", "country": "US", "coord": {"lon": -84.636902, "lat": 40.214489}}, {"id": 5145848, "name": "Antwerp", "country": "US", "coord": {"lon": -84.740509, "lat": 41.181438}}, {"id": 5145894, "name": "Apple Creek", "country": "US", "coord": {"lon": -81.839302, "lat": 40.75172}}, {"id": 5145938, "name": "Archbold", "country": "US", "coord": {"lon": -84.307167, "lat": 41.521439}}, {"id": 5145962, "name": "Arlington", "country": "US", "coord": {"lon": -83.650208, "lat": 40.893661}}, {"id": 5146080, "name": "Ashley", "country": "US", "coord": {"lon": -82.95546, "lat": 40.408951}}, {"id": 5146368, "name": "Bainbridge", "country": "US", "coord": {"lon": -81.339546, "lat": 41.38644}}, {"id": 5146438, "name": "Ballville", "country": "US", "coord": {"lon": -83.132141, "lat": 41.327831}}, {"id": 5146697, "name": "Beach City", "country": "US", "coord": {"lon": -81.580963, "lat": 40.653118}}, {"id": 5146711, "name": "Beachwood", "country": "US", "coord": {"lon": -81.508728, "lat": 41.4645}}, {"id": 5146831, "name": "Bedford", "country": "US", "coord": {"lon": -81.536507, "lat": 41.393108}}, {"id": 5146840, "name": "Bedford Heights", "country": "US", "coord": {"lon": -81.527344, "lat": 41.417}}, {"id": 5146906, "name": "Beechwood Trails", "country": "US", "coord": {"lon": -82.650719, "lat": 40.02367}}, {"id": 5146946, "name": "Bellaire", "country": "US", "coord": {"lon": -80.74231, "lat": 40.016178}}, {"id": 5146965, "name": "Bellefontaine", "country": "US", "coord": {"lon": -83.759659, "lat": 40.36116}}, {"id": 5146978, "name": "Bellevue", "country": "US", "coord": {"lon": -82.841583, "lat": 41.273659}}, {"id": 5147057, "name": "Bellville", "country": "US", "coord": {"lon": -82.510719, "lat": 40.62006}}, {"id": 5147302, "name": "Bethesda", "country": "US", "coord": {"lon": -81.072601, "lat": 40.016178}}, {"id": 5147766, "name": "Bluffton", "country": "US", "coord": {"lon": -83.888832, "lat": 40.895329}}, {"id": 5147840, "name": "Bolindale", "country": "US", "coord": {"lon": -80.77758, "lat": 41.207279}}, {"id": 5147904, "name": "Boston Heights", "country": "US", "coord": {"lon": -81.513168, "lat": 41.264778}}, {"id": 5147924, "name": "Botkins", "country": "US", "coord": {"lon": -84.180496, "lat": 40.467831}}, {"id": 5148028, "name": "Bradford", "country": "US", "coord": {"lon": -84.430779, "lat": 40.132271}}, {"id": 5148101, "name": "Bratenahl", "country": "US", "coord": {"lon": -81.626244, "lat": 41.542549}}, {"id": 5148115, "name": "Brecksville", "country": "US", "coord": {"lon": -81.626793, "lat": 41.319778}}, {"id": 5148164, "name": "Brewster", "country": "US", "coord": {"lon": -81.598183, "lat": 40.707001}}, {"id": 5148192, "name": "Bridgeport", "country": "US", "coord": {"lon": -80.740082, "lat": 40.06979}}, {"id": 5148226, "name": "Brilliant", "country": "US", "coord": {"lon": -80.62619, "lat": 40.26479}}, {"id": 5148230, "name": "Brimfield", "country": "US", "coord": {"lon": -81.346497, "lat": 41.10006}}, {"id": 5148332, "name": "Brookfield Center", "country": "US", "coord": {"lon": -80.557854, "lat": 41.240608}}, {"id": 5148346, "name": "Brooklyn", "country": "US", "coord": {"lon": -81.735413, "lat": 41.43977}}, {"id": 5148352, "name": "Brooklyn Heights", "country": "US", "coord": {"lon": -81.688179, "lat": 41.425331}}, {"id": 5148533, "name": "Bryan", "country": "US", "coord": {"lon": -84.552452, "lat": 41.47477}}, {"id": 5148635, "name": "Bucyrus", "country": "US", "coord": {"lon": -82.975456, "lat": 40.808392}}, {"id": 5148745, "name": "Burlington", "country": "US", "coord": {"lon": -84.307999, "lat": 41.572269}}, {"id": 5148773, "name": "Burton", "country": "US", "coord": {"lon": -81.145103, "lat": 41.470612}}, {"id": 5148855, "name": "Cadiz", "country": "US", "coord": {"lon": -80.996758, "lat": 40.27285}}, {"id": 5148883, "name": "Calcutta", "country": "US", "coord": {"lon": -80.576462, "lat": 40.673401}}, {"id": 5149007, "name": "Cambridge", "country": "US", "coord": {"lon": -81.588463, "lat": 40.031181}}, {"id": 5149149, "name": "Campbell", "country": "US", "coord": {"lon": -80.599243, "lat": 41.078388}}, {"id": 5149188, "name": "Canal Fulton", "country": "US", "coord": {"lon": -81.597618, "lat": 40.889778}}, {"id": 5149205, "name": "Canfield", "country": "US", "coord": {"lon": -80.76091, "lat": 41.025059}}, {"id": 5149253, "name": "Cardington", "country": "US", "coord": {"lon": -82.893509, "lat": 40.500622}}, {"id": 5149257, "name": "Carey", "country": "US", "coord": {"lon": -83.382423, "lat": 40.95256}}, {"id": 5149327, "name": "Carrollton", "country": "US", "coord": {"lon": -81.085648, "lat": 40.572842}}, {"id": 5149493, "name": "Celina", "country": "US", "coord": {"lon": -84.570229, "lat": 40.548939}}, {"id": 5149595, "name": "Centerburg", "country": "US", "coord": {"lon": -82.696281, "lat": 40.304508}}, {"id": 5149720, "name": "Chagrin Falls", "country": "US", "coord": {"lon": -81.386497, "lat": 41.436161}}, {"id": 5149818, "name": "Chardon", "country": "US", "coord": {"lon": -81.148987, "lat": 41.61422}}, {"id": 5149937, "name": "Chesterland", "country": "US", "coord": {"lon": -81.337891, "lat": 41.52227}}, {"id": 5150351, "name": "Churchill", "country": "US", "coord": {"lon": -80.664803, "lat": 41.161999}}, {"id": 5150600, "name": "Clinton", "country": "US", "coord": {"lon": -81.630402, "lat": 40.92672}}, {"id": 5150651, "name": "Clyde", "country": "US", "coord": {"lon": -82.975189, "lat": 41.304218}}, {"id": 5150725, "name": "Coldwater", "country": "US", "coord": {"lon": -84.628288, "lat": 40.479771}}, {"id": 5150851, "name": "Columbiana", "country": "US", "coord": {"lon": -80.693962, "lat": 40.88839}}, {"id": 5150868, "name": "Columbus Grove", "country": "US", "coord": {"lon": -84.056892, "lat": 40.919498}}, {"id": 5150986, "name": "Conneaut", "country": "US", "coord": {"lon": -80.554237, "lat": 41.947559}}, {"id": 5151057, "name": "Continental", "country": "US", "coord": {"lon": -84.266342, "lat": 41.10033}}, {"id": 5151070, "name": "Convoy", "country": "US", "coord": {"lon": -84.702744, "lat": 40.916721}}, {"id": 5151174, "name": "Cortland", "country": "US", "coord": {"lon": -80.725357, "lat": 41.33033}}, {"id": 5151186, "name": "Coshocton", "country": "US", "coord": {"lon": -81.859581, "lat": 40.272018}}, {"id": 5151278, "name": "Covington", "country": "US", "coord": {"lon": -84.353844, "lat": 40.117271}}, {"id": 5151317, "name": "Craig Beach", "country": "US", "coord": {"lon": -80.983421, "lat": 41.117001}}, {"id": 5151406, "name": "Crestline", "country": "US", "coord": {"lon": -82.736572, "lat": 40.78756}}, {"id": 5151415, "name": "Creston", "country": "US", "coord": {"lon": -81.893753, "lat": 40.987}}, {"id": 5151436, "name": "Cridersville", "country": "US", "coord": {"lon": -84.15078, "lat": 40.654221}}, {"id": 5151587, "name": "Curtice", "country": "US", "coord": {"lon": -83.367706, "lat": 41.618382}}, {"id": 5151660, "name": "Dalton", "country": "US", "coord": {"lon": -81.695412, "lat": 40.798939}}, {"id": 5151688, "name": "Danville", "country": "US", "coord": {"lon": -82.260162, "lat": 40.447559}}, {"id": 5151775, "name": "De Graff", "country": "US", "coord": {"lon": -83.915771, "lat": 40.312}}, {"id": 5151941, "name": "Delphos", "country": "US", "coord": {"lon": -84.341621, "lat": 40.84338}}, {"id": 5151948, "name": "Delta", "country": "US", "coord": {"lon": -84.005219, "lat": 41.573662}}, {"id": 5151993, "name": "Dennison", "country": "US", "coord": {"lon": -81.333717, "lat": 40.393398}}, {"id": 5152017, "name": "Deshler", "country": "US", "coord": {"lon": -83.899109, "lat": 41.20755}}, {"id": 5152243, "name": "Dover", "country": "US", "coord": {"lon": -81.474007, "lat": 40.520618}}, {"id": 5152278, "name": "Doylestown", "country": "US", "coord": {"lon": -81.696518, "lat": 40.970051}}, {"id": 5152291, "name": "Dresden", "country": "US", "coord": {"lon": -82.010689, "lat": 40.12146}}, {"id": 5152579, "name": "East Canton", "country": "US", "coord": {"lon": -81.282608, "lat": 40.787281}}, {"id": 5152709, "name": "East Liverpool", "country": "US", "coord": {"lon": -80.577293, "lat": 40.618679}}, {"id": 5152794, "name": "East Palestine", "country": "US", "coord": {"lon": -80.540352, "lat": 40.83395}}, {"id": 5152868, "name": "Eaton Estates", "country": "US", "coord": {"lon": -82.005699, "lat": 41.308941}}, {"id": 5152935, "name": "Edgerton", "country": "US", "coord": {"lon": -84.748009, "lat": 41.448662}}, {"id": 5152947, "name": "Edgewood", "country": "US", "coord": {"lon": -80.772858, "lat": 41.872829}}, {"id": 5153068, "name": "Elida", "country": "US", "coord": {"lon": -84.203842, "lat": 40.788658}}, {"id": 5153177, "name": "Elmore", "country": "US", "coord": {"lon": -83.295761, "lat": 41.476158}}, {"id": 5153592, "name": "Fairlawn", "country": "US", "coord": {"lon": -81.60984, "lat": 41.127831}}, {"id": 5153633, "name": "Fairport Harbor", "country": "US", "coord": {"lon": -81.273987, "lat": 41.750038}}, {"id": 5153676, "name": "Fairview Lanes", "country": "US", "coord": {"lon": -82.65435, "lat": 41.42672}}, {"id": 5153839, "name": "Fayette", "country": "US", "coord": {"lon": -84.326889, "lat": 41.673382}}, {"id": 5154770, "name": "Forest", "country": "US", "coord": {"lon": -83.510483, "lat": 40.80172}}, {"id": 5154859, "name": "Fort Loramie", "country": "US", "coord": {"lon": -84.37384, "lat": 40.35144}}, {"id": 5154873, "name": "Fort Recovery", "country": "US", "coord": {"lon": -84.776352, "lat": 40.412819}}, {"id": 5154884, "name": "Fort Shawnee", "country": "US", "coord": {"lon": -84.137733, "lat": 40.686722}}, {"id": 5154905, "name": "Fostoria", "country": "US", "coord": {"lon": -83.41687, "lat": 41.157001}}, {"id": 5155125, "name": "Frazeysburg", "country": "US", "coord": {"lon": -82.119308, "lat": 40.11729}}, {"id": 5155139, "name": "Fredericktown", "country": "US", "coord": {"lon": -82.540718, "lat": 40.481171}}, {"id": 5155414, "name": "Galion", "country": "US", "coord": {"lon": -82.789902, "lat": 40.733669}}, {"id": 5155438, "name": "Gambier", "country": "US", "coord": {"lon": -82.397102, "lat": 40.375622}}, {"id": 5155529, "name": "Garrettsville", "country": "US", "coord": {"lon": -81.096489, "lat": 41.284222}}, {"id": 5155534, "name": "Gates Mills", "country": "US", "coord": {"lon": -81.40345, "lat": 41.517551}}, {"id": 5155572, "name": "Geneva", "country": "US", "coord": {"lon": -80.948151, "lat": 41.80505}}, {"id": 5155587, "name": "Geneva-on-the-Lake", "country": "US", "coord": {"lon": -80.953979, "lat": 41.859501}}, {"id": 5155590, "name": "Genoa", "country": "US", "coord": {"lon": -81.466507, "lat": 40.782841}}, {"id": 5155710, "name": "Gibsonburg", "country": "US", "coord": {"lon": -83.32048, "lat": 41.384499}}, {"id": 5155755, "name": "Girard", "country": "US", "coord": {"lon": -80.701469, "lat": 41.15395}}, {"id": 5155783, "name": "Glandorf", "country": "US", "coord": {"lon": -84.079109, "lat": 41.028938}}, {"id": 5155824, "name": "Glendale", "country": "US", "coord": {"lon": -81.542343, "lat": 41.396999}}, {"id": 5155842, "name": "Glenmoor", "country": "US", "coord": {"lon": -80.623131, "lat": 40.666168}}, {"id": 5155897, "name": "Gnadenhutten", "country": "US", "coord": {"lon": -81.43428, "lat": 40.358398}}, {"id": 5156170, "name": "Grafton", "country": "US", "coord": {"lon": -82.054588, "lat": 41.272549}}, {"id": 5156270, "name": "Granville", "country": "US", "coord": {"lon": -82.5196, "lat": 40.068119}}, {"id": 5156409, "name": "Green Springs", "country": "US", "coord": {"lon": -83.051582, "lat": 41.256161}}, {"id": 5156478, "name": "Greensburg", "country": "US", "coord": {"lon": -81.464844, "lat": 40.931721}}, {"id": 5156485, "name": "Greentown", "country": "US", "coord": {"lon": -81.402611, "lat": 40.927559}}, {"id": 5156493, "name": "Greenville", "country": "US", "coord": {"lon": -84.633011, "lat": 40.102829}}, {"id": 5156513, "name": "Greenwich", "country": "US", "coord": {"lon": -82.515732, "lat": 41.030048}}, {"id": 5157064, "name": "Hartville", "country": "US", "coord": {"lon": -81.331223, "lat": 40.963669}}, {"id": 5157096, "name": "Haskins", "country": "US", "coord": {"lon": -83.706047, "lat": 41.464771}}, {"id": 5157262, "name": "Heath", "country": "US", "coord": {"lon": -82.444603, "lat": 40.022839}}, {"id": 5157449, "name": "Hicksville", "country": "US", "coord": {"lon": -84.761902, "lat": 41.29311}}, {"id": 5157497, "name": "Highland Heights", "country": "US", "coord": {"lon": -81.478447, "lat": 41.551998}}, {"id": 5157502, "name": "Highland Hills", "country": "US", "coord": {"lon": -81.519012, "lat": 41.448391}}, {"id": 5157675, "name": "Hiram", "country": "US", "coord": {"lon": -81.143707, "lat": 41.312561}}, {"id": 5157742, "name": "Holgate", "country": "US", "coord": {"lon": -84.133003, "lat": 41.24894}}, {"id": 5157759, "name": "Holland", "country": "US", "coord": {"lon": -83.711601, "lat": 41.621719}}, {"id": 5158123, "name": "Howland Center", "country": "US", "coord": {"lon": -80.745361, "lat": 41.251171}}, {"id": 5158143, "name": "Hubbard", "country": "US", "coord": {"lon": -80.569237, "lat": 41.156448}}, {"id": 5158156, "name": "Huber Ridge", "country": "US", "coord": {"lon": -82.916573, "lat": 40.088669}}, {"id": 5158298, "name": "Huron", "country": "US", "coord": {"lon": -82.555168, "lat": 41.39505}}, {"id": 5158404, "name": "Independence", "country": "US", "coord": {"lon": -81.637901, "lat": 41.36866}}, {"id": 5158960, "name": "Jackson Center", "country": "US", "coord": {"lon": -84.040222, "lat": 40.439491}}, {"id": 5159071, "name": "Jefferson", "country": "US", "coord": {"lon": -80.769814, "lat": 41.73867}}, {"id": 5159309, "name": "Johnstown", "country": "US", "coord": {"lon": -82.685173, "lat": 40.153671}}, {"id": 5159421, "name": "Kalida", "country": "US", "coord": {"lon": -84.199387, "lat": 40.98283}}, {"id": 5159554, "name": "Kenton", "country": "US", "coord": {"lon": -83.60965, "lat": 40.646999}}, {"id": 5159809, "name": "Kirtland", "country": "US", "coord": {"lon": -81.361504, "lat": 41.628941}}, {"id": 5159995, "name": "La Croft", "country": "US", "coord": {"lon": -80.597847, "lat": 40.645901}}, {"id": 5160171, "name": "Lake Mohawk", "country": "US", "coord": {"lon": -81.199272, "lat": 40.666729}}, {"id": 5160260, "name": "Lakemore", "country": "US", "coord": {"lon": -81.435951, "lat": 41.020889}}, {"id": 5160288, "name": "Lakeview", "country": "US", "coord": {"lon": -83.922997, "lat": 40.484772}}, {"id": 5160493, "name": "Leavittsburg", "country": "US", "coord": {"lon": -80.877029, "lat": 41.247829}}, {"id": 5160548, "name": "Leetonia", "country": "US", "coord": {"lon": -80.755363, "lat": 40.877281}}, {"id": 5160611, "name": "Leipsic", "country": "US", "coord": {"lon": -83.984673, "lat": 41.098381}}, {"id": 5160635, "name": "Lexington", "country": "US", "coord": {"lon": -82.58239, "lat": 40.678669}}, {"id": 5160667, "name": "Liberty Center", "country": "US", "coord": {"lon": -84.008827, "lat": 41.443378}}, {"id": 5160854, "name": "Lincoln Heights", "country": "US", "coord": {"lon": -82.484329, "lat": 40.77145}}, {"id": 5160951, "name": "Lisbon", "country": "US", "coord": {"lon": -80.768127, "lat": 40.771999}}, {"id": 5161142, "name": "Lodi", "country": "US", "coord": {"lon": -82.012093, "lat": 41.03339}}, {"id": 5161301, "name": "Lordstown", "country": "US", "coord": {"lon": -80.857582, "lat": 41.165611}}, {"id": 5161340, "name": "Loudonville", "country": "US", "coord": {"lon": -82.233208, "lat": 40.635342}}, {"id": 5161347, "name": "Louisville", "country": "US", "coord": {"lon": -81.259552, "lat": 40.83728}}, {"id": 5161382, "name": "Lowellville", "country": "US", "coord": {"lon": -80.536461, "lat": 41.035339}}, {"id": 5161429, "name": "Luckey", "country": "US", "coord": {"lon": -83.487427, "lat": 41.450611}}, {"id": 5161493, "name": "Lyndhurst", "country": "US", "coord": {"lon": -81.488731, "lat": 41.52005}}, {"id": 5161539, "name": "Macedonia", "country": "US", "coord": {"lon": -81.508453, "lat": 41.313671}}, {"id": 5161567, "name": "Madison", "country": "US", "coord": {"lon": -81.04982, "lat": 41.77116}}, {"id": 5161684, "name": "Malvern", "country": "US", "coord": {"lon": -81.181213, "lat": 40.69173}}, {"id": 5161693, "name": "Manchester", "country": "US", "coord": {"lon": -81.56929, "lat": 40.937}}, {"id": 5161741, "name": "Mantua", "country": "US", "coord": {"lon": -81.679008, "lat": 40.07785}}, {"id": 5161742, "name": "Mantua", "country": "US", "coord": {"lon": -81.223991, "lat": 41.283939}}, {"id": 5162044, "name": "Martins Ferry", "country": "US", "coord": {"lon": -80.724533, "lat": 40.095909}}, {"id": 5162119, "name": "Masury", "country": "US", "coord": {"lon": -80.537849, "lat": 41.21117}}, {"id": 5162137, "name": "Maumee", "country": "US", "coord": {"lon": -83.653816, "lat": 41.562832}}, {"id": 5162180, "name": "Mayfield", "country": "US", "coord": {"lon": -81.439278, "lat": 41.551998}}, {"id": 5162260, "name": "McComb", "country": "US", "coord": {"lon": -83.792709, "lat": 41.107552}}, {"id": 5162297, "name": "McDonald", "country": "US", "coord": {"lon": -80.724243, "lat": 41.16367}}, {"id": 5162390, "name": "McKinley Heights", "country": "US", "coord": {"lon": -80.7173, "lat": 41.18367}}, {"id": 5162494, "name": "Mechanicsburg", "country": "US", "coord": {"lon": -83.556313, "lat": 40.071999}}, {"id": 5162672, "name": "Mentor-on-the-Lake", "country": "US", "coord": {"lon": -81.36039, "lat": 41.70504}}, {"id": 5162859, "name": "Middlefield", "country": "US", "coord": {"lon": -81.073708, "lat": 41.462002}}, {"id": 5162920, "name": "Milan", "country": "US", "coord": {"lon": -82.605453, "lat": 41.29755}}, {"id": 5163008, "name": "Millbury", "country": "US", "coord": {"lon": -83.424652, "lat": 41.566158}}, {"id": 5163076, "name": "Millersburg", "country": "US", "coord": {"lon": -81.917923, "lat": 40.554508}}, {"id": 5163137, "name": "Mineral Ridge", "country": "US", "coord": {"lon": -80.768967, "lat": 41.14006}}, {"id": 5163143, "name": "Minerva", "country": "US", "coord": {"lon": -81.105377, "lat": 40.729778}}, {"id": 5163149, "name": "Minerva Park", "country": "US", "coord": {"lon": -82.943787, "lat": 40.07645}}, {"id": 5163160, "name": "Mingo Junction", "country": "US", "coord": {"lon": -80.609802, "lat": 40.321739}}, {"id": 5163176, "name": "Minster", "country": "US", "coord": {"lon": -84.37606, "lat": 40.393101}}, {"id": 5163244, "name": "Mogadore", "country": "US", "coord": {"lon": -81.397888, "lat": 41.046452}}, {"id": 5163346, "name": "Monroeville", "country": "US", "coord": {"lon": -82.696289, "lat": 41.244221}}, {"id": 5163375, "name": "Montpelier", "country": "US", "coord": {"lon": -84.605507, "lat": 41.584499}}, {"id": 5163448, "name": "Moreland Hills", "country": "US", "coord": {"lon": -81.42762, "lat": 41.44783}}, {"id": 5163469, "name": "Morgandale", "country": "US", "coord": {"lon": -80.78286, "lat": 41.26561}}, {"id": 5163613, "name": "Mount Carmel", "country": "US", "coord": {"lon": -82.936859, "lat": 41.27116}}, {"id": 5163631, "name": "Mount Gilead", "country": "US", "coord": {"lon": -82.8274, "lat": 40.549229}}, {"id": 5163968, "name": "Munroe Falls", "country": "US", "coord": {"lon": -81.439827, "lat": 41.144501}}, {"id": 5164057, "name": "Napoleon", "country": "US", "coord": {"lon": -84.125221, "lat": 41.392269}}, {"id": 5164101, "name": "Navarre", "country": "US", "coord": {"lon": -81.522072, "lat": 40.724499}}, {"id": 5164202, "name": "New Albany", "country": "US", "coord": {"lon": -82.808792, "lat": 40.081169}}, {"id": 5164239, "name": "New Bremen", "country": "US", "coord": {"lon": -84.379669, "lat": 40.436989}}, {"id": 5164250, "name": "New California", "country": "US", "coord": {"lon": -83.23658, "lat": 40.15617}}, {"id": 5164274, "name": "New Franklin", "country": "US", "coord": {"lon": -81.541512, "lat": 40.941719}}, {"id": 5164352, "name": "New London", "country": "US", "coord": {"lon": -82.399887, "lat": 41.085049}}, {"id": 5164371, "name": "New Middletown", "country": "US", "coord": {"lon": -80.557571, "lat": 40.96117}}, {"id": 5164449, "name": "New Waterford", "country": "US", "coord": {"lon": -80.614517, "lat": 40.845058}}, {"id": 5164488, "name": "Newburgh Heights", "country": "US", "coord": {"lon": -81.66346, "lat": 41.45005}}, {"id": 5164500, "name": "Newcomerstown", "country": "US", "coord": {"lon": -81.605949, "lat": 40.272289}}, {"id": 5164541, "name": "Newton Falls", "country": "US", "coord": {"lon": -80.978149, "lat": 41.188389}}, {"id": 5164653, "name": "North Baltimore", "country": "US", "coord": {"lon": -83.678268, "lat": 41.182831}}, {"id": 5164812, "name": "North Kingsville", "country": "US", "coord": {"lon": -80.690361, "lat": 41.905891}}, {"id": 5164826, "name": "North Lewisburg", "country": "US", "coord": {"lon": -83.557426, "lat": 40.22311}}, {"id": 5164840, "name": "North Madison", "country": "US", "coord": {"lon": -81.048988, "lat": 41.801998}}, {"id": 5164891, "name": "North Randall", "country": "US", "coord": {"lon": -81.525681, "lat": 41.43478}}, {"id": 5164998, "name": "Northfield", "country": "US", "coord": {"lon": -81.52845, "lat": 41.345051}}, {"id": 5165067, "name": "Northwood", "country": "US", "coord": {"lon": -83.73243, "lat": 40.472832}}, {"id": 5165069, "name": "Northwood", "country": "US", "coord": {"lon": -83.468819, "lat": 41.607269}}, {"id": 5165087, "name": "Norton", "country": "US", "coord": {"lon": -81.638184, "lat": 41.029221}}, {"id": 5165215, "name": "Oak Harbor", "country": "US", "coord": {"lon": -83.146591, "lat": 41.506721}}, {"id": 5165223, "name": "Oak Hill", "country": "US", "coord": {"lon": -82.24099, "lat": 40.41423}}, {"id": 5165311, "name": "Oakwood", "country": "US", "coord": {"lon": -81.507896, "lat": 41.36533}}, {"id": 5165445, "name": "Oberlin", "country": "US", "coord": {"lon": -82.217377, "lat": 41.293941}}, {"id": 5165635, "name": "Olmsted Falls", "country": "US", "coord": {"lon": -81.908188, "lat": 41.37505}}, {"id": 5165664, "name": "Ontario", "country": "US", "coord": {"lon": -82.590172, "lat": 40.759499}}, {"id": 5165695, "name": "Orange", "country": "US", "coord": {"lon": -81.480667, "lat": 41.44978}}, {"id": 5165755, "name": "Orrville", "country": "US", "coord": {"lon": -81.764023, "lat": 40.84367}}, {"id": 5165763, "name": "Orwell", "country": "US", "coord": {"lon": -80.868141, "lat": 41.535061}}, {"id": 5165801, "name": "Ottawa", "country": "US", "coord": {"lon": -84.047173, "lat": 41.019218}}, {"id": 5165812, "name": "Ottawa Hills", "country": "US", "coord": {"lon": -83.643272, "lat": 41.664219}}, {"id": 5166061, "name": "Pandora", "country": "US", "coord": {"lon": -83.961052, "lat": 40.948109}}, {"id": 5166253, "name": "Paulding", "country": "US", "coord": {"lon": -84.580513, "lat": 41.138111}}, {"id": 5166334, "name": "Payne", "country": "US", "coord": {"lon": -84.72718, "lat": 41.077549}}, {"id": 5166372, "name": "Pemberville", "country": "US", "coord": {"lon": -83.461037, "lat": 41.410889}}, {"id": 5166438, "name": "Pepper Pike", "country": "US", "coord": {"lon": -81.46373, "lat": 41.47839}}, {"id": 5166468, "name": "Perry", "country": "US", "coord": {"lon": -81.14093, "lat": 41.76033}}, {"id": 5166482, "name": "Perry Heights", "country": "US", "coord": {"lon": -81.47345, "lat": 40.795341}}, {"id": 5166791, "name": "Pioneer", "country": "US", "coord": {"lon": -84.553009, "lat": 41.68005}}, {"id": 5166865, "name": "Plain City", "country": "US", "coord": {"lon": -83.267418, "lat": 40.107559}}, {"id": 5166958, "name": "Pleasant Hill", "country": "US", "coord": {"lon": -84.344391, "lat": 40.05172}}, {"id": 5167166, "name": "Plymouth", "country": "US", "coord": {"lon": -82.667122, "lat": 40.995609}}, {"id": 5167196, "name": "Poland", "country": "US", "coord": {"lon": -80.614799, "lat": 41.024231}}, {"id": 5167259, "name": "Port Clinton", "country": "US", "coord": {"lon": -82.937691, "lat": 41.512001}}, {"id": 5167293, "name": "Portage Lakes", "country": "US", "coord": {"lon": -81.527061, "lat": 41.007278}}, {"id": 5167350, "name": "Powell", "country": "US", "coord": {"lon": -83.075188, "lat": 40.157841}}, {"id": 5167479, "name": "Prospect", "country": "US", "coord": {"lon": -83.18853, "lat": 40.45034}}, {"id": 5167737, "name": "Ravenna", "country": "US", "coord": {"lon": -81.24205, "lat": 41.157558}}, {"id": 5167903, "name": "Reminderville", "country": "US", "coord": {"lon": -81.395111, "lat": 41.34589}}, {"id": 5168063, "name": "Richmond Heights", "country": "US", "coord": {"lon": -81.510117, "lat": 41.55283}}, {"id": 5168079, "name": "Richville", "country": "US", "coord": {"lon": -81.477898, "lat": 40.751171}}, {"id": 5168085, "name": "Richwood", "country": "US", "coord": {"lon": -83.29686, "lat": 40.426449}}, {"id": 5168225, "name": "Rittman", "country": "US", "coord": {"lon": -81.782082, "lat": 40.978111}}, {"id": 5168341, "name": "Roaming Shores", "country": "US", "coord": {"lon": -80.823418, "lat": 41.643108}}, {"id": 5168450, "name": "Rockford", "country": "US", "coord": {"lon": -84.646629, "lat": 40.687832}}, {"id": 5168451, "name": "Rockford", "country": "US", "coord": {"lon": -81.308441, "lat": 40.477009}}, {"id": 5168673, "name": "Rossford", "country": "US", "coord": {"lon": -83.564377, "lat": 41.609772}}, {"id": 5168837, "name": "Russells Point", "country": "US", "coord": {"lon": -83.892723, "lat": 40.471161}}, {"id": 5169130, "name": "Saint Clairsville", "country": "US", "coord": {"lon": -80.900093, "lat": 40.080631}}, {"id": 5169242, "name": "Saint Henry", "country": "US", "coord": {"lon": -84.639679, "lat": 40.417549}}, {"id": 5169796, "name": "Saint Marys", "country": "US", "coord": {"lon": -84.389397, "lat": 40.542271}}, {"id": 5170013, "name": "Saint Paris", "country": "US", "coord": {"lon": -83.959663, "lat": 40.128391}}, {"id": 5170511, "name": "Salem", "country": "US", "coord": {"lon": -80.85675, "lat": 40.90089}}, {"id": 5170610, "name": "Salineville", "country": "US", "coord": {"lon": -80.83786, "lat": 40.622559}}, {"id": 5170795, "name": "Sawyerwood", "country": "US", "coord": {"lon": -81.440948, "lat": 41.03783}}, {"id": 5171555, "name": "Sebring", "country": "US", "coord": {"lon": -81.018982, "lat": 40.92284}}, {"id": 5171657, "name": "Seven Hills", "country": "US", "coord": {"lon": -81.676239, "lat": 41.395329}}, {"id": 5171681, "name": "Seville", "country": "US", "coord": {"lon": -81.862358, "lat": 41.010059}}, {"id": 5171854, "name": "Sheffield", "country": "US", "coord": {"lon": -82.09626, "lat": 41.42115}}, {"id": 5171856, "name": "Sheffield Lake", "country": "US", "coord": {"lon": -82.10154, "lat": 41.487541}}, {"id": 5171868, "name": "Shelby", "country": "US", "coord": {"lon": -82.661842, "lat": 40.881451}}, {"id": 5172048, "name": "Shreve", "country": "US", "coord": {"lon": -82.021812, "lat": 40.68145}}, {"id": 5172120, "name": "Silver Lake", "country": "US", "coord": {"lon": -81.454277, "lat": 41.158939}}, {"id": 5172460, "name": "South Canal", "country": "US", "coord": {"lon": -80.986763, "lat": 41.17728}}, {"id": 5172589, "name": "South Russell", "country": "US", "coord": {"lon": -81.365387, "lat": 41.431438}}, {"id": 5172710, "name": "Spencerville", "country": "US", "coord": {"lon": -84.353561, "lat": 40.708939}}, {"id": 5173158, "name": "Stony Prairie", "country": "US", "coord": {"lon": -83.155197, "lat": 41.35144}}, {"id": 5173189, "name": "Strasburg", "country": "US", "coord": {"lon": -81.526787, "lat": 40.59478}}, {"id": 5173256, "name": "Struthers", "country": "US", "coord": {"lon": -80.607849, "lat": 41.052559}}, {"id": 5173264, "name": "Stryker", "country": "US", "coord": {"lon": -84.414124, "lat": 41.503658}}, {"id": 5173354, "name": "Sugarcreek", "country": "US", "coord": {"lon": -81.640961, "lat": 40.50312}}, {"id": 5173412, "name": "Sunbury", "country": "US", "coord": {"lon": -82.85907, "lat": 40.242561}}, {"id": 5173514, "name": "Swanton", "country": "US", "coord": {"lon": -83.891052, "lat": 41.588661}}, {"id": 5173962, "name": "Tiltonsville", "country": "US", "coord": {"lon": -80.699799, "lat": 40.16674}}, {"id": 5174095, "name": "Toronto", "country": "US", "coord": {"lon": -80.600906, "lat": 40.46423}}, {"id": 5174495, "name": "Tuscarawas", "country": "US", "coord": {"lon": -81.407059, "lat": 40.394791}}, {"id": 5174585, "name": "Uhrichsville", "country": "US", "coord": {"lon": -81.346497, "lat": 40.39312}}, {"id": 5174660, "name": "Union City", "country": "US", "coord": {"lon": -84.805237, "lat": 40.19949}}, {"id": 5174747, "name": "Uniontown", "country": "US", "coord": {"lon": -81.408173, "lat": 40.97506}}, {"id": 5174830, "name": "University Heights", "country": "US", "coord": {"lon": -81.537354, "lat": 41.497829}}, {"id": 5174870, "name": "Upper Sandusky", "country": "US", "coord": {"lon": -83.281311, "lat": 40.827278}}, {"id": 5174913, "name": "Utica", "country": "US", "coord": {"lon": -82.451271, "lat": 40.23423}}, {"id": 5174958, "name": "Valley View", "country": "US", "coord": {"lon": -81.604568, "lat": 41.387829}}, {"id": 5175072, "name": "Vermilion", "country": "US", "coord": {"lon": -82.364609, "lat": 41.421989}}, {"id": 5175079, "name": "Van Wert", "country": "US", "coord": {"lon": -84.584122, "lat": 40.869492}}, {"id": 5175080, "name": "Vermilion-on-the-Lake", "country": "US", "coord": {"lon": -82.323769, "lat": 41.428379}}, {"id": 5175092, "name": "Versailles", "country": "US", "coord": {"lon": -84.484398, "lat": 40.222549}}, {"id": 5175531, "name": "Wakeman", "country": "US", "coord": {"lon": -82.399612, "lat": 41.254501}}, {"id": 5175538, "name": "Walbridge", "country": "US", "coord": {"lon": -83.493271, "lat": 41.58783}}, {"id": 5175655, "name": "Walton Hills", "country": "US", "coord": {"lon": -81.561234, "lat": 41.365608}}, {"id": 5175670, "name": "Wapakoneta", "country": "US", "coord": {"lon": -84.193558, "lat": 40.567829}}, {"id": 5175726, "name": "Warrensville Heights", "country": "US", "coord": {"lon": -81.536232, "lat": 41.435051}}, {"id": 5175847, "name": "Waterville", "country": "US", "coord": {"lon": -83.718269, "lat": 41.500889}}, {"id": 5175877, "name": "Wauseon", "country": "US", "coord": {"lon": -84.141609, "lat": 41.549221}}, {"id": 5176023, "name": "Wellington", "country": "US", "coord": {"lon": -82.217941, "lat": 41.168941}}, {"id": 5176047, "name": "Wellsville", "country": "US", "coord": {"lon": -80.648956, "lat": 40.60284}}, {"id": 5176266, "name": "West Hill", "country": "US", "coord": {"lon": -80.519241, "lat": 41.23283}}, {"id": 5176283, "name": "West Lafayette", "country": "US", "coord": {"lon": -81.750961, "lat": 40.275349}}, {"id": 5176304, "name": "West Liberty", "country": "US", "coord": {"lon": -83.755768, "lat": 40.252281}}, {"id": 5176378, "name": "West Salem", "country": "US", "coord": {"lon": -82.109871, "lat": 40.971439}}, {"id": 5176423, "name": "West Unity", "country": "US", "coord": {"lon": -84.434952, "lat": 41.586159}}, {"id": 5176490, "name": "Westfield Center", "country": "US", "coord": {"lon": -81.933197, "lat": 41.02644}}, {"id": 5176550, "name": "Weston", "country": "US", "coord": {"lon": -83.797157, "lat": 41.344769}}, {"id": 5176713, "name": "Whitehouse", "country": "US", "coord": {"lon": -83.803833, "lat": 41.51894}}, {"id": 5176759, "name": "Wickliffe", "country": "US", "coord": {"lon": -81.453453, "lat": 41.605331}}, {"id": 5176830, "name": "Willard", "country": "US", "coord": {"lon": -82.726288, "lat": 41.053108}}, {"id": 5176942, "name": "Willoughby Hills", "country": "US", "coord": {"lon": -81.418449, "lat": 41.598381}}, {"id": 5177007, "name": "Willowick", "country": "US", "coord": {"lon": -81.468727, "lat": 41.633099}}, {"id": 5177082, "name": "Windham", "country": "US", "coord": {"lon": -81.049263, "lat": 41.235062}}, {"id": 5177162, "name": "Wintersville", "country": "US", "coord": {"lon": -80.70369, "lat": 40.375351}}, {"id": 5177219, "name": "Wolfhurst", "country": "US", "coord": {"lon": -80.783699, "lat": 40.069241}}, {"id": 5177337, "name": "Woodville", "country": "US", "coord": {"lon": -83.365761, "lat": 41.451439}}, {"id": 5177396, "name": "Worthington", "country": "US", "coord": {"lon": -83.01796, "lat": 40.093121}}, {"id": 5177557, "name": "Yorkville", "country": "US", "coord": {"lon": -80.710358, "lat": 40.154518}}, {"id": 5177874, "name": "Adamstown", "country": "US", "coord": {"lon": -76.056328, "lat": 40.241199}}, {"id": 5177922, "name": "Akron", "country": "US", "coord": {"lon": -76.202171, "lat": 40.156761}}, {"id": 5177944, "name": "Albion", "country": "US", "coord": {"lon": -80.366447, "lat": 41.89061}}, {"id": 5177945, "name": "Albion", "country": "US", "coord": {"lon": -78.946983, "lat": 40.95895}}, {"id": 5177951, "name": "Alburtis", "country": "US", "coord": {"lon": -75.602966, "lat": 40.510929}}, {"id": 5178027, "name": "Aliquippa", "country": "US", "coord": {"lon": -80.240059, "lat": 40.63673}}, {"id": 5178088, "name": "Alleghenyville", "country": "US", "coord": {"lon": -75.988548, "lat": 40.234261}}, {"id": 5178166, "name": "Almedia", "country": "US", "coord": {"lon": -76.38105, "lat": 41.01453}}, {"id": 5178225, "name": "Ambler", "country": "US", "coord": {"lon": -75.221573, "lat": 40.154549}}, {"id": 5178228, "name": "Ambridge", "country": "US", "coord": {"lon": -80.22506, "lat": 40.58923}}, {"id": 5178254, "name": "Amity Gardens", "country": "US", "coord": {"lon": -75.735191, "lat": 40.274261}}, {"id": 5178280, "name": "Ancient Oaks", "country": "US", "coord": {"lon": -75.589348, "lat": 40.547321}}, {"id": 5178351, "name": "Annville", "country": "US", "coord": {"lon": -76.515244, "lat": 40.32954}}, {"id": 5178393, "name": "Apollo", "country": "US", "coord": {"lon": -79.566429, "lat": 40.581451}}, {"id": 5178450, "name": "Archbald", "country": "US", "coord": {"lon": -75.53685, "lat": 41.494801}}, {"id": 5178481, "name": "Ardmore", "country": "US", "coord": {"lon": -75.285461, "lat": 40.006779}}, {"id": 5178489, "name": "Arlington Heights", "country": "US", "coord": {"lon": -75.216293, "lat": 40.990089}}, {"id": 5178527, "name": "Arnold", "country": "US", "coord": {"lon": -79.766724, "lat": 40.58007}}, {"id": 5178597, "name": "Ashland", "country": "US", "coord": {"lon": -76.345779, "lat": 40.78175}}, {"id": 5178612, "name": "Ashley", "country": "US", "coord": {"lon": -75.896591, "lat": 41.210361}}, {"id": 5178632, "name": "Aspinwall", "country": "US", "coord": {"lon": -79.90477, "lat": 40.491459}}, {"id": 5178651, "name": "Athens", "country": "US", "coord": {"lon": -76.517998, "lat": 41.957298}}, {"id": 5178686, "name": "Audubon", "country": "US", "coord": {"lon": -75.431847, "lat": 40.12788}}, {"id": 5178724, "name": "Avalon", "country": "US", "coord": {"lon": -80.067558, "lat": 40.5009}}, {"id": 5178736, "name": "Avis", "country": "US", "coord": {"lon": -77.313858, "lat": 41.184792}}, {"id": 5178741, "name": "Avoca", "country": "US", "coord": {"lon": -75.736298, "lat": 41.339802}}, {"id": 5178743, "name": "Avon", "country": "US", "coord": {"lon": -76.389961, "lat": 40.34565}}, {"id": 5178748, "name": "Avonia", "country": "US", "coord": {"lon": -80.269791, "lat": 42.045609}}, {"id": 5178749, "name": "Avonmore", "country": "US", "coord": {"lon": -79.461433, "lat": 40.52895}}, {"id": 5178806, "name": "Baden", "country": "US", "coord": {"lon": -80.228119, "lat": 40.635071}}, {"id": 5178824, "name": "Baidland", "country": "US", "coord": {"lon": -79.970879, "lat": 40.19479}}, {"id": 5178839, "name": "Bainbridge", "country": "US", "coord": {"lon": -76.667473, "lat": 40.090931}}, {"id": 5178883, "name": "Bakerstown", "country": "US", "coord": {"lon": -79.93644, "lat": 40.650902}}, {"id": 5178975, "name": "Bally", "country": "US", "coord": {"lon": -75.587128, "lat": 40.402321}}, {"id": 5178996, "name": "Bangor", "country": "US", "coord": {"lon": -75.206573, "lat": 40.86565}}, {"id": 5179102, "name": "Barnesboro", "country": "US", "coord": {"lon": -78.780029, "lat": 40.662571}}, {"id": 5179193, "name": "Bath", "country": "US", "coord": {"lon": -75.394073, "lat": 40.725651}}, {"id": 5179338, "name": "Bear Rocks", "country": "US", "coord": {"lon": -79.4617, "lat": 40.122849}}, {"id": 5179446, "name": "Beaver", "country": "US", "coord": {"lon": -80.304779, "lat": 40.695339}}, {"id": 5179478, "name": "Beaver Falls", "country": "US", "coord": {"lon": -80.319229, "lat": 40.75201}}, {"id": 5179577, "name": "Beaverdale", "country": "US", "coord": {"lon": -78.69696, "lat": 40.322021}}, {"id": 5179630, "name": "Bedford", "country": "US", "coord": {"lon": -78.503906, "lat": 40.018688}}, {"id": 5179641, "name": "Bedminster", "country": "US", "coord": {"lon": -75.179062, "lat": 40.425941}}, {"id": 5179751, "name": "Bell Acres", "country": "US", "coord": {"lon": -80.166451, "lat": 40.590069}}, {"id": 5179756, "name": "Belfast", "country": "US", "coord": {"lon": -75.277962, "lat": 40.780651}}, {"id": 5179794, "name": "Belle Vernon", "country": "US", "coord": {"lon": -79.86644, "lat": 40.125069}}, {"id": 5179799, "name": "Bellefonte", "country": "US", "coord": {"lon": -77.778328, "lat": 40.913391}}, {"id": 5179809, "name": "Belleville", "country": "US", "coord": {"lon": -77.725548, "lat": 40.605068}}, {"id": 5179811, "name": "Bellevue", "country": "US", "coord": {"lon": -80.05172, "lat": 40.493961}}, {"id": 5179845, "name": "Bellwood", "country": "US", "coord": {"lon": -78.324738, "lat": 40.603401}}, {"id": 5179856, "name": "Belmont", "country": "US", "coord": {"lon": -78.889473, "lat": 40.2873}}, {"id": 5179911, "name": "Ben Avon", "country": "US", "coord": {"lon": -80.083107, "lat": 40.508121}}, {"id": 5180021, "name": "Bentleyville", "country": "US", "coord": {"lon": -80.008392, "lat": 40.116741}}, {"id": 5180102, "name": "Berwyn", "country": "US", "coord": {"lon": -75.438812, "lat": 40.04483}}, {"id": 5180106, "name": "Bessemer", "country": "US", "coord": {"lon": -80.493683, "lat": 40.974781}}, {"id": 5180119, "name": "Berwick", "country": "US", "coord": {"lon": -76.233269, "lat": 41.054531}}, {"id": 5180308, "name": "Big Beaver", "country": "US", "coord": {"lon": -80.362839, "lat": 40.824509}}, {"id": 5180607, "name": "Birchwood Lakes", "country": "US", "coord": {"lon": -74.918503, "lat": 41.254539}}, {"id": 5180620, "name": "Birdsboro", "country": "US", "coord": {"lon": -75.804092, "lat": 40.264542}}, {"id": 5180709, "name": "Black Lick", "country": "US", "coord": {"lon": -79.19976, "lat": 40.479229}}, {"id": 5180834, "name": "Blairsville", "country": "US", "coord": {"lon": -79.260872, "lat": 40.431179}}, {"id": 5180843, "name": "Blakely", "country": "US", "coord": {"lon": -75.594627, "lat": 41.480911}}, {"id": 5180859, "name": "Blandon", "country": "US", "coord": {"lon": -75.886871, "lat": 40.4412}}, {"id": 5180876, "name": "Blawnox", "country": "US", "coord": {"lon": -79.860611, "lat": 40.493401}}, {"id": 5180905, "name": "Bloomfield", "country": "US", "coord": {"lon": -79.95089, "lat": 40.460899}}, {"id": 5180934, "name": "Bloomsburg", "country": "US", "coord": {"lon": -76.454948, "lat": 41.0037}}, {"id": 5180948, "name": "Blossburg", "country": "US", "coord": {"lon": -77.063858, "lat": 41.67952}}, {"id": 5180958, "name": "Blue Ball", "country": "US", "coord": {"lon": -76.047173, "lat": 40.11871}}, {"id": 5180961, "name": "Blue Bell", "country": "US", "coord": {"lon": -75.266289, "lat": 40.152328}}, {"id": 5181063, "name": "Boalsburg", "country": "US", "coord": {"lon": -77.792503, "lat": 40.77562}}, {"id": 5181134, "name": "Boiling Springs", "country": "US", "coord": {"lon": -77.128311, "lat": 40.149811}}, {"id": 5181248, "name": "Boswell", "country": "US", "coord": {"lon": -79.028923, "lat": 40.161469}}, {"id": 5181326, "name": "Bowmansville", "country": "US", "coord": {"lon": -76.017441, "lat": 40.196758}}, {"id": 5181375, "name": "Boyertown", "country": "US", "coord": {"lon": -75.637413, "lat": 40.33371}}, {"id": 5181390, "name": "Brackenridge", "country": "US", "coord": {"lon": -79.741158, "lat": 40.60812}}, {"id": 5181396, "name": "Braddock", "country": "US", "coord": {"lon": -79.868378, "lat": 40.4034}}, {"id": 5181400, "name": "Braddock Hills", "country": "US", "coord": {"lon": -79.865051, "lat": 40.41729}}, {"id": 5181407, "name": "Bradford", "country": "US", "coord": {"lon": -78.643921, "lat": 41.955898}}, {"id": 5181428, "name": "Bradford Woods", "country": "US", "coord": {"lon": -80.081718, "lat": 40.637569}}, {"id": 5181553, "name": "Brentwood", "country": "US", "coord": {"lon": -79.97477, "lat": 40.370628}}, {"id": 5181562, "name": "Bressler", "country": "US", "coord": {"lon": -76.819969, "lat": 40.22953}}, {"id": 5181570, "name": "Breinigsville", "country": "US", "coord": {"lon": -75.631302, "lat": 40.536758}}, {"id": 5181605, "name": "Brickerville", "country": "US", "coord": {"lon": -76.30246, "lat": 40.225929}}, {"id": 5181624, "name": "Bridgeport", "country": "US", "coord": {"lon": -75.345177, "lat": 40.10511}}, {"id": 5181636, "name": "Bridgeville", "country": "US", "coord": {"lon": -80.110062, "lat": 40.356178}}, {"id": 5181688, "name": "Bristol", "country": "US", "coord": {"lon": -74.85183, "lat": 40.10067}}, {"id": 5181752, "name": "Brockway", "country": "US", "coord": {"lon": -78.799469, "lat": 41.249229}}, {"id": 5181761, "name": "Brodheadsville", "country": "US", "coord": {"lon": -75.393791, "lat": 40.924541}}, {"id": 5181828, "name": "Brookville", "country": "US", "coord": {"lon": -79.083092, "lat": 41.161171}}, {"id": 5181940, "name": "Brownstown", "country": "US", "coord": {"lon": -76.213837, "lat": 40.123711}}, {"id": 5181946, "name": "Brownsville", "country": "US", "coord": {"lon": -79.883942, "lat": 40.023689}}, {"id": 5181950, "name": "Browntown", "country": "US", "coord": {"lon": -75.787422, "lat": 41.309799}}, {"id": 5182059, "name": "Bryn Athyn", "country": "US", "coord": {"lon": -75.06739, "lat": 40.1315}}, {"id": 5182063, "name": "Bryn Mawr", "country": "US", "coord": {"lon": -80.086723, "lat": 40.303959}}, {"id": 5182064, "name": "Bryn Mawr", "country": "US", "coord": {"lon": -75.304626, "lat": 40.019829}}, {"id": 5182414, "name": "Burgettstown", "country": "US", "coord": {"lon": -80.392838, "lat": 40.382011}}, {"id": 5182434, "name": "Burnham", "country": "US", "coord": {"lon": -77.568604, "lat": 40.63868}}, {"id": 5182534, "name": "Butler", "country": "US", "coord": {"lon": -79.895332, "lat": 40.861179}}, {"id": 5182733, "name": "California", "country": "US", "coord": {"lon": -79.891708, "lat": 40.065632}}, {"id": 5182768, "name": "Calumet", "country": "US", "coord": {"lon": -79.485321, "lat": 40.210899}}, {"id": 5182842, "name": "Cambridge Springs", "country": "US", "coord": {"lon": -80.056442, "lat": 41.803669}}, {"id": 5182928, "name": "Camp Hill", "country": "US", "coord": {"lon": -76.919968, "lat": 40.239811}}, {"id": 5183096, "name": "Campbelltown", "country": "US", "coord": {"lon": -76.585251, "lat": 40.277592}}, {"id": 5183161, "name": "Canonsburg", "country": "US", "coord": {"lon": -80.187279, "lat": 40.262569}}, {"id": 5183169, "name": "Canton", "country": "US", "coord": {"lon": -76.853287, "lat": 41.65646}}, {"id": 5183204, "name": "Carbondale", "country": "US", "coord": {"lon": -75.501846, "lat": 41.573689}}, {"id": 5183416, "name": "Castanea", "country": "US", "coord": {"lon": -77.429703, "lat": 41.12479}}, {"id": 5183428, "name": "Castle Shannon", "country": "US", "coord": {"lon": -80.022278, "lat": 40.364792}}, {"id": 5183438, "name": "Catasauqua", "country": "US", "coord": {"lon": -75.474632, "lat": 40.654819}}, {"id": 5183443, "name": "Catawissa", "country": "US", "coord": {"lon": -76.459671, "lat": 40.95203}}, {"id": 5183576, "name": "Cementon", "country": "US", "coord": {"lon": -75.507683, "lat": 40.689259}}, {"id": 5183683, "name": "Centerville", "country": "US", "coord": {"lon": -79.975609, "lat": 40.045349}}, {"id": 5183709, "name": "Central City", "country": "US", "coord": {"lon": -78.801971, "lat": 40.11063}}, {"id": 5183766, "name": "Centre Hall", "country": "US", "coord": {"lon": -77.686111, "lat": 40.847561}}, {"id": 5183803, "name": "Chalfont", "country": "US", "coord": {"lon": -75.209061, "lat": 40.288441}}, {"id": 5183891, "name": "Charleroi", "country": "US", "coord": {"lon": -79.898102, "lat": 40.137852}}, {"id": 5184071, "name": "Cherryville", "country": "US", "coord": {"lon": -75.538521, "lat": 40.753979}}, {"id": 5184086, "name": "Chesterbrook", "country": "US", "coord": {"lon": -75.459084, "lat": 40.075661}}, {"id": 5184178, "name": "Cheswick", "country": "US", "coord": {"lon": -79.799217, "lat": 40.541729}}, {"id": 5184181, "name": "Chevy Chase Heights", "country": "US", "coord": {"lon": -79.144203, "lat": 40.63673}}, {"id": 5184197, "name": "Chicora", "country": "US", "coord": {"lon": -79.742828, "lat": 40.94812}}, {"id": 5184233, "name": "Chinchilla", "country": "US", "coord": {"lon": -75.677132, "lat": 41.475079}}, {"id": 5184309, "name": "Church Hill", "country": "US", "coord": {"lon": -77.59861, "lat": 40.682011}}, {"id": 5184346, "name": "Churchill", "country": "US", "coord": {"lon": -79.843102, "lat": 40.4384}}, {"id": 5184359, "name": "Churchville", "country": "US", "coord": {"lon": -75.018784, "lat": 40.186218}}, {"id": 5184396, "name": "Clairton", "country": "US", "coord": {"lon": -79.881721, "lat": 40.29229}}, {"id": 5184422, "name": "Clarion", "country": "US", "coord": {"lon": -79.385323, "lat": 41.21479}}, {"id": 5184469, "name": "Clarks Green", "country": "US", "coord": {"lon": -75.699638, "lat": 41.492859}}, {"id": 5184490, "name": "Clarks Summit", "country": "US", "coord": {"lon": -75.708519, "lat": 41.488689}}, {"id": 5184494, "name": "Clay", "country": "US", "coord": {"lon": -76.255508, "lat": 40.21843}}, {"id": 5184505, "name": "Claysburg", "country": "US", "coord": {"lon": -78.449738, "lat": 40.296741}}, {"id": 5184541, "name": "Clearfield", "country": "US", "coord": {"lon": -78.439194, "lat": 41.027279}}, {"id": 5184584, "name": "Cleona", "country": "US", "coord": {"lon": -76.475517, "lat": 40.337311}}, {"id": 5184686, "name": "Clymer", "country": "US", "coord": {"lon": -79.011703, "lat": 40.668121}}, {"id": 5184748, "name": "Coaldale", "country": "US", "coord": {"lon": -75.906868, "lat": 40.822868}}, {"id": 5184806, "name": "Cochranton", "country": "US", "coord": {"lon": -80.048393, "lat": 41.52005}}, {"id": 5184966, "name": "Collegeville", "country": "US", "coord": {"lon": -75.451569, "lat": 40.185661}}, {"id": 5184984, "name": "Collinsburg", "country": "US", "coord": {"lon": -79.768379, "lat": 40.224239}}, {"id": 5185006, "name": "Colonial Park", "country": "US", "coord": {"lon": -76.809692, "lat": 40.30064}}, {"id": 5185029, "name": "Columbia", "country": "US", "coord": {"lon": -76.50441, "lat": 40.03371}}, {"id": 5185128, "name": "Conemaugh", "country": "US", "coord": {"lon": -78.908081, "lat": 40.32674}}, {"id": 5185135, "name": "Conashaugh Lakes", "country": "US", "coord": {"lon": -74.989616, "lat": 41.305931}}, {"id": 5185237, "name": "Connellsville", "country": "US", "coord": {"lon": -79.589478, "lat": 40.017849}}, {"id": 5185267, "name": "Conshohocken", "country": "US", "coord": {"lon": -75.301567, "lat": 40.079281}}, {"id": 5185284, "name": "Conway", "country": "US", "coord": {"lon": -80.239227, "lat": 40.65979}}, {"id": 5185289, "name": "Conyngham", "country": "US", "coord": {"lon": -76.056587, "lat": 40.992031}}, {"id": 5185380, "name": "Coopersburg", "country": "US", "coord": {"lon": -75.390457, "lat": 40.51149}}, {"id": 5185397, "name": "Coplay", "country": "US", "coord": {"lon": -75.495461, "lat": 40.670101}}, {"id": 5185408, "name": "Coraopolis", "country": "US", "coord": {"lon": -80.166718, "lat": 40.518398}}, {"id": 5185465, "name": "Cornwall", "country": "US", "coord": {"lon": -76.406067, "lat": 40.273701}}, {"id": 5185480, "name": "Cornwells Heights", "country": "US", "coord": {"lon": -74.948776, "lat": 40.076778}}, {"id": 5185490, "name": "Corry", "country": "US", "coord": {"lon": -79.640327, "lat": 41.92033}}, {"id": 5185531, "name": "Coudersport", "country": "US", "coord": {"lon": -78.020561, "lat": 41.774792}}, {"id": 5185721, "name": "Crafton", "country": "US", "coord": {"lon": -80.06617, "lat": 40.43507}}, {"id": 5185861, "name": "Cresson", "country": "US", "coord": {"lon": -78.591682, "lat": 40.459789}}, {"id": 5185866, "name": "Cressona", "country": "US", "coord": {"lon": -76.192719, "lat": 40.626759}}, {"id": 5186053, "name": "Croydon", "country": "US", "coord": {"lon": -74.903503, "lat": 40.08733}}, {"id": 5186171, "name": "Curtisville", "country": "US", "coord": {"lon": -79.850891, "lat": 40.642288}}, {"id": 5186172, "name": "Curwensville", "country": "US", "coord": {"lon": -78.525017, "lat": 40.975609}}, {"id": 5186244, "name": "Dale", "country": "US", "coord": {"lon": -78.90419, "lat": 40.312851}}, {"id": 5186266, "name": "Dallas", "country": "US", "coord": {"lon": -75.963249, "lat": 41.336189}}, {"id": 5186267, "name": "Dalton", "country": "US", "coord": {"lon": -75.736031, "lat": 41.534241}}, {"id": 5186327, "name": "Danville", "country": "US", "coord": {"lon": -76.612732, "lat": 40.963421}}, {"id": 5186420, "name": "Davidsville", "country": "US", "coord": {"lon": -78.936409, "lat": 40.22702}}, {"id": 5186717, "name": "Delmont", "country": "US", "coord": {"lon": -79.57032, "lat": 40.41312}}, {"id": 5186775, "name": "Derry", "country": "US", "coord": {"lon": -79.299759, "lat": 40.333961}}, {"id": 5186794, "name": "Denver", "country": "US", "coord": {"lon": -76.137169, "lat": 40.23315}}, {"id": 5186852, "name": "Devon", "country": "US", "coord": {"lon": -75.429077, "lat": 40.049278}}, {"id": 5186862, "name": "Dewart", "country": "US", "coord": {"lon": -76.876633, "lat": 41.109249}}, {"id": 5186924, "name": "Dickson City", "country": "US", "coord": {"lon": -75.607689, "lat": 41.47147}}, {"id": 5186962, "name": "Dillsburg", "country": "US", "coord": {"lon": -77.034981, "lat": 40.110931}}, {"id": 5187134, "name": "Donora", "country": "US", "coord": {"lon": -79.857552, "lat": 40.173401}}, {"id": 5187150, "name": "Dormont", "country": "US", "coord": {"lon": -80.033112, "lat": 40.395901}}, {"id": 5187157, "name": "Dorneyville", "country": "US", "coord": {"lon": -75.51963, "lat": 40.5751}}, {"id": 5187215, "name": "Dover", "country": "US", "coord": {"lon": -76.85025, "lat": 40.001759}}, {"id": 5187232, "name": "Downingtown", "country": "US", "coord": {"lon": -75.70327, "lat": 40.0065}}, {"id": 5187247, "name": "Doylestown", "country": "US", "coord": {"lon": -75.12989, "lat": 40.310108}}, {"id": 5187248, "name": "Doylestown", "country": "US", "coord": {"lon": -77.721382, "lat": 40.197578}}, {"id": 5187286, "name": "Dravosburg", "country": "US", "coord": {"lon": -79.886162, "lat": 40.350632}}, {"id": 5187432, "name": "Du Bois", "country": "US", "coord": {"lon": -78.760033, "lat": 41.119228}}, {"id": 5187443, "name": "Dublin", "country": "US", "coord": {"lon": -75.201561, "lat": 40.371769}}, {"id": 5187453, "name": "Duboistown", "country": "US", "coord": {"lon": -77.036911, "lat": 41.22258}}, {"id": 5187506, "name": "Duncannon", "country": "US", "coord": {"lon": -77.023033, "lat": 40.39814}}, {"id": 5187508, "name": "Duncansville", "country": "US", "coord": {"lon": -78.433899, "lat": 40.423409}}, {"id": 5187542, "name": "Dunmore", "country": "US", "coord": {"lon": -75.632408, "lat": 41.4198}}, {"id": 5187573, "name": "Dunnstown", "country": "US", "coord": {"lon": -77.421371, "lat": 41.145901}}, {"id": 5187577, "name": "Dupont", "country": "US", "coord": {"lon": -75.745468, "lat": 41.325081}}, {"id": 5187580, "name": "Duquesne", "country": "US", "coord": {"lon": -79.859772, "lat": 40.381458}}, {"id": 5187611, "name": "Duryea", "country": "US", "coord": {"lon": -75.738533, "lat": 41.343971}}, {"id": 5187727, "name": "Eagleville", "country": "US", "coord": {"lon": -75.408241, "lat": 40.15955}}, {"id": 5187745, "name": "Earlston", "country": "US", "coord": {"lon": -78.370018, "lat": 40.006191}}, {"id": 5187760, "name": "East Bangor", "country": "US", "coord": {"lon": -75.183792, "lat": 40.879539}}, {"id": 5187767, "name": "East Berwick", "country": "US", "coord": {"lon": -76.222427, "lat": 41.062031}}, {"id": 5187874, "name": "East Conemaugh", "country": "US", "coord": {"lon": -78.883636, "lat": 40.348679}}, {"id": 5187889, "name": "East Earl", "country": "US", "coord": {"lon": -76.032722, "lat": 40.1101}}, {"id": 5187925, "name": "East Greenville", "country": "US", "coord": {"lon": -75.501846, "lat": 40.40649}}, {"id": 5187987, "name": "East McKeesport", "country": "US", "coord": {"lon": -79.806442, "lat": 40.383121}}, {"id": 5188004, "name": "East Norriton", "country": "US", "coord": {"lon": -75.336571, "lat": 40.151772}}, {"id": 5188022, "name": "East Petersburg", "country": "US", "coord": {"lon": -76.354134, "lat": 40.100101}}, {"id": 5188029, "name": "East Pittsburgh", "country": "US", "coord": {"lon": -79.838661, "lat": 40.395618}}, {"id": 5188075, "name": "East Stroudsburg", "country": "US", "coord": {"lon": -75.18129, "lat": 40.999538}}, {"id": 5188105, "name": "East Washington", "country": "US", "coord": {"lon": -80.237556, "lat": 40.173679}}, {"id": 5188133, "name": "Eastlawn Gardens", "country": "US", "coord": {"lon": -75.295731, "lat": 40.750648}}, {"id": 5188193, "name": "Ebensburg", "country": "US", "coord": {"lon": -78.724739, "lat": 40.485069}}, {"id": 5188236, "name": "Economy", "country": "US", "coord": {"lon": -80.224777, "lat": 40.600071}}, {"id": 5188243, "name": "Eddington", "country": "US", "coord": {"lon": -74.944893, "lat": 40.08456}}, {"id": 5188284, "name": "Edgewood", "country": "US", "coord": {"lon": -79.881439, "lat": 40.432011}}, {"id": 5188287, "name": "Edgewood", "country": "US", "coord": {"lon": -76.572456, "lat": 40.788422}}, {"id": 5188302, "name": "Edgeworth", "country": "US", "coord": {"lon": -80.192841, "lat": 40.551182}}, {"id": 5188306, "name": "Edinboro", "country": "US", "coord": {"lon": -80.131721, "lat": 41.874222}}, {"id": 5188339, "name": "Effort", "country": "US", "coord": {"lon": -75.434914, "lat": 40.939259}}, {"id": 5188347, "name": "Edwardsville", "country": "US", "coord": {"lon": -75.916313, "lat": 41.269531}}, {"id": 5188351, "name": "Egypt", "country": "US", "coord": {"lon": -75.529907, "lat": 40.680099}}, {"id": 5188465, "name": "Elizabeth", "country": "US", "coord": {"lon": -79.889771, "lat": 40.269241}}, {"id": 5188469, "name": "Elim", "country": "US", "coord": {"lon": -78.942528, "lat": 40.297852}}, {"id": 5188474, "name": "Elizabethtown", "country": "US", "coord": {"lon": -76.602753, "lat": 40.15287}}, {"id": 5188482, "name": "Elizabethville", "country": "US", "coord": {"lon": -76.81192, "lat": 40.548969}}, {"id": 5188549, "name": "Elkland", "country": "US", "coord": {"lon": -77.310806, "lat": 41.986179}}, {"id": 5188602, "name": "Ellsworth", "country": "US", "coord": {"lon": -80.017273, "lat": 40.112019}}, {"id": 5188607, "name": "Ellport", "country": "US", "coord": {"lon": -80.258949, "lat": 40.863949}}, {"id": 5188609, "name": "Ellwood City", "country": "US", "coord": {"lon": -80.286453, "lat": 40.861729}}, {"id": 5188659, "name": "Elverson", "country": "US", "coord": {"lon": -75.83271, "lat": 40.156761}}, {"id": 5188667, "name": "Elysburg", "country": "US", "coord": {"lon": -76.55246, "lat": 40.864529}}, {"id": 5188682, "name": "Emerald Lakes", "country": "US", "coord": {"lon": -75.419632, "lat": 41.088421}}, {"id": 5188708, "name": "Emigsville", "country": "US", "coord": {"lon": -76.72802, "lat": 40.021759}}, {"id": 5188726, "name": "Emmaus", "country": "US", "coord": {"lon": -75.496849, "lat": 40.539539}}, {"id": 5188737, "name": "Emporium", "country": "US", "coord": {"lon": -78.235291, "lat": 41.511452}}, {"id": 5188743, "name": "Emsworth", "country": "US", "coord": {"lon": -80.094498, "lat": 40.510071}}, {"id": 5188784, "name": "Enhaut", "country": "US", "coord": {"lon": -76.82692, "lat": 40.231758}}, {"id": 5188787, "name": "Enlow", "country": "US", "coord": {"lon": -80.233109, "lat": 40.454239}}, {"id": 5188793, "name": "Enola", "country": "US", "coord": {"lon": -76.933861, "lat": 40.290089}}, {"id": 5188815, "name": "Ephrata", "country": "US", "coord": {"lon": -76.178841, "lat": 40.179821}}, {"id": 5188890, "name": "Espy", "country": "US", "coord": {"lon": -76.409943, "lat": 41.006199}}, {"id": 5188904, "name": "Etna", "country": "US", "coord": {"lon": -79.948936, "lat": 40.504238}}, {"id": 5188935, "name": "Evans City", "country": "US", "coord": {"lon": -80.062843, "lat": 40.76923}}, {"id": 5188948, "name": "Evansburg", "country": "US", "coord": {"lon": -75.42907, "lat": 40.180939}}, {"id": 5188960, "name": "Everett", "country": "US", "coord": {"lon": -78.373352, "lat": 40.011471}}, {"id": 5189004, "name": "Exeter", "country": "US", "coord": {"lon": -75.819077, "lat": 41.320641}}, {"id": 5189022, "name": "Exton", "country": "US", "coord": {"lon": -75.620773, "lat": 40.028999}}, {"id": 5189041, "name": "Factoryville", "country": "US", "coord": {"lon": -75.209618, "lat": 40.824821}}, {"id": 5189042, "name": "Factoryville", "country": "US", "coord": {"lon": -75.782692, "lat": 41.563129}}, {"id": 5189085, "name": "Fairhope", "country": "US", "coord": {"lon": -79.839767, "lat": 40.113682}}, {"id": 5189091, "name": "Fairless Hills", "country": "US", "coord": {"lon": -74.855164, "lat": 40.17955}}, {"id": 5189124, "name": "Fairview", "country": "US", "coord": {"lon": -80.255341, "lat": 42.031448}}, {"id": 5189308, "name": "Falls Creek", "country": "US", "coord": {"lon": -78.804466, "lat": 41.145061}}, {"id": 5189377, "name": "Farrell", "country": "US", "coord": {"lon": -80.496742, "lat": 41.21228}}, {"id": 5189408, "name": "Faxon", "country": "US", "coord": {"lon": -76.977188, "lat": 41.248409}}, {"id": 5189420, "name": "Feasterville", "country": "US", "coord": {"lon": -75.005173, "lat": 40.144001}}, {"id": 5189445, "name": "Fellsburg", "country": "US", "coord": {"lon": -79.824211, "lat": 40.183128}}, {"id": 5189482, "name": "Ferndale", "country": "US", "coord": {"lon": -78.914749, "lat": 40.28896}}, {"id": 5189493, "name": "Fernway", "country": "US", "coord": {"lon": -80.13089, "lat": 40.69479}}, {"id": 5189796, "name": "Fivepointville", "country": "US", "coord": {"lon": -76.051064, "lat": 40.182869}}, {"id": 5189828, "name": "Fleetwood", "country": "US", "coord": {"lon": -75.817978, "lat": 40.453979}}, {"id": 5189839, "name": "Flemington", "country": "US", "coord": {"lon": -77.471649, "lat": 41.126461}}, {"id": 5189872, "name": "Flourtown", "country": "US", "coord": {"lon": -75.212402, "lat": 40.103439}}, {"id": 5189888, "name": "Flying Hills", "country": "US", "coord": {"lon": -75.914101, "lat": 40.27676}}, {"id": 5189947, "name": "Ford City", "country": "US", "coord": {"lon": -79.52977, "lat": 40.772289}}, {"id": 5189963, "name": "Forest City", "country": "US", "coord": {"lon": -75.466568, "lat": 41.65147}}, {"id": 5189981, "name": "Forest Hills", "country": "US", "coord": {"lon": -79.850052, "lat": 40.419788}}, {"id": 5190089, "name": "Fort Washington", "country": "US", "coord": {"lon": -75.209061, "lat": 40.141781}}, {"id": 5190115, "name": "Forty Fort", "country": "US", "coord": {"lon": -75.87825, "lat": 41.278969}}, {"id": 5190117, "name": "Foster Brook", "country": "US", "coord": {"lon": -78.617249, "lat": 41.97506}}, {"id": 5190150, "name": "Fountain Hill", "country": "US", "coord": {"lon": -75.39518, "lat": 40.60149}}, {"id": 5190213, "name": "Fox Chapel", "country": "US", "coord": {"lon": -79.879768, "lat": 40.513401}}, {"id": 5190247, "name": "Fox Run", "country": "US", "coord": {"lon": -80.08284, "lat": 40.70229}}, {"id": 5190282, "name": "Frackville", "country": "US", "coord": {"lon": -76.230217, "lat": 40.783981}}, {"id": 5190323, "name": "Franklin", "country": "US", "coord": {"lon": -79.831444, "lat": 41.397839}}, {"id": 5190360, "name": "Franklin Park", "country": "US", "coord": {"lon": -80.087837, "lat": 40.583401}}, {"id": 5190438, "name": "Fredericksburg", "country": "US", "coord": {"lon": -76.428291, "lat": 40.443699}}, {"id": 5190462, "name": "Freedom", "country": "US", "coord": {"lon": -80.251732, "lat": 40.685619}}, {"id": 5190469, "name": "Freeland", "country": "US", "coord": {"lon": -75.897141, "lat": 41.01675}}, {"id": 5190486, "name": "Freeport", "country": "US", "coord": {"lon": -79.684769, "lat": 40.67395}}, {"id": 5190503, "name": "Freemansburg", "country": "US", "coord": {"lon": -75.345741, "lat": 40.626492}}, {"id": 5190547, "name": "Friedens", "country": "US", "coord": {"lon": -78.99836, "lat": 40.050079}},