[{"id": 732862, "name": "Brusartsi", "country": "BG", "coord": {"lon": 23.066669, "lat": 43.666672}}, {"id": 3181472, "name": "Brusasco", "country": "IT", "coord": {"lon": 8.06273, "lat": 45.155449}}, {"id": 6553563, "name": "Bruschied", "country": "DE", "coord": {"lon": 7.4, "lat": 49.833302}}, {"id": 2942999, "name": "Bruschied", "country": "DE", "coord": {"lon": 7.4, "lat": 49.833328}}, {"id": 6539990, "name": "Brusciano", "country": "IT", "coord": {"lon": 14.42393, "lat": 40.92321}}, {"id": 3181471, "name": "Brusciano", "country": "IT", "coord": {"lon": 14.42393, "lat": 40.92321}}, {"id": 571529, "name": "Brusenets", "country": "RU", "coord": {"lon": 43.952499, "lat": 60.245834}}, {"id": 2942992, "name": "Brusewitz", "country": "DE", "coord": {"lon": 11.25, "lat": 53.683331}}, {"id": 5575194, "name": "Brush", "country": "US", "coord": {"lon": -103.62384, "lat": 40.258869}}, {"id": 2173729, "name": "Brush Creek", "country": "AU", "coord": {"lon": 151.283325, "lat": -33.166672}}, {"id": 4800356, "name": "Brush Fork", "country": "US", "coord": {"lon": -81.255928, "lat": 37.280949}}, {"id": 5788290, "name": "Brush Prairie", "country": "US", "coord": {"lon": -122.546494, "lat": 45.732891}}, {"id": 5247014, "name": "Brushville", "country": "US", "coord": {"lon": -88.995949, "lat": 44.169979}}, {"id": 4676920, "name": "Brushy Creek", "country": "US", "coord": {"lon": -97.739731, "lat": 30.513531}}, {"id": 6534912, "name": "Brusimpiano", "country": "IT", "coord": {"lon": 8.88953, "lat": 45.944679}}, {"id": 7285357, "name": "Brusio", "country": "CH", "coord": {"lon": 10.11898, "lat": 46.255451}}, {"id": 2661365, "name": "Brusio", "country": "CH", "coord": {"lon": 10.12604, "lat": 46.257671}}, {"id": 4318163, "name": "Brusly", "country": "US", "coord": {"lon": -91.253723, "lat": 30.39436}}, {"id": 820088, "name": "Brusna", "country": "RU", "coord": {"lon": 34.015278, "lat": 52.243332}}, {"id": 3181468, "name": "Brusnengo", "country": "IT", "coord": {"lon": 8.25192, "lat": 45.593861}}, {"id": 571497, "name": "Brusovoye", "country": "RU", "coord": {"lon": 36.32, "lat": 52.224442}}, {"id": 3078536, "name": "Brusperk", "country": "CZ", "coord": {"lon": 18.222099, "lat": 49.7001}}, {"id": 3468879, "name": "Brusque", "country": "BR", "coord": {"lon": -48.9175, "lat": -27.098061}}, {"id": 2800866, "name": "Brussels", "country": "BE", "coord": {"lon": 4.34878, "lat": 50.850449}}, {"id": 3181467, "name": "Brusson", "country": "IT", "coord": {"lon": 7.72961, "lat": 45.757759}}, {"id": 2942986, "name": "Brussow", "country": "DE", "coord": {"lon": 14.12533, "lat": 53.399712}}, {"id": 683612, "name": "Brusturi", "country": "RO", "coord": {"lon": 26.383329, "lat": 47.283329}}, {"id": 683614, "name": "Brusturi", "country": "RO", "coord": {"lon": 22.25, "lat": 47.150002}}, {"id": 683607, "name": "Brusturoasa", "country": "RO", "coord": {"lon": 26.200001, "lat": 46.51667}}, {"id": 3102488, "name": "Brusy", "country": "PL", "coord": {"lon": 17.717859, "lat": 53.88446}}, {"id": 571492, "name": "Brusyanka", "country": "RU", "coord": {"lon": 38.035931, "lat": 53.984921}}, {"id": 711382, "name": "Brusyliv", "country": "UA", "coord": {"lon": 29.52626, "lat": 50.284489}}, {"id": 2173712, "name": "Bruthen", "country": "AU", "coord": {"lon": 147.816666, "lat": -37.716671}}, {"id": 2654454, "name": "Bruton", "country": "GB", "coord": {"lon": -2.45278, "lat": 51.112499}}, {"id": 2661362, "name": "Brutten", "country": "CH", "coord": {"lon": 8.67569, "lat": 47.473179}}, {"id": 2942976, "name": "Bruttig", "country": "DE", "coord": {"lon": 7.23333, "lat": 50.133331}}, {"id": 6553669, "name": "Bruttig-Fankel", "country": "DE", "coord": {"lon": 7.23333, "lat": 50.133301}}, {"id": 3207690, "name": "Bruttig-Fankel", "country": "DE", "coord": {"lon": 7.23333, "lat": 50.133331}}, {"id": 2661361, "name": "Bruttisellen", "country": "CH", "coord": {"lon": 8.63263, "lat": 47.42173}}, {"id": 2800867, "name": "Bruxelles-Capitale", "country": "BE", "coord": {"lon": 4.35144, "lat": 50.853321}}, {"id": 3029725, "name": "Bruyeres", "country": "FR", "coord": {"lon": 6.71845, "lat": 48.207088}}, {"id": 3029718, "name": "Bruyeres-et-Montberault", "country": "FR", "coord": {"lon": 3.66369, "lat": 49.525349}}, {"id": 3029717, "name": "Bruyeres-le-Chatel", "country": "FR", "coord": {"lon": 2.18991, "lat": 48.58868}}, {"id": 3029715, "name": "Bruyeres-sur-Oise", "country": "FR", "coord": {"lon": 2.32577, "lat": 49.157558}}, {"id": 3029713, "name": "Bruz", "country": "FR", "coord": {"lon": -1.74591, "lat": 48.0242}}, {"id": 6535387, "name": "Bruzolo", "country": "IT", "coord": {"lon": 7.19841, "lat": 45.139641}}, {"id": 3647931, "name": "Bruzual", "country": "VE", "coord": {"lon": -69.332573, "lat": 8.05052}}, {"id": 2525493, "name": "Bruzzano Zeffirio", "country": "IT", "coord": {"lon": 16.0826, "lat": 38.013271}}, {"id": 792227, "name": "Brvenica", "country": "MK", "coord": {"lon": 20.980829, "lat": 41.96722}}, {"id": 775224, "name": "Brwinow", "country": "PL", "coord": {"lon": 20.71697, "lat": 52.142689}}, {"id": 7533371, "name": "Brwin\u00f3w", "country": "PL", "coord": {"lon": 20.716299, "lat": 52.143101}}, {"id": 6452011, "name": "Bry-sur-Marne", "country": "FR", "coord": {"lon": 2.51667, "lat": 48.833328}}, {"id": 3029706, "name": "Bry-sur-Marne", "country": "FR", "coord": {"lon": 2.52488, "lat": 48.838112}}, {"id": 4677008, "name": "Bryan", "country": "US", "coord": {"lon": -96.369957, "lat": 30.67436}}, {"id": 5148533, "name": "Bryan", "country": "US", "coord": {"lon": -84.552452, "lat": 41.47477}}, {"id": 4531565, "name": "Bryan County", "country": "US", "coord": {"lon": -96.26693, "lat": 33.966759}}, {"id": 4184922, "name": "Bryan Village", "country": "US", "coord": {"lon": -81.592888, "lat": 31.89188}}, {"id": 629589, "name": "Bryanchitsy", "country": "BY", "coord": {"lon": 27.5467, "lat": 52.880299}}, {"id": 711369, "name": "Bryanka", "country": "UA", "coord": {"lon": 38.672218, "lat": 48.511002}}, {"id": 2173707, "name": "Bryans Gap", "country": "AU", "coord": {"lon": 152.083328, "lat": -29.033331}}, {"id": 3491187, "name": "Bryans Pen", "country": "JM", "coord": {"lon": -77.23333, "lat": 17.966669}}, {"id": 4349727, "name": "Bryans Road", "country": "US", "coord": {"lon": -77.073029, "lat": 38.62706}}, {"id": 571476, "name": "Bryansk", "country": "RU", "coord": {"lon": 34.380562, "lat": 53.287498}}, {"id": 2026070, "name": "Bryansk", "country": "RU", "coord": {"lon": 106.84333, "lat": 52.02306}}, {"id": 571473, "name": "Bryanskaya Oblast\u2019", "country": "RU", "coord": {"lon": 33.5, "lat": 53}}, {"id": 4103448, "name": "Bryant", "country": "US", "coord": {"lon": -92.489052, "lat": 34.595928}}, {"id": 5788298, "name": "Bryant", "country": "US", "coord": {"lon": -122.157921, "lat": 48.238991}}, {"id": 7156618, "name": "Bryce Canyon City", "country": "US", "coord": {"lon": -112.156937, "lat": 37.673889}}, {"id": 2173704, "name": "Bryden", "country": "AU", "coord": {"lon": 152.583328, "lat": -27.26667}}, {"id": 571452, "name": "Brykin Bor", "country": "RU", "coord": {"lon": 40.849998, "lat": 54.700001}}, {"id": 571445, "name": "Brykovo", "country": "RU", "coord": {"lon": 36.738335, "lat": 55.944168}}, {"id": 6659068, "name": "Brykovo", "country": "RU", "coord": {"lon": 35.964462, "lat": 56.492249}}, {"id": 6652755, "name": "Brykovo", "country": "RU", "coord": {"lon": 35.911781, "lat": 56.25779}}, {"id": 711435, "name": "Brylivka", "country": "UA", "coord": {"lon": 33.147209, "lat": 46.424759}}, {"id": 7296198, "name": "Brymbo", "country": "GB", "coord": {"lon": -3.08351, "lat": 53.074551}}, {"id": 2654450, "name": "Brymbo", "country": "GB", "coord": {"lon": -3.06667, "lat": 53.066669}}, {"id": 2654449, "name": "Bryn", "country": "GB", "coord": {"lon": -3.71167, "lat": 51.61639}}, {"id": 5182059, "name": "Bryn Athyn", "country": "US", "coord": {"lon": -75.06739, "lat": 40.1315}}, {"id": 5182063, "name": "Bryn Mawr", "country": "US", "coord": {"lon": -80.086723, "lat": 40.303959}}, {"id": 5182064, "name": "Bryn Mawr", "country": "US", "coord": {"lon": -75.304626, "lat": 40.019829}}, {"id": 7260966, "name": "Bryn Mawr-Skyway", "country": "US", "coord": {"lon": -122.240921, "lat": 47.494301}}, {"id": 2654447, "name": "Brynamman", "country": "GB", "coord": {"lon": -3.86667, "lat": 51.799999}}, {"id": 3159822, "name": "Bryne", "country": "NO", "coord": {"lon": 5.64766, "lat": 58.735359}}, {"id": 2654444, "name": "Bryneglwys", "country": "GB", "coord": {"lon": -3.28333, "lat": 53.01667}}, {"id": 2654437, "name": "Brynmawr", "country": "GB", "coord": {"lon": -3.18333, "lat": 51.799999}}, {"id": 2654436, "name": "Brynmenyn", "country": "GB", "coord": {"lon": -3.5807, "lat": 51.551609}}, {"id": 2600754, "name": "Bryn\u00e4s", "country": "SE", "coord": {"lon": 17.17103, "lat": 60.672508}}, {"id": 5910429, "name": "Bryson", "country": "CA", "coord": {"lon": -76.616112, "lat": 45.683411}}, {"id": 4457719, "name": "Bryson City", "country": "US", "coord": {"lon": -83.44738, "lat": 35.430931}}, {"id": 571420, "name": "Bryukhovetskaya", "country": "RU", "coord": {"lon": 38.999592, "lat": 45.80603}}, {"id": 711359, "name": "Bryukhovychi", "country": "UA", "coord": {"lon": 23.9597, "lat": 49.904671}}, {"id": 775210, "name": "Brzaczowice", "country": "PL", "coord": {"lon": 20.03709, "lat": 49.874779}}, {"id": 7532249, "name": "Brzeg", "country": "PL", "coord": {"lon": 17.462799, "lat": 50.858898}}, {"id": 3102459, "name": "Brzeg", "country": "PL", "coord": {"lon": 17.4674, "lat": 50.86079}}, {"id": 7533397, "name": "Brzeg Dolny", "country": "PL", "coord": {"lon": 16.719601, "lat": 51.268398}}, {"id": 3102456, "name": "Brzeg Dolny", "country": "PL", "coord": {"lon": 16.708151, "lat": 51.272991}}, {"id": 3102447, "name": "Brzesc Kujawski", "country": "PL", "coord": {"lon": 18.90173, "lat": 52.60532}}, {"id": 7533116, "name": "Brzesko", "country": "PL", "coord": {"lon": 20.610701, "lat": 49.974499}}, {"id": 775183, "name": "Brzesko", "country": "PL", "coord": {"lon": 20.60606, "lat": 49.969109}}, {"id": 7533373, "name": "Brzeszcze", "country": "PL", "coord": {"lon": 19.147449, "lat": 49.983521}}, {"id": 3102444, "name": "Brzeszcze", "country": "PL", "coord": {"lon": 19.151569, "lat": 49.982029}}, {"id": 3102409, "name": "Brzezinka", "country": "PL", "coord": {"lon": 19.190201, "lat": 50.04237}}, {"id": 7531224, "name": "Brzeziny", "country": "PL", "coord": {"lon": 19.749439, "lat": 51.800659}}, {"id": 3102390, "name": "Brzeziny", "country": "PL", "coord": {"lon": 19.75144, "lat": 51.800228}}, {"id": 775155, "name": "Brzeziny", "country": "PL", "coord": {"lon": 20.573191, "lat": 50.772732}}, {"id": 3102378, "name": "Brzeziny Slaskie", "country": "PL", "coord": {"lon": 18.981291, "lat": 50.354389}}, {"id": 775136, "name": "Brzeznica", "country": "PL", "coord": {"lon": 21.480249, "lat": 50.100651}}, {"id": 775138, "name": "Brzeznica", "country": "PL", "coord": {"lon": 20.49139, "lat": 49.95763}}, {"id": 3102374, "name": "Brzeznica", "country": "PL", "coord": {"lon": 19.61952, "lat": 49.96497}}, {"id": 3102362, "name": "Brzeznio", "country": "PL", "coord": {"lon": 18.622339, "lat": 51.493999}}, {"id": 775110, "name": "Brzostek", "country": "PL", "coord": {"lon": 21.41102, "lat": 49.879539}}, {"id": 775098, "name": "Brzoza Krolewska", "country": "PL", "coord": {"lon": 22.32559, "lat": 50.239079}}, {"id": 775097, "name": "Brzoza Stadnicka", "country": "PL", "coord": {"lon": 22.28233, "lat": 50.19965}}, {"id": 3102316, "name": "Brzozie", "country": "PL", "coord": {"lon": 19.604851, "lat": 53.325539}}, {"id": 775086, "name": "Brzozow", "country": "PL", "coord": {"lon": 22.01926, "lat": 49.695011}}, {"id": 775075, "name": "Brzozowica", "country": "PL", "coord": {"lon": 21.68066, "lat": 52.339218}}, {"id": 7533348, "name": "Brzoz\u00f3w", "country": "PL", "coord": {"lon": 22.0194, "lat": 49.697701}}, {"id": 3102283, "name": "Brzuze", "country": "PL", "coord": {"lon": 19.26195, "lat": 53.054581}}, {"id": 775010, "name": "Brzyska", "country": "PL", "coord": {"lon": 21.390039, "lat": 49.822262}}, {"id": 2520814, "name": "Br\u00e1cana", "country": "ES", "coord": {"lon": -3.94504, "lat": 37.22739}}, {"id": 2945576, "name": "Br\u00e4dikow", "country": "DE", "coord": {"lon": 12.64998, "lat": 52.689812}}, {"id": 660522, "name": "Br\u00e4nd\u00f6", "country": "AX", "coord": {"lon": 20.54377, "lat": 60.04546}}, {"id": 660528, "name": "Br\u00e4nd\u00f6", "country": "AX", "coord": {"lon": 21, "lat": 60.416672}}, {"id": 2719757, "name": "Br\u00e4nningen", "country": "SE", "coord": {"lon": 13.98333, "lat": 58.466671}}, {"id": 2945149, "name": "Br\u00e4sen", "country": "DE", "coord": {"lon": 12.38333, "lat": 51.966671}}, {"id": 2945058, "name": "Br\u00e4uningshof", "country": "DE", "coord": {"lon": 11.041, "lat": 49.631008}}, {"id": 2945045, "name": "Br\u00e4unrode", "country": "DE", "coord": {"lon": 11.4, "lat": 51.633331}}, {"id": 2623412, "name": "Br\u00e6ndekilde", "country": "DK", "coord": {"lon": 10.26712, "lat": 55.347851}}, {"id": 6455152, "name": "Br\u00e9cey", "country": "FR", "coord": {"lon": -1.16667, "lat": 48.73333}}, {"id": 6450199, "name": "Br\u00e9el", "country": "FR", "coord": {"lon": -0.38333, "lat": 48.816669}}, {"id": 3030417, "name": "Br\u00e9el", "country": "FR", "coord": {"lon": -0.39042, "lat": 48.812771}}, {"id": 6449491, "name": "Br\u00e9hal", "country": "FR", "coord": {"lon": -1.51667, "lat": 48.900002}}, {"id": 6447232, "name": "Br\u00e9moy", "country": "FR", "coord": {"lon": -0.77986, "lat": 48.990582}}, {"id": 3030367, "name": "Br\u00e9moy", "country": "FR", "coord": {"lon": -0.78054, "lat": 48.99041}}, {"id": 6446106, "name": "Br\u00e9tigny-sur-Orge", "country": "FR", "coord": {"lon": 2.30554, "lat": 48.611382}}, {"id": 6449495, "name": "Br\u00e9ville-sur-Mer", "country": "FR", "coord": {"lon": -1.55, "lat": 48.866669}}, {"id": 3030166, "name": "Br\u00e9ville-sur-Mer", "country": "FR", "coord": {"lon": -1.55645, "lat": 48.865509}}, {"id": 6547765, "name": "Br\u00f6bberow", "country": "DE", "coord": {"lon": 12.05, "lat": 53.966702}}, {"id": 6552552, "name": "Br\u00f6ckel", "country": "DE", "coord": {"lon": 10.2167, "lat": 52.516701}}, {"id": 2943882, "name": "Br\u00f6hsen", "country": "DE", "coord": {"lon": 12.8, "lat": 51.23333}}, {"id": 3205790, "name": "Br\u00f6mmenkamp", "country": "DE", "coord": {"lon": 6.73333, "lat": 51.566669}}, {"id": 2943720, "name": "Br\u00f6sen", "country": "DE", "coord": {"lon": 12.31667, "lat": 51.150002}}, {"id": 6551416, "name": "Br\u00f6then", "country": "DE", "coord": {"lon": 10.66721, "lat": 53.480282}}, {"id": 2943712, "name": "Br\u00f6\u00dfnitz", "country": "DE", "coord": {"lon": 13.66667, "lat": 51.366669}}, {"id": 2623352, "name": "Br\u00f8ndby Kommune", "country": "DK", "coord": {"lon": 12.43333, "lat": 55.650002}}, {"id": 2623351, "name": "Br\u00f8nderslev Kommune", "country": "DK", "coord": {"lon": 10, "lat": 57.25}}, {"id": 3159955, "name": "Br\u00f8nn\u00f8y", "country": "NO", "coord": {"lon": 12.20626, "lat": 65.467857}}, {"id": 2623326, "name": "Br\u00f8ns", "country": "DK", "coord": {"lon": 8.72857, "lat": 55.194981}}, {"id": 2943652, "name": "Br\u00fcchau", "country": "DE", "coord": {"lon": 11.23333, "lat": 52.683331}}, {"id": 2943623, "name": "Br\u00fccherm\u00fchle", "country": "DE", "coord": {"lon": 7.63333, "lat": 50.916672}}, {"id": 2943519, "name": "Br\u00fcck", "country": "DE", "coord": {"lon": 6.97177, "lat": 50.484219}}, {"id": 2943490, "name": "Br\u00fcckelsdorf", "country": "DE", "coord": {"lon": 12.18333, "lat": 49.316669}}, {"id": 6553577, "name": "Br\u00fccken", "country": "DE", "coord": {"lon": 7.11667, "lat": 49.633301}}, {"id": 2943470, "name": "Br\u00fcckenm\u00fchle", "country": "DE", "coord": {"lon": 10.36667, "lat": 50.599998}}, {"id": 2943452, "name": "Br\u00fcckfeld", "country": "DE", "coord": {"lon": 8.83333, "lat": 50.116669}}, {"id": 7872767, "name": "Br\u00fcckl", "country": "AT", "coord": {"lon": 14.52298, "lat": 46.733189}}, {"id": 2943401, "name": "Br\u00fcckrachdorf", "country": "DE", "coord": {"lon": 7.68333, "lat": 50.549999}}, {"id": 6554685, "name": "Br\u00fccktal", "country": "DE", "coord": {"lon": 6.98333, "lat": 50.3167}}, {"id": 7285349, "name": "Br\u00fcgg", "country": "CH", "coord": {"lon": 7.27801, "lat": 47.128151}}, {"id": 6551819, "name": "Br\u00fcgge", "country": "DE", "coord": {"lon": 10.0667, "lat": 54.1833}}, {"id": 6553040, "name": "Br\u00fcggen", "country": "DE", "coord": {"lon": 6.1886, "lat": 51.2379}}, {"id": 6552475, "name": "Br\u00fcggen", "country": "DE", "coord": {"lon": 9.7774, "lat": 52.040199}}, {"id": 7285350, "name": "Br\u00fcgglen", "country": "CH", "coord": {"lon": 7.49546, "lat": 47.143909}}, {"id": 6691347, "name": "Br\u00fcgglen", "country": "CH", "coord": {"lon": 7.49619, "lat": 47.142391}}, {"id": 6292512, "name": "Br\u00fcglen", "country": "CH", "coord": {"lon": 8.9147, "lat": 47.28299}}, {"id": 6550064, "name": "Br\u00fcheim", "country": "DE", "coord": {"lon": 10.5833, "lat": 51}}, {"id": 6555658, "name": "Br\u00fchl", "country": "DE", "coord": {"lon": 8.5381, "lat": 49.402699}}, {"id": 2943308, "name": "Br\u00fchlhof", "country": "DE", "coord": {"lon": 9.56667, "lat": 48.23333}}, {"id": 2943275, "name": "Br\u00fcndel", "country": "DE", "coord": {"lon": 11.65, "lat": 51.75}}, {"id": 7285352, "name": "Br\u00fcnisried", "country": "CH", "coord": {"lon": 7.27636, "lat": 46.757381}}, {"id": 6291335, "name": "Br\u00fcnnli/Hardacker", "country": "CH", "coord": {"lon": 8.5746, "lat": 47.43911}}, {"id": 6548248, "name": "Br\u00fcnzow", "country": "DE", "coord": {"lon": 13.5667, "lat": 54.099998}}, {"id": 6548169, "name": "Br\u00fcsewitz", "country": "DE", "coord": {"lon": 11.25, "lat": 53.6833}}, {"id": 2942985, "name": "Br\u00fcssow", "country": "DE", "coord": {"lon": 13.61667, "lat": 54}}, {"id": 7285358, "name": "Br\u00fcttelen", "country": "CH", "coord": {"lon": 7.15119, "lat": 47.023979}}, {"id": 2661363, "name": "Br\u00fcttelen", "country": "CH", "coord": {"lon": 7.14793, "lat": 47.02269}}, {"id": 7285359, "name": "Br\u00fctten", "country": "CH", "coord": {"lon": 8.6724, "lat": 47.474819}}, {"id": 2942977, "name": "Br\u00fcttendorf", "country": "DE", "coord": {"lon": 9.28333, "lat": 53.26667}}, {"id": 2942970, "name": "Br\u00fcxgen", "country": "DE", "coord": {"lon": 5.98333, "lat": 51.01667}}, {"id": 618522, "name": "Br\u0103ne\u015fti", "country": "MD", "coord": {"lon": 28.92667, "lat": 47.305279}}, {"id": 3029705, "name": "Bu", "country": "FR", "coord": {"lon": 1.49702, "lat": 48.79705}}, {"id": 2472261, "name": "Bu Aradah", "country": "TN", "coord": {"lon": 9.62175, "lat": 36.352509}}, {"id": 2471915, "name": "Bu Urqub", "country": "TN", "coord": {"lon": 10.55093, "lat": 36.538528}}, {"id": 1723538, "name": "Bu-Datu", "country": "PH", "coord": {"lon": 120.997704, "lat": 6.0234}}, {"id": 2718839, "name": "Bua", "country": "SE", "coord": {"lon": 12.13333, "lat": 57.23333}}, {"id": 2718836, "name": "Bua", "country": "SE", "coord": {"lon": 12.66667, "lat": 57.566669}}, {"id": 1611504, "name": "Bua Chet", "country": "TH", "coord": {"lon": 103.945671, "lat": 14.52814}}, {"id": 1611492, "name": "Bua Yai", "country": "TH", "coord": {"lon": 102.425873, "lat": 15.58552}}, {"id": 63949, "name": "Buaale", "country": "SO", "coord": {"lon": 42.583328, "lat": 1.08333}}, {"id": 1723739, "name": "Buadiposo-Buntong", "country": "PH", "coord": {"lon": 124.383331, "lat": 7.96667}}, {"id": 1729351, "name": "Buadtasan", "country": "PH", "coord": {"lon": 124.612663, "lat": 6.00496}}, {"id": 1723733, "name": "Buagsong", "country": "PH", "coord": {"lon": 123.949997, "lat": 10.31667}}, {"id": 7038878, "name": "Buahan", "country": "ID", "coord": {"lon": 115.236702, "lat": -8.3948}}, {"id": 7039116, "name": "Buahan Tengah", "country": "ID", "coord": {"lon": 115.149696, "lat": -8.4947}}, {"id": 6615107, "name": "Buais", "country": "FR", "coord": {"lon": -0.96667, "lat": 48.51667}}, {"id": 3029704, "name": "Buais", "country": "FR", "coord": {"lon": -0.97015, "lat": 48.522839}}, {"id": 1636045, "name": "Buakayu", "country": "ID", "coord": {"lon": 119.723198, "lat": -3.1995}}, {"id": 1723724, "name": "Bual", "country": "PH", "coord": {"lon": 124.505829, "lat": 7.1825}}, {"id": 1723726, "name": "Bual", "country": "PH", "coord": {"lon": 124.910828, "lat": 6.79583}}, {"id": 2109528, "name": "Buala", "country": "SB", "coord": {"lon": 159.592117, "lat": -8.14497}}, {"id": 1723719, "name": "Bualan", "country": "PH", "coord": {"lon": 124.26667, "lat": 7.75}}, {"id": 1978987, "name": "Bualan", "country": "PH", "coord": {"lon": 124.267502, "lat": 7.44778}}, {"id": 1648011, "name": "Bualu", "country": "ID", "coord": {"lon": 115.217201, "lat": -8.796}}, {"id": 1724567, "name": "Buan", "country": "PH", "coord": {"lon": 120.042603, "lat": 5.1608}}, {"id": 1958098, "name": "Buan", "country": "PH", "coord": {"lon": 120.8815, "lat": 5.5508}}, {"id": 1723707, "name": "Buang", "country": "PH", "coord": {"lon": 123.641937, "lat": 13.31222}}, {"id": 2173698, "name": "Buangor", "country": "AU", "coord": {"lon": 143.166672, "lat": -37.366669}}, {"id": 1723701, "name": "Buanoy", "country": "PH", "coord": {"lon": 123.699898, "lat": 10.46746}}, {"id": 1957913, "name": "Buansa", "country": "PH", "coord": {"lon": 120.961403, "lat": 6.0258}}, {"id": 2173695, "name": "Buaraba", "country": "AU", "coord": {"lon": 152.316666, "lat": -27.366671}}, {"id": 2173694, "name": "Buaraba Creek", "country": "AU", "coord": {"lon": 152.416672, "lat": -27.41667}}, {"id": 1647991, "name": "Buaran", "country": "ID", "coord": {"lon": 109.550003, "lat": -7.05}}, {"id": 2741961, "name": "Buarcos", "country": "PT", "coord": {"lon": -8.8768, "lat": 40.166039}}, {"id": 1722730, "name": "Buawan", "country": "PH", "coord": {"lon": 124.303062, "lat": 8.31667}}, {"id": 1723679, "name": "Buayan", "country": "PH", "coord": {"lon": 125.234718, "lat": 6.11639}}, {"id": 1724561, "name": "Buayan", "country": "PH", "coord": {"lon": 124.529442, "lat": 7.26111}}, {"id": 2374588, "name": "Buba", "country": "GW", "coord": {"lon": -15, "lat": 11.58333}}, {"id": 6553881, "name": "Bubach", "country": "DE", "coord": {"lon": 7.55, "lat": 50.0667}}, {"id": 2942960, "name": "Bubach", "country": "DE", "coord": {"lon": 7.55, "lat": 50.066669}}, {"id": 428515, "name": "Bubanza", "country": "BI", "coord": {"lon": 29.391001, "lat": -3.0804}}, {"id": 2374583, "name": "Bubaque", "country": "GW", "coord": {"lon": -15.83333, "lat": 11.28333}}, {"id": 6535145, "name": "Bubbiano", "country": "IT", "coord": {"lon": 9.01455, "lat": 45.327271}}, {"id": 3181464, "name": "Bubbio", "country": "IT", "coord": {"lon": 8.29514, "lat": 44.663441}}, {"id": 7285362, "name": "Bubendorf", "country": "CH", "coord": {"lon": 7.73702, "lat": 47.445808}}, {"id": 2661360, "name": "Bubendorf", "country": "CH", "coord": {"lon": 7.73759, "lat": 47.445862}}, {"id": 6554937, "name": "Bubenheim", "country": "DE", "coord": {"lon": 8.11778, "lat": 49.628101}}, {"id": 2942939, "name": "Bubenheim", "country": "DE", "coord": {"lon": 8.11778, "lat": 49.628059}}, {"id": 6555260, "name": "Bubenheim", "country": "DE", "coord": {"lon": 8.07972, "lat": 49.9217}}, {"id": 2942938, "name": "Bubenheim", "country": "DE", "coord": {"lon": 8.07972, "lat": 49.921669}}, {"id": 6556863, "name": "Bubenreuth", "country": "DE", "coord": {"lon": 11.0167, "lat": 49.633301}}, {"id": 2942930, "name": "Bubenreuth", "country": "DE", "coord": {"lon": 11.01667, "lat": 49.633331}}, {"id": 6361098, "name": "Buberos", "country": "ES", "coord": {"lon": -2.17168, "lat": 41.651211}}, {"id": 3127575, "name": "Buberos", "country": "ES", "coord": {"lon": -2.19406, "lat": 41.646919}}, {"id": 6557173, "name": "Bubesheim", "country": "DE", "coord": {"lon": 10.25, "lat": 48.4333}}, {"id": 2942922, "name": "Bubesheim", "country": "DE", "coord": {"lon": 10.25, "lat": 48.433331}}, {"id": 6362751, "name": "Bubierca", "country": "ES", "coord": {"lon": -1.87319, "lat": 41.322781}}, {"id": 3127574, "name": "Bubierca", "country": "ES", "coord": {"lon": -1.85386, "lat": 41.314819}}, {"id": 7285363, "name": "Bubikon", "country": "CH", "coord": {"lon": 8.80812, "lat": 47.266479}}, {"id": 2661359, "name": "Bubikon", "country": "CH", "coord": {"lon": 8.8179, "lat": 47.266979}}, {"id": 2520781, "name": "Bubion", "country": "ES", "coord": {"lon": -3.35615, "lat": 36.949001}}, {"id": 6357665, "name": "Bubi\u00f3n", "country": "ES", "coord": {"lon": -3.36731, "lat": 36.982449}}, {"id": 6555081, "name": "Buborn", "country": "DE", "coord": {"lon": 7.55, "lat": 49.633301}}, {"id": 2942914, "name": "Buborn", "country": "DE", "coord": {"lon": 7.55, "lat": 49.633331}}, {"id": 3029697, "name": "Bubry", "country": "FR", "coord": {"lon": -3.17108, "lat": 47.96336}}, {"id": 6555833, "name": "Bubsheim", "country": "DE", "coord": {"lon": 8.83333, "lat": 48.116699}}, {"id": 2942913, "name": "Bubsheim", "country": "DE", "coord": {"lon": 8.83333, "lat": 48.116669}}, {"id": 2654430, "name": "Bubwith", "country": "GB", "coord": {"lon": -0.91968, "lat": 53.81905}}, {"id": 571370, "name": "Bubyakovo", "country": "RU", "coord": {"lon": 38.083332, "lat": 56.349998}}, {"id": 3029695, "name": "Buc", "country": "FR", "coord": {"lon": 2.12577, "lat": 48.776272}}, {"id": 320533, "name": "Bucak", "country": "TR", "coord": {"lon": 30.594999, "lat": 37.459171}}, {"id": 4562966, "name": "Bucan\u00e1", "country": "PR", "coord": {"lon": -66.591278, "lat": 18.005239}}, {"id": 3688465, "name": "Bucaramanga", "country": "CO", "coord": {"lon": -73.119797, "lat": 7.12539}}, {"id": 3688462, "name": "Bucarasica", "country": "CO", "coord": {"lon": -72.865379, "lat": 8.04096}}, {"id": 1723569, "name": "Bucay", "country": "PH", "coord": {"lon": 120.718803, "lat": 17.5404}}, {"id": 1723562, "name": "Bucay Pait", "country": "PH", "coord": {"lon": 124.767502, "lat": 6.56417}}, {"id": 2173686, "name": "Bucca", "country": "AU", "coord": {"lon": 152.100006, "lat": -24.866671}}, {"id": 2173679, "name": "Bucca-Wauka", "country": "AU", "coord": {"lon": 152.166672, "lat": -32.099998}}, {"id": 2173682, "name": "Buccan", "country": "AU", "coord": {"lon": 153.133331, "lat": -27.75}}, {"id": 2173680, "name": "Buccarumbi", "country": "AU", "coord": {"lon": 152.583328, "lat": -29.85}}, {"id": 2525492, "name": "Buccheri", "country": "IT", "coord": {"lon": 14.84989, "lat": 37.125038}}, {"id": 3181461, "name": "Bucchianico", "country": "IT", "coord": {"lon": 14.18101, "lat": 42.30484}}, {"id": 3181460, "name": "Bucciano", "country": "IT", "coord": {"lon": 14.57133, "lat": 41.07682}}, {"id": 6542304, "name": "Buccinasco", "country": "IT", "coord": {"lon": 9.10698, "lat": 45.41713}}, {"id": 6534226, "name": "Buccinasco", "country": "IT", "coord": {"lon": 9.10784, "lat": 45.416168}}, {"id": 3181458, "name": "Buccino", "country": "IT", "coord": {"lon": 15.36966, "lat": 40.632912}}, {"id": 683602, "name": "Bucecea", "country": "RO", "coord": {"lon": 26.433331, "lat": 47.76667}}, {"id": 8012504, "name": "Bucelas", "country": "PT", "coord": {"lon": -9.12692, "lat": 38.909359}}, {"id": 2270649, "name": "Bucelas", "country": "PT", "coord": {"lon": -9.11885, "lat": 38.901932}}, {"id": 3443533, "name": "Buceo", "country": "UY", "coord": {"lon": -56.133331, "lat": -34.900002}}, {"id": 4016734, "name": "Bucerias", "country": "MX", "coord": {"lon": -105.333328, "lat": 20.75}}, {"id": 683594, "name": "Buces", "country": "RO", "coord": {"lon": 22.933331, "lat": 46.183331}}, {"id": 2942869, "name": "Buch", "country": "DE", "coord": {"lon": 11.13945, "lat": 48.056229}}, {"id": 6554005, "name": "Buch", "country": "DE", "coord": {"lon": 7.86667, "lat": 50.200001}}, {"id": 2942834, "name": "Buch", "country": "DE", "coord": {"lon": 7.86667, "lat": 50.200001}}, {"id": 2942847, "name": "Buch", "country": "DE", "coord": {"lon": 11.37291, "lat": 49.319859}}, {"id": 2942863, "name": "Buch", "country": "DE", "coord": {"lon": 10.01667, "lat": 48.316669}}, {"id": 2942855, "name": "Buch", "country": "DE", "coord": {"lon": 11.98333, "lat": 48.849998}}, {"id": 6553882, "name": "Buch", "country": "DE", "coord": {"lon": 7.38333, "lat": 50.083302}}, {"id": 2942837, "name": "Buch", "country": "DE", "coord": {"lon": 7.38333, "lat": 50.083328}}, {"id": 2942858, "name": "Buch", "country": "DE", "coord": {"lon": 12.16667, "lat": 48.650002}}, {"id": 2942866, "name": "Buch", "country": "DE", "coord": {"lon": 10.18055, "lat": 48.224789}}, {"id": 2942811, "name": "Buch am Ahorn", "country": "DE", "coord": {"lon": 9.55, "lat": 49.533329}}, {"id": 2942810, "name": "Buch am Buchrain", "country": "DE", "coord": {"lon": 12, "lat": 48.216671}}, {"id": 3206652, "name": "Buch am Erlbach", "country": "DE", "coord": {"lon": 12.05, "lat": 48.450001}}, {"id": 2942806, "name": "Buch am Wald", "country": "DE", "coord": {"lon": 10.33333, "lat": 49.333328}}, {"id": 7872624, "name": "Buch bei Jenbach", "country": "AT", "coord": {"lon": 11.78126, "lat": 47.37553}}, {"id": 2781269, "name": "Buch bei Jenbach", "country": "AT", "coord": {"lon": 11.75, "lat": 47.366669}}, {"id": 711349, "name": "Bucha", "country": "UA", "coord": {"lon": 30.366671, "lat": 50.583328}}, {"id": 2942821, "name": "Bucha", "country": "DE", "coord": {"lon": 11.4923, "lat": 50.632858}}, {"id": 711350, "name": "Bucha", "country": "UA", "coord": {"lon": 30.212009, "lat": 50.543449}}, {"id": 6550350, "name": "Bucha", "country": "DE", "coord": {"lon": 11.5167, "lat": 50.883301}}, {"id": 2942819, "name": "Bucha", "country": "DE", "coord": {"lon": 11.51667, "lat": 50.883331}}, {"id": 6550431, "name": "Bucha", "country": "DE", "coord": {"lon": 11.7, "lat": 50.633301}}, {"id": 2942820, "name": "Bucha", "country": "DE", "coord": {"lon": 11.7, "lat": 50.633331}}, {"id": 711348, "name": "Buchach", "country": "UA", "coord": {"lon": 25.38798, "lat": 49.062538}}, {"id": 8003027, "name": "Buchakhani", "country": "NP", "coord": {"lon": 84.000778, "lat": 28.00042}}, {"id": 2173677, "name": "Buchan", "country": "AU", "coord": {"lon": 148.183334, "lat": -37.5}}, {"id": 2173666, "name": "Buchan South", "country": "AU", "coord": {"lon": 148.116669, "lat": -37.566669}}, {"id": 2278158, "name": "Buchanan", "country": "LR", "coord": {"lon": -10.04667, "lat": 5.88083}}, {"id": 5910456, "name": "Buchanan", "country": "CA", "coord": {"lon": -102.750961, "lat": 51.699982}}, {"id": 4184962, "name": "Buchanan", "country": "US", "coord": {"lon": -85.18856, "lat": 33.802601}}, {"id": 4749523, "name": "Buchanan", "country": "US", "coord": {"lon": -79.679764, "lat": 37.527359}}, {"id": 4987238, "name": "Buchanan", "country": "US", "coord": {"lon": -86.361122, "lat": 41.827271}}, {"id": 5110506, "name": "Buchanan", "country": "US", "coord": {"lon": -73.938187, "lat": 41.262039}}, {"id": 4378897, "name": "Buchanan County", "country": "US", "coord": {"lon": -94.766907, "lat": 39.650002}}, {"id": 4677042, "name": "Buchanan Dam", "country": "US", "coord": {"lon": -98.431137, "lat": 30.739901}}, {"id": 5910505, "name": "Buchans", "country": "CA", "coord": {"lon": -56.8647, "lat": 48.816738}}, {"id": 3863821, "name": "Buchardo", "country": "AR", "coord": {"lon": -63.509201, "lat": -34.72263}}, {"id": 683506, "name": "Bucharest", "country": "RO", "coord": {"lon": 26.10626, "lat": 44.432251}}, {"id": 7872989, "name": "Buchbach", "country": "AT", "coord": {"lon": 15.97948, "lat": 47.694118}}, {"id": 2781273, "name": "Buchbach", "country": "AT", "coord": {"lon": 15.98425, "lat": 47.69648}}, {"id": 2942795, "name": "Buchbach", "country": "DE", "coord": {"lon": 12.28333, "lat": 48.316669}}, {"id": 2781250, "name": "Buchberg bei Ilz", "country": "AT", "coord": {"lon": 15.93333, "lat": 47.099998}}, {"id": 6557010, "name": "Buchbrunn", "country": "DE", "coord": {"lon": 10.1369, "lat": 49.75}}, {"id": 2942706, "name": "Buchbrunn", "country": "DE", "coord": {"lon": 10.13333, "lat": 49.76667}}, {"id": 6557273, "name": "Buchdorf", "country": "DE", "coord": {"lon": 10.8333, "lat": 48.783298}}, {"id": 2942702, "name": "Buchdorf", "country": "DE", "coord": {"lon": 10.83333, "lat": 48.783329}}, {"id": 2942688, "name": "Buchel", "country": "DE", "coord": {"lon": 7.08333, "lat": 50.166672}}, {"id": 2942680, "name": "Buchel", "country": "DE", "coord": {"lon": 11.15, "lat": 51.25}}, {"id": 3029684, "name": "Buchelay", "country": "FR", "coord": {"lon": 1.67026, "lat": 48.979259}}, {"id": 2942634, "name": "Buchen", "country": "DE", "coord": {"lon": 9.32306, "lat": 49.523891}}, {"id": 2942627, "name": "Buchen", "country": "DE", "coord": {"lon": 10.6176, "lat": 53.48008}}, {"id": 6555736, "name": "Buchenbach", "country": "DE", "coord": {"lon": 8.01667, "lat": 47.966702}}, {"id": 2942614, "name": "Buchenbach", "country": "DE", "coord": {"lon": 8.01667, "lat": 47.966671}}, {"id": 2942612, "name": "Buchenbach", "country": "DE", "coord": {"lon": 11.05889, "lat": 49.26778}}, {"id": 2942566, "name": "Buchenberg", "country": "DE", "coord": {"lon": 10.23333, "lat": 47.700001}}, {"id": 2942559, "name": "Buchenbeuren", "country": "DE", "coord": {"lon": 7.26667, "lat": 49.916672}}, {"id": 2942550, "name": "Buchenb\u00fchl", "country": "DE", "coord": {"lon": 11.11027, "lat": 49.50359}}, {"id": 2942548, "name": "Buchendorf", "country": "DE", "coord": {"lon": 11.40252, "lat": 48.057892}}, {"id": 2942541, "name": "Buchenhain", "country": "DE", "coord": {"lon": 13.55, "lat": 53.316669}}, {"id": 2942536, "name": "Buchenhof", "country": "DE", "coord": {"lon": 8.73877, "lat": 51.679901}}, {"id": 1838716, "name": "Bucheon", "country": "KR", "coord": {"lon": 126.783058, "lat": 37.49889}}, {"id": 3029682, "name": "Bucheres", "country": "FR", "coord": {"lon": 4.1131, "lat": 48.235081}}, {"id": 6554526, "name": "Buchet", "country": "DE", "coord": {"lon": 6.31667, "lat": 50.233299}}, {"id": 2942481, "name": "Buchet", "country": "DE", "coord": {"lon": 6.31667, "lat": 50.23333}}, {"id": 6550231, "name": "Buchfart", "country": "DE", "coord": {"lon": 11.33287, "lat": 50.920891}}, {"id": 2942476, "name": "Buchfart", "country": "DE", "coord": {"lon": 11.33248, "lat": 50.921028}}, {"id": 2942473, "name": "Buchfeld", "country": "DE", "coord": {"lon": 10.7, "lat": 49.73333}}, {"id": 6555834, "name": "Buchheim", "country": "DE", "coord": {"lon": 8.98333, "lat": 48.016701}}, {"id": 2942451, "name": "Buchheim", "country": "DE", "coord": {"lon": 8.98596, "lat": 48.010368}}, {"id": 2942428, "name": "Buchhof", "country": "DE", "coord": {"lon": 10.56667, "lat": 48.166672}}, {"id": 6556456, "name": "Buchhofen", "country": "DE", "coord": {"lon": 12.9167, "lat": 48.700001}}, {"id": 2942420, "name": "Buchhofen", "country": "DE", "coord": {"lon": 12.91667, "lat": 48.700001}}, {"id": 7285368, "name": "Buchholterberg", "country": "CH", "coord": {"lon": 7.69021, "lat": 46.819569}}, {"id": 2661352, "name": "Buchholterberg", "country": "CH", "coord": {"lon": 7.67463, "lat": 46.813511}}, {"id": 2942341, "name": "Buchholz", "country": "DE", "coord": {"lon": 13.43019, "lat": 52.602421}}, {"id": 6551305, "name": "Buchholz", "country": "DE", "coord": {"lon": 9.23333, "lat": 54}}, {"id": 2942345, "name": "Buchholz", "country": "DE", "coord": {"lon": 9.22362, "lat": 53.988289}}, {"id": 6551419, "name": "Buchholz", "country": "DE", "coord": {"lon": 10.75, "lat": 53.733299}}, {"id": 2942349, "name": "Buchholz", "country": "DE", "coord": {"lon": 10.75, "lat": 53.73333}}, {"id": 6548046, "name": "Buchholz", "country": "DE", "coord": {"lon": 12.65, "lat": 53.266701}}, {"id": 2942353, "name": "Buchholz", "country": "DE", "coord": {"lon": 12.64406, "lat": 53.274349}}, {"id": 2942358, "name": "Buchholz", "country": "DE", "coord": {"lon": 9.56667, "lat": 53}}, {"id": 6552543, "name": "Buchholz", "country": "DE", "coord": {"lon": 9.12375, "lat": 52.226101}}, {"id": 2942367, "name": "Buchholz", "country": "DE", "coord": {"lon": 9.11667, "lat": 52.23333}}, {"id": 6549835, "name": "Buchholz", "country": "DE", "coord": {"lon": 10.8667, "lat": 51.533298}}, {"id": 2942372, "name": "Buchholz", "country": "DE", "coord": {"lon": 10.86667, "lat": 51.533329}}, {"id": 2942323, "name": "Buchholz in der Nordheide", "country": "DE", "coord": {"lon": 9.86667, "lat": 53.333328}}, {"id": 6551420, "name": "Buchhorst", "country": "DE", "coord": {"lon": 10.56533, "lat": 53.38599}}, {"id": 2942305, "name": "Buchhorst", "country": "DE", "coord": {"lon": 10.5655, "lat": 53.38596}}, {"id": 683588, "name": "Buchin", "country": "RO", "coord": {"lon": 22.25, "lat": 45.366669}}, {"id": 7873274, "name": "Buchkirchen", "country": "AT", "coord": {"lon": 14.04211, "lat": 48.223309}}, {"id": 2781224, "name": "Buchkirchen", "country": "AT", "coord": {"lon": 14.02242, "lat": 48.22427}}, {"id": 2942290, "name": "Buchlberg", "country": "DE", "coord": {"lon": 13.5, "lat": 48.666672}}, {"id": 2942281, "name": "Buchloe", "country": "DE", "coord": {"lon": 10.73333, "lat": 48.033329}}, {"id": 3078513, "name": "Buchlovice", "country": "CZ", "coord": {"lon": 17.33852, "lat": 49.086269}}, {"id": 2661350, "name": "Buchrain", "country": "CH", "coord": {"lon": 8.34621, "lat": 47.086021}}, {"id": 7285370, "name": "Buchrain", "country": "CH", "coord": {"lon": 8.34792, "lat": 47.101749}}, {"id": 2942257, "name": "Buchrasen", "country": "DE", "coord": {"lon": 9.8, "lat": 50.283329}}, {"id": 2661349, "name": "Buchs", "country": "CH", "coord": {"lon": 9.47794, "lat": 47.167431}}, {"id": 2661348, "name": "Buchs", "country": "CH", "coord": {"lon": 8.07375, "lat": 47.38789}}, {"id": 7285371, "name": "Buchs (AG)", "country": "CH", "coord": {"lon": 8.08793, "lat": 47.393749}}, {"id": 7285374, "name": "Buchs (SG)", "country": "CH", "coord": {"lon": 9.46275, "lat": 47.16597}}, {"id": 2942187, "name": "Buchwald", "country": "DE", "coord": {"lon": 14.01667, "lat": 51.51667}}, {"id": 2942189, "name": "Buchwald", "country": "DE", "coord": {"lon": 12.28333, "lat": 50.583328}}, {"id": 3029677, "name": "Buchy", "country": "FR", "coord": {"lon": 1.35852, "lat": 49.585129}}, {"id": 6357396, "name": "Buciegas", "country": "ES", "coord": {"lon": -2.46815, "lat": 40.339291}}, {"id": 3127568, "name": "Buciegas", "country": "ES", "coord": {"lon": -2.4625, "lat": 40.33622}}, {"id": 792197, "name": "Bucin", "country": "MK", "coord": {"lon": 21.316669, "lat": 41.274719}}, {"id": 3181456, "name": "Bucine", "country": "IT", "coord": {"lon": 11.61484, "lat": 43.47644}}, {"id": 683582, "name": "Bucinisu", "country": "RO", "coord": {"lon": 24.25, "lat": 43.950001}}, {"id": 683577, "name": "Bucium", "country": "RO", "coord": {"lon": 23.216669, "lat": 46.23333}}, {"id": 683553, "name": "Bucium-Orlea", "country": "RO", "coord": {"lon": 22.966669, "lat": 45.583328}}, {"id": 683565, "name": "Buciumeni", "country": "RO", "coord": {"lon": 27.299999, "lat": 46}}, {"id": 683566, "name": "Buciumeni", "country": "RO", "coord": {"lon": 25.450001, "lat": 45.150002}}, {"id": 683559, "name": "Buciumi", "country": "RO", "coord": {"lon": 23.066669, "lat": 47.033329}}, {"id": 6294899, "name": "Buck", "country": "CH", "coord": {"lon": 8.68523, "lat": 47.547321}}, {"id": 2173661, "name": "Buckajo", "country": "AU", "coord": {"lon": 149.716675, "lat": -36.716671}}, {"id": 2654419, "name": "Buckden", "country": "GB", "coord": {"lon": -0.24912, "lat": 52.294151}}, {"id": 2942159, "name": "Buckeburg", "country": "DE", "coord": {"lon": 9.04939, "lat": 52.260651}}, {"id": 2942154, "name": "Bucken", "country": "DE", "coord": {"lon": 9.13333, "lat": 52.783329}}, {"id": 6556864, "name": "Buckenhof", "country": "DE", "coord": {"lon": 11.04959, "lat": 49.5933}}, {"id": 2942147, "name": "Buckenhof", "country": "DE", "coord": {"lon": 11.05044, "lat": 49.593239}}, {"id": 5287262, "name": "Buckeye", "country": "US", "coord": {"lon": -112.583778, "lat": 33.370319}}, {"id": 4507378, "name": "Buckeye Lake", "country": "US", "coord": {"lon": -82.472382, "lat": 39.933681}}, {"id": 4349755, "name": "Buckeystown", "country": "US", "coord": {"lon": -77.431648, "lat": 39.33482}}, {"id": 2654416, "name": "Buckfastleigh", "country": "GB", "coord": {"lon": -3.77913, "lat": 50.481319}}, {"id": 4959521, "name": "Buckfield", "country": "US", "coord": {"lon": -70.365341, "lat": 44.289509}}, {"id": 4749627, "name": "Buckhall", "country": "US", "coord": {"lon": -77.431099, "lat": 38.731781}}, {"id": 4800587, "name": "Buckhannon", "country": "US", "coord": {"lon": -80.232033, "lat": 38.993992}}, {"id": 2654415, "name": "Buckhaven", "country": "GB", "coord": {"lon": -3.03377, "lat": 56.17149}}, {"id": 4149226, "name": "Buckhead Ridge", "country": "US", "coord": {"lon": -80.893669, "lat": 27.130329}}, {"id": 5819841, "name": "Buckhorn", "country": "US", "coord": {"lon": -104.095772, "lat": 44.149429}}, {"id": 5910564, "name": "Buckhorn", "country": "CA", "coord": {"lon": -78.349541, "lat": 44.550121}}, {"id": 2654412, "name": "Buckhurst Hill", "country": "GB", "coord": {"lon": 0.03262, "lat": 51.624088}}, {"id": 2654411, "name": "Buckie", "country": "GB", "coord": {"lon": -2.96238, "lat": 57.675701}}, {"id": 2654410, "name": "Buckingham", "country": "GB", "coord": {"lon": -0.98779, "lat": 51.99968}}, {"id": 6942645, "name": "Buckingham", "country": "CA", "coord": {"lon": -75.420799, "lat": 45.585629}}, {"id": 2075591, "name": "Buckingham", "country": "AU", "coord": {"lon": 116.333328, "lat": -33.400002}}, {"id": 4149241, "name": "Buckingham", "country": "US", "coord": {"lon": -81.732033, "lat": 26.67507}}, {"id": 4749652, "name": "Buckingham", "country": "US", "coord": {"lon": -78.555557, "lat": 37.550152}}, {"id": 2654408, "name": "Buckinghamshire", "country": "GB", "coord": {"lon": -0.75, "lat": 51.75}}, {"id": 2173642, "name": "Buckland", "country": "AU", "coord": {"lon": 146.850006, "lat": -36.883331}}, {"id": 2173641, "name": "Buckland", "country": "AU", "coord": {"lon": 147.716675, "lat": -42.599998}}, {"id": 5858176, "name": "Buckland", "country": "US", "coord": {"lon": -161.123062, "lat": 65.979721}}, {"id": 4931627, "name": "Buckland", "country": "US", "coord": {"lon": -72.791763, "lat": 42.592312}}, {"id": 7294182, "name": "Bucklebury", "country": "GB", "coord": {"lon": -1.20724, "lat": 51.432449}}, {"id": 2654397, "name": "Bucklebury", "country": "GB", "coord": {"lon": -1.20704, "lat": 51.433949}}, {"id": 2173631, "name": "Buckley", "country": "AU", "coord": {"lon": 144.100006, "lat": -38.23333}}, {"id": 7294087, "name": "Buckley", "country": "GB", "coord": {"lon": -3.07521, "lat": 53.172192}}, {"id": 2654394, "name": "Buckley", "country": "GB", "coord": {"lon": -3.08333, "lat": 53.166672}}, {"id": 5788409, "name": "Buckley", "country": "US", "coord": {"lon": -122.026779, "lat": 47.163158}}, {"id": 2654389, "name": "Bucknell", "country": "GB", "coord": {"lon": -2.95, "lat": 52.366669}}, {"id": 4286037, "name": "Buckner", "country": "US", "coord": {"lon": -85.439957, "lat": 38.383678}}, {"id": 4378990, "name": "Buckner", "country": "US", "coord": {"lon": -94.198563, "lat": 39.132511}}, {"id": 2942129, "name": "Buckow", "country": "DE", "coord": {"lon": 13.9, "lat": 51.76667}}, {"id": 2942126, "name": "Buckow", "country": "DE", "coord": {"lon": 14.08333, "lat": 52.566669}}, {"id": 2173625, "name": "Buckrabanyule", "country": "AU", "coord": {"lon": 143.516663, "lat": -36.25}}, {"id": 4885902, "name": "Bucks", "country": "US", "coord": {"lon": -88.970078, "lat": 40.265041}}, {"id": 5182201, "name": "Bucks County", "country": "US", "coord": {"lon": -75.374901, "lat": 40.500381}}, {"id": 4959551, "name": "Bucksport", "country": "US", "coord": {"lon": -68.795593, "lat": 44.573689}}, {"id": 1723556, "name": "Buclad", "country": "PH", "coord": {"lon": 125.750557, "lat": 7.52778}}, {"id": 1723552, "name": "Bucloc", "country": "PH", "coord": {"lon": 120.858849, "lat": 17.44113}}, {"id": 683550, "name": "Bucosnita", "country": "RO", "coord": {"lon": 22.26667, "lat": 45.299999}}, {"id": 683547, "name": "Bucov", "country": "RO", "coord": {"lon": 26.08333, "lat": 44.966671}}, {"id": 618459, "name": "Bucovat", "country": "MD", "coord": {"lon": 28.45694, "lat": 47.18861}}, {"id": 683543, "name": "Bucovat", "country": "RO", "coord": {"lon": 23.75, "lat": 44.299999}}, {"id": 3078503, "name": "Bucovice", "country": "CZ", "coord": {"lon": 17.001909, "lat": 49.14896}}, {"id": 683535, "name": "Bucovineni", "country": "RO", "coord": {"lon": 26.33333, "lat": 47.849998}}, {"id": 2800825, "name": "Bucquoi", "country": "BE", "coord": {"lon": 3.23333, "lat": 50.666672}}, {"id": 3029673, "name": "Bucquoy", "country": "FR", "coord": {"lon": 2.71036, "lat": 50.139729}}, {"id": 722011, "name": "Bucsa", "country": "HU", "coord": {"lon": 21, "lat": 47.200001}}, {"id": 683528, "name": "Bucsani", "country": "RO", "coord": {"lon": 25.65, "lat": 44.866669}}, {"id": 683530, "name": "Bucsani", "country": "RO", "coord": {"lon": 25.655279, "lat": 44.37611}}, {"id": 3532089, "name": "Buctzotz", "country": "MX", "coord": {"lon": -88.783333, "lat": 21.200001}}, {"id": 683517, "name": "Bucu", "country": "RO", "coord": {"lon": 27.49337, "lat": 44.60532}}, {"id": 7036729, "name": "Bucu Kidul", "country": "ID", "coord": {"lon": 112.478897, "lat": -7.0764}}, {"id": 7036728, "name": "Bucu Lor", "country": "ID", "coord": {"lon": 112.479897, "lat": -7.0728}}, {"id": 683508, "name": "Bucuresci", "country": "RO", "coord": {"lon": 22.9, "lat": 46.133331}}, {"id": 683503, "name": "Bucure\u015ftii Noi", "country": "RO", "coord": {"lon": 26.03459, "lat": 44.491299}}, {"id": 3029670, "name": "Bucy-le-Long", "country": "FR", "coord": {"lon": 3.39582, "lat": 49.39072}}, {"id": 5148635, "name": "Bucyrus", "country": "US", "coord": {"lon": -82.975456, "lat": 40.808392}}, {"id": 3102261, "name": "Buczek", "country": "PL", "coord": {"lon": 19.16419, "lat": 51.502281}}, {"id": 3102252, "name": "Buczkowice", "country": "PL", "coord": {"lon": 19.06908, "lat": 49.72858}}, {"id": 4255151, "name": "Bud", "country": "US", "coord": {"lon": -86.175819, "lat": 39.446991}}, {"id": 5064823, "name": "Buda", "country": "US", "coord": {"lon": -98.993973, "lat": 40.71418}}, {"id": 683496, "name": "Buda", "country": "RO", "coord": {"lon": 26.9, "lat": 45.5}}, {"id": 4050880, "name": "Buda", "country": "US", "coord": {"lon": -97.840279, "lat": 30.085211}}, {"id": 629564, "name": "Buda-Kashalyova", "country": "BY", "coord": {"lon": 30.570101, "lat": 52.717899}}, {"id": 683469, "name": "Budacu de Jos", "country": "RO", "coord": {"lon": 24.51667, "lat": 47.083328}}, {"id": 234658, "name": "Budaka", "country": "UG", "coord": {"lon": 33.92556, "lat": 1.00389}}, {"id": 3054651, "name": "Budakalasz", "country": "HU", "coord": {"lon": 19.049999, "lat": 47.616669}}, {"id": 3054648, "name": "Budakeszi", "country": "HU", "coord": {"lon": 18.92717, "lat": 47.51083}}, {"id": 792185, "name": "Budakovo", "country": "XK", "coord": {"lon": 20.924999, "lat": 42.355}}, {"id": 3203139, "name": "Budanovci", "country": "RS", "coord": {"lon": 19.862221, "lat": 44.892502}}, {"id": 571335, "name": "Budanovka", "country": "RU", "coord": {"lon": 36.377499, "lat": 51.950001}}, {"id": 3054646, "name": "Budaors", "country": "HU", "coord": {"lon": 18.95845, "lat": 47.461811}}, {"id": 3054643, "name": "Budapest", "country": "HU", "coord": {"lon": 19.039909, "lat": 47.498009}}, {"id": 7284844, "name": "Budapest I. keruelet", "country": "HU", "coord": {"lon": 19.03961, "lat": 47.497051}}, {"id": 7284843, "name": "Budapest II. keruelet", "country": "HU", "coord": {"lon": 19.031839, "lat": 47.512909}}, {"id": 7284842, "name": "Budapest III. keruelet", "country": "HU", "coord": {"lon": 19.04501, "lat": 47.541569}}, {"id": 7284831, "name": "Budapest IV. keruelet", "country": "HU", "coord": {"lon": 19.08909, "lat": 47.561821}}, {"id": 7284825, "name": "Budapest IX. keruelet", "country": "HU", "coord": {"lon": 19.06591, "lat": 47.48299}}, {"id": 7284828, "name": "Budapest VI. keruelet", "country": "HU", "coord": {"lon": 19.06583, "lat": 47.503689}}, {"id": 7284827, "name": "Budapest VII. keruelet", "country": "HU", "coord": {"lon": 19.06875, "lat": 47.50045}}, {"id": 7284826, "name": "Budapest VIII. keruelet", "country": "HU", "coord": {"lon": 19.07012, "lat": 47.489189}}, {"id": 7284834, "name": "Budapest X. keruelet", "country": "HU", "coord": {"lon": 19.15835, "lat": 47.479099}}, {"id": 7284824, "name": "Budapest XI. keruelet", "country": "HU", "coord": {"lon": 19.036051, "lat": 47.476028}}, {"id": 7284823, "name": "Budapest XII. keruelet", "country": "HU", "coord": {"lon": 19.014931, "lat": 47.49192}}, {"id": 7284830, "name": "Budapest XIII. keruelet", "country": "HU", "coord": {"lon": 19.080681, "lat": 47.529781}}, {"id": 7284829, "name": "Budapest XIV. keruelet", "country": "HU", "coord": {"lon": 19.107889, "lat": 47.518299}}, {"id": 7284835, "name": "Budapest XIX. keruelet", "country": "HU", "coord": {"lon": 19.149429, "lat": 47.45293}}, {"id": 7284832, "name": "Budapest XV. keruelet", "country": "HU", "coord": {"lon": 19.11681, "lat": 47.56263}}, {"id": 7284833, "name": "Budapest XVI. keruelet", "country": "HU", "coord": {"lon": 19.17028, "lat": 47.51482}}, {"id": 7284841, "name": "Budapest XVII. keruelet", "country": "HU", "coord": {"lon": 19.25388, "lat": 47.479969}}, {"id": 7284836, "name": "Budapest XVIII. keruelet", "country": "HU", "coord": {"lon": 19.175949, "lat": 47.444172}}, {"id": 7284840, "name": "Budapest XX. keruelet", "country": "HU", "coord": {"lon": 19.100929, "lat": 47.436741}}, {"id": 7284839, "name": "Budapest XXI. keruelet", "country": "HU", "coord": {"lon": 19.07098, "lat": 47.43047}}, {"id": 7284838, "name": "Budapest XXII. keruelet", "country": "HU", "coord": {"lon": 19.040159, "lat": 47.426979}}, {"id": 7284837, "name": "Budapest XXIII. keruelet", "country": "HU", "coord": {"lon": 19.11492, "lat": 47.397881}}, {"id": 3054638, "name": "Budapest f\u0151v\u00e1ros", "country": "HU", "coord": {"lon": 19.08333, "lat": 47.5}}, {"id": 3203138, "name": "Budasevo", "country": "HR", "coord": {"lon": 16.43667, "lat": 45.47472}}, {"id": 1275163, "name": "Budaun", "country": "IN", "coord": {"lon": 79.116669, "lat": 28.049999}}, {"id": 2038258, "name": "Budayuan", "country": "CN", "coord": {"lon": 125.333298, "lat": 40.93396}}, {"id": 2942109, "name": "Budberg", "country": "DE", "coord": {"lon": 6.63333, "lat": 51.533329}}, {"id": 5096057, "name": "Budd Lake", "country": "US", "coord": {"lon": -74.734047, "lat": 40.871208}}, {"id": 6548249, "name": "Buddenhagen", "country": "DE", "coord": {"lon": 13.7, "lat": 54}}, {"id": 2942095, "name": "Buddenhagen", "country": "DE", "coord": {"lon": 13.7, "lat": 54}}, {"id": 2623267, "name": "Buddinge", "country": "DK", "coord": {"lon": 12.48899, "lat": 55.75769}}, {"id": 1330650, "name": "Budduke", "country": "PK", "coord": {"lon": 74.181107, "lat": 31.32583}}, {"id": 3181451, "name": "Budduso", "country": "IT", "coord": {"lon": 9.25813, "lat": 40.57806}}, {"id": 2654380, "name": "Bude", "country": "GB", "coord": {"lon": -4.5413, "lat": 50.824348}}, {"id": 4419845, "name": "Bude", "country": "US", "coord": {"lon": -90.850098, "lat": 31.46295}}, {"id": 683455, "name": "Budeasa Mica", "country": "RO", "coord": {"lon": 24.85, "lat": 44.950001}}, {"id": 2942093, "name": "Budelsdorf", "country": "DE", "coord": {"lon": 9.68333, "lat": 54.316669}}, {"id": 6553883, "name": "Budenbach", "country": "DE", "coord": {"lon": 7.56667, "lat": 50.033298}}, {"id": 2942089, "name": "Budenbach", "country": "DE", "coord": {"lon": 7.56667, "lat": 50.033329}}, {"id": 6555261, "name": "Budenheim", "country": "DE", "coord": {"lon": 8.16815, "lat": 50.018002}}, {"id": 2942087, "name": "Budenheim", "country": "DE", "coord": {"lon": 8.16667, "lat": 50.01667}}, {"id": 571306, "name": "Budennovsk", "country": "RU", "coord": {"lon": 44.165829, "lat": 44.78389}}, {"id": 8012036, "name": "Budens", "country": "PT", "coord": {"lon": -8.8195, "lat": 37.105358}}, {"id": 2270648, "name": "Budens", "country": "PT", "coord": {"lon": -8.83101, "lat": 37.086899}}, {"id": 2173605, "name": "Buderim", "country": "AU", "coord": {"lon": 153.050003, "lat": -26.683331}}, {"id": 2942078, "name": "Budesheim", "country": "DE", "coord": {"lon": 6.55, "lat": 50.216671}}, {"id": 683434, "name": "Budesti", "country": "RO", "coord": {"lon": 23.950001, "lat": 47.73333}}, {"id": 683437, "name": "Budesti", "country": "RO", "coord": {"lon": 24.25, "lat": 46.883331}}, {"id": 683445, "name": "Budesti", "country": "RO", "coord": {"lon": 24.383329, "lat": 45.049999}}, {"id": 683447, "name": "Budesti", "country": "RO", "coord": {"lon": 26.46583, "lat": 44.234718}}, {"id": 2173598, "name": "Budgeree", "country": "AU", "coord": {"lon": 146.333328, "lat": -38.416672}}, {"id": 2173592, "name": "Budgewoi", "country": "AU", "coord": {"lon": 151.566666, "lat": -33.23333}}, {"id": 1275152, "name": "Budhana", "country": "IN", "coord": {"lon": 77.466667, "lat": 29.283331}}, {"id": 1275147, "name": "Budhlada", "country": "IN", "coord": {"lon": 75.566673, "lat": 29.933331}}, {"id": 6357851, "name": "Budia", "country": "ES", "coord": {"lon": -2.75475, "lat": 40.676861}}, {"id": 3127563, "name": "Budia", "country": "ES", "coord": {"lon": -2.75846, "lat": 40.627338}}, {"id": 683422, "name": "Budila", "country": "RO", "coord": {"lon": 25.799999, "lat": 45.666672}}, {"id": 629553, "name": "Budilovo", "country": "BY", "coord": {"lon": 27.516666, "lat": 53.883331}}, {"id": 2942073, "name": "Budingen", "country": "DE", "coord": {"lon": 9.11667, "lat": 50.299999}}, {"id": 3078472, "name": "Budisov", "country": "CZ", "coord": {"lon": 16.00383, "lat": 49.271381}}, {"id": 3078469, "name": "Budisov nad Budisovkou", "country": "CZ", "coord": {"lon": 17.62969, "lat": 49.795109}}, {"id": 2654376, "name": "Budleigh Salterton", "country": "GB", "coord": {"lon": -3.32181, "lat": 50.629829}}, {"id": 2942069, "name": "Budlich", "country": "DE", "coord": {"lon": 6.9, "lat": 49.783329}}, {"id": 7294373, "name": "Budock", "country": "GB", "coord": {"lon": -5.11785, "lat": 50.144051}}, {"id": 2654375, "name": "Budock Water", "country": "GB", "coord": {"lon": -5.10351, "lat": 50.145329}}, {"id": 571252, "name": "Budogoshch", "country": "RU", "coord": {"lon": 32.470741, "lat": 59.281582}}, {"id": 3181446, "name": "Budoia", "country": "IT", "coord": {"lon": 12.53222, "lat": 46.047218}}, {"id": 6535673, "name": "Budoni", "country": "IT", "coord": {"lon": 9.70774, "lat": 40.702572}}, {"id": 6448427, "name": "Budos", "country": "FR", "coord": {"lon": -0.38333, "lat": 44.533329}}, {"id": 3029661, "name": "Budos", "country": "FR", "coord": {"lon": -0.3869, "lat": 44.533691}}, {"id": 6539713, "name": "Budrio", "country": "IT", "coord": {"lon": 11.53362, "lat": 44.537071}}, {"id": 3181443, "name": "Budrio", "country": "IT", "coord": {"lon": 11.53362, "lat": 44.537071}}, {"id": 284228, "name": "Budrus", "country": "PS", "coord": {"lon": 34.994251, "lat": 31.966869}}, {"id": 1723510, "name": "Budta", "country": "PH", "coord": {"lon": 124.43972, "lat": 7.20417}}, {"id": 234637, "name": "Bududa", "country": "UG", "coord": {"lon": 34.33112, "lat": 1.01118}}, {"id": 1647936, "name": "Buduran", "country": "ID", "coord": {"lon": 112.723396, "lat": -7.4281}}, {"id": 683405, "name": "Budureasa", "country": "RO", "coord": {"lon": 22.5, "lat": 46.666672}}, {"id": 683398, "name": "Buduslau", "country": "RO", "coord": {"lon": 22.26667, "lat": 47.400002}}, {"id": 3203106, "name": "Budva", "country": "ME", "coord": {"lon": 18.84, "lat": 42.286388}}, {"id": 711268, "name": "Budy", "country": "UA", "coord": {"lon": 36.02243, "lat": 49.893372}}, {"id": 3078458, "name": "Budyne nad Ohri", "country": "CZ", "coord": {"lon": 14.12591, "lat": 50.40427}}, {"id": 3102181, "name": "Budziszewice", "country": "PL", "coord": {"lon": 19.93581, "lat": 51.667389}}, {"id": 3102171, "name": "Budzow", "country": "PL", "coord": {"lon": 16.710381, "lat": 50.593369}}, {"id": 3102172, "name": "Budzow", "country": "PL", "coord": {"lon": 19.672741, "lat": 49.776218}}, {"id": 3102162, "name": "Budzyn", "country": "PL", "coord": {"lon": 16.988119, "lat": 52.889542}}, {"id": 3102163, "name": "Budzy\u0144", "country": "PL", "coord": {"lon": 16.84623, "lat": 52.251991}}, {"id": 571309, "name": "Bud\u00ebnnovka", "country": "RU", "coord": {"lon": 47.000099, "lat": 51.521301}}, {"id": 2233410, "name": "Buea", "country": "CM", "coord": {"lon": 9.241, "lat": 4.1527}}, {"id": 4286054, "name": "Buechel", "country": "US", "coord": {"lon": -85.651901, "lat": 38.195068}}, {"id": 6294709, "name": "Buechmes", "country": "CH", "coord": {"lon": 8.67017, "lat": 47.465881}}, {"id": 1723498, "name": "Bued", "country": "PH", "coord": {"lon": 120, "lat": 16.16667}}, {"id": 1723501, "name": "Bued", "country": "PH", "coord": {"lon": 120.650002, "lat": 15.83333}}, {"id": 3208594, "name": "Bueddenstedt", "country": "DE", "coord": {"lon": 11.01877, "lat": 52.170349}}, {"id": 2941877, "name": "Buehren", "country": "DE", "coord": {"lon": 8.2188, "lat": 52.80629}}, {"id": 3029656, "name": "Bueil", "country": "FR", "coord": {"lon": 0.84224, "lat": 48.36306}}, {"id": 3029655, "name": "Bueil", "country": "FR", "coord": {"lon": 1.44257, "lat": 48.9319}}, {"id": 295380, "name": "Bueina", "country": "IL", "coord": {"lon": 35.364861, "lat": 32.806358}}, {"id": 3054586, "name": "Buekkoesd", "country": "HU", "coord": {"lon": 17.988199, "lat": 46.10751}}, {"id": 6291058, "name": "Buelach / Gstueckt", "country": "CH", "coord": {"lon": 8.54879, "lat": 47.523369}}, {"id": 6291053, "name": "Buelach / Niederflachs", "country": "CH", "coord": {"lon": 8.53267, "lat": 47.514259}}, {"id": 6291061, "name": "Buelach / Seematt", "country": "CH", "coord": {"lon": 8.54651, "lat": 47.517159}}, {"id": 6291056, "name": "Buelach / Soligaenter", "country": "CH", "coord": {"lon": 8.54106, "lat": 47.526321}}, {"id": 3029654, "name": "Buellas", "country": "FR", "coord": {"lon": 5.1322, "lat": 46.211102}}, {"id": 5331568, "name": "Buellton", "country": "US", "coord": {"lon": -120.19265, "lat": 34.613602}}, {"id": 4829237, "name": "Buena", "country": "US", "coord": {"lon": -78.04805, "lat": 38.341518}}, {"id": 3127555, "name": "Buena", "country": "ES", "coord": {"lon": -1.26742, "lat": 40.708809}}, {"id": 4500977, "name": "Buena", "country": "US", "coord": {"lon": -74.924622, "lat": 39.513729}}, {"id": 3863814, "name": "Buena Esperanza", "country": "AR", "coord": {"lon": -65.253799, "lat": -34.75647}}, {"id": 3660073, "name": "Buena Fe", "country": "EC", "coord": {"lon": -79.48333, "lat": -0.9}}, {"id": 5247088, "name": "Buena Park", "country": "US", "coord": {"lon": -88.220917, "lat": 42.792789}}, {"id": 5331575, "name": "Buena Park", "country": "US", "coord": {"lon": -117.998123, "lat": 33.867512}}, {"id": 3713715, "name": "Buena Vista", "country": "PA", "coord": {"lon": -79.695282, "lat": 9.27472}}, {"id": 3511074, "name": "Buena Vista", "country": "DO", "coord": {"lon": -68.958221, "lat": 18.42432}}, {"id": 5772151, "name": "Buena Vista", "country": "US", "coord": {"lon": -111.971878, "lat": 40.758282}}, {"id": 3922965, "name": "Buena Vista", "country": "BO", "coord": {"lon": -63.666672, "lat": -17.450001}}, {"id": 4562972, "name": "Buena Vista", "country": "PR", "coord": {"lon": -66.051826, "lat": 17.996349}}, {"id": 3439325, "name": "Buena Vista", "country": "PY", "coord": {"lon": -56.083328, "lat": -26.183331}}, {"id": 4185076, "name": "Buena Vista", "country": "US", "coord": {"lon": -84.517143, "lat": 32.319038}}, {"id": 4749715, "name": "Buena Vista", "country": "US", "coord": {"lon": -79.35392, "lat": 37.734299}}, {"id": 4987304, "name": "Buena Vista", "country": "US", "coord": {"lon": -83.898582, "lat": 43.4203}}, {"id": 5331587, "name": "Buena Vista", "country": "US", "coord": {"lon": -121.916618, "lat": 37.321331}}, {"id": 5415306, "name": "Buena Vista", "country": "US", "coord": {"lon": -106.131126, "lat": 38.84222}}, {"id": 4849689, "name": "Buena Vista County", "country": "US", "coord": {"lon": -95.150269, "lat": 42.733311}}, {"id": 2520775, "name": "Buenache de Alarcon", "country": "ES", "coord": {"lon": -2.16667, "lat": 39.650002}}, {"id": 6357397, "name": "Buenache de Alarc\u00f3n", "country": "ES", "coord": {"lon": -2.17028, "lat": 39.640308}}, {"id": 6360313, "name": "Buenamadre", "country": "ES", "coord": {"lon": -6.20454, "lat": 40.862068}}, {"id": 3127552, "name": "Buenamadre", "country": "ES", "coord": {"lon": -6.24987, "lat": 40.857052}}, {"id": 3688452, "name": "Buenaventura", "country": "CO", "coord": {"lon": -77, "lat": 3.58333}}, {"id": 4562980, "name": "Buenaventura", "country": "PR", "coord": {"lon": -65.939888, "lat": 18.37467}}, {"id": 4016722, "name": "Buenaventura", "country": "MX", "coord": {"lon": -107.48333, "lat": 29.85}}, {"id": 3688451, "name": "Buenaventura", "country": "CO", "coord": {"lon": -77.031158, "lat": 3.8801}}, {"id": 6361683, "name": "Buenaventura", "country": "ES", "coord": {"lon": -4.87414, "lat": 40.17181}}, {"id": 3127551, "name": "Buenaventura", "country": "ES", "coord": {"lon": -4.85003, "lat": 40.177052}}, {"id": 4149269, "name": "Buenaventura Lakes", "country": "US", "coord": {"lon": -81.353127, "lat": 28.33584}}, {"id": 3803137, "name": "Buenavista", "country": "MX", "coord": {"lon": -92.708328, "lat": 17.6625}}, {"id": 3483989, "name": "Buenavista", "country": "MX", "coord": {"lon": -99.599998, "lat": 22.4}}, {"id": 3566714, "name": "Buenavista", "country": "CU", "coord": {"lon": -82.400002, "lat": 22.98333}}, {"id": 1723481, "name": "Buenavista", "country": "PH", "coord": {"lon": 125.40889, "lat": 8.97694}}, {"id": 3688396, "name": "Buenavista", "country": "CO", "coord": {"lon": -74.313629, "lat": 9.21433}}, {"id": 3688397, "name": "Buenavista", "country": "CO", "coord": {"lon": -76.0028, "lat": 9.04963}}, {"id": 3688433, "name": "Buenavista", "country": "CO", "coord": {"lon": -75.717819, "lat": 4.3539}}, {"id": 6360314, "name": "Buenavista", "country": "ES", "coord": {"lon": -5.62459, "lat": 40.78196}}, {"id": 3127550, "name": "Buenavista", "country": "ES", "coord": {"lon": -5.61139, "lat": 40.767632}}, {"id": 3532053, "name": "Buenavista", "country": "MX", "coord": {"lon": -92.533333, "lat": 17.91667}}, {"id": 1723383, "name": "Buenavista", "country": "PH", "coord": {"lon": 124.116112, "lat": 10.08333}}, {"id": 1723403, "name": "Buenavista", "country": "PH", "coord": {"lon": 123.302002, "lat": 13.867}}, {"id": 1723409, "name": "Buenavista", "country": "PH", "coord": {"lon": 121.94149, "lat": 13.25512}}, {"id": 1723425, "name": "Buenavista", "country": "PH", "coord": {"lon": 123.790558, "lat": 12.17639}}, {"id": 1723454, "name": "Buenavista", "country": "PH", "coord": {"lon": 123.555557, "lat": 10.80167}}, {"id": 1723459, "name": "Buenavista", "country": "PH", "coord": {"lon": 122.627502, "lat": 10.70111}}, {"id": 1723465, "name": "Buenavista", "country": "PH", "coord": {"lon": 123.099403, "lat": 10.61466}}, {"id": 1723467, "name": "Buenavista", "country": "PH", "coord": {"lon": 123.4478, "lat": 10.54406}}, {"id": 1723469, "name": "Buenavista", "country": "PH", "coord": {"lon": 123.601303, "lat": 10.1776}}, {"id": 1723470, "name": "Buenavista", "country": "PH", "coord": {"lon": 123.243896, "lat": 10.1379}}, {"id": 1723477, "name": "Buenavista", "country": "PH", "coord": {"lon": 124.222504, "lat": 9.84056}}, {"id": 1723480, "name": "Buenavista", "country": "PH", "coord": {"lon": 126.160828, "lat": 9.115}}, {"id": 1723484, "name": "Buenavista", "country": "PH", "coord": {"lon": 122.25528, "lat": 7.23611}}, {"id": 4016599, "name": "Buenavista Tomatlan", "country": "MX", "coord": {"lon": -102.599998, "lat": 19.200001}}, {"id": 3531972, "name": "Buenavista de Cuellar", "country": "MX", "coord": {"lon": -99.416672, "lat": 18.450001}}, {"id": 6360007, "name": "Buenavista de Valdavia", "country": "ES", "coord": {"lon": -4.60838, "lat": 42.629639}}, {"id": 3127549, "name": "Buenavista de Valdavia", "country": "ES", "coord": {"lon": -4.61446, "lat": 42.637878}}, {"id": 6360623, "name": "Buenavista del Norte", "country": "ES", "coord": {"lon": -16.872181, "lat": 28.34236}}, {"id": 2520760, "name": "Buenavista del Norte", "country": "ES", "coord": {"lon": -16.860979, "lat": 28.37458}}, {"id": 2941694, "name": "Buende", "country": "DE", "coord": {"lon": 8.58333, "lat": 52.200001}}, {"id": 3127547, "name": "Buendia", "country": "ES", "coord": {"lon": -2.75645, "lat": 40.366428}}, {"id": 6357398, "name": "Buend\u00eda", "country": "ES", "coord": {"lon": -2.77051, "lat": 40.386951}}, {"id": 1885051, "name": "Bueng Bun", "country": "TH", "coord": {"lon": 104.044853, "lat": 15.3303}}, {"id": 7511000, "name": "Bueng Bun", "country": "TH", "coord": {"lon": 104.046059, "lat": 15.33044}}, {"id": 1611475, "name": "Bueng Kan", "country": "TH", "coord": {"lon": 103.651939, "lat": 18.363041}}, {"id": 1611473, "name": "Bueng Khong Long", "country": "TH", "coord": {"lon": 104.046669, "lat": 17.96129}}, {"id": 7511009, "name": "Bueng Khong Long", "country": "TH", "coord": {"lon": 104.044777, "lat": 17.96681}}, {"id": 7026776, "name": "Bueng Kum", "country": "TH", "coord": {"lon": 100.669579, "lat": 13.78528}}, {"id": 1620390, "name": "Bueng Na Rang", "country": "TH", "coord": {"lon": 100.125313, "lat": 16.1712}}, {"id": 7510907, "name": "Bueng Na Rang", "country": "TH", "coord": {"lon": 100.125313, "lat": 16.1712}}, {"id": 1611467, "name": "Bueng Sam Phan", "country": "TH", "coord": {"lon": 101.007156, "lat": 15.78404}}, {"id": 7510930, "name": "Bueng Sam Phan", "country": "TH", "coord": {"lon": 101.00853, "lat": 15.79647}}, {"id": 7510896, "name": "Bueng Samakkhi", "country": "TH", "coord": {"lon": 99.97525, "lat": 16.187281}}, {"id": 1723375, "name": "Buenlag", "country": "PH", "coord": {"lon": 120.51667, "lat": 15.83333}}, {"id": 1723379, "name": "Buenlag", "country": "PH", "coord": {"lon": 120.582703, "lat": 15.6304}}, {"id": 3468869, "name": "Bueno Brandao", "country": "BR", "coord": {"lon": -46.35083, "lat": -22.44083}}, {"id": 3468865, "name": "Buenol\u00e2ndia", "country": "BR", "coord": {"lon": -50.308609, "lat": -15.805}}, {"id": 6559994, "name": "Buenos Aires", "country": "PE", "coord": {"lon": -78.497498, "lat": -9.12417}}, {"id": 3435910, "name": "Buenos Aires", "country": "AR", "coord": {"lon": -58.377232, "lat": -34.613152}}, {"id": 3797895, "name": "Buenos Aires", "country": "VE", "coord": {"lon": -69.747414, "lat": 9.04602}}, {"id": 3688357, "name": "Buenos Aires", "country": "CO", "coord": {"lon": -76.642754, "lat": 3.01503}}, {"id": 3624593, "name": "Buenos Aires", "country": "CR", "coord": {"lon": -83.334167, "lat": 9.17189}}, {"id": 3614583, "name": "Buenos Aires", "country": "HN", "coord": {"lon": -88.966667, "lat": 15.03333}}, {"id": 4016589, "name": "Buenos Aires", "country": "MX", "coord": {"lon": -102.166672, "lat": 19.066669}}, {"id": 3620603, "name": "Buenos Aires", "country": "NI", "coord": {"lon": -85.816612, "lat": 11.46916}}, {"id": 3699223, "name": "Buenos Aires", "country": "PE", "coord": {"lon": -79.964172, "lat": -5.26083}}, {"id": 1723358, "name": "Buensuseso", "country": "PH", "coord": {"lon": 120.672501, "lat": 15.1955}}, {"id": 3468858, "name": "Buerarema", "country": "BR", "coord": {"lon": -39.299721, "lat": -14.95944}}, {"id": 3127543, "name": "Bueras", "country": "ES", "coord": {"lon": -3.47911, "lat": 43.339939}}, {"id": 2098948, "name": "Bueri", "country": "PG", "coord": {"lon": 152.0103, "lat": -2.65968}}, {"id": 2781161, "name": "Buers", "country": "AT", "coord": {"lon": 9.8, "lat": 47.149719}}, {"id": 7580215, "name": "Buerserberg", "country": "AT", "coord": {"lon": 9.77736, "lat": 47.146439}}, {"id": 3688266, "name": "Buesaco", "country": "CO", "coord": {"lon": -77.159821, "lat": 1.39017}}, {"id": 6360208, "name": "Bueu", "country": "ES", "coord": {"lon": -8.88079, "lat": 42.355999}}, {"id": 3127538, "name": "Bueu", "country": "ES", "coord": {"lon": -8.78497, "lat": 42.324581}}, {"id": 6947641, "name": "Bueyuekcekmece", "country": "TR", "coord": {"lon": 28.58502, "lat": 41.020721}}, {"id": 6361470, "name": "Bue\u00f1a", "country": "ES", "coord": {"lon": -1.27097, "lat": 40.716789}}, {"id": 6361940, "name": "Bufali", "country": "ES", "coord": {"lon": -0.50109, "lat": 38.865582}}, {"id": 2520751, "name": "Bufali", "country": "ES", "coord": {"lon": -0.51617, "lat": 38.867748}}, {"id": 4562983, "name": "Bufalo", "country": "PR", "coord": {"lon": -66.573227, "lat": 18.41828}}, {"id": 3491175, "name": "Buff Bay", "country": "JM", "coord": {"lon": -76.661179, "lat": 18.23288}}, {"id": 5819881, "name": "Buffalo", "country": "US", "coord": {"lon": -106.698936, "lat": 44.348309}}, {"id": 4507423, "name": "Buffalo", "country": "US", "coord": {"lon": -81.520119, "lat": 39.915909}}, {"id": 5910808, "name": "Buffalo", "country": "CA", "coord": {"lon": -110.668373, "lat": 50.80011}}, {"id": 5019588, "name": "Buffalo", "country": "US", "coord": {"lon": -93.874687, "lat": 45.171909}}, {"id": 5110629, "name": "Buffalo", "country": "US", "coord": {"lon": -78.878372, "lat": 42.886452}}, {"id": 4379025, "name": "Buffalo", "country": "US", "coord": {"lon": -93.092407, "lat": 37.643929}}, {"id": 4531627, "name": "Buffalo", "country": "US", "coord": {"lon": -99.630402, "lat": 36.83559}}, {"id": 4572677, "name": "Buffalo", "country": "US", "coord": {"lon": -81.683434, "lat": 34.725689}}, {"id": 4677230, "name": "Buffalo", "country": "US", "coord": {"lon": -96.058022, "lat": 31.463791}}, {"id": 4800639, "name": "Buffalo", "country": "US", "coord": {"lon": -81.981796, "lat": 38.617592}}, {"id": 4849709, "name": "Buffalo", "country": "US", "coord": {"lon": -90.723473, "lat": 41.456421}}, {"id": 5763144, "name": "Buffalo", "country": "US", "coord": {"lon": -103.546028, "lat": 45.58416}}, {"id": 4849708, "name": "Buffalo (historical)", "country": "US", "coord": {"lon": -94.003563, "lat": 41.3111}}, {"id": 5247107, "name": "Buffalo City", "country": "US", "coord": {"lon": -91.864319, "lat": 44.230518}}, {"id": 5064837, "name": "Buffalo County", "country": "US", "coord": {"lon": -99.083702, "lat": 40.85001}}, {"id": 4885955, "name": "Buffalo Grove", "country": "US", "coord": {"lon": -87.959793, "lat": 42.151409}}, {"id": 8122718, "name": "Buffalo Hills Mobile Home Park", "country": "US", "coord": {"lon": -99.29335, "lat": 38.855049}}, {"id": 5910853, "name": "Buffalo Narrows", "country": "CA", "coord": {"lon": -108.484749, "lat": 55.85017}}, {"id": 2173579, "name": "Buffalo River", "country": "AU", "coord": {"lon": 146.683334, "lat": -36.633331}}, {"id": 6550065, "name": "Bufleben", "country": "DE", "coord": {"lon": 10.7333, "lat": 51}}, {"id": 2942048, "name": "Bufleben", "country": "DE", "coord": {"lon": 10.73333, "lat": 51}}, {"id": 4185110, "name": "Buford", "country": "US", "coord": {"lon": -84.004349, "lat": 34.120659}}, {"id": 683394, "name": "Buftea", "country": "RO", "coord": {"lon": 25.948891, "lat": 44.56139}}, {"id": 3688256, "name": "Buga", "country": "CO", "coord": {"lon": -76.297829, "lat": 3.90089}}, {"id": 1516198, "name": "Buga", "country": "MN", "coord": {"lon": 90.183327, "lat": 49.01667}}, {"id": 1516199, "name": "Buga", "country": "MN", "coord": {"lon": 95.000504, "lat": 47.650131}}, {"id": 2346632, "name": "Buga", "country": "NG", "coord": {"lon": 7.34139, "lat": 8.49056}}, {"id": 1723349, "name": "Buga", "country": "PH", "coord": {"lon": 123.359596, "lat": 13.2966}}, {"id": 1723351, "name": "Buga", "country": "PH", "coord": {"lon": 122.26667, "lat": 10.71667}}, {"id": 1723347, "name": "Bugaan", "country": "PH", "coord": {"lon": 120.936089, "lat": 14.03987}}, {"id": 3713667, "name": "Bugaba", "country": "PA", "coord": {"lon": -82.616669, "lat": 8.48333}}, {"id": 3054612, "name": "Bugac", "country": "HU", "coord": {"lon": 19.68074, "lat": 46.687038}}, {"id": 774843, "name": "Bugaj", "country": "PL", "coord": {"lon": 21.06925, "lat": 51.069721}}, {"id": 3688254, "name": "Bugalagrande", "country": "CO", "coord": {"lon": -76.15564, "lat": 4.21207}}, {"id": 2173575, "name": "Bugaldie", "country": "AU", "coord": {"lon": 149.116669, "lat": -31.133329}}, {"id": 8012971, "name": "Bugalhos", "country": "PT", "coord": {"lon": -8.64345, "lat": 39.448189}}, {"id": 3127532, "name": "Bugallido", "country": "ES", "coord": {"lon": -8.61667, "lat": 42.849998}}, {"id": 1723337, "name": "Bugallon", "country": "PH", "coord": {"lon": 120.2155, "lat": 15.9528}}, {"id": 2348298, "name": "Bugana", "country": "NG", "coord": {"lon": 7.58361, "lat": 7.99917}}, {"id": 1723331, "name": "Bugang", "country": "PH", "coord": {"lon": 123.393303, "lat": 10.74185}}, {"id": 2032255, "name": "Bugant", "country": "MN", "coord": {"lon": 106.849998, "lat": 49.583328}}, {"id": 161023, "name": "Bugarama", "country": "TZ", "coord": {"lon": 30.528061, "lat": -2.87056}}, {"id": 6361941, "name": "Bugarra", "country": "ES", "coord": {"lon": -0.77501, "lat": 39.617081}}, {"id": 2520748, "name": "Bugarra", "country": "ES", "coord": {"lon": -0.76667, "lat": 39.616669}}, {"id": 2270637, "name": "Bugarrel", "country": "PT", "coord": {"lon": -8.30568, "lat": 39.619339}}, {"id": 1723321, "name": "Bugas", "country": "PH", "coord": {"lon": 123.404922, "lat": 9.89804}}, {"id": 1723318, "name": "Bugasan", "country": "PH", "coord": {"lon": 124.259171, "lat": 7.44083}}, {"id": 1723313, "name": "Bugasong", "country": "PH", "coord": {"lon": 122.065903, "lat": 11.0439}}, {"id": 1516196, "name": "Bugat", "country": "MN", "coord": {"lon": 93.816673, "lat": 49.533329}}, {"id": 2032252, "name": "Bugat", "country": "MN", "coord": {"lon": 103.665833, "lat": 49.066669}}, {"id": 797062, "name": "Bugaz", "country": "RU", "coord": {"lon": 36.74361, "lat": 45.122501}}, {"id": 2654372, "name": "Bugbrooke", "country": "GB", "coord": {"lon": -1.01304, "lat": 52.21006}}, {"id": 1723294, "name": "Bugcaon", "country": "PH", "coord": {"lon": 125.112778, "lat": 8.04583}}, {"id": 618491, "name": "Bugeac", "country": "MD", "coord": {"lon": 28.66333, "lat": 46.365829}}, {"id": 3029637, "name": "Bugeat", "country": "FR", "coord": {"lon": 1.92887, "lat": 45.597561}}, {"id": 6356375, "name": "Bugedo", "country": "ES", "coord": {"lon": -3.01892, "lat": 42.65554}}, {"id": 3127529, "name": "Bugedo", "country": "ES", "coord": {"lon": -3.01786, "lat": 42.64912}}, {"id": 8025845, "name": "Bugel", "country": "ID", "coord": {"lon": 108.129799, "lat": -7.184}}, {"id": 234578, "name": "Bugembe", "country": "UG", "coord": {"lon": 33.23444, "lat": 0.47972}}, {"id": 161022, "name": "Bugene", "country": "TZ", "coord": {"lon": 31.14028, "lat": -1.59111}}, {"id": 2520745, "name": "Buger", "country": "ES", "coord": {"lon": 2.98349, "lat": 39.758091}}, {"id": 6548250, "name": "Bugewitz", "country": "DE", "coord": {"lon": 13.8333, "lat": 53.799999}}, {"id": 2942024, "name": "Bugewitz", "country": "DE", "coord": {"lon": 13.83333, "lat": 53.799999}}, {"id": 6548251, "name": "Buggenhagen", "country": "DE", "coord": {"lon": 13.8667, "lat": 53.916698}}, {"id": 2942022, "name": "Buggenhagen", "country": "DE", "coord": {"lon": 13.86667, "lat": 53.916672}}, {"id": 2800817, "name": "Buggenhout", "country": "BE", "coord": {"lon": 4.19943, "lat": 51.012691}}, {"id": 2800816, "name": "Buggenhout", "country": "BE", "coord": {"lon": 4.20173, "lat": 51.0159}}, {"id": 2525491, "name": "Buggerru", "country": "IT", "coord": {"lon": 8.4025, "lat": 39.396671}}, {"id": 2942017, "name": "Buggingen", "country": "DE", "coord": {"lon": 7.63799, "lat": 47.8475}}, {"id": 6555737, "name": "Buggingen", "country": "DE", "coord": {"lon": 7.63333, "lat": 47.849998}}, {"id": 683386, "name": "Bughea de Jos", "country": "RO", "coord": {"lon": 25, "lat": 45.26667}}, {"id": 1710246, "name": "Bugho", "country": "PH", "coord": {"lon": 124.936401, "lat": 10.7921}}, {"id": 234565, "name": "Bugiri", "country": "UG", "coord": {"lon": 33.741669, "lat": 0.57139}}, {"id": 443783, "name": "Bugiri District", "country": "UG", "coord": {"lon": 33.790001, "lat": 0.5333}}, {"id": 7558726, "name": "Bugis", "country": "ID", "coord": {"lon": 123.060204, "lat": 0.5333}}, {"id": 7351808, "name": "Bugis", "country": "ID", "coord": {"lon": 116.842003, "lat": -8.7422}}, {"id": 8183640, "name": "Bugis", "country": "ID", "coord": {"lon": 111.444099, "lat": -8.0198}}, {"id": 2942014, "name": "Bugk", "country": "DE", "coord": {"lon": 13.83333, "lat": 52}}, {"id": 1723276, "name": "Bugko", "country": "PH", "coord": {"lon": 124.792297, "lat": 12.5356}}, {"id": 2654371, "name": "Bugle", "country": "GB", "coord": {"lon": -4.79334, "lat": 50.395771}}, {"id": 3181428, "name": "Buglio in Monte", "country": "IT", "coord": {"lon": 9.67484, "lat": 46.18269}}, {"id": 6535644, "name": "Bugnara", "country": "IT", "coord": {"lon": 13.86141, "lat": 42.02383}}, {"id": 6440319, "name": "Bugnein", "country": "FR", "coord": {"lon": -0.78333, "lat": 43.349998}}, {"id": 3029627, "name": "Bugnein", "country": "FR", "coord": {"lon": -0.78281, "lat": 43.35297}}, {"id": 1723257, "name": "Bugo", "country": "PH", "coord": {"lon": 124.759438, "lat": 8.50833}}, {"id": 3203099, "name": "Bugojno", "country": "BA", "coord": {"lon": 17.45083, "lat": 44.05722}}, {"id": 571211, "name": "Bugor", "country": "RU", "coord": {"lon": 46.915558, "lat": 47.56139}}, {"id": 824070, "name": "Bugry", "country": "RU", "coord": {"lon": 30.39225, "lat": 60.071209}}, {"id": 1723243, "name": "Bugsoc", "country": "PH", "coord": {"lon": 124.271202, "lat": 9.7834}}, {"id": 2654370, "name": "Bugthorpe", "country": "GB", "coord": {"lon": -0.8226, "lat": 54.010818}}, {"id": 1275132, "name": "Buguda", "country": "IN", "coord": {"lon": 84.800003, "lat": 19.816669}}, {"id": 1723216, "name": "Buguey", "country": "PH", "coord": {"lon": 121.831146, "lat": 18.28927}}, {"id": 6535094, "name": "Buguggiate", "country": "IT", "coord": {"lon": 8.81063, "lat": 45.78228}}, {"id": 1723211, "name": "Buguias", "country": "PH", "coord": {"lon": 120.828339, "lat": 16.72267}}, {"id": 571170, "name": "Bugulma", "country": "RU", "coord": {"lon": 52.799999, "lat": 54.549999}}, {"id": 571167, "name": "Bugul\u2019minskiy Rayon", "country": "RU", "coord": {"lon": 52.916668, "lat": 54.583332}}, {"id": 2346615, "name": "Buguma", "country": "NG", "coord": {"lon": 6.86345, "lat": 4.73407}}, {"id": 571159, "name": "Buguruslan", "country": "RU", "coord": {"lon": 52.442001, "lat": 53.655399}}, {"id": 3054606, "name": "Bugyi", "country": "HU", "coord": {"lon": 19.146641, "lat": 47.227482}}, {"id": 2045397, "name": "Buhama", "country": "JP", "coord": {"lon": 139.424438, "lat": 42.073059}}, {"id": 1723193, "name": "Buhangin", "country": "PH", "coord": {"lon": 125.547501, "lat": 6.49111}}, {"id": 320374, "name": "Buharkent", "country": "TR", "coord": {"lon": 28.742701, "lat": 37.963959}}, {"id": 1723178, "name": "Buhatan", "country": "PH", "coord": {"lon": 124.051666, "lat": 12.97222}}, {"id": 1816221, "name": "Buhe", "country": "CN", "coord": {"lon": 112.22979, "lat": 30.287571}}, {"id": 1723167, "name": "Buhi", "country": "PH", "coord": {"lon": 123.51667, "lat": 13.43333}}, {"id": 1723166, "name": "Buhi", "country": "PH", "coord": {"lon": 123.516998, "lat": 13.4322}}, {"id": 2941976, "name": "Buhl", "country": "DE", "coord": {"lon": 8.15, "lat": 48.700001}}, {"id": 3029620, "name": "Buhl", "country": "FR", "coord": {"lon": 7.18719, "lat": 47.928059}}, {"id": 5587232, "name": "Buhl", "country": "US", "coord": {"lon": -114.759491, "lat": 42.599072}}, {"id": 6549761, "name": "Buhla", "country": "DE", "coord": {"lon": 10.4333, "lat": 51.4333}}, {"id": 2941965, "name": "Buhla", "country": "DE", "coord": {"lon": 10.43333, "lat": 51.433331}}, {"id": 2941960, "name": "Buhlbach", "country": "DE", "coord": {"lon": 8.26667, "lat": 48.51667}}, {"id": 6553578, "name": "Buhlenberg", "country": "DE", "coord": {"lon": 7.11667, "lat": 49.650002}}, {"id": 2941943, "name": "Buhlenberg", "country": "DE", "coord": {"lon": 7.11667, "lat": 49.650002}}, {"id": 4268807, "name": "Buhler", "country": "US", "coord": {"lon": -97.77005, "lat": 38.134449}}, {"id": 2661343, "name": "Buhler", "country": "CH", "coord": {"lon": 9.42507, "lat": 47.373482}}, {"id": 2941928, "name": "Buhlertal", "country": "DE", "coord": {"lon": 8.18333, "lat": 48.683331}}, {"id": 2941926, "name": "Buhlertann", "country": "DE", "coord": {"lon": 9.90861, "lat": 49.041672}}, {"id": 2941923, "name": "Buhlerzell", "country": "DE", "coord": {"lon": 9.92056, "lat": 49.00333}}, {"id": 2941885, "name": "Buhnsdorf", "country": "DE", "coord": {"lon": 10.38333, "lat": 53.883331}}, {"id": 683367, "name": "Buhoci", "country": "RO", "coord": {"lon": 27.01667, "lat": 46.566669}}, {"id": 2941880, "name": "Buhren", "country": "DE", "coord": {"lon": 9.68333, "lat": 51.48333}}, {"id": 683365, "name": "Buhusi", "country": "RO", "coord": {"lon": 26.700001, "lat": 46.716671}}, {"id": 4458033, "name": "Buies Creek", "country": "US", "coord": {"lon": -78.735573, "lat": 35.413219}}, {"id": 234480, "name": "Buikwe", "country": "UG", "coord": {"lon": 33.010559, "lat": 0.3375}}, {"id": 8030577, "name": "Buikwe District", "country": "UG", "coord": {"lon": 33.051842, "lat": 0.3012}}, {"id": 2654359, "name": "Builth Wells", "country": "GB", "coord": {"lon": -3.40469, "lat": 52.149399}}, {"id": 2173564, "name": "Builyan", "country": "AU", "coord": {"lon": 151.383331, "lat": -24.533331}}, {"id": 3897774, "name": "Buin", "country": "CL", "coord": {"lon": -70.75, "lat": -33.73333}}, {"id": 571154, "name": "Buinsk", "country": "RU", "coord": {"lon": 47.060829, "lat": 55.195}}, {"id": 571155, "name": "Buinsk", "country": "RU", "coord": {"lon": 48.283329, "lat": 54.950001}}, {"id": 3404766, "name": "Buique", "country": "BR", "coord": {"lon": -37.15583, "lat": -8.62306}}, {"id": 2941861, "name": "Buir", "country": "DE", "coord": {"lon": 6.73333, "lat": 50.48333}}, {"id": 3029606, "name": "Buironfosse", "country": "FR", "coord": {"lon": 3.83587, "lat": 49.966579}}, {"id": 3029603, "name": "Buis-les-Baronnies", "country": "FR", "coord": {"lon": 5.2722, "lat": 44.273731}}, {"id": 3029597, "name": "Buisson", "country": "FR", "coord": {"lon": 3.52286, "lat": 45.564442}}, {"id": 3029594, "name": "Buisson-de-Fay", "country": "FR", "coord": {"lon": 0.42171, "lat": 48.650002}}, {"id": 2758131, "name": "Buitenpost", "country": "NL", "coord": {"lon": 6.14483, "lat": 53.251659}}, {"id": 6361099, "name": "Buitrago", "country": "ES", "coord": {"lon": -2.40434, "lat": 41.843369}}, {"id": 3127522, "name": "Buitrago", "country": "ES", "coord": {"lon": -2.40858, "lat": 41.847351}}, {"id": 6359253, "name": "Buitrago del Lozoya", "country": "ES", "coord": {"lon": -3.63538, "lat": 40.99419}}, {"id": 3127521, "name": "Buitrago del Lozoya", "country": "ES", "coord": {"lon": -3.63365, "lat": 40.990898}}, {"id": 2661339, "name": "Buix", "country": "CH", "coord": {"lon": 7.03054, "lat": 47.481098}}, {"id": 721986, "name": "Buj", "country": "HU", "coord": {"lon": 21.65, "lat": 48.099998}}, {"id": 3054600, "name": "Bujak", "country": "HU", "coord": {"lon": 19.54381, "lat": 47.883518}}, {"id": 3102147, "name": "Bujakow", "country": "PL", "coord": {"lon": 19.194321, "lat": 49.851822}}, {"id": 6357207, "name": "Bujalance", "country": "ES", "coord": {"lon": -4.33857, "lat": 37.938011}}, {"id": 2520735, "name": "Bujalance", "country": "ES", "coord": {"lon": -4.38074, "lat": 37.895561}}, {"id": 6357852, "name": "Bujalaro", "country": "ES", "coord": {"lon": -2.87753, "lat": 40.937031}}, {"id": 3127516, "name": "Bujalaro", "country": "ES", "coord": {"lon": -2.88333, "lat": 40.936871}}, {"id": 792173, "name": "Bujanovac", "country": "RS", "coord": {"lon": 21.76667, "lat": 42.459171}}, {"id": 6362752, "name": "Bujaraloz", "country": "ES", "coord": {"lon": -0.14304, "lat": 41.452301}}, {"id": 3127507, "name": "Bujaraloz", "country": "ES", "coord": {"lon": -0.1529, "lat": 41.498058}}, {"id": 3404760, "name": "Bujaru", "country": "BR", "coord": {"lon": -48.04472, "lat": -1.515}}, {"id": 3203090, "name": "Buje", "country": "HR", "coord": {"lon": 13.66194, "lat": 45.41}}, {"id": 1816220, "name": "Buji", "country": "CN", "coord": {"lon": 114.113297, "lat": 22.6024}}, {"id": 7745053, "name": "Bujia", "country": "CN", "coord": {"lon": 114.409882, "lat": 29.285971}}, {"id": 683352, "name": "Bujor", "country": "RO", "coord": {"lon": 27.9, "lat": 45.866669}}, {"id": 683346, "name": "Bujoreni", "country": "RO", "coord": {"lon": 24.35, "lat": 45.133331}}, {"id": 683342, "name": "Bujoru", "country": "RO", "coord": {"lon": 25.566669, "lat": 43.716671}}, {"id": 425378, "name": "Bujumbura", "country": "BI", "coord": {"lon": 29.364401, "lat": -3.3822}}, {"id": 7303939, "name": "Bujumbura Mairie", "country": "BI", "coord": {"lon": 29.3547, "lat": -3.3802}}, {"id": 2741952, "name": "Buj\u00f5es", "country": "PT", "coord": {"lon": -7.6949, "lat": 41.20874}}, {"id": 3054597, "name": "Buk", "country": "HU", "coord": {"lon": 16.75065, "lat": 47.384861}}, {"id": 3102138, "name": "Buk", "country": "PL", "coord": {"lon": 16.519581, "lat": 52.35532}}, {"id": 1514330, "name": "Buka", "country": "UZ", "coord": {"lon": 69.198608, "lat": 40.810829}}, {"id": 2026023, "name": "Bukachacha", "country": "RU", "coord": {"lon": 116.916672, "lat": 52.98333}}, {"id": 1723130, "name": "Bukal", "country": "PH", "coord": {"lon": 121.539719, "lat": 13.91167}}, {"id": 1723132, "name": "Bukal", "country": "PH", "coord": {"lon": 121.083328, "lat": 13.85}}, {"id": 1723128, "name": "Bukal Sur", "country": "PH", "coord": {"lon": 121.385559, "lat": 13.93806}}, {"id": 217834, "name": "Bukama", "country": "CD", "coord": {"lon": 25.85, "lat": -9.2}}, {"id": 139889, "name": "Bukan", "country": "IR", "coord": {"lon": 46.2089, "lat": 36.521}}, {"id": 571144, "name": "Bukarevo", "country": "RU", "coord": {"lon": 36.728889, "lat": 55.952499}}, {"id": 217831, "name": "Bukavu", "country": "CD", "coord": {"lon": 28.86083, "lat": -2.50833}}, {"id": 2941853, "name": "Buke", "country": "DE", "coord": {"lon": 8.94905, "lat": 51.739471}}, {"id": 234412, "name": "Bukedea", "country": "UG", "coord": {"lon": 34.05056, "lat": 1.31694}}, {"id": 160971, "name": "Bukene", "country": "TZ", "coord": {"lon": 32.883331, "lat": -4.23333}}, {"id": 1114929, "name": "Bukhara Province", "country": "UZ", "coord": {"lon": 64, "lat": 40}}, {"id": 6461714, "name": "Bukhovo", "country": "BG", "coord": {"lon": 23.566669, "lat": 42.76667}}, {"id": 732825, "name": "Bukhovo", "country": "BG", "coord": {"lon": 23.566669, "lat": 42.76667}}, {"id": 2026013, "name": "Bukhutur", "country": "RU", "coord": {"lon": 110.083328, "lat": 53.950001}}, {"id": 234396, "name": "Bukiberu", "country": "UG", "coord": {"lon": 32.433331, "lat": 0.03333}}, {"id": 1722530, "name": "Bukid", "country": "PH", "coord": {"lon": 125.405563, "lat": 5.57167}}, {"id": 629516, "name": "Bukino", "country": "BY", "coord": {"lon": 29.450001, "lat": 53.25}}, {"id": 1735079, "name": "Bukit Mertajam", "country": "MY", "coord": {"lon": 100.466698, "lat": 5.36301}}, {"id": 1778290, "name": "Bukit Rambai", "country": "MY", "coord": {"lon": 102.1838, "lat": 2.2594}}, {"id": 1647866, "name": "Bukittinggi", "country": "ID", "coord": {"lon": 100.370552, "lat": -0.30907}}, {"id": 2098899, "name": "Buko", "country": "PG", "coord": {"lon": 147.016663, "lat": -6.73333}}, {"id": 160961, "name": "Bukoba", "country": "TZ", "coord": {"lon": 31.81222, "lat": -1.33167}}, {"id": 234371, "name": "Bukomansimbi", "country": "UG", "coord": {"lon": 31.60417, "lat": -0.15778}}, {"id": 160950, "name": "Bukonyo", "country": "TZ", "coord": {"lon": 32.933331, "lat": -1.95}}, {"id": 3203083, "name": "Bukor", "country": "RS", "coord": {"lon": 19.591391, "lat": 44.5}}, {"id": 3078421, "name": "Bukovany", "country": "CZ", "coord": {"lon": 12.57265, "lat": 50.166321}}, {"id": 6459222, "name": "Bukovec", "country": "BG", "coord": {"lon": 22.965691, "lat": 43.586391}}, {"id": 3078417, "name": "Bukovec", "country": "CZ", "coord": {"lon": 18.82683, "lat": 49.55114}}, {"id": 732817, "name": "Bukovets", "country": "BG", "coord": {"lon": 22.970831, "lat": 43.597778}}, {"id": 792150, "name": "Bukovik", "country": "MK", "coord": {"lon": 21.23694, "lat": 41.96833}}, {"id": 3203026, "name": "Bukovlje", "country": "HR", "coord": {"lon": 18.07, "lat": 45.18528}}, {"id": 6460281, "name": "Bukovluk", "country": "BG", "coord": {"lon": 24.616671, "lat": 43.450001}}, {"id": 732813, "name": "Bukovl\u016dk", "country": "BG", "coord": {"lon": 24.616671, "lat": 43.450001}}, {"id": 3102100, "name": "Bukowiec", "country": "PL", "coord": {"lon": 18.24048, "lat": 53.43383}}, {"id": 774790, "name": "Bukowina Tatrzanska", "country": "PL", "coord": {"lon": 20.10807, "lat": 49.343021}}, {"id": 7531136, "name": "Bukowina Tatrza\u0144ska", "country": "PL", "coord": {"lon": 20.098301, "lat": 49.30331}}, {"id": 3102076, "name": "Bukowno", "country": "PL", "coord": {"lon": 19.45962, "lat": 50.26474}}, {"id": 774776, "name": "Bukowsko", "country": "PL", "coord": {"lon": 22.06329, "lat": 49.480389}}, {"id": 571084, "name": "Bukreyevka", "country": "RU", "coord": {"lon": 36.272781, "lat": 51.856392}}, {"id": 571079, "name": "Bukreyevo", "country": "RU", "coord": {"lon": 36.537498, "lat": 51.716942}}, {"id": 780543, "name": "Bukta", "country": "NO", "coord": {"lon": 23.327499, "lat": 69.976936}}, {"id": 7035384, "name": "Bukur", "country": "ID", "coord": {"lon": 112.336197, "lat": -8.1214}}, {"id": 2346561, "name": "Bukuru", "country": "NG", "coord": {"lon": 8.86667, "lat": 9.8}}, {"id": 234328, "name": "Bukwa", "country": "UG", "coord": {"lon": 34.753891, "lat": 1.25917}}, {"id": 1723085, "name": "Bula", "country": "PH", "coord": {"lon": 123.278, "lat": 13.4701}}, {"id": 1723086, "name": "Bula", "country": "PH", "coord": {"lon": 122.568497, "lat": 11.448}}, {"id": 1723071, "name": "Bulacan", "country": "PH", "coord": {"lon": 120.883331, "lat": 14.8}}, {"id": 1723066, "name": "Bulacan", "country": "PH", "coord": {"lon": 120.878891, "lat": 14.79278}}, {"id": 1723070, "name": "Bulacan", "country": "PH", "coord": {"lon": 125.421112, "lat": 6.5675}}, {"id": 2661338, "name": "Bulach", "country": "CH", "coord": {"lon": 8.54049, "lat": 47.521969}}, {"id": 792129, "name": "Bulachani", "country": "MK", "coord": {"lon": 21.502781, "lat": 42.07056}}, {"id": 1723055, "name": "Bulacnin", "country": "PH", "coord": {"lon": 121.141113, "lat": 13.98583}}, {"id": 1723052, "name": "Bulad", "country": "PH", "coord": {"lon": 122.998299, "lat": 10.2548}}, {"id": 1525014, "name": "Bulaevo", "country": "KZ", "coord": {"lon": 70.443893, "lat": 54.90556}}, {"id": 2032225, "name": "Bulag", "country": "MN", "coord": {"lon": 100.626869, "lat": 49.859459}}, {"id": 2032226, "name": "Bulag", "country": "MN", "coord": {"lon": 108.48333, "lat": 48.200001}}, {"id": 2032221, "name": "Bulagiyn Denj", "country": "MN", "coord": {"lon": 101.115761, "lat": 47.318691}}, {"id": 2032220, "name": "Bulagtay", "country": "MN", "coord": {"lon": 107.516159, "lat": 49.77594}}, {"id": 5148672, "name": "Bulah", "country": "US", "coord": {"lon": -80.668411, "lat": 41.782001}}, {"id": 2173557, "name": "Bulahdelah", "country": "AU", "coord": {"lon": 152.216675, "lat": -32.416672}}, {"id": 683333, "name": "Bulai-Bosanci", "country": "RO", "coord": {"lon": 26.25, "lat": 47.633331}}, {"id": 610189, "name": "Bulak", "country": "KZ", "coord": {"lon": 50.216671, "lat": 50.183331}}, {"id": 8061001, "name": "Bulak", "country": "ID", "coord": {"lon": 111.299797, "lat": -6.7744}}, {"id": 1647834, "name": "Bulakamba", "country": "ID", "coord": {"lon": 108.955902, "lat": -6.8748}}, {"id": 1647832, "name": "Bulakan", "country": "ID", "coord": {"lon": 106.032898, "lat": -6.6454}}, {"id": 7766945, "name": "Bulakan", "country": "ID", "coord": {"lon": 106.240898, "lat": -6.5663}}, {"id": 8069629, "name": "Bulakbanjar", "country": "ID", "coord": {"lon": 108.720497, "lat": -7.6237}}, {"id": 8052594, "name": "Bulakgebang", "country": "ID", "coord": {"lon": 108.406403, "lat": -7.7431}}, {"id": 1723002, "name": "Bulalacao", "country": "PH", "coord": {"lon": 121.343513, "lat": 12.32535}}, {"id": 1723011, "name": "Bulalacao", "country": "PH", "coord": {"lon": 120.808502, "lat": 16.8358}}, {"id": 1723013, "name": "Bulalacao", "country": "PH", "coord": {"lon": 120.171501, "lat": 11.7435}}, {"id": 234306, "name": "Bulambuli", "country": "UG", "coord": {"lon": 34.383331, "lat": 1.16667}}, {"id": 1722989, "name": "Bulan", "country": "PH", "coord": {"lon": 123.933327, "lat": 12.66667}}, {"id": 1722985, "name": "Bulan", "country": "PH", "coord": {"lon": 123.875, "lat": 12.67139}}, {"id": 1508715, "name": "Bulanash", "country": "RU", "coord": {"lon": 61.996498, "lat": 57.278252}}, {"id": 1959015, "name": "Bulanbulan", "country": "ID", "coord": {"lon": 106.993057, "lat": -6.23583}}, {"id": 315695, "name": "Bulancak", "country": "TR", "coord": {"lon": 38.53574, "lat": 37.290852}}, {"id": 750317, "name": "Bulancak", "country": "TR", "coord": {"lon": 38.229069, "lat": 40.937168}}, {"id": 1275120, "name": "Bulandshahr", "country": "IN", "coord": {"lon": 77.849998, "lat": 28.4}}, {"id": 8140987, "name": "Bulangan", "country": "ID", "coord": {"lon": 112.3918, "lat": -6.9788}}, {"id": 320448, "name": "Bulanik", "country": "TR", "coord": {"lon": 42.270309, "lat": 39.092918}}, {"id": 1722930, "name": "Bulaon", "country": "PH", "coord": {"lon": 120.667221, "lat": 15.08833}}, {"id": 1722949, "name": "Bularit", "country": "PH", "coord": {"lon": 120.617302, "lat": 15.5684}}, {"id": 2173554, "name": "Bulart", "country": "AU", "coord": {"lon": 141.949997, "lat": -37.549999}}, {"id": 1722947, "name": "Bulasa", "country": "PH", "coord": {"lon": 123.618019, "lat": 9.93206}}, {"id": 1722941, "name": "Bulata", "country": "PH", "coord": {"lon": 122.401604, "lat": 9.8599}}, {"id": 571050, "name": "Bulatnikovo", "country": "RU", "coord": {"lon": 37.6675, "lat": 55.562222}}, {"id": 1722936, "name": "Bulatukan", "country": "PH", "coord": {"lon": 125.160828, "lat": 6.9025}}, {"id": 894701, "name": "Bulawayo", "country": "ZW", "coord": {"lon": 28.58333, "lat": -20.15}}, {"id": 1105843, "name": "Bulawayo Province", "country": "ZW", "coord": {"lon": 28.58333, "lat": -20.15}}, {"id": 1724358, "name": "Bulawin", "country": "PH", "coord": {"lon": 119.956398, "lat": 15.4173}}, {"id": 683328, "name": "Bulbucata", "country": "RO", "coord": {"lon": 25.803329, "lat": 44.283329}}, {"id": 6362753, "name": "Bulbuente", "country": "ES", "coord": {"lon": -1.61702, "lat": 41.828468}}, {"id": 3127504, "name": "Bulbuente", "country": "ES", "coord": {"lon": -1.60238, "lat": 41.819698}}, {"id": 171212, "name": "Bulbul", "country": "SY", "coord": {"lon": 36.81916, "lat": 36.770409}}, {"id": 6535344, "name": "Bulciago", "country": "IT", "coord": {"lon": 9.28534, "lat": 45.75058}}, {"id": 320437, "name": "Buldan", "country": "TR", "coord": {"lon": 28.830561, "lat": 38.044998}}, {"id": 1275117, "name": "Buldana", "country": "IN", "coord": {"lon": 76.183327, "lat": 20.533331}}, {"id": 2941838, "name": "Buldern", "country": "DE", "coord": {"lon": 7.36667, "lat": 51.866669}}, {"id": 1722909, "name": "Buldon", "country": "PH", "coord": {"lon": 124.371391, "lat": 7.50972}}, {"id": 1014884, "name": "Bulembu", "country": "ZA", "coord": {"lon": 27.252859, "lat": -32.884361}}, {"id": 935111, "name": "Bulembu", "country": "SZ", "coord": {"lon": 31.133329, "lat": -25.966669}}, {"id": 2654357, "name": "Bulford", "country": "GB", "coord": {"lon": -1.76009, "lat": 51.189301}}, {"id": 2173544, "name": "Bulga", "country": "AU", "coord": {"lon": 151.016663, "lat": -32.666672}}, {"id": 2032201, "name": "Bulgan", "country": "MN", "coord": {"lon": 103.534721, "lat": 48.8125}}, {"id": 1516186, "name": "Bulgan", "country": "MN", "coord": {"lon": 93.61673, "lat": 46.936779}}, {"id": 1516187, "name": "Bulgan", "country": "MN", "coord": {"lon": 98.650002, "lat": 44.783329}}, {"id": 2032200, "name": "Bulgan", "country": "MN", "coord": {"lon": 101.514168, "lat": 50.541939}}, {"id": 2032202, "name": "Bulgan", "country": "MN", "coord": {"lon": 103.542877, "lat": 44.09745}}, {"id": 2032199, "name": "Bulgan Aymag", "country": "MN", "coord": {"lon": 103.5, "lat": 49}}, {"id": 6534412, "name": "Bulgarograsso", "country": "IT", "coord": {"lon": 9.00644, "lat": 45.747082}}, {"id": 6460022, "name": "Bulgarovo", "country": "BG", "coord": {"lon": 27.299999, "lat": 42.616669}}, {"id": 6459390, "name": "Bulgarski izvor", "country": "BG", "coord": {"lon": 24.283331, "lat": 43.033329}}, {"id": 3029580, "name": "Bulgneville", "country": "FR", "coord": {"lon": 5.8343, "lat": 48.20694}}, {"id": 6450328, "name": "Bulhon", "country": "FR", "coord": {"lon": 3.38333, "lat": 45.900002}}, {"id": 3029579, "name": "Bulhon", "country": "FR", "coord": {"lon": 3.38481, "lat": 45.894989}}, {"id": 1670310, "name": "Buli", "country": "TW", "coord": {"lon": 120.969521, "lat": 23.966391}}, {"id": 1722880, "name": "Bulihan", "country": "PH", "coord": {"lon": 120.900002, "lat": 14.88333}}, {"id": 1722882, "name": "Bulihan", "country": "PH", "coord": {"lon": 120.644096, "lat": 14.156}}, {"id": 1722885, "name": "Bulihan", "country": "PH", "coord": {"lon": 121.248497, "lat": 13.8091}}, {"id": 1966063, "name": "Bulihan", "country": "PH", "coord": {"lon": 120.995461, "lat": 14.26974}}, {"id": 2207247, "name": "Bulimba", "country": "AU", "coord": {"lon": 153.058334, "lat": -27.450001}}, {"id": 1722868, "name": "Buliok", "country": "PH", "coord": {"lon": 124.699997, "lat": 7.01667}}, {"id": 1722862, "name": "Buliran", "country": "PH", "coord": {"lon": 120.949997, "lat": 15.55}}, {"id": 1722860, "name": "Buliran Segundo", "country": "PH", "coord": {"lon": 120.866669, "lat": 15.26667}}, {"id": 234259, "name": "Bulisa", "country": "UG", "coord": {"lon": 31.411631, "lat": 2.11781}}, {"id": 1722857, "name": "Bulit", "country": "PH", "coord": {"lon": 124.789436, "lat": 7.11528}}, {"id": 1722851, "name": "Buliwao", "country": "PH", "coord": {"lon": 121.23333, "lat": 16.48333}}, {"id": 2941831, "name": "Bulkau", "country": "DE", "coord": {"lon": 8.96667, "lat": 53.75}}, {"id": 2654356, "name": "Bulkington", "country": "GB", "coord": {"lon": -2.08361, "lat": 51.323608}}, {"id": 774770, "name": "Bulkowo", "country": "PL", "coord": {"lon": 20.118891, "lat": 52.540871}}, {"id": 3491169, "name": "Bull Bay", "country": "JM", "coord": {"lon": -76.666023, "lat": 17.94372}}, {"id": 5560570, "name": "Bull Creek", "country": "US", "coord": {"lon": -124.026428, "lat": 40.33569}}, {"id": 4749854, "name": "Bull Run", "country": "US", "coord": {"lon": -77.520554, "lat": 38.78373}}, {"id": 4749866, "name": "Bull Run Mountain Estates", "country": "US", "coord": {"lon": -77.661659, "lat": 38.903721}}, {"id": 3491161, "name": "Bull Savanna", "country": "JM", "coord": {"lon": -77.590218, "lat": 17.88678}}, {"id": 4103678, "name": "Bull Shoals", "country": "US", "coord": {"lon": -92.581551, "lat": 36.383961}}, {"id": 4885961, "name": "Bull Valley", "country": "US", "coord": {"lon": -88.355087, "lat": 42.32058}}, {"id": 2173511, "name": "Bulla", "country": "AU", "coord": {"lon": 144.800003, "lat": -37.633331}}, {"id": 2800782, "name": "Bullange", "country": "BE", "coord": {"lon": 6.25749, "lat": 50.40731}}, {"id": 2800783, "name": "Bullange", "country": "BE", "coord": {"lon": 6.25929, "lat": 50.40781}}, {"id": 4677344, "name": "Bullard", "country": "US", "coord": {"lon": -95.320229, "lat": 32.139881}}, {"id": 2075514, "name": "Bullaring", "country": "AU", "coord": {"lon": 117.73333, "lat": -32.5}}, {"id": 2173492, "name": "Bullarto", "country": "AU", "coord": {"lon": 144.233337, "lat": -37.400002}}, {"id": 2520727, "name": "Bullas", "country": "ES", "coord": {"lon": -1.67227, "lat": 38.046669}}, {"id": 6359517, "name": "Bullas", "country": "ES", "coord": {"lon": -1.68632, "lat": 38.015491}}, {"id": 2965939, "name": "Bullaun", "country": "IE", "coord": {"lon": -8.55167, "lat": 53.246941}}, {"id": 2173490, "name": "Bullawa Creek", "country": "AU", "coord": {"lon": 149.983337, "lat": -30.316669}}, {"id": 6553671, "name": "Bullay", "country": "DE", "coord": {"lon": 7.13333, "lat": 50.0667}}, {"id": 2941826, "name": "Bullay", "country": "DE", "coord": {"lon": 7.13333, "lat": 50.066669}}, {"id": 7285381, "name": "Bulle", "country": "CH", "coord": {"lon": 7.04616, "lat": 46.60751}}, {"id": 2661337, "name": "Bulle", "country": "CH", "coord": {"lon": 7.05674, "lat": 46.619499}}, {"id": 2173464, "name": "Bulleen", "country": "AU", "coord": {"lon": 145.083328, "lat": -37.76667}},