[{"id": 2164104, "name": "Hadspen", "country": "AU", "coord": {"lon": 147.083328, "lat": -41.5}}, {"id": 2620956, "name": "Hadsten", "country": "DK", "coord": {"lon": 10.04931, "lat": 56.32819}}, {"id": 2620952, "name": "Hadsund", "country": "DK", "coord": {"lon": 10.11682, "lat": 56.714821}}, {"id": 709054, "name": "Hadyach", "country": "UA", "coord": {"lon": 33.99099, "lat": 50.37112}}, {"id": 3199438, "name": "Hadzici", "country": "BA", "coord": {"lon": 18.206671, "lat": 43.82222}}, {"id": 1863426, "name": "Haebaru", "country": "JP", "coord": {"lon": 127.871941, "lat": 26.336941}}, {"id": 1894628, "name": "Haebaru", "country": "JP", "coord": {"lon": 127.722504, "lat": 26.184719}}, {"id": 6575423, "name": "Haejeong", "country": "KR", "coord": {"lon": 127.024437, "lat": 37.096111}}, {"id": 1877615, "name": "Haeju", "country": "KP", "coord": {"lon": 125.714722, "lat": 38.040562}}, {"id": 2754975, "name": "Haelen", "country": "NL", "coord": {"lon": 5.95694, "lat": 51.235828}}, {"id": 2708665, "name": "Haellefors", "country": "SE", "coord": {"lon": 14.52197, "lat": 59.783878}}, {"id": 651073, "name": "Haemeenkoski", "country": "FI", "coord": {"lon": 25.154169, "lat": 61.022221}}, {"id": 1844751, "name": "Haenam", "country": "KR", "coord": {"lon": 126.598892, "lat": 34.57111}}, {"id": 2910875, "name": "Haenigsen", "country": "DE", "coord": {"lon": 10.1, "lat": 52.48333}}, {"id": 2912758, "name": "Hafenhofen", "country": "DE", "coord": {"lon": 10.4528, "lat": 48.457439}}, {"id": 6557038, "name": "Hafenlohr", "country": "DE", "coord": {"lon": 9.60222, "lat": 49.8694}}, {"id": 2912753, "name": "Hafenlohr", "country": "DE", "coord": {"lon": 9.60222, "lat": 49.869438}}, {"id": 2912745, "name": "Hafenpreppach", "country": "DE", "coord": {"lon": 10.76667, "lat": 50.200001}}, {"id": 2912744, "name": "Hafenreut", "country": "DE", "coord": {"lon": 10.83333, "lat": 48.75}}, {"id": 2912711, "name": "Haffkrug", "country": "DE", "coord": {"lon": 10.75, "lat": 54.049999}}, {"id": 5968839, "name": "Hafford", "country": "CA", "coord": {"lon": -107.351242, "lat": 52.71682}}, {"id": 2470800, "name": "Haffouz", "country": "TN", "coord": {"lon": 9.67624, "lat": 35.632351}}, {"id": 312894, "name": "Hafik", "country": "TR", "coord": {"lon": 37.386391, "lat": 39.856392}}, {"id": 1140433, "name": "Hafiz Moghul", "country": "AF", "coord": {"lon": 70.400612, "lat": 37.056431}}, {"id": 1177384, "name": "Hafizabad", "country": "PK", "coord": {"lon": 73.685448, "lat": 32.06786}}, {"id": 1270543, "name": "Haflong", "country": "IN", "coord": {"lon": 93.033333, "lat": 25.183331}}, {"id": 3416706, "name": "Hafnarfjordur", "country": "IS", "coord": {"lon": -21.93774, "lat": 64.067101}}, {"id": 7871881, "name": "Hafnerbach", "country": "AT", "coord": {"lon": 15.48945, "lat": 48.225189}}, {"id": 2777082, "name": "Hafnerbach", "country": "AT", "coord": {"lon": 15.48333, "lat": 48.216671}}, {"id": 7873482, "name": "Hafning bei Trofaiach", "country": "AT", "coord": {"lon": 15.02193, "lat": 47.466221}}, {"id": 2777077, "name": "Hafning bei Trofaiach", "country": "AT", "coord": {"lon": 15, "lat": 47.433331}}, {"id": 148088, "name": "Haftoni", "country": "AZ", "coord": {"lon": 48.76223, "lat": 38.763248}}, {"id": 5119709, "name": "Hagaman", "country": "US", "coord": {"lon": -74.150963, "lat": 42.974522}}, {"id": 4044012, "name": "Hagatna", "country": "GU", "coord": {"lon": 144.748856, "lat": 13.47567}}, {"id": 7873868, "name": "Hagatna Mayors Office", "country": "GU", "coord": {"lon": 144.758026, "lat": 13.47215}}, {"id": 7874008, "name": "Hagatna Village", "country": "GU", "coord": {"lon": 144.758026, "lat": 13.47279}}, {"id": 3154321, "name": "Hagavik", "country": "NO", "coord": {"lon": 5.43333, "lat": 60.183331}}, {"id": 1711997, "name": "Hagdan", "country": "PH", "coord": {"lon": 123.900002, "lat": 11.33333}}, {"id": 2912681, "name": "Hage", "country": "DE", "coord": {"lon": 7.26667, "lat": 53.616669}}, {"id": 2960499, "name": "Hagelsdorf", "country": "LU", "coord": {"lon": 6.36556, "lat": 49.687778}}, {"id": 2912649, "name": "Hagelshoek", "country": "DE", "coord": {"lon": 7.11667, "lat": 52.299999}}, {"id": 6556680, "name": "Hagelstadt", "country": "DE", "coord": {"lon": 12.2167, "lat": 48.900002}}, {"id": 2912646, "name": "Hagelstadt", "country": "DE", "coord": {"lon": 12.21667, "lat": 48.900002}}, {"id": 2912621, "name": "Hagen", "country": "DE", "coord": {"lon": 7.46667, "lat": 51.349998}}, {"id": 6552095, "name": "Hagen", "country": "DE", "coord": {"lon": 9.82659, "lat": 53.946522}}, {"id": 2912605, "name": "Hagen", "country": "DE", "coord": {"lon": 9.82659, "lat": 53.946522}}, {"id": 2912618, "name": "Hagen am Teuteburger Wald", "country": "DE", "coord": {"lon": 7.98333, "lat": 52.200001}}, {"id": 6552586, "name": "Hagen im Bremischen", "country": "DE", "coord": {"lon": 8.65, "lat": 53.366699}}, {"id": 2912496, "name": "Hagen im Bremischen", "country": "DE", "coord": {"lon": 8.65, "lat": 53.366669}}, {"id": 2912594, "name": "Hagenah", "country": "DE", "coord": {"lon": 9.33333, "lat": 53.549999}}, {"id": 3206906, "name": "Hagenau", "country": "DE", "coord": {"lon": 11.05928, "lat": 49.655128}}, {"id": 2912573, "name": "Hagenbach", "country": "DE", "coord": {"lon": 11.18958, "lat": 49.75}}, {"id": 6555006, "name": "Hagenbach", "country": "DE", "coord": {"lon": 8.2523, "lat": 49.022999}}, {"id": 2912577, "name": "Hagenbach", "country": "DE", "coord": {"lon": 8.2375, "lat": 49.026112}}, {"id": 2912547, "name": "Hagenbroich", "country": "DE", "coord": {"lon": 6.35, "lat": 51.316669}}, {"id": 7871787, "name": "Hagenbrunn", "country": "AT", "coord": {"lon": 16.420771, "lat": 48.338341}}, {"id": 2777065, "name": "Hagenbrunn", "country": "AT", "coord": {"lon": 16.4, "lat": 48.333328}}, {"id": 2912541, "name": "Hagenbuch", "country": "DE", "coord": {"lon": 10.83333, "lat": 48.833328}}, {"id": 2912539, "name": "Hagenbuchach", "country": "DE", "coord": {"lon": 10.76667, "lat": 49.533329}}, {"id": 6291436, "name": "Hagenbuechen", "country": "CH", "coord": {"lon": 8.55637, "lat": 47.476528}}, {"id": 2912534, "name": "Hagenburg", "country": "DE", "coord": {"lon": 9.32473, "lat": 52.43367}}, {"id": 7602459, "name": "Hagenburg, Flecken", "country": "DE", "coord": {"lon": 9.33333, "lat": 52.433331}}, {"id": 2912533, "name": "Hagenbusch", "country": "DE", "coord": {"lon": 7.06667, "lat": 51.416672}}, {"id": 6556906, "name": "Hagenb\u00fcchach", "country": "DE", "coord": {"lon": 10.7667, "lat": 49.533298}}, {"id": 2660426, "name": "Hagendorf", "country": "CH", "coord": {"lon": 7.84192, "lat": 47.334358}}, {"id": 2912509, "name": "Hagenheim", "country": "DE", "coord": {"lon": 10.95, "lat": 48}}, {"id": 2912495, "name": "Hagenj\u00f6rges", "country": "DE", "coord": {"lon": 9.9, "lat": 47.849998}}, {"id": 2912481, "name": "Hagenow", "country": "DE", "coord": {"lon": 11.18333, "lat": 53.433331}}, {"id": 5968869, "name": "Hagensborg", "country": "CA", "coord": {"lon": -126.504478, "lat": 52.398232}}, {"id": 6441452, "name": "Hagenthal-le-Bas", "country": "FR", "coord": {"lon": 7.46667, "lat": 47.51667}}, {"id": 3014088, "name": "Hagenthal-le-Bas", "country": "FR", "coord": {"lon": 7.47783, "lat": 47.524971}}, {"id": 7669622, "name": "Hagenwil", "country": "CH", "coord": {"lon": 9.3078, "lat": 47.53006}}, {"id": 335288, "name": "Hagere Hiywet", "country": "ET", "coord": {"lon": 37.849998, "lat": 8.98333}}, {"id": 344620, "name": "Hagere Maryam", "country": "ET", "coord": {"lon": 38.23333, "lat": 5.63333}}, {"id": 335286, "name": "Hagere Selam", "country": "ET", "coord": {"lon": 38.51667, "lat": 6.48333}}, {"id": 592209, "name": "Hageri", "country": "EE", "coord": {"lon": 24.6525, "lat": 59.163059}}, {"id": 5470519, "name": "Hagerman", "country": "US", "coord": {"lon": -104.326912, "lat": 33.115108}}, {"id": 6552860, "name": "Hagermarsch", "country": "DE", "coord": {"lon": 7.29459, "lat": 53.646198}}, {"id": 2912448, "name": "Hagermarsch", "country": "DE", "coord": {"lon": 7.3, "lat": 53.650002}}, {"id": 4357141, "name": "Hagerstown", "country": "US", "coord": {"lon": -77.719994, "lat": 39.641762}}, {"id": 4258413, "name": "Hagerstown", "country": "US", "coord": {"lon": -85.161629, "lat": 39.91116}}, {"id": 5968875, "name": "Hagersville", "country": "CA", "coord": {"lon": -80.049652, "lat": 42.966808}}, {"id": 6440407, "name": "Hagetaubin", "country": "FR", "coord": {"lon": -0.61667, "lat": 43.51667}}, {"id": 3014085, "name": "Hagetaubin", "country": "FR", "coord": {"lon": -0.61667, "lat": 43.51667}}, {"id": 6433834, "name": "Hagetmau", "country": "FR", "coord": {"lon": -0.5932, "lat": 43.655399}}, {"id": 3014084, "name": "Hagetmau", "country": "FR", "coord": {"lon": -0.59172, "lat": 43.658932}}, {"id": 2709214, "name": "Hagfors", "country": "SE", "coord": {"lon": 13.67214, "lat": 60.023781}}, {"id": 3301976, "name": "Haggard", "country": "IE", "coord": {"lon": -7.07861, "lat": 52.352501}}, {"id": 2660425, "name": "Haggenschwil", "country": "CH", "coord": {"lon": 9.34247, "lat": 47.494221}}, {"id": 2660424, "name": "Hagglingen", "country": "CH", "coord": {"lon": 8.25323, "lat": 47.3885}}, {"id": 616634, "name": "Haghartsin", "country": "AM", "coord": {"lon": 44.968472, "lat": 40.776138}}, {"id": 676396, "name": "Haghig", "country": "RO", "coord": {"lon": 25.58333, "lat": 45.833328}}, {"id": 1863418, "name": "Hagi", "country": "JP", "coord": {"lon": 131.416672, "lat": 34.400002}}, {"id": 1863410, "name": "Hagiwara", "country": "JP", "coord": {"lon": 137.199997, "lat": 36.666672}}, {"id": 2164102, "name": "Hagley", "country": "AU", "coord": {"lon": 146.916672, "lat": -41.533329}}, {"id": 2647662, "name": "Hagley", "country": "GB", "coord": {"lon": -2.12819, "lat": 52.426201}}, {"id": 2912417, "name": "Hagnau", "country": "DE", "coord": {"lon": 9.31787, "lat": 47.676659}}, {"id": 1711991, "name": "Hagnaya", "country": "PH", "coord": {"lon": 123.943497, "lat": 11.0924}}, {"id": 6437557, "name": "Hagondange", "country": "FR", "coord": {"lon": 6.16667, "lat": 49.25}}, {"id": 3014080, "name": "Hagondange", "country": "FR", "coord": {"lon": 6.16812, "lat": 49.251339}}, {"id": 1711984, "name": "Hagonoy", "country": "PH", "coord": {"lon": 125.325562, "lat": 6.68333}}, {"id": 2912405, "name": "Hagsbronn", "country": "DE", "coord": {"lon": 10.91667, "lat": 49.166672}}, {"id": 2912400, "name": "Hagsfeld", "country": "DE", "coord": {"lon": 8.45922, "lat": 49.03022}}, {"id": 5968919, "name": "Hague", "country": "CA", "coord": {"lon": -106.41787, "lat": 52.511181}}, {"id": 6441131, "name": "Haguenau", "country": "FR", "coord": {"lon": 7.78913, "lat": 48.815681}}, {"id": 3014078, "name": "Haguenau", "country": "FR", "coord": {"lon": 7.79051, "lat": 48.815571}}, {"id": 1711978, "name": "Haguimit", "country": "PH", "coord": {"lon": 123.018608, "lat": 10.40083}}, {"id": 1711982, "name": "Hagunoy", "country": "PH", "coord": {"lon": 120.733597, "lat": 14.8321}}, {"id": 4044019, "name": "Hag\u00e5t\u00f1a Municipality", "country": "GU", "coord": {"lon": 144.757874, "lat": 13.47279}}, {"id": 4389188, "name": "Hahatonka", "country": "US", "coord": {"lon": -92.769073, "lat": 37.973091}}, {"id": 6552353, "name": "Hahausen", "country": "DE", "coord": {"lon": 10.2167, "lat": 51.950001}}, {"id": 2912392, "name": "Hahausen", "country": "DE", "coord": {"lon": 10.21667, "lat": 51.950001}}, {"id": 4198750, "name": "Hahira", "country": "US", "coord": {"lon": -83.372658, "lat": 30.99131}}, {"id": 2912386, "name": "Hahlen", "country": "DE", "coord": {"lon": 8.85, "lat": 52.299999}}, {"id": 2912367, "name": "Hahn", "country": "DE", "coord": {"lon": 8.15, "lat": 50.150002}}, {"id": 2912357, "name": "Hahn", "country": "DE", "coord": {"lon": 7.58333, "lat": 50.883331}}, {"id": 6553898, "name": "Hahn", "country": "DE", "coord": {"lon": 7.26667, "lat": 49.966702}}, {"id": 2912368, "name": "Hahn", "country": "DE", "coord": {"lon": 7.26667, "lat": 49.966671}}, {"id": 6554213, "name": "Hahn bei Marienberg", "country": "DE", "coord": {"lon": 7.93333, "lat": 50.633301}}, {"id": 2912347, "name": "Hahn bei Marienberg", "country": "DE", "coord": {"lon": 7.93333, "lat": 50.633331}}, {"id": 2912351, "name": "Hahnbach", "country": "DE", "coord": {"lon": 11.80302, "lat": 49.53389}}, {"id": 2070212, "name": "Hahndorf", "country": "AU", "coord": {"lon": 138.800003, "lat": -35.033329}}, {"id": 2912320, "name": "Hahneberg", "country": "DE", "coord": {"lon": 14.05, "lat": 51.183331}}, {"id": 2912319, "name": "Hahnefeld", "country": "DE", "coord": {"lon": 13.20565, "lat": 51.25536}}, {"id": 6553491, "name": "Hahnenbach", "country": "DE", "coord": {"lon": 7.41667, "lat": 49.8167}}, {"id": 2912309, "name": "Hahnenbach", "country": "DE", "coord": {"lon": 7.41667, "lat": 49.816669}}, {"id": 2912272, "name": "Hahnenberg", "country": "DE", "coord": {"lon": 7.45, "lat": 51.099998}}, {"id": 2912266, "name": "Hahnenblecher", "country": "DE", "coord": {"lon": 7.11667, "lat": 51.049999}}, {"id": 2912236, "name": "Hahnenklee-Bockswiese", "country": "DE", "coord": {"lon": 10.33178, "lat": 51.85487}}, {"id": 6555275, "name": "Hahnheim", "country": "DE", "coord": {"lon": 8.23694, "lat": 49.860802}}, {"id": 2912195, "name": "Hahnheim", "country": "DE", "coord": {"lon": 8.23694, "lat": 49.860828}}, {"id": 2912184, "name": "Hahnichen", "country": "DE", "coord": {"lon": 14.86098, "lat": 51.365398}}, {"id": 2912168, "name": "Hahnstatten", "country": "DE", "coord": {"lon": 8.06667, "lat": 50.299999}}, {"id": 6554034, "name": "Hahnst\u00e4tten", "country": "DE", "coord": {"lon": 8.05, "lat": 50.296299}}, {"id": 4326799, "name": "Hahnville", "country": "US", "coord": {"lon": -90.408974, "lat": 29.976589}}, {"id": 6553594, "name": "Hahnweiler", "country": "DE", "coord": {"lon": 7.21667, "lat": 49.5667}}, {"id": 2912167, "name": "Hahnweiler", "country": "DE", "coord": {"lon": 7.21667, "lat": 49.566669}}, {"id": 1581326, "name": "Hai Duong", "country": "VN", "coord": {"lon": 106.316673, "lat": 20.933331}}, {"id": 1581323, "name": "Hai Ha", "country": "VN", "coord": {"lon": 105.23333, "lat": 20.616671}}, {"id": 1809116, "name": "Haian", "country": "CN", "coord": {"lon": 120.449997, "lat": 32.54361}}, {"id": 6556946, "name": "Haibach", "country": "DE", "coord": {"lon": 9.204, "lat": 49.9646}}, {"id": 2912159, "name": "Haibach", "country": "DE", "coord": {"lon": 9.20722, "lat": 49.964439}}, {"id": 2912158, "name": "Haibach", "country": "DE", "coord": {"lon": 13, "lat": 48.533329}}, {"id": 6556578, "name": "Haibach", "country": "DE", "coord": {"lon": 12.71431, "lat": 49.02454}}, {"id": 2912160, "name": "Haibach", "country": "DE", "coord": {"lon": 12.71552, "lat": 49.024052}}, {"id": 2777041, "name": "Haibach im Muhlkreis", "country": "AT", "coord": {"lon": 14.34411, "lat": 48.44429}}, {"id": 7873238, "name": "Haibach im M\u00fchlkreis", "country": "AT", "coord": {"lon": 14.34463, "lat": 48.44429}}, {"id": 1863398, "name": "Haibara", "country": "JP", "coord": {"lon": 135.949997, "lat": 34.533329}}, {"id": 1809112, "name": "Haibeitou", "country": "CN", "coord": {"lon": 113.185013, "lat": 39.803822}}, {"id": 2037086, "name": "Haicheng", "country": "CN", "coord": {"lon": 122.747543, "lat": 40.851582}}, {"id": 1809100, "name": "Haicheng", "country": "CN", "coord": {"lon": 115.331787, "lat": 22.97533}}, {"id": 2912120, "name": "Haid", "country": "DE", "coord": {"lon": 11.75288, "lat": 49.14983}}, {"id": 2912122, "name": "Haid", "country": "DE", "coord": {"lon": 12.71667, "lat": 49.083328}}, {"id": 2777031, "name": "Haid", "country": "AT", "coord": {"lon": 14.96595, "lat": 48.588009}}, {"id": 2912106, "name": "Haida", "country": "DE", "coord": {"lon": 13.46667, "lat": 51.48333}}, {"id": 1922253, "name": "Haidao", "country": "CN", "coord": {"lon": 120.048172, "lat": 26.504431}}, {"id": 2912053, "name": "Haidem\u00fchl", "country": "DE", "coord": {"lon": 14.21667, "lat": 51.549999}}, {"id": 7872822, "name": "Haidershofen", "country": "AT", "coord": {"lon": 14.50743, "lat": 48.073051}}, {"id": 2777015, "name": "Haidershofen", "country": "AT", "coord": {"lon": 14.45, "lat": 48.066669}}, {"id": 2912018, "name": "Haidham", "country": "DE", "coord": {"lon": 12.21667, "lat": 47.883331}}, {"id": 1809104, "name": "Haidian", "country": "CN", "coord": {"lon": 116.299171, "lat": 39.979172}}, {"id": 2911987, "name": "Haidlfing", "country": "DE", "coord": {"lon": 12.71667, "lat": 48.73333}}, {"id": 2911983, "name": "Haidmuhle", "country": "DE", "coord": {"lon": 13.76667, "lat": 48.833328}}, {"id": 6556472, "name": "Haidm\u00fchle", "country": "DE", "coord": {"lon": 13.7667, "lat": 48.833302}}, {"id": 294801, "name": "Haifa", "country": "IL", "coord": {"lon": 34.98917, "lat": 32.815559}}, {"id": 294800, "name": "Haifa District", "country": "IL", "coord": {"lon": 35, "lat": 32.583328}}, {"id": 1809096, "name": "Haifu", "country": "CN", "coord": {"lon": 121.6875, "lat": 31.98667}}, {"id": 2911965, "name": "Haig", "country": "DE", "coord": {"lon": 11.27644, "lat": 50.281551}}, {"id": 2911964, "name": "Haiger", "country": "DE", "coord": {"lon": 8.21667, "lat": 50.75}}, {"id": 2911960, "name": "Haigerloch", "country": "DE", "coord": {"lon": 8.80357, "lat": 48.366138}}, {"id": 2647658, "name": "Haigh", "country": "GB", "coord": {"lon": -2.58333, "lat": 53.599998}}, {"id": 1809084, "name": "Haihui", "country": "CN", "coord": {"lon": 116.05336, "lat": 29.543329}}, {"id": 1809078, "name": "Haikou", "country": "CN", "coord": {"lon": 110.341667, "lat": 20.04583}}, {"id": 1809077, "name": "Haikou", "country": "CN", "coord": {"lon": 102.575478, "lat": 24.77985}}, {"id": 1809074, "name": "Haikou", "country": "CN", "coord": {"lon": 117.807358, "lat": 29.106819}}, {"id": 6824908, "name": "Haikou", "country": "CN", "coord": {"lon": 102.942589, "lat": 24.519199}}, {"id": 6824957, "name": "Haikoudajie", "country": "CN", "coord": {"lon": 102.947418, "lat": 24.526649}}, {"id": 7262697, "name": "Haiku-Pauwela", "country": "US", "coord": {"lon": -156.305084, "lat": 20.921869}}, {"id": 6942880, "name": "Haikuotiankong", "country": "CN", "coord": {"lon": 113.939903, "lat": 22.528811}}, {"id": 1270530, "name": "Hailakandi", "country": "IN", "coord": {"lon": 92.566673, "lat": 24.683331}}, {"id": 2037078, "name": "Hailar", "country": "CN", "coord": {"lon": 119.699997, "lat": 49.200001}}, {"id": 2911955, "name": "Hailer", "country": "DE", "coord": {"lon": 9.16667, "lat": 50.183331}}, {"id": 5594956, "name": "Hailey", "country": "US", "coord": {"lon": -114.315323, "lat": 43.51963}}, {"id": 5968992, "name": "Haileybury", "country": "CA", "coord": {"lon": -79.637321, "lat": 47.449039}}, {"id": 2037075, "name": "Hailin", "country": "CN", "coord": {"lon": 129.416672, "lat": 44.583328}}, {"id": 2911953, "name": "Hailing", "country": "DE", "coord": {"lon": 12.55, "lat": 48.75}}, {"id": 3014067, "name": "Haillicourt", "country": "FR", "coord": {"lon": 2.57458, "lat": 50.475189}}, {"id": 2647655, "name": "Hailsham", "country": "GB", "coord": {"lon": 0.25775, "lat": 50.862202}}, {"id": 2037069, "name": "Hailun", "country": "CN", "coord": {"lon": 126.933327, "lat": 47.450001}}, {"id": 659433, "name": "Hailuoto", "country": "FI", "coord": {"lon": 24.75, "lat": 65.083328}}, {"id": 659431, "name": "Hailuoto", "country": "FI", "coord": {"lon": 24.71385, "lat": 65.009003}}, {"id": 1809062, "name": "Haimen", "country": "CN", "coord": {"lon": 116.61422, "lat": 23.193489}}, {"id": 1801200, "name": "Haimen", "country": "CN", "coord": {"lon": 121.154442, "lat": 31.897221}}, {"id": 6556134, "name": "Haimhausen", "country": "DE", "coord": {"lon": 11.54875, "lat": 48.312199}}, {"id": 2911940, "name": "Haimhausen", "country": "DE", "coord": {"lon": 11.55453, "lat": 48.315449}}, {"id": 7872525, "name": "Haiming", "country": "AT", "coord": {"lon": 10.88699, "lat": 47.243191}}, {"id": 2777001, "name": "Haiming", "country": "AT", "coord": {"lon": 10.88333, "lat": 47.25}}, {"id": 6556099, "name": "Haiming", "country": "DE", "coord": {"lon": 12.9, "lat": 48.216702}}, {"id": 2911938, "name": "Haiming", "country": "DE", "coord": {"lon": 12.9, "lat": 48.216671}}, {"id": 2911935, "name": "Haimpertshofen", "country": "DE", "coord": {"lon": 11.51667, "lat": 48.566669}}, {"id": 2911917, "name": "Hain", "country": "DE", "coord": {"lon": 7.18333, "lat": 50.450001}}, {"id": 6550494, "name": "Hain", "country": "DE", "coord": {"lon": 12.0833, "lat": 50.700001}}, {"id": 2911916, "name": "Hain", "country": "DE", "coord": {"lon": 12.08333, "lat": 50.707489}}, {"id": 2911825, "name": "Hain-Grundau", "country": "DE", "coord": {"lon": 9.15, "lat": 50.25}}, {"id": 2911909, "name": "Haina", "country": "DE", "coord": {"lon": 8.96667, "lat": 51.033329}}, {"id": 6550082, "name": "Haina", "country": "DE", "coord": {"lon": 10.5333, "lat": 50.983299}}, {"id": 2911910, "name": "Haina", "country": "DE", "coord": {"lon": 10.53333, "lat": 50.98333}}, {"id": 6559294, "name": "Haina", "country": "DE", "coord": {"lon": 10.48233, "lat": 50.42915}}, {"id": 2911911, "name": "Haina", "country": "DE", "coord": {"lon": 10.53333, "lat": 50.416672}}, {"id": 1809054, "name": "Hainan Sheng", "country": "CN", "coord": {"lon": 109.599998, "lat": 19.200001}}, {"id": 7403438, "name": "Hainantun", "country": "CN", "coord": {"lon": 121.540878, "lat": 38.969551}}, {"id": 6554086, "name": "Hainau", "country": "DE", "coord": {"lon": 7.78333, "lat": 50.216702}}, {"id": 3207731, "name": "Hainau", "country": "DE", "coord": {"lon": 7.78235, "lat": 50.222881}}, {"id": 6690865, "name": "Hainault", "country": "GB", "coord": {"lon": 0.10716, "lat": 51.60836}}, {"id": 2776988, "name": "Hainburg an der Donau", "country": "AT", "coord": {"lon": 16.94504, "lat": 48.146271}}, {"id": 2911855, "name": "Hainchen", "country": "DE", "coord": {"lon": 8.21667, "lat": 50.849998}}, {"id": 7873392, "name": "Hainersdorf", "country": "AT", "coord": {"lon": 15.95712, "lat": 47.113499}}, {"id": 2776982, "name": "Hainersdorf", "country": "AT", "coord": {"lon": 15.93333, "lat": 47.116669}}, {"id": 2911834, "name": "Hainert", "country": "DE", "coord": {"lon": 10.5, "lat": 50}}, {"id": 5846901, "name": "Haines", "country": "US", "coord": {"lon": -135.444107, "lat": 59.228588}}, {"id": 5846893, "name": "Haines Borough", "country": "US", "coord": {"lon": -135.500565, "lat": 59.250561}}, {"id": 4157827, "name": "Haines City", "country": "US", "coord": {"lon": -81.617851, "lat": 28.11418}}, {"id": 5969025, "name": "Haines Junction", "country": "CA", "coord": {"lon": -137.510818, "lat": 60.752159}}, {"id": 4894921, "name": "Hainesville", "country": "US", "coord": {"lon": -88.067863, "lat": 42.34502}}, {"id": 6548676, "name": "Hainewalde", "country": "DE", "coord": {"lon": 14.7, "lat": 50.916698}}, {"id": 2911833, "name": "Hainewalde", "country": "DE", "coord": {"lon": 14.7, "lat": 50.916672}}, {"id": 7872929, "name": "Hainfeld", "country": "AT", "coord": {"lon": 15.8017, "lat": 48.039989}}, {"id": 2776981, "name": "Hainfeld", "country": "AT", "coord": {"lon": 15.77414, "lat": 48.033901}}, {"id": 6555189, "name": "Hainfeld", "country": "DE", "coord": {"lon": 8.10111, "lat": 49.2575}}, {"id": 2911831, "name": "Hainfeld", "country": "DE", "coord": {"lon": 8.10111, "lat": 49.2575}}, {"id": 2911813, "name": "Hainhofen", "country": "DE", "coord": {"lon": 10.8, "lat": 48.383331}}, {"id": 2911795, "name": "Hainichen", "country": "DE", "coord": {"lon": 13.11667, "lat": 50.966671}}, {"id": 6550366, "name": "Hainichen", "country": "DE", "coord": {"lon": 11.6167, "lat": 51}}, {"id": 2911794, "name": "Hainichen", "country": "DE", "coord": {"lon": 11.61667, "lat": 51}}, {"id": 2911775, "name": "Hainsacker", "country": "DE", "coord": {"lon": 12.05, "lat": 49.066669}}, {"id": 2911771, "name": "Hainsberg", "country": "DE", "coord": {"lon": 12.1, "lat": 50.700001}}, {"id": 7873465, "name": "Hainsdorf im Schwarzautal", "country": "AT", "coord": {"lon": 15.64266, "lat": 46.82774}}, {"id": 2776975, "name": "Hainsdorf im Schwarzautal", "country": "AT", "coord": {"lon": 15.64139, "lat": 46.835831}}, {"id": 6557281, "name": "Hainsfarth", "country": "DE", "coord": {"lon": 10.6167, "lat": 48.966702}}, {"id": 2911769, "name": "Hainsfarth", "country": "DE", "coord": {"lon": 10.61667, "lat": 48.966671}}, {"id": 6550367, "name": "Hainspitz", "country": "DE", "coord": {"lon": 11.8333, "lat": 50.950001}}, {"id": 2911767, "name": "Hainspitz", "country": "DE", "coord": {"lon": 11.83333, "lat": 50.950001}}, {"id": 2911765, "name": "Hainstadt", "country": "DE", "coord": {"lon": 9.0425, "lat": 49.836109}}, {"id": 2911760, "name": "Haintchen", "country": "DE", "coord": {"lon": 8.31667, "lat": 50.366669}}, {"id": 1863385, "name": "Hainuzuka", "country": "JP", "coord": {"lon": 130.5, "lat": 33.200001}}, {"id": 7872629, "name": "Hainzenberg", "country": "AT", "coord": {"lon": 11.93231, "lat": 47.203049}}, {"id": 2776970, "name": "Hainzenberg", "country": "AT", "coord": {"lon": 11.90034, "lat": 47.21788}}, {"id": 1581298, "name": "Haiphong", "country": "VN", "coord": {"lon": 106.68222, "lat": 20.85611}}, {"id": 1809049, "name": "Hairag", "country": "CN", "coord": {"lon": 100.416168, "lat": 37.223171}}, {"id": 1919674, "name": "Haishan", "country": "CN", "coord": {"lon": 116.945587, "lat": 23.53414}}, {"id": 3014060, "name": "Haisnes", "country": "FR", "coord": {"lon": 2.79416, "lat": 50.507759}}, {"id": 7632853, "name": "Haitangwan", "country": "CN", "coord": {"lon": 109.750038, "lat": 18.40337}}, {"id": 2911739, "name": "Haiterbach", "country": "DE", "coord": {"lon": 8.65, "lat": 48.533329}}, {"id": 6834870, "name": "Haitou", "country": "CN", "coord": {"lon": 110.38295, "lat": 21.20347}}, {"id": 1809033, "name": "Haitou", "country": "CN", "coord": {"lon": 119.169724, "lat": 34.933609}}, {"id": 1809034, "name": "Haitou", "country": "CN", "coord": {"lon": 108.950539, "lat": 19.50563}}, {"id": 7886687, "name": "Haixing", "country": "CN", "coord": {"lon": 122.130341, "lat": 40.276081}}, {"id": 7763411, "name": "Haixiu", "country": "CN", "coord": {"lon": 110.27607, "lat": 20.01096}}, {"id": 1809013, "name": "Haiyan", "country": "CN", "coord": {"lon": 121.341797, "lat": 32.144051}}, {"id": 1809023, "name": "Haiyang", "country": "CN", "coord": {"lon": 118.176979, "lat": 29.786119}}, {"id": 1898918, "name": "Haiyanmiao", "country": "CN", "coord": {"lon": 121.3993, "lat": 30.22748}}, {"id": 1809010, "name": "Haiyou", "country": "CN", "coord": {"lon": 121.373444, "lat": 29.123581}}, {"id": 1809003, "name": "Haizhou", "country": "CN", "coord": {"lon": 119.128891, "lat": 34.581669}}, {"id": 7033215, "name": "Haizhou", "country": "CN", "coord": {"lon": 122.741508, "lat": 40.848629}}, {"id": 7012548, "name": "Haizhouwobao", "country": "CN", "coord": {"lon": 123.370819, "lat": 42.938229}}, {"id": 3076001, "name": "Haj ve Slezsku", "country": "CZ", "coord": {"lon": 18.0954, "lat": 49.89856}}, {"id": 1270529, "name": "Hajan", "country": "IN", "coord": {"lon": 74.616669, "lat": 34.299999}}, {"id": 79609, "name": "Hajar al Mushaikh", "country": "YE", "coord": {"lon": 47.833328, "lat": 16.133329}}, {"id": 720295, "name": "Hajdubagos", "country": "HU", "coord": {"lon": 21.66551, "lat": 47.392948}}, {"id": 720292, "name": "Hajduboszormeny", "country": "HU", "coord": {"lon": 21.51667, "lat": 47.666672}}, {"id": 790063, "name": "Hajducica", "country": "RS", "coord": {"lon": 20.95722, "lat": 45.249168}}, {"id": 720290, "name": "Hajdudorog", "country": "HU", "coord": {"lon": 21.5, "lat": 47.816669}}, {"id": 720287, "name": "Hajduhadhaz", "country": "HU", "coord": {"lon": 21.66667, "lat": 47.683331}}, {"id": 720284, "name": "Hajdunanas", "country": "HU", "coord": {"lon": 21.433331, "lat": 47.849998}}, {"id": 720280, "name": "Hajdusamson", "country": "HU", "coord": {"lon": 21.76667, "lat": 47.599998}}, {"id": 720276, "name": "Hajduszoboszlo", "country": "HU", "coord": {"lon": 21.4, "lat": 47.450001}}, {"id": 720274, "name": "Hajduszovat", "country": "HU", "coord": {"lon": 21.48333, "lat": 47.383331}}, {"id": 720293, "name": "Hajd\u00fa-Bihar megye", "country": "HU", "coord": {"lon": 21.5, "lat": 47.416672}}, {"id": 2911729, "name": "Hajen", "country": "DE", "coord": {"lon": 9.43743, "lat": 52}}, {"id": 1140341, "name": "Haji Khel", "country": "AF", "coord": {"lon": 69.433411, "lat": 35.109219}}, {"id": 828315, "name": "Hajigabul Rayon", "country": "AZ", "coord": {"lon": 48.916672, "lat": 40.083328}}, {"id": 1201753, "name": "Hajiganj", "country": "BD", "coord": {"lon": 90.859169, "lat": 23.25111}}, {"id": 174506, "name": "Hajin", "country": "SY", "coord": {"lon": 40.827, "lat": 34.692699}}, {"id": 1270525, "name": "Hajipur", "country": "IN", "coord": {"lon": 85.216667, "lat": 25.683331}}, {"id": 1270523, "name": "Hajipur", "country": "IN", "coord": {"lon": 75.757782, "lat": 31.975559}}, {"id": 75337, "name": "Hajjah", "country": "YE", "coord": {"lon": 43.60582, "lat": 15.69425}}, {"id": 283812, "name": "Hajjah", "country": "PS", "coord": {"lon": 35.130772, "lat": 32.204269}}, {"id": 3051881, "name": "Hajmasker", "country": "HU", "coord": {"lon": 18.01964, "lat": 47.14513}}, {"id": 771158, "name": "Hajnowka", "country": "PL", "coord": {"lon": 23.581221, "lat": 52.743279}}, {"id": 7532457, "name": "Hajn\u00f3wka", "country": "PL", "coord": {"lon": 23.5665, "lat": 52.723598}}, {"id": 1270522, "name": "Hajo", "country": "IN", "coord": {"lon": 91.533333, "lat": 26.25}}, {"id": 1091076, "name": "Hajoho", "country": "KM", "coord": {"lon": 44.488331, "lat": -12.1175}}, {"id": 3051873, "name": "Hajos", "country": "HU", "coord": {"lon": 19.12056, "lat": 46.398609}}, {"id": 391699, "name": "Hajrat al Khinbish", "country": "SA", "coord": {"lon": 45.036751, "lat": 27.78248}}, {"id": 2031088, "name": "Hajuu-Us", "country": "MN", "coord": {"lon": 107.489548, "lat": 46.049881}}, {"id": 6291292, "name": "Hakab", "country": "CH", "coord": {"lon": 8.65954, "lat": 47.451031}}, {"id": 8181708, "name": "Hakai", "country": "CA", "coord": {"lon": -128.131256, "lat": 51.65448}}, {"id": 249318, "name": "Hakama", "country": "JO", "coord": {"lon": 35.884109, "lat": 32.594452}}, {"id": 2911725, "name": "Hakeborn", "country": "DE", "coord": {"lon": 11.36667, "lat": 51.916672}}, {"id": 6545287, "name": "Haken felde", "country": "DE", "coord": {"lon": 13.20819, "lat": 52.558922}}, {"id": 2911700, "name": "Hakenstedt", "country": "DE", "coord": {"lon": 11.26667, "lat": 52.183331}}, {"id": 1325443, "name": "Hakha", "country": "MM", "coord": {"lon": 93.616669, "lat": 22.65}}, {"id": 318137, "name": "Hakkari", "country": "TR", "coord": {"lon": 43.740829, "lat": 37.57444}}, {"id": 312888, "name": "Hakkari", "country": "TR", "coord": {"lon": 44.166672, "lat": 37.583328}}, {"id": 2130188, "name": "Hakodate", "country": "JP", "coord": {"lon": 140.736664, "lat": 41.775829}}, {"id": 1863357, "name": "Hakone", "country": "JP", "coord": {"lon": 139.033325, "lat": 35.183331}}, {"id": 1863356, "name": "Hakonegasaki", "country": "JP", "coord": {"lon": 139.351105, "lat": 35.76944}}, {"id": 1863341, "name": "Hakui", "country": "JP", "coord": {"lon": 136.783325, "lat": 36.883331}}, {"id": 1177278, "name": "Hala", "country": "PK", "coord": {"lon": 68.422729, "lat": 25.81308}}, {"id": 96205, "name": "Halabjah", "country": "IQ", "coord": {"lon": 45.986111, "lat": 35.17778}}, {"id": 3527164, "name": "Halacho", "country": "MX", "coord": {"lon": -90.083328, "lat": 20.48333}}, {"id": 312872, "name": "Halalca", "country": "TR", "coord": {"lon": 27.93944, "lat": 39.634441}}, {"id": 1711958, "name": "Halapitan", "country": "PH", "coord": {"lon": 125.330002, "lat": 7.9175}}, {"id": 3051839, "name": "Halast\u00f3", "country": "HU", "coord": {"lon": 19.299999, "lat": 48.083328}}, {"id": 3051829, "name": "Halaszi", "country": "HU", "coord": {"lon": 17.326151, "lat": 47.889301}}, {"id": 3051822, "name": "Halasztelek", "country": "HU", "coord": {"lon": 18.98119, "lat": 47.361729}}, {"id": 7463779, "name": "Halat", "country": "ID", "coord": {"lon": 122.207298, "lat": -8.6832}}, {"id": 676371, "name": "Halaucesti", "country": "RO", "coord": {"lon": 26.799999, "lat": 47.099998}}, {"id": 5855319, "name": "Halawa", "country": "US", "coord": {"lon": -157.921677, "lat": 21.37944}}, {"id": 5855327, "name": "Halawa Heights", "country": "US", "coord": {"lon": -157.918335, "lat": 21.38167}}, {"id": 249310, "name": "Halawah", "country": "JO", "coord": {"lon": 35.661469, "lat": 32.38464}}, {"id": 1711955, "name": "Halayhay", "country": "PH", "coord": {"lon": 120.813332, "lat": 14.37389}}, {"id": 1711954, "name": "Halayhayin", "country": "PH", "coord": {"lon": 121.407501, "lat": 14.1891}}, {"id": 274723, "name": "Halba", "country": "LB", "coord": {"lon": 36.07972, "lat": 34.542782}}, {"id": 2911695, "name": "Halbach", "country": "DE", "coord": {"lon": 7.2, "lat": 51.200001}}, {"id": 1515882, "name": "Halban", "country": "MN", "coord": {"lon": 97.740898, "lat": 49.52877}}, {"id": 6547564, "name": "Halbe", "country": "DE", "coord": {"lon": 13.7, "lat": 52.116699}}, {"id": 2911691, "name": "Halbe", "country": "DE", "coord": {"lon": 13.7, "lat": 52.116669}}, {"id": 6552861, "name": "Halbemond", "country": "DE", "coord": {"lon": 7.28478, "lat": 53.5676}}, {"id": 2911683, "name": "Halbemond", "country": "DE", "coord": {"lon": 7.28333, "lat": 53.566669}}, {"id": 2911682, "name": "Halbendorf", "country": "DE", "coord": {"lon": 14.6, "lat": 50.916672}}, {"id": 7873535, "name": "Halbenrain", "country": "AT", "coord": {"lon": 15.93143, "lat": 46.73019}}, {"id": 2776959, "name": "Halbenrain", "country": "AT", "coord": {"lon": 15.94667, "lat": 46.721939}}, {"id": 2911667, "name": "Halbersdorf", "country": "DE", "coord": {"lon": 10.63333, "lat": 49.866669}}, {"id": 2911665, "name": "Halberstadt", "country": "DE", "coord": {"lon": 11.05, "lat": 51.900002}}, {"id": 6557232, "name": "Halblech", "country": "DE", "coord": {"lon": 10.8276, "lat": 47.640999}}, {"id": 2911648, "name": "Halblech", "country": "DE", "coord": {"lon": 10.81398, "lat": 47.624222}}, {"id": 6554215, "name": "Halbs", "country": "DE", "coord": {"lon": 7.96667, "lat": 50.583302}}, {"id": 2911641, "name": "Halbs", "country": "DE", "coord": {"lon": 7.96667, "lat": 50.583328}}, {"id": 7872717, "name": "Halbturn", "country": "AT", "coord": {"lon": 17.00675, "lat": 47.860531}}, {"id": 2776957, "name": "Halbturn", "country": "AT", "coord": {"lon": 16.97542, "lat": 47.87019}}, {"id": 2070205, "name": "Halbury", "country": "AU", "coord": {"lon": 138.516663, "lat": -34.083328}}, {"id": 2911640, "name": "Halbweg", "country": "DE", "coord": {"lon": 9, "lat": 53.950001}}, {"id": 676368, "name": "Halchiu", "country": "RO", "coord": {"lon": 25.549999, "lat": 45.76667}}, {"id": 2190358, "name": "Halcombe", "country": "NZ", "coord": {"lon": 175.5, "lat": -40.150002}}, {"id": 1270509, "name": "Haldaur", "country": "IN", "coord": {"lon": 78.283333, "lat": 29.299999}}, {"id": 2911634, "name": "Halde", "country": "DE", "coord": {"lon": 10.35, "lat": 47.683331}}, {"id": 2911631, "name": "Haldem", "country": "DE", "coord": {"lon": 8.38333, "lat": 52.433331}}, {"id": 3154209, "name": "Halden", "country": "NO", "coord": {"lon": 11.38754, "lat": 59.124779}}, {"id": 6453395, "name": "Halden", "country": "NO", "coord": {"lon": 11.38709, "lat": 59.122581}}, {"id": 2911584, "name": "Haldensleben", "country": "DE", "coord": {"lon": 11.40982, "lat": 52.289059}}, {"id": 7286026, "name": "Haldenstein", "country": "CH", "coord": {"lon": 9.50086, "lat": 46.881641}}, {"id": 2660420, "name": "Haldenstein", "country": "CH", "coord": {"lon": 9.52618, "lat": 46.87867}}, {"id": 6557178, "name": "Haldenwang", "country": "DE", "coord": {"lon": 10.45, "lat": 48.4333}}, {"id": 2911579, "name": "Haldenwang", "country": "DE", "coord": {"lon": 10.44817, "lat": 48.43763}}, {"id": 6557307, "name": "Haldenwang", "country": "DE", "coord": {"lon": 10.35, "lat": 47.799999}}, {"id": 2911580, "name": "Haldenwang", "country": "DE", "coord": {"lon": 10.35, "lat": 47.799999}}, {"id": 2911575, "name": "Haldern", "country": "DE", "coord": {"lon": 6.46667, "lat": 51.76667}}, {"id": 1344377, "name": "Haldia", "country": "IN", "coord": {"lon": 88.109749, "lat": 22.060459}}, {"id": 1270504, "name": "Haldibari", "country": "IN", "coord": {"lon": 88.76667, "lat": 26.33333}}, {"id": 5969093, "name": "Haldimand County", "country": "CA", "coord": {"lon": -79.866333, "lat": 42.98341}}, {"id": 1270498, "name": "Haldwani", "country": "IN", "coord": {"lon": 79.51667, "lat": 29.216669}}, {"id": 2647644, "name": "Hale", "country": "GB", "coord": {"lon": -0.78333, "lat": 51.216671}}, {"id": 6640028, "name": "Hale", "country": "GB", "coord": {"lon": -2.33271, "lat": 53.378311}}, {"id": 2647643, "name": "Hale", "country": "GB", "coord": {"lon": -2.8, "lat": 53.333328}}, {"id": 5522714, "name": "Hale Center", "country": "US", "coord": {"lon": -101.843788, "lat": 34.06424}}, {"id": 4065796, "name": "Hale County", "country": "US", "coord": {"lon": -87.633339, "lat": 32.758739}}, {"id": 5522717, "name": "Hale County", "country": "US", "coord": {"lon": -101.833794, "lat": 34.066738}}, {"id": 7295223, "name": "Halebank", "country": "GB", "coord": {"lon": -2.78873, "lat": 53.345982}}, {"id": 5098794, "name": "Haledon", "country": "US", "coord": {"lon": -74.186256, "lat": 40.93565}}, {"id": 6614688, "name": "Haleine", "country": "FR", "coord": {"lon": -0.44269, "lat": 48.51675}}, {"id": 3014057, "name": "Haleine", "country": "FR", "coord": {"lon": -0.44269, "lat": 48.51675}}, {"id": 5855420, "name": "Haleiwa", "country": "US", "coord": {"lon": -158.112503, "lat": 21.590281}}, {"id": 2660419, "name": "Halen", "country": "CH", "coord": {"lon": 7.41749, "lat": 46.973461}}, {"id": 2796716, "name": "Halen", "country": "BE", "coord": {"lon": 5.11216, "lat": 50.948689}}, {"id": 2796715, "name": "Halen", "country": "BE", "coord": {"lon": 5.11096, "lat": 50.948372}}, {"id": 1270495, "name": "Halena", "country": "IN", "coord": {"lon": 77.150002, "lat": 27.116667}}, {"id": 2911566, "name": "Halenbeck", "country": "DE", "coord": {"lon": 12.31667, "lat": 53.25}}, {"id": 2911561, "name": "Halenhorst", "country": "DE", "coord": {"lon": 8.15, "lat": 52.98333}}, {"id": 3075997, "name": "Halenkov", "country": "CZ", "coord": {"lon": 18.14749, "lat": 49.317402}}, {"id": 3075996, "name": "Halenkovice", "country": "CZ", "coord": {"lon": 17.47156, "lat": 49.171021}}, {"id": 5255320, "name": "Hales Corners", "country": "US", "coord": {"lon": -88.048698, "lat": 42.937519}}, {"id": 4938625, "name": "Hales Crossing", "country": "US", "coord": {"lon": -72.56398, "lat": 42.654251}}, {"id": 5119742, "name": "Halesite", "country": "US", "coord": {"lon": -73.415398, "lat": 40.888432}}, {"id": 2647639, "name": "Halesowen", "country": "GB", "coord": {"lon": -2.04938, "lat": 52.448589}}, {"id": 2647638, "name": "Halesworth", "country": "GB", "coord": {"lon": 1.5029, "lat": 52.346401}}, {"id": 5969145, "name": "Haley Station", "country": "CA", "coord": {"lon": -76.782722, "lat": 45.566811}}, {"id": 4065830, "name": "Haleyville", "country": "US", "coord": {"lon": -87.621407, "lat": 34.22649}}, {"id": 4469607, "name": "Half Moon", "country": "US", "coord": {"lon": -77.459412, "lat": 34.826}}, {"id": 5354943, "name": "Half Moon Bay", "country": "US", "coord": {"lon": -122.428589, "lat": 37.463551}}, {"id": 3490165, "name": "Half Way Tree", "country": "JM", "coord": {"lon": -76.799278, "lat": 18.01248}}, {"id": 3575384, "name": "Half Way Tree", "country": "KN", "coord": {"lon": -62.816669, "lat": 17.33333}}, {"id": 170044, "name": "Halfaya", "country": "SY", "coord": {"lon": 36.605721, "lat": 35.259949}}, {"id": 312862, "name": "Halfeti", "country": "TR", "coord": {"lon": 37.868961, "lat": 37.247292}}, {"id": 6556367, "name": "Halfing", "country": "DE", "coord": {"lon": 12.2791, "lat": 47.952499}}, {"id": 2911556, "name": "Halfing", "country": "DE", "coord": {"lon": 12.27525, "lat": 47.951969}}, {"id": 5969185, "name": "Halfmoon Bay", "country": "CA", "coord": {"lon": -123.919441, "lat": 49.51635}}, {"id": 4357176, "name": "Halfway", "country": "US", "coord": {"lon": -77.758881, "lat": 39.620651}}, {"id": 998210, "name": "Halfway House", "country": "ZA", "coord": {"lon": 28.126369, "lat": -26.00526}}, {"id": 5192391, "name": "Halfway House", "country": "US", "coord": {"lon": -75.643242, "lat": 40.28204}}, {"id": 4627102, "name": "Halfway Town (historical)", "country": "US", "coord": {"lon": -84.084633, "lat": 35.536751}}, {"id": 283806, "name": "Halhul", "country": "PS", "coord": {"lon": 35.105438, "lat": 31.578581}}, {"id": 6942554, "name": "Haliburton", "country": "CA", "coord": {"lon": -78.507607, "lat": 45.045872}}, {"id": 862940, "name": "Halidere", "country": "TR", "coord": {"lon": 29.75223, "lat": 40.716042}}, {"id": 6324729, "name": "Halifax", "country": "CA", "coord": {"lon": -63.572392, "lat": 44.645329}}, {"id": 2647632, "name": "Halifax", "country": "GB", "coord": {"lon": -1.85, "lat": 53.716671}}, {"id": 5969423, "name": "Halifax", "country": "CA", "coord": {"lon": -63.57333, "lat": 44.646}}, {"id": 4469617, "name": "Halifax", "country": "US", "coord": {"lon": -77.589417, "lat": 36.328491}}, {"id": 4762755, "name": "Halifax", "country": "US", "coord": {"lon": -78.928337, "lat": 36.765968}}, {"id": 4938652, "name": "Halifax", "country": "US", "coord": {"lon": -70.861977, "lat": 41.991211}}, {"id": 4469619, "name": "Halifax County", "country": "US", "coord": {"lon": -77.649696, "lat": 36.250149}}, {"id": 1711943, "name": "Haligue", "country": "PH", "coord": {"lon": 121.116669, "lat": 13.66667}}, {"id": 659350, "name": "Halikko", "country": "FI", "coord": {"lon": 23.08333, "lat": 60.400002}}, {"id": 7857768, "name": "Halimpu", "country": "ID", "coord": {"lon": 107.666801, "lat": -7.4333}}, {"id": 7522271, "name": "Halinga vald", "country": "EE", "coord": {"lon": 24.480511, "lat": 58.625858}}, {"id": 2911544, "name": "Halingerort", "country": "DE", "coord": {"lon": 8.48333, "lat": 52.366669}}, {"id": 771150, "name": "Halinow", "country": "PL", "coord": {"lon": 21.355101, "lat": 52.228802}}, {"id": 1270484, "name": "Halisahar", "country": "IN", "coord": {"lon": 88.419441, "lat": 22.94972}}, {"id": 1515878, "name": "Haliun", "country": "MN", "coord": {"lon": 96.162392, "lat": 45.9296}}, {"id": 2037045, "name": "Haliut", "country": "CN", "coord": {"lon": 108.519722, "lat": 41.55611}}, {"id": 1270482, "name": "Haliyal", "country": "IN", "coord": {"lon": 74.76667, "lat": 15.33333}}, {"id": 592200, "name": "Haljala", "country": "EE", "coord": {"lon": 26.261391, "lat": 59.433609}}, {"id": 7522272, "name": "Haljala vald", "country": "EE", "coord": {"lon": 26.22015, "lat": 59.454269}}, {"id": 2708889, "name": "Haljarp", "country": "SE", "coord": {"lon": 15.45, "lat": 57.633331}}, {"id": 745977, "name": "Halkal\u0131", "country": "TR", "coord": {"lon": 28.78944, "lat": 41.036671}}, {"id": 312817, "name": "Halkapinar", "country": "TR", "coord": {"lon": 34.187431, "lat": 37.433941}}, {"id": 5969452, "name": "Halkirk", "country": "CA", "coord": {"lon": -112.151817, "lat": 52.28344}}, {"id": 2647629, "name": "Halkyn", "country": "GB", "coord": {"lon": -3.19016, "lat": 53.225559}}, {"id": 7872439, "name": "Hall", "country": "AT", "coord": {"lon": 14.44597, "lat": 47.617599}}, {"id": 2776954, "name": "Hall", "country": "AT", "coord": {"lon": 14.45, "lat": 47.599998}}, {"id": 5969475, "name": "Hall Beach", "country": "CA", "coord": {"lon": -81.235977, "lat": 68.791344}}, {"id": 4198821, "name": "Hall County", "country": "US", "coord": {"lon": -83.783234, "lat": 34.316769}}, {"id": 5069587, "name": "Hall County", "country": "US", "coord": {"lon": -98.5009, "lat": 40.86668}}, {"id": 4538234, "name": "Hall Park", "country": "US", "coord": {"lon": -97.406418, "lat": 35.237011}}, {"id": 7873622, "name": "Hall in Tirol", "country": "AT", "coord": {"lon": 11.50225, "lat": 47.281212}}, {"id": 2764958, "name": "Hall in Tirol", "country": "AT", "coord": {"lon": 11.51667, "lat": 47.283329}}, {"id": 2708821, "name": "Hallabrottet", "country": "SE", "coord": {"lon": 15.2, "lat": 59.116669}}, {"id": 2164062, "name": "Hallam", "country": "AU", "coord": {"lon": 145.266663, "lat": -38.01667}}, {"id": 5192413, "name": "Hallam", "country": "US", "coord": {"lon": -76.604134, "lat": 40.004822}}, {"id": 4157898, "name": "Hallandale Beach", "country": "US", "coord": {"lon": -80.148376, "lat": 25.981199}}, {"id": 2708794, "name": "Hallands L\u00e4n", "country": "SE", "coord": {"lon": 13, "lat": 56.75}}, {"id": 7286027, "name": "Hallau", "country": "CH", "coord": {"lon": 8.44315, "lat": 47.70047}}, {"id": 2660418, "name": "Hallau", "country": "CH", "coord": {"lon": 8.45827, "lat": 47.69648}}, {"id": 2911533, "name": "Hallbach", "country": "DE", "coord": {"lon": 13.31667, "lat": 50.700001}}, {"id": 6556203, "name": "Hallbergmoos", "country": "DE", "coord": {"lon": 11.744, "lat": 48.309502}}, {"id": 2911530, "name": "Hallbergmoos", "country": "DE", "coord": {"lon": 11.75142, "lat": 48.327469}}, {"id": 2708710, "name": "Hallbybrunn", "country": "SE", "coord": {"lon": 16.433331, "lat": 59.383331}}, {"id": 2796697, "name": "Halle", "country": "BE", "coord": {"lon": 4.64636, "lat": 51.24118}}, {"id": 2796696, "name": "Halle", "country": "BE", "coord": {"lon": 4.23454, "lat": 50.733849}}, {"id": 2911520, "name": "Halle", "country": "DE", "coord": {"lon": 8.36667, "lat": 52.066669}}, {"id": 6552506, "name": "Halle", "country": "DE", "coord": {"lon": 9.56667, "lat": 51.983299}}, {"id": 2911521, "name": "Halle", "country": "DE", "coord": {"lon": 9.56532, "lat": 51.991219}}, {"id": 2911522, "name": "Halle (Saale)", "country": "DE", "coord": {"lon": 12, "lat": 51.5}}, {"id": 7289614, "name": "Halle Neustadt", "country": "DE", "coord": {"lon": 11.91605, "lat": 51.47924}}, {"id": 5969494, "name": "Hallebourg", "country": "CA", "coord": {"lon": -83.516533, "lat": 49.66692}}, {"id": 2708663, "name": "Halleforsnas", "country": "SE", "coord": {"lon": 16.5, "lat": 59.166672}}, {"id": 7872197, "name": "Hallein", "country": "AT", "coord": {"lon": 13.09146, "lat": 47.682739}}, {"id": 2776951, "name": "Hallein", "country": "AT", "coord": {"lon": 13.1, "lat": 47.683331}}, {"id": 2911514, "name": "Hallenberg", "country": "DE", "coord": {"lon": 8.63333, "lat": 51.116669}}, {"id": 3014050, "name": "Hallencourt", "country": "FR", "coord": {"lon": 1.87649, "lat": 49.992008}}, {"id": 3014049, "name": "Hallennes-lez-Haubourdin", "country": "FR", "coord": {"lon": 2.96667, "lat": 50.616669}}, {"id": 6291169, "name": "Haller", "country": "CH", "coord": {"lon": 8.60483, "lat": 47.500488}}, {"id": 2960497, "name": "Haller", "country": "LU", "coord": {"lon": 6.2825, "lat": 49.8125}}, {"id": 6437558, "name": "Hallering", "country": "FR", "coord": {"lon": 6.55, "lat": 49.116669}}, {"id": 3014048, "name": "Hallering", "country": "FR", "coord": {"lon": 6.55308, "lat": 49.120159}}, {"id": 6556781, "name": "Hallerndorf", "country": "DE", "coord": {"lon": 10.9833, "lat": 49.766701}}, {"id": 2911491, "name": "Hallerndorf", "country": "DE", "coord": {"lon": 10.97946, "lat": 49.75909}}, {"id": 3098048, "name": "Hallerowo", "country": "PL", "coord": {"lon": 18.40206, "lat": 54.798729}}, {"id": 2070185, "name": "Hallett", "country": "AU", "coord": {"lon": 138.883331, "lat": -33.400002}}, {"id": 4695866, "name": "Hallettsville", "country": "US", "coord": {"lon": -96.941093, "lat": 29.44385}}, {"id": 6553492, "name": "Hallgarten", "country": "DE", "coord": {"lon": 7.78333, "lat": 49.766701}}, {"id": 2911483, "name": "Hallgarten", "country": "DE", "coord": {"lon": 7.78333, "lat": 49.76667}}, {"id": 3014044, "name": "Hallines", "country": "FR", "coord": {"lon": 2.22629, "lat": 50.710869}}, {"id": 2647616, "name": "Halling", "country": "GB", "coord": {"lon": 0.4452, "lat": 51.351421}}, {"id": 5029154, "name": "Hallock", "country": "US", "coord": {"lon": -96.946449, "lat": 48.774429}}, {"id": 2164054, "name": "Hallora", "country": "AU", "coord": {"lon": 145.833328, "lat": -38.26667}}, {"id": 4966320, "name": "Hallowell", "country": "US", "coord": {"lon": -69.790878, "lat": 44.2859}}, {"id": 4627194, "name": "Halls", "country": "US", "coord": {"lon": -89.396179, "lat": 35.875629}}, {"id": 7839513, "name": "Halls Creek", "country": "AU", "coord": {"lon": 127.452042, "lat": -19.00069}}, {"id": 2070176, "name": "Halls Creek", "country": "AU", "coord": {"lon": 127.76667, "lat": -18.26667}}, {"id": 2164044, "name": "Halls Gap", "country": "AU", "coord": {"lon": 142.519257, "lat": -37.139111}}, {"id": 5969607, "name": "Halls Harbour", "country": "CA", "coord": {"lon": -64.615471, "lat": 45.20015}}, {"id": 2708511, "name": "Hallsberg", "country": "SE", "coord": {"lon": 15.11174, "lat": 59.065701}}, {"id": 6554691, "name": "Hallschlag", "country": "DE", "coord": {"lon": 6.43333, "lat": 50.349998}}, {"id": 2911464, "name": "Hallschlag", "country": "DE", "coord": {"lon": 6.43333, "lat": 50.349998}}, {"id": 2911463, "name": "Hallstadt", "country": "DE", "coord": {"lon": 10.87539, "lat": 49.929008}}, {"id": 2708429, "name": "Hallstahammar", "country": "SE", "coord": {"lon": 16.22846, "lat": 59.613949}}, {"id": 2708426, "name": "Hallstavik", "country": "SE", "coord": {"lon": 18.6, "lat": 60.049999}}, {"id": 5192431, "name": "Hallstead", "country": "US", "coord": {"lon": -75.74324, "lat": 41.961189}}, {"id": 2164042, "name": "Hallston", "country": "AU", "coord": {"lon": 146.033325, "lat": -38.366669}}, {"id": 4389293, "name": "Hallsville", "country": "US", "coord": {"lon": -92.220741, "lat": 39.116989}}, {"id": 4695894, "name": "Hallsville", "country": "US", "coord": {"lon": -94.574089, "lat": 32.504318}}, {"id": 6438272, "name": "Halluin", "country": "FR", "coord": {"lon": 3.13333, "lat": 50.783329}}, {"id": 3014034, "name": "Halluin", "country": "FR", "coord": {"lon": 3.12611, "lat": 50.786282}}, {"id": 2754930, "name": "Hallum", "country": "NL", "coord": {"lon": 5.78379, "lat": 53.306568}}, {"id": 6549877, "name": "Hallungen", "country": "DE", "coord": {"lon": 10.3333, "lat": 51.133301}}, {"id": 2911461, "name": "Hallungen", "country": "DE", "coord": {"lon": 10.33333, "lat": 51.133331}}, {"id": 7873296, "name": "Hallwang", "country": "AT", "coord": {"lon": 13.09128, "lat": 47.84676}}, {"id": 2776938, "name": "Hallwang", "country": "AT", "coord": {"lon": 13.08333, "lat": 47.849998}}, {"id": 676358, "name": "Halmagel", "country": "RO", "coord": {"lon": 22.616671, "lat": 46.26667}}, {"id": 676356, "name": "Halmagiu", "country": "RO", "coord": {"lon": 22.58333, "lat": 46.26667}}, {"id": 720228, "name": "Halmaj", "country": "HU", "coord": {"lon": 21, "lat": 48.25}}, {"id": 676354, "name": "Halmasd", "country": "RO", "coord": {"lon": 22.616671, "lat": 47.150002}}, {"id": 676351, "name": "Halmeu", "country": "RO", "coord": {"lon": 23.01667, "lat": 47.966671}}, {"id": 2708365, "name": "Halmstad", "country": "SE", "coord": {"lon": 12.85676, "lat": 56.674461}}, {"id": 2708366, "name": "Halmstad", "country": "SE", "coord": {"lon": 13.03333, "lat": 55.950001}}, {"id": 2708363, "name": "Halmstads Kommun", "country": "SE", "coord": {"lon": 12.86667, "lat": 56.700001}}, {"id": 3060151, "name": "Halny", "country": "SK", "coord": {"lon": 19.667219, "lat": 48.81926}}, {"id": 1711941, "name": "Halog West", "country": "PH", "coord": {"lon": 120.414703, "lat": 16.3668}}, {"id": 1270474, "name": "Halol", "country": "IN", "coord": {"lon": 73.466667, "lat": 22.5}}, {"id": 2620871, "name": "Hals", "country": "DK", "coord": {"lon": 10.30807, "lat": 56.99609}}, {"id": 6559320, "name": "Halsbach", "country": "DE", "coord": {"lon": 12.68307, "lat": 48.115711}}, {"id": 2911443, "name": "Halsbach", "country": "DE", "coord": {"lon": 12.68333, "lat": 48.133331}}, {"id": 2911426, "name": "Halsbrucke", "country": "DE", "coord": {"lon": 13.35, "lat": 50.950001}}, {"id": 6548518, "name": "Halsbr\u00fccke", "country": "DE", "coord": {"lon": 13.35, "lat": 50.950001}}, {"id": 6554434, "name": "Halsdorf", "country": "DE", "coord": {"lon": 6.36667, "lat": 49.9333}}, {"id": 2911423, "name": "Halsdorf", "country": "DE", "coord": {"lon": 6.36667, "lat": 49.933331}}, {"id": 6553899, "name": "Halsenbach", "country": "DE", "coord": {"lon": 7.55, "lat": 50.166698}}, {"id": 2911419, "name": "Halsenbach", "country": "DE", "coord": {"lon": 7.55, "lat": 50.166672}}, {"id": 5729974, "name": "Halsey", "country": "US", "coord": {"lon": -123.10981, "lat": 44.38401}}, {"id": 2647606, "name": "Halsham", "country": "GB", "coord": {"lon": -0.0745, "lat": 53.729851}}, {"id": 628317, "name": "Halshany", "country": "BY", "coord": {"lon": 26.01368, "lat": 54.2565}}, {"id": 6543941, "name": "Halsn\u00e6s Kommune", "country": "DK", "coord": {"lon": 11.94214, "lat": 55.967651}}, {"id": 6440408, "name": "Halsou", "country": "FR", "coord": {"lon": -1.41667, "lat": 43.366669}}, {"id": 3014031, "name": "Halsou", "country": "FR", "coord": {"lon": -1.42436, "lat": 43.376331}}, {"id": 659233, "name": "Halssila", "country": "FI", "coord": {"lon": 25.792471, "lat": 62.243271}}, {"id": 6692025, "name": "Halssilanrinne", "country": "FI", "coord": {"lon": 25.80611, "lat": 62.245831}}, {"id": 4272558, "name": "Halstead", "country": "US", "coord": {"lon": -97.508652, "lat": 38.0014}}, {"id": 2647605, "name": "Halstead", "country": "GB", "coord": {"lon": 0.13269, "lat": 51.327961}}, {"id": 6551682, "name": "Halstenbek", "country": "DE", "coord": {"lon": 9.8372, "lat": 53.6334}}, {"id": 2911408, "name": "Halstenbek", "country": "DE", "coord": {"lon": 9.85, "lat": 53.633331}}, {"id": 2754922, "name": "Halsteren", "country": "NL", "coord": {"lon": 4.26785, "lat": 51.528339}}, {"id": 2911404, "name": "Halstern", "country": "DE", "coord": {"lon": 8.7, "lat": 52.23333}}, {"id": 659232, "name": "Halsua", "country": "FI", "coord": {"lon": 24.25, "lat": 63.416672}}, {"id": 659231, "name": "Halsua", "country": "FI", "coord": {"lon": 24.16667, "lat": 63.466671}}, {"id": 2190329, "name": "Halswell", "country": "NZ", "coord": {"lon": 172.566666, "lat": -43.583328}}, {"id": 2660415, "name": "Halten", "country": "CH", "coord": {"lon": 8.16667, "lat": 46.900002}}, {"id": 2911395, "name": "Haltern", "country": "DE", "coord": {"lon": 7.18163, "lat": 51.74297}}, {"id": 7921660, "name": "Halteu", "country": "ID", "coord": {"lon": 107.899101, "lat": -7.0836}}, {"id": 2911389, "name": "Haltingen", "country": "DE", "coord": {"lon": 7.61667, "lat": 47.616669}}, {"id": 4695912, "name": "Haltom City", "country": "US", "coord": {"lon": -97.26918, "lat": 32.799568}}, {"id": 2164036, "name": "Halton", "country": "AU", "coord": {"lon": 151.516663, "lat": -32.316669}}, {"id": 2647599, "name": "Halton", "country": "GB", "coord": {"lon": -2.7, "lat": 53.316669}}, {"id": 2647593, "name": "Haltwhistle", "country": "GB", "coord": {"lon": -2.45682, "lat": 54.971008}}, {"id": 1270466, "name": "Halvad", "country": "IN", "coord": {"lon": 71.183327, "lat": 23.01667}}, {"id": 2911384, "name": "Halver", "country": "DE", "coord": {"lon": 7.49817, "lat": 51.186119}}, {"id": 6552632, "name": "Halvesbostel", "country": "DE", "coord": {"lon": 9.6, "lat": 53.349998}}, {"id": 2911379, "name": "Halvesbostel", "country": "DE", "coord": {"lon": 9.6, "lat": 53.349998}}, {"id": 355795, "name": "Halwan", "country": "EG", "coord": {"lon": 31.30084, "lat": 29.84144}}, {"id": 2164034, "name": "Haly Creek", "country": "AU", "coord": {"lon": 151.75, "lat": -26.683331}}, {"id": 6949212, "name": "Ham", "country": "GB", "coord": {"lon": -0.30933, "lat": 51.436192}}, {"id": 3014029, "name": "Ham", "country": "FR", "coord": {"lon": 3.07301, "lat": 49.747211}}, {"id": 5029181, "name": "Ham Lake", "country": "US", "coord": {"lon": -93.249947, "lat": 45.25024}}, {"id": 5969986, "name": "Ham-Nord", "country": "CA", "coord": {"lon": -71.649094, "lat": 45.90007}}, {"id": 3014006, "name": "Ham-sous-Varsberg", "country": "FR", "coord": {"lon": 6.64626, "lat": 49.180309}}, {"id": 1854585, "name": "Hama", "country": "JP", "coord": {"lon": 128.816666, "lat": 32.650002}}, {"id": 1863310, "name": "Hamada", "country": "JP", "coord": {"lon": 132.083328, "lat": 34.883331}}, {"id": 132144, "name": "Hamadan", "country": "IR", "coord": {"lon": 48.514561, "lat": 34.799221}}, {"id": 170017, "name": "Hamah", "country": "SY", "coord": {"lon": 36.757832, "lat": 35.13179}}, {"id": 1863293, "name": "Hamakita", "country": "JP", "coord": {"lon": 137.783325, "lat": 34.799999}}, {"id": 1863289, "name": "Hamamatsu", "country": "JP", "coord": {"lon": 137.733337, "lat": 34.700001}}, {"id": 745955, "name": "Hamamozu", "country": "TR", "coord": {"lon": 35.025799, "lat": 40.78476}}, {"id": 1863282, "name": "Hamanaka", "country": "JP", "coord": {"lon": 139.783325, "lat": 38.816669}}, {"id": 1863279, "name": "Hamanoichi", "country": "JP", "coord": {"lon": 130.733337, "lat": 31.716669}}, {"id": 1863276, "name": "Hamanose", "country": "JP", "coord": {"lon": 135.149994, "lat": 33.883331}}, {"id": 2620838, "name": "Hamar", "country": "FO", "coord": {"lon": -6.95, "lat": 61.599998}}, {"id": 3154084, "name": "Hamar", "country": "NO", "coord": {"lon": 11.06798, "lat": 60.794498}}, {"id": 6453351, "name": "Hamar", "country": "NO", "coord": {"lon": 11.0783, "lat": 60.79451}}, {"id": 6427257, "name": "Hamars", "country": "FR", "coord": {"lon": -0.55, "lat": 49}}, {"id": 3014027, "name": "Hamars", "country": "FR", "coord": {"lon": -0.54616, "lat": 48.998329}}, {"id": 2037042, "name": "Hamatang", "country": "CN", "coord": {"lon": 129.499191, "lat": 43.42305}}, {"id": 2131651, "name": "Hamatonbetsu", "country": "JP", "coord": {"lon": 142.383331, "lat": 45.133331}}, {"id": 2911369, "name": "Hamb", "country": "DE", "coord": {"lon": 6.38333, "lat": 51.566669}}, {"id": 2911360, "name": "Hambach", "country": "DE", "coord": {"lon": 6.45, "lat": 50.900002}}, {"id": 2911364, "name": "Hambach", "country": "DE", "coord": {"lon": 10.21667, "lat": 50.099998}}, {"id": 6554035, "name": "Hambach", "country": "DE", "coord": {"lon": 7.98333, "lat": 50.400002}}, {"id": 2911362, "name": "Hambach", "country": "DE", "coord": {"lon": 7.98333, "lat": 50.400002}}, {"id": 3014026, "name": "Hambach", "country": "FR", "coord": {"lon": 7.04246, "lat": 49.06263}}, {"id": 1244926, "name": "Hambantota", "country": "LK", "coord": {"lon": 81.1185, "lat": 6.1241}}, {"id": 7844329, "name": "Hamberang Sabrang", "country": "ID", "coord": {"lon": 106.403198, "lat": -6.538}}, {"id": 6552272, "name": "Hamberge", "country": "DE", "coord": {"lon": 10.5833, "lat": 53.833302}}, {"id": 2911325, "name": "Hamberge", "country": "DE", "coord": {"lon": 10.58333, "lat": 53.833328}}, {"id": 6552705, "name": "Hambergen", "country": "DE", "coord": {"lon": 8.83333, "lat": 53.3167}}, {"id": 2911322, "name": "Hambergen", "country": "DE", "coord": {"lon": 8.83333, "lat": 53.316669}}, {"id": 2647585, "name": "Hamble", "country": "GB", "coord": {"lon": -1.32432, "lat": 50.859661}}, {"id": 4627251, "name": "Hamblen County", "country": "US", "coord": {"lon": -83.266563, "lat": 36.200089}}, {"id": 2647580, "name": "Hambleton", "country": "GB", "coord": {"lon": -1.16667, "lat": 53.76667}}, {"id": 7290607, "name": "Hambleton District", "country": "GB", "coord": {"lon": -1.33708, "lat": 54.250259}}, {"id": 2911318, "name": "Hamborg", "country": "DE", "coord": {"lon": 10.58687, "lat": 52.87027}}, {"id": 2911314, "name": "Hamborn", "country": "DE", "coord": {"lon": 6.76667, "lat": 51.48333}}, {"id": 2911308, "name": "Hambrucken", "country": "DE", "coord": {"lon": 8.54056, "lat": 49.189999}}, {"id": 6555609, "name": "Hambr\u00fccken", "country": "DE", "coord": {"lon": 8.54056, "lat": 49.189999}}, {"id": 6553689, "name": "Hambuch", "country": "DE", "coord": {"lon": 7.18333, "lat": 50.233299}}, {"id": 2911306, "name": "Hambuch", "country": "DE", "coord": {"lon": 7.18333, "lat": 50.23333}}, {"id": 2911300, "name": "Hambuhren", "country": "DE", "coord": {"lon": 9.98333, "lat": 52.633331}}, {"id": 4627266, "name": "Hamburg", "country": "US", "coord": {"lon": -88.304207, "lat": 35.09481}}, {"id": 4859603, "name": "Hamburg", "country": "US", "coord": {"lon": -95.657768, "lat": 40.60445}}, {"id": 2911298, "name": "Hamburg", "country": "DE", "coord": {"lon": 10, "lat": 53.549999}}, {"id": 4113607, "name": "Hamburg", "country": "US", "coord": {"lon": -91.79763, "lat": 33.22818}}, {"id": 5098760, "name": "Hamburg", "country": "US", "coord": {"lon": -74.573479, "lat": 41.148479}}, {"id": 5119833, "name": "Hamburg", "country": "US", "coord": {"lon": -78.829483, "lat": 42.715889}}, {"id": 5192444, "name": "Hamburg", "country": "US", "coord": {"lon": -75.98188, "lat": 40.555649}}, {"id": 6547395, "name": "Hamburg, Freie und Hansestadt", "country": "DE", "coord": {"lon": 10, "lat": 53.549999}}, {"id": 2911288, "name": "Hamburg-Mitte", "country": "DE", "coord": {"lon": 10.01667, "lat": 53.549999}}, {"id": 6435433, "name": "Hambye", "country": "FR", "coord": {"lon": -1.26667, "lat": 48.950001}}, {"id": 3014023, "name": "Hambye", "country": "FR", "coord": {"lon": -1.26417, "lat": 48.947979}}, {"id": 2911301, "name": "Hamb\u00fchl", "country": "DE", "coord": {"lon": 10.53333, "lat": 49.616669}}, {"id": 6552558, "name": "Hamb\u00fchren", "country": "DE", "coord": {"lon": 9.98333, "lat": 52.633301}}, {"id": 676343, "name": "Hamcearca", "country": "RO", "coord": {"lon": 28.366671, "lat": 45.116669}}, {"id": 4835654, "name": "Hamden", "country": "US", "coord": {"lon": -72.896767, "lat": 41.395931}}, {"id": 2911283, "name": "Hamdorf", "country": "DE", "coord": {"lon": 10.28333, "lat": 53.98333}}, {"id": 6551851, "name": "Hamdorf", "country": "DE", "coord": {"lon": 9.53333, "lat": 54.233299}}, {"id": 2911282, "name": "Hamdorf", "country": "DE", "coord": {"lon": 9.53333, "lat": 54.23333}}, {"id": 659184, "name": "Hameenkyro", "country": "FI", "coord": {"lon": 23.195311, "lat": 61.63913}}, {"id": 659180, "name": "Hameenlinna", "country": "FI", "coord": {"lon": 24.46434, "lat": 60.99596}}, {"id": 2070172, "name": "Hamel", "country": "AU", "coord": {"lon": 115.916672, "lat": -32.883331}}, {"id": 6947750, "name": "Hameldon Hill", "country": "GB", "coord": {"lon": -2.2919, "lat": 53.755699}}, {"id": 2911275, "name": "Hamelhausen", "country": "DE", "coord": {"lon": 9.28293, "lat": 52.780861}}, {"id": 6612583, "name": "Hamelin", "country": "FR", "coord": {"lon": -1.21667, "lat": 48.549999}}, {"id": 3014017, "name": "Hamelin", "country": "FR", "coord": {"lon": -1.20856, "lat": 48.543049}}, {"id": 2911271, "name": "Hameln", "country": "DE", "coord": {"lon": 9.35623, "lat": 52.10397}}, {"id": 6552728, "name": "Hamersen", "country": "DE", "coord": {"lon": 9.48333, "lat": 53.25}}, {"id": 2911260, "name": "Hamersen", "country": "DE", "coord": {"lon": 9.48034, "lat": 53.25592}}, {"id": 2911259, "name": "Hamersleben", "country": "DE", "coord": {"lon": 11.08333, "lat": 52.066669}}, {"id": 2070165, "name": "Hamersley", "country": "AU", "coord": {"lon": 115.807571, "lat": -31.84898}}, {"id": 3014014, "name": "Hames-Boucres", "country": "FR", "coord": {"lon": 1.84338, "lat": 50.881779}}, {"id": 2911251, "name": "Hamfelde in Lauenburg", "country": "DE", "coord": {"lon": 10.44817, "lat": 53.596581}}, {"id": 2044245, "name": "Hamgy\u014fng-bukto", "country": "KP", "coord": {"lon": 129.408325, "lat": 41.903061}}, {"id": 1877450, "name": "Hamgy\u014fng-namdo", "country": "KP", "coord": {"lon": 127.53083, "lat": 40.240002}}, {"id": 1877449, "name": "Hamhung", "country": "KP", "coord": {"lon": 127.536392, "lat": 39.918331}}, {"id": 1529484, "name": "Hami", "country": "CN", "coord": {"lon": 93.449997, "lat": 42.799999}}, {"id": 2911250, "name": "Hamich", "country": "DE", "coord": {"lon": 6.31667, "lat": 50.783329}}, {"id": 173842, "name": "Hamidiyah", "country": "SY", "coord": {"lon": 35.94495, "lat": 34.712551}}, {"id": 2647570, "name": "Hamilton", "country": "GB", "coord": {"lon": -4.03333, "lat": 55.76667}}, {"id": 3573198, "name": "Hamilton", "country": "BM", "coord": {"lon": -64.783607, "lat": 32.293892}}, {"id": 3573197, "name": "Hamilton", "country": "BM", "coord": {"lon": -64.777969, "lat": 32.291489}}, {"id": 5969782, "name": "Hamilton", "country": "CA", "coord": {"lon": -79.849632, "lat": 43.250111}}, {"id": 2164025, "name": "Hamilton", "country": "AU", "coord": {"lon": 142.022018, "lat": -37.744251}}, {"id": 2207245, "name": "Hamilton", "country": "AU", "coord": {"lon": 153.066666, "lat": -27.441669}}, {"id": 5969785, "name": "Hamilton", "country": "CA", "coord": {"lon": -79.949638, "lat": 43.23341}}, {"id": 2190324, "name": "Hamilton", "country": "NZ", "coord": {"lon": 175.283325, "lat": -37.783329}}, {"id": 4513575, "name": "Hamilton", "country": "US", "coord": {"lon": -84.56134, "lat": 39.399502}}, {"id": 4065965, "name": "Hamilton", "country": "US", "coord": {"lon": -87.98864, "lat": 34.142319}}, {"id": 4198912, "name": "Hamilton", "country": "US", "coord": {"lon": -84.874931, "lat": 32.757912}}, {"id": 4389309, "name": "Hamilton", "country": "US", "coord": {"lon": -93.998268, "lat": 39.743622}}, {"id": 4695938, "name": "Hamilton", "country": "US", "coord": {"lon": -98.123917, "lat": 31.70377}}, {"id": 4894981, "name": "Hamilton", "country": "US", "coord": {"lon": -91.339043, "lat": 40.396431}}, {"id": 4921083, "name": "Hamilton", "country": "US", "coord": {"lon": -84.912743, "lat": 41.533661}}, {"id": 4938697, "name": "Hamilton", "country": "US", "coord": {"lon": -71.76757, "lat": 42.256199}}, {"id": 5119842, "name": "Hamilton", "country": "US", "coord": {"lon": -75.544617, "lat": 42.827011}}, {"id": 5655959, "name": "Hamilton", "country": "US", "coord": {"lon": -114.16037, "lat": 46.246868}}, {"id": 7910041, "name": "Hamilton City", "country": "NZ", "coord": {"lon": 175.25975, "lat": -37.777901}}, {"id": 5355074, "name": "Hamilton City", "country": "US", "coord": {"lon": -122.013588, "lat": 39.742661}}, {"id": 4695945, "name": "Hamilton County", "country": "US", "coord": {"lon": -98.083641, "lat": 31.71682}}, {"id": 4921085, "name": "Hamilton County", "country": "US", "coord": {"lon": -86.008598, "lat": 40.045589}}, {"id": 4513583, "name": "Hamilton County", "country": "US", "coord": {"lon": -84.533279, "lat": 39.183392}}, {"id": 5119847, "name": "Hamilton County", "country": "US", "coord": {"lon": -74.50016, "lat": 43.666729}}, {"id": 4859624, "name": "Hamilton County", "country": "US", "coord": {"lon": -93.716881, "lat": 42.383308}}, {"id": 4627306, "name": "Hamilton County", "country": "US", "coord": {"lon": -85.149963, "lat": 35.200069}}, {"id": 5098781, "name": "Hamilton Square", "country": "US", "coord": {"lon": -74.653214, "lat": 40.227329}}, {"id": 4293895, "name": "Hamim", "country": "US", "coord": {"lon": -83.313789, "lat": 38.127579}}, {"id": 659171, "name": "Hamina", "country": "FI", "coord": {"lon": 27.16667, "lat": 60.549999}}, {"id": 659169, "name": "Hamina", "country": "FI", "coord": {"lon": 27.197941, "lat": 60.56974}}, {"id": 5969883, "name": "Hamiota", "country": "CA", "coord": {"lon": -100.596992, "lat": 50.180611}}, {"id": 1270454, "name": "Hamirpur", "country": "IN", "coord": {"lon": 76.51667, "lat": 31.683331}}, {"id": 1270455, "name": "Hamirpur", "country": "IN", "coord": {"lon": 80.150002, "lat": 25.950001}}, {"id": 2960494, "name": "Hamiville", "country": "LU", "coord": {"lon": 5.90417, "lat": 50.046108}}, {"id": 4469730, "name": "Hamlet", "country": "US", "coord": {"lon": -79.694221, "lat": 34.88488}}, {"id": 2070147, "name": "Hamley Bridge", "country": "AU", "coord": {"lon": 138.683334, "lat": -34.366669}}, {"id": 4807976, "name": "Hamlin", "country": "US", "coord": {"lon": -82.102921, "lat": 38.278702}}, {"id": 5119868, "name": "Hamlin", "country": "US", "coord": {"lon": -77.92112, "lat": 43.30312}}, {"id": 5522769, "name": "Hamlin", "country": "US", "coord": {"lon": -100.126488, "lat": 32.88483}}, {"id": 2911246, "name": "Hamm", "country": "DE", "coord": {"lon": 6.6, "lat": 49.566669}}, {"id": 2911240, "name": "Hamm", "country": "DE", "coord": {"lon": 7.82089, "lat": 51.680328}}, {"id": 2911242, "name": "Hamm", "country": "DE", "coord": {"lon": 7.66667, "lat": 50.76667}}, {"id": 6547434, "name": "Hamm", "country": "DE", "coord": {"lon": 6.41667, "lat": 50.016701}}, {"id": 2911243, "name": "Hamm", "country": "DE", "coord": {"lon": 6.41667, "lat": 50.01667}}, {"id": 6553135, "name": "Hamm, Stadt", "country": "DE", "coord": {"lon": 7.81335, "lat": 51.68021}}, {"id": 6549839, "name": "Hamma", "country": "DE", "coord": {"lon": 10.8833, "lat": 51.416698}}, {"id": 2911233, "name": "Hamma", "country": "DE", "coord": {"lon": 10.88333, "lat": 51.416672}}, {"id": 2494610, "name": "Hamma Bouziane", "country": "DZ", "coord": {"lon": 6.59603, "lat": 36.412048}}, {"id": 6552799, "name": "Hammah", "country": "DE", "coord": {"lon": 9.36667, "lat": 53.616699}}, {"id": 2911230, "name": "Hammah", "country": "DE", "coord": {"lon": 9.36667, "lat": 53.616669}}, {"id": 75239, "name": "Hammam Ali", "country": "YE", "coord": {"lon": 44.147629, "lat": 14.66371}}, {"id": 2494554, "name": "Hammam Bou Hadjar", "country": "DZ", "coord": {"lon": -0.96778, "lat": 35.378891}}, {"id": 408866, "name": "Hammam Damt", "country": "YE", "coord": {"lon": 44.670059, "lat": 14.09031}}, {"id": 2470579, "name": "Hammam Sousse", "country": "TN", "coord": {"lon": 10.60313, "lat": 35.860901}}, {"id": 2470588, "name": "Hammam-Lif", "country": "TN", "coord": {"lon": 10.34163, "lat": 36.728661}}, {"id": 2494548, "name": "Hammamet", "country": "DZ", "coord": {"lon": 7.95184, "lat": 35.44862}}, {"id": 3041777, "name": "Hammarland", "country": "AX", "coord": {"lon": 19.75, "lat": 60.25}}, {"id": 3041776, "name": "Hammarland", "country": "AX", "coord": {"lon": 19.75, "lat": 60.216671}}, {"id": 2708152, "name": "Hammarstrand", "country": "SE", "coord": {"lon": 16.353769, "lat": 63.110409}}, {"id": 2796640, "name": "Hamme", "country": "BE", "coord": {"lon": 4.13538, "lat": 51.08445}}, {"id": 2796637, "name": "Hamme", "country": "BE", "coord": {"lon": 4.13705, "lat": 51.098221}}, {"id": 2620835, "name": "Hammel", "country": "DK", "coord": {"lon": 9.86316, "lat": 56.257622}}, {"id": 2911218, "name": "Hammelbach", "country": "DE", "coord": {"lon": 8.83556, "lat": 49.636669}}, {"id": 2911214, "name": "Hammelburg", "country": "DE", "coord": {"lon": 9.9, "lat": 50.116669}}, {"id": 2911189, "name": "Hammenstedt", "country": "DE", "coord": {"lon": 10.05429, "lat": 51.69725}}, {"id": 2911173, "name": "Hammer", "country": "DE", "coord": {"lon": 13.98333, "lat": 53.599998}}, {"id": 2911167, "name": "Hammerau", "country": "DE", "coord": {"lon": 12.95, "lat": 47.799999}}, {"id": 7932378, "name": "Hammerbrook", "country": "DE", "coord": {"lon": 10.03042, "lat": 53.545269}}, {"id": 2911145, "name": "Hammerbrucke", "country": "DE", "coord": {"lon": 12.41667, "lat": 50.433331}}, {"id": 2911144, "name": "Hammerb\u00fchl", "country": "DE", "coord": {"lon": 11.28333, "lat": 49.700001}}, {"id": 779683, "name": "Hammerfest", "country": "NO", "coord": {"lon": 23.682091, "lat": 70.663361}}, {"id": 6453312, "name": "Hammerfest", "country": "NO", "coord": {"lon": 23.682949, "lat": 70.662567}}, {"id": 6553188, "name": "Hammersbach", "country": "DE", "coord": {"lon": 8.9905, "lat": 50.224701}}, {"id": 2911099, "name": "Hammersbach", "country": "DE", "coord": {"lon": 8.98333, "lat": 50.216671}}, {"id": 2911087, "name": "Hammerschrott", "country": "DE", "coord": {"lon": 11.55, "lat": 49.633331}}, {"id": 2911082, "name": "Hammersfeld", "country": "DE", "coord": {"lon": 11.05, "lat": 50.75}}, {"id": 2647567, "name": "Hammersmith", "country": "GB", "coord": {"lon": -0.22882, "lat": 51.493839}}, {"id": 6550242, "name": "Hammerstedt", "country": "DE", "coord": {"lon": 11.45, "lat": 50.950001}}, {"id": 2911077, "name": "Hammerstedt", "country": "DE", "coord": {"lon": 11.45428, "lat": 50.954208}}, {"id": 2911072, "name": "Hammerstein", "country": "DE", "coord": {"lon": 7.08333, "lat": 51.23333}}, {"id": 2911074, "name": "Hammerstein", "country": "DE", "coord": {"lon": 7.3, "lat": 49.683331}}, {"id": 6553829, "name": "Hammerstein", "country": "DE", "coord": {"lon": 7.35, "lat": 50.483299}}, {"id": 2911073, "name": "Hammerstein", "country": "DE", "coord": {"lon": 7.35, "lat": 50.48333}}, {"id": 2620814, "name": "Hammerum", "country": "DK", "coord": {"lon": 9.06121, "lat": 56.13361}}, {"id": 2796631, "name": "Hammeveer", "country": "BE", "coord": {"lon": 4.13333, "lat": 51.099998}}, {"id": 2911051, "name": "Hamminkeln", "country": "DE", "coord": {"lon": 6.58333, "lat": 51.73333}}, {"id": 6557516, "name": "Hamminkeln, Stadt", "country": "DE", "coord": {"lon": 6.62263, "lat": 51.737431}}, {"id": 4326868, "name": "Hammond", "country": "US", "coord": {"lon": -90.461197, "lat": 30.50436}}, {"id": 2070143, "name": "Hammond", "country": "AU", "coord": {"lon": 138.316666, "lat": -32.51667}}, {"id": 4921100, "name": "Hammond", "country": "US", "coord": {"lon": -87.500038, "lat": 41.58337}}, {"id": 5255427, "name": "Hammond", "country": "US", "coord": {"lon": -92.435753, "lat": 44.978859}}, {"id": 4502129, "name": "Hammonton", "country": "US", "coord": {"lon": -74.802391, "lat": 39.636509}}, {"id": 6559312, "name": "Hammoor", "country": "DE", "coord": {"lon": 10.25583, "lat": 53.72834}}, {"id": 2911044, "name": "Hammoor", "country": "DE", "coord": {"lon": 10.322, "lat": 53.713779}}, {"id": 4066045, "name": "Hamner Estates", "country": "US", "coord": {"lon": -87.548622, "lat": 33.277889}}, {"id": 3154000, "name": "Hamnvik", "country": "NO", "coord": {"lon": 17.17457, "lat": 68.778313}}, {"id": 2796630, "name": "Hamoir", "country": "BE", "coord": {"lon": 5.53462, "lat": 50.426998}}, {"id": 2796629, "name": "Hamoir", "country": "BE", "coord": {"lon": 5.53304, "lat": 50.42675}}, {"id": 2796628, "name": "Hamois", "country": "BE", "coord": {"lon": 5.15121, "lat": 50.334831}}, {"id": 2796627, "name": "Hamois", "country": "BE", "coord": {"lon": 5.15619, "lat": 50.340199}}, {"id": 3461712, "name": "Hamond", "country": "BR", "coord": {"lon": -48.25, "lat": -21.41667}}, {"id": 1710320, "name": "Hamoraon", "country": "PH", "coord": {"lon": 123.551514, "lat": 12.22564}}, {"id": 2070141, "name": "Hampden", "country": "AU", "coord": {"lon": 139.050003, "lat": -34.150002}}, {"id": 5969990, "name": "Hampden", "country": "CA", "coord": {"lon": -56.848259, "lat": 49.549999}}, {"id": 4938738, "name": "Hampden", "country": "US", "coord": {"lon": -72.413422, "lat": 42.06398}}, {"id": 4966371, "name": "Hampden", "country": "US", "coord": {"lon": -68.836983, "lat": 44.744518}}, {"id": 4938741, "name": "Hampden County", "country": "US", "coord": {"lon": -72.58287, "lat": 42.166759}}, {"id": 4762888, "name": "Hampden Sydney", "country": "US", "coord": {"lon": -78.459717, "lat": 37.242371}}, {"id": 1270448, "name": "Hampi", "country": "IN", "coord": {"lon": 76.466667, "lat": 15.33333}}, {"id": 2647554, "name": "Hampshire", "country": "GB", "coord": {"lon": -1.25, "lat": 51}}, {"id": 2163998, "name": "Hampshire", "country": "AU", "coord": {"lon": 145.783325, "lat": -41.26667}}, {"id": 4895016, "name": "Hampshire", "country": "US", "coord": {"lon": -88.530357, "lat": 42.097801}}, {"id": 4938757, "name": "Hampshire County", "country": "US", "coord": {"lon": -72.58287, "lat": 42.33342}}, {"id": 2163996, "name": "Hampstead", "country": "AU", "coord": {"lon": 152.733337, "lat": -27.700001}}, {"id": 5970014, "name": "Hampstead", "country": "CA", "coord": {"lon": -73.663071, "lat": 45.48064}}, {"id": 4357279, "name": "Hampstead", "country": "US", "coord": {"lon": -76.849983, "lat": 39.604832}}, {"id": 4469765, "name": "Hampstead", "country": "US", "coord": {"lon": -77.710533, "lat": 34.367668}}, {"id": 5087105, "name": "Hampstead", "country": "US", "coord": {"lon": -71.181168, "lat": 42.874531}}, {"id": 7292717, "name": "Hampstead Marshall", "country": "GB", "coord": {"lon": -1.40711, "lat": 51.387138}}, {"id": 2647550, "name": "Hampton", "country": "GB", "coord": {"lon": -0.36684, "lat": 51.421051}}, {"id": 2647549, "name": "Hampton", "country": "GB", "coord": {"lon": -2.38333, "lat": 52.466671}}, {"id": 5970018, "name": "Hampton", "country": "CA", "coord": {"lon": -65.853539, "lat": 45.528759}}, {"id": 5970016, "name": "Hampton", "country": "CA", "coord": {"lon": -63.465408, "lat": 46.216831}}, {"id": 4762894, "name": "Hampton", "country": "US", "coord": {"lon": -76.345222, "lat": 37.029869}}, {"id": 7932648, "name": "Hampton", "country": "AU", "coord": {"lon": 145.004593, "lat": -37.937229}}, {"id": 4113647, "name": "Hampton", "country": "US", "coord": {"lon": -92.469879, "lat": 33.537891}}, {"id": 4198972, "name": "Hampton", "country": "US", "coord": {"lon": -84.282982, "lat": 33.387058}}, {"id": 4357289, "name": "Hampton", "country": "US", "coord": {"lon": -76.584686, "lat": 39.422878}}, {"id": 4580983, "name": "Hampton", "country": "US", "coord": {"lon": -81.127609, "lat": 32.877941}}, {"id": 4859658, "name": "Hampton", "country": "US", "coord": {"lon": -93.202423, "lat": 42.74192}}, {"id": 4895027, "name": "Hampton", "country": "US", "coord": {"lon": -90.409302, "lat": 41.55587}}, {"id": 5087110, "name": "Hampton", "country": "US", "coord": {"lon": -70.838943, "lat": 42.937592}}, {"id": 5098787, "name": "Hampton", "country": "US", "coord": {"lon": -74.956001, "lat": 40.707039}}, {"id": 5119899, "name": "Hampton Bays", "country": "US", "coord": {"lon": -72.517593, "lat": 40.868992}}, {"id": 5087114, "name": "Hampton Beach", "country": "US", "coord": {"lon": -70.811996, "lat": 42.90731}}, {"id": 4580988, "name": "Hampton County", "country": "US", "coord": {"lon": -81.116493, "lat": 32.800171}}, {"id": 7932649, "name": "Hampton East", "country": "AU", "coord": {"lon": 145.028625, "lat": -37.936951}}, {"id": 5087122, "name": "Hampton Falls", "country": "US", "coord": {"lon": -70.863663, "lat": 42.916199}}, {"id": 5119907, "name": "Hampton Manor", "country": "US", "coord": {"lon": -73.728447, "lat": 42.620911}}, {"id": 2163990, "name": "Hampton Park", "country": "AU", "coord": {"lon": 145.25, "lat": -38.033329}}, {"id": 7301178, "name": "Hampton in Arden", "country": "GB", "coord": {"lon": -1.71563, "lat": 52.430439}}, {"id": 2647546, "name": "Hampton in Arden", "country": "GB", "coord": {"lon": -1.70271, "lat": 52.4254}}, {"id": 4157981, "name": "Hamptons at Boca Raton", "country": "US", "coord": {"lon": -80.185883, "lat": 26.38258}}, {"id": 2562998, "name": "Hamrun", "country": "MT", "coord": {"lon": 14.48444, "lat": 35.88472}}, {"id": 6693633, "name": "Hamstead Marshall", "country": "GB", "coord": {"lon": -1.40745, "lat": 51.386669}}, {"id": 2647542, "name": "Hamsterley", "country": "GB", "coord": {"lon": -1.81667, "lat": 54.683331}}, {"id": 1711908, "name": "Hamtic", "country": "PH", "coord": {"lon": 121.982399, "lat": 10.7023}}, {"id": 4995197, "name": "Hamtramck", "country": "US", "coord": {"lon": -83.049637, "lat": 42.392818}}, {"id": 312731, "name": "Hamur", "country": "TR", "coord": {"lon": 42.98917, "lat": 39.608891}}, {"id": 3051788, "name": "Hamvasb\u00e1nya", "country": "HU", "coord": {"lon": 18.5, "lat": 47.75}}, {"id": 6551449, "name": "Hamwarde", "country": "DE", "coord": {"lon": 10.4167, "lat": 53.450001}}, {"id": 2911013, "name": "Hamwarde", "country": "DE", "coord": {"lon": 10.41667, "lat": 53.450001}}, {"id": 6551852, "name": "Hamweddel", "country": "DE", "coord": {"lon": 9.61667, "lat": 54.1833}}, {"id": 2911010, "name": "Hamweddel", "country": "DE", "coord": {"lon": 9.61667, "lat": 54.183331}}, {"id": 1844533, "name": "Hamyang", "country": "KR", "coord": {"lon": 127.727661, "lat": 35.519379}}, {"id": 1513650, "name": "Hamza", "country": "UZ", "coord": {"lon": 71.49556, "lat": 40.426392}}, {"id": 745922, "name": "Hamzabey", "country": "TR", "coord": {"lon": 29.52639, "lat": 40.13583}}, {"id": 96165, "name": "Ham\u0101d\u012byah", "country": "IQ", "coord": {"lon": 44.21352, "lat": 35.277569}}, {"id": 312649, "name": "Han", "country": "TR", "coord": {"lon": 30.861389, "lat": 39.159168}}, {"id": 312699, "name": "Han", "country": "TR", "coord": {"lon": 40.198551, "lat": 36.950809}}, {"id": 3199417, "name": "Han Pijesak", "country": "BA", "coord": {"lon": 18.952499, "lat": 44.08083}}, {"id": 5855471, "name": "Hana", "country": "US", "coord": {"lon": -155.99028, "lat": 20.75806}}, {"id": 1863250, "name": "Hanabatach\u014d", "country": "JP", "coord": {"lon": 130.699997, "lat": 32.799999}}, {"id": 4581023, "name": "Hanahan", "country": "US", "coord": {"lon": -80.022034, "lat": 32.91851}}, {"id": 745903, "name": "Hanak", "country": "TR", "coord": {"lon": 42.847221, "lat": 41.233608}}, {"id": 1897007, "name": "Hanam", "country": "KR", "coord": {"lon": 127.205559, "lat": 37.540001}}, {"id": 2112823, "name": "Hanamaki", "country": "JP", "coord": {"lon": 141.116669, "lat": 39.383331}}, {"id": 5855629, "name": "Hanamaulu", "country": "US", "coord": {"lon": -159.354156, "lat": 21.993191}}, {"id": 5855631, "name": "Hanapepe", "country": "US", "coord": {"lon": -159.591583, "lat": 21.909571}}, {"id": 5855644, "name": "Hanapepe Heights", "country": "US", "coord": {"lon": -159.589951, "lat": 21.91633}}, {"id": 2708025, "name": "Hanaskog", "country": "SE", "coord": {"lon": 14.11667, "lat": 56.150002}}, {"id": 2911007, "name": "Hanau am Main", "country": "DE", "coord": {"lon": 8.91667, "lat": 50.133331}}, {"id": 2112818, "name": "Hanawa", "country": "JP", "coord": {"lon": 140.416672, "lat": 36.950001}}, {"id": 1863219, "name": "Hanawadamachi", "country": "JP", "coord": {"lon": 139.883331, "lat": 36.549999}}, {"id": 1863218, "name": "Hanazawa", "country": "JP", "coord": {"lon": 138.333328, "lat": 34.900002}}, {"id": 7330638, "name": "Hanban", "country": "CN", "coord": {"lon": 104.184242, "lat": 33.8727}}, {"id": 5970051, "name": "Hanbury", "country": "CA", "coord": {"lon": -79.663582, "lat": 47.59528}}, {"id": 312689, "name": "Hanca\u011f\u0131z", "country": "TR", "coord": {"lon": 38.86182, "lat": 37.091179}}, {"id": 5970063, "name": "Hanceville", "country": "CA", "coord": {"lon": -123.044579, "lat": 51.91922}}, {"id": 4066065, "name": "Hanceville", "country": "US", "coord": {"lon": -86.767502, "lat": 34.06065}}, {"id": 1798783, "name": "Hanchang", "country": "CN", "coord": {"lon": 113.583328, "lat": 28.700001}}, {"id": 1808981, "name": "Hancheng", "country": "CN", "coord": {"lon": 110.429169, "lat": 35.460281}}, {"id": 1998338, "name": "Hancheng", "country": "CN", "coord": {"lon": 108.907784, "lat": 34.334999}}, {"id": 3014001, "name": "Hanches", "country": "FR", "coord": {"lon": 1.65137, "lat": 48.601151}}, {"id": 1808977, "name": "Hanchuan", "country": "CN", "coord": {"lon": 113.76667, "lat": 30.65}}, {"id": 4357310, "name": "Hancock", "country": "US", "coord": {"lon": -78.179733, "lat": 39.698978}}, {"id": 4966383, "name": "Hancock", "country": "US", "coord": {"lon": -68.253632, "lat": 44.52924}}, {"id": 4995201, "name": "Hancock", "country": "US", "coord": {"lon": -88.580963, "lat": 47.126869}}, {"id": 5119916, "name": "Hancock", "country": "US", "coord": {"lon": -75.280449, "lat": 41.953979}}, {"id": 4258477, "name": "Hancock County", "country": "US", "coord": {"lon": -85.769417, "lat": 39.785042}}, {"id": 5156770, "name": "Hancock County", "country": "US", "coord": {"lon": -83.666603, "lat": 41.01672}}, {"id": 5280351, "name": "Hancock County", "country": "US", "coord": {"lon": -80.56646, "lat": 40.500622}}, {"id": 4428961, "name": "Hancock County", "country": "US", "coord": {"lon": -89.398376, "lat": 30.35158}}, {"id": 4966407, "name": "Hancock County", "country": "US", "coord": {"lon": -68.39946, "lat": 44.533409}}, {"id": 4895035, "name": "Hancock County", "country": "US", "coord": {"lon": -91.150139, "lat": 40.516708}}, {"id": 1863209, "name": "Handa", "country": "JP", "coord": {"lon": 136.933334, "lat": 34.883331}}, {"id": 1808963, "name": "Handan", "country": "CN", "coord": {"lon": 114.467781, "lat": 36.600559}}, {"id": 2660413, "name": "Handegg", "country": "CH", "coord": {"lon": 8.30785, "lat": 46.612049}}, {"id": 5970088, "name": "Handel", "country": "CA", "coord": {"lon": -108.701439, "lat": 52.066818}}, {"id": 6552633, "name": "Handeloh", "country": "DE", "coord": {"lon": 9.83923, "lat": 53.245628}}, {"id": 2910992, "name": "Handeloh", "country": "DE", "coord": {"lon": 9.83923, "lat": 53.245628}}, {"id": 2708016, "name": "Handen", "country": "SE", "coord": {"lon": 18.13796, "lat": 59.168091}}, {"id": 7414465, "name": "Handeng", "country": "ID", "coord": {"lon": 120.135498, "lat": -8.5297}}, {"id": 6552022, "name": "Handewitt", "country": "DE", "coord": {"lon": 9.3153, "lat": 54.7645}}, {"id": 2910986, "name": "Handewitt", "country": "DE", "coord": {"lon": 9.33333, "lat": 54.76667}}, {"id": 2910985, "name": "Handewittbusch", "country": "DE", "coord": {"lon": 9.33333, "lat": 54.76667}}, {"id": 1270437, "name": "Handia", "country": "IN", "coord": {"lon": 82.183327, "lat": 25.383329}}, {"id": 1808957, "name": "Handian", "country": "CN", "coord": {"lon": 113.044167, "lat": 36.04583}}, {"id": 3060139, "name": "Handlova", "country": "SK", "coord": {"lon": 18.76012, "lat": 48.7276}}, {"id": 6552677, "name": "Handorf", "country": "DE", "coord": {"lon": 10.35, "lat": 53.349998}}, {"id": 2910973, "name": "Handorf", "country": "DE", "coord": {"lon": 10.35, "lat": 53.349998}}, {"id": 6552893, "name": "Handrup", "country": "DE", "coord": {"lon": 7.58333, "lat": 52.5667}}, {"id": 2910971, "name": "Handrup", "country": "DE", "coord": {"lon": 7.57679, "lat": 52.56456}}, {"id": 2910966, "name": "Handthal", "country": "DE", "coord": {"lon": 10.43333, "lat": 49.866669}}, {"id": 771141, "name": "Handzlowka", "country": "PL", "coord": {"lon": 22.22311, "lat": 49.99527}}, {"id": 6551853, "name": "Hanerau-Hademarschen", "country": "DE", "coord": {"lon": 9.41667, "lat": 54.133301}}, {"id": 2910949, "name": "Hanerau-Hademarschen", "country": "DE", "coord": {"lon": 9.41667, "lat": 54.133331}}, {"id": 676335, "name": "Hanesti", "country": "RO", "coord": {"lon": 26.98333, "lat": 47.916672}}, {"id": 1808951, "name": "Hanfang", "country": "CN", "coord": {"lon": 115.093002, "lat": 25.48877}}, {"id": 1909659, "name": "Hanfeng", "country": "CN", "coord": {"lon": 107.297432, "lat": 34.619308}}, {"id": 5355180, "name": "Hanford", "country": "US", "coord": {"lon": -119.645683, "lat": 36.32745}}, {"id": 1153389, "name": "Hang Chat", "country": "TH", "coord": {"lon": 99.315613, "lat": 18.32164}}, {"id": 1153386, "name": "Hang Dong", "country": "TH", "coord": {"lon": 98.919388, "lat": 18.687031}}, {"id": 4030754, "name": "Hanga Roa", "country": "CL", "coord": {"lon": -109.433327, "lat": -27.15}}, {"id": 1270435, "name": "Hangal", "country": "IN", "coord": {"lon": 75.133331, "lat": 14.76667}}, {"id": 2910935, "name": "Hangard", "country": "DE", "coord": {"lon": 7.21046, "lat": 49.382599}}, {"id": 1924839, "name": "Hangbu", "country": "CN", "coord": {"lon": 116.245781, "lat": 27.8153}}, {"id": 6982827, "name": "Hangbu", "country": "CN", "coord": {"lon": 118.778618, "lat": 28.936569}}, {"id": 1808944, "name": "Hangchuan", "country": "CN", "coord": {"lon": 117.334908, "lat": 27.51947}}, {"id": 2910921, "name": "Hangelsberg", "country": "DE", "coord": {"lon": 13.93333, "lat": 52.383331}}, {"id": 2910900, "name": "Hangen Wahlheim", "country": "DE", "coord": {"lon": 8.33333, "lat": 49.783329}}, {"id": 6554857, "name": "Hangen-Weisheim", "country": "DE", "coord": {"lon": 8.18361, "lat": 49.7103}}, {"id": 2910898, "name": "Hangen-Weisheim", "country": "DE", "coord": {"lon": 8.18361, "lat": 49.710281}}, {"id": 3013994, "name": "Hangenbieten", "country": "FR", "coord": {"lon": 7.61464, "lat": 48.559849}}, {"id": 2910902, "name": "Hangenmeilingen", "country": "DE", "coord": {"lon": 8.06667, "lat": 50.48333}}, {"id": 2408585, "name": "Hangha", "country": "SL", "coord": {"lon": -11.14, "lat": 7.94111}}, {"id": 2037032, "name": "Hanghuadian", "country": "CN", "coord": {"lon": 123.469391, "lat": 40.556519}}, {"id": 2163981, "name": "Hanging Rock", "country": "AU", "coord": {"lon": 151.199997, "lat": -31.48333}}, {"id": 1783573, "name": "Hangkou", "country": "CN", "coord": {"lon": 114.441841, "lat": 29.04739}}, {"id": 1808936, "name": "Hangongdu", "country": "CN", "coord": {"lon": 111.9189, "lat": 29.08882}}, {"id": 1808935, "name": "Hangou", "country": "CN", "coord": {"lon": 117.089996, "lat": 39.290829}}, {"id": 1808931, "name": "Hangu", "country": "CN", "coord": {"lon": 117.789169, "lat": 39.24889}}, {"id": 1177203, "name": "Hangu", "country": "PK", "coord": {"lon": 71.059341, "lat": 33.531078}}, {"id": 676331, "name": "Hangu", "country": "RO", "coord": {"lon": 26.033331, "lat": 47.049999}}, {"id": 3051774, "name": "Hangy\u00e1sm\u00e1l", "country": "HU", "coord": {"lon": 17.799999, "lat": 46.366669}}, {"id": 1808926, "name": "Hangzhou", "country": "CN", "coord": {"lon": 120.161423, "lat": 30.29365}}, {"id": 659102, "name": "Hang\u00f6", "country": "FI", "coord": {"lon": 22.950001, "lat": 59.833328}}, {"id": 6555241, "name": "Hanhofen", "country": "DE", "coord": {"lon": 8.34083, "lat": 49.3167}}, {"id": 2910881, "name": "Hanhofen", "country": "DE", "coord": {"lon": 8.34083, "lat": 49.316669}}, {"id": 2031016, "name": "Hanhohiy", "country": "MN", "coord": {"lon": 112.133331, "lat": 47.616669}}, {"id": 312663, "name": "Hani", "country": "TR", "coord": {"lon": 40.400002, "lat": 38.416672}}, {"id": 7522274, "name": "Hanila vald", "country": "EE", "coord": {"lon": 23.6581, "lat": 58.62281}}, {"id": 2707953, "name": "Haninge", "country": "SE", "coord": {"lon": 18.144779, "lat": 59.167751}}, {"id": 2707952, "name": "Haninge Kommun", "country": "SE", "coord": {"lon": 18.154909, "lat": 59.17382}}, {"id": 1808917, "name": "Hanji", "country": "CN", "coord": {"lon": 102.992599, "lat": 35.495441}}, {"id": 1808915, "name": "Hanjia", "country": "CN", "coord": {"lon": 107.868019, "lat": 34.9286}}, {"id": 7349654, "name": "Hanjiaji", "country": "CN", "coord": {"lon": 105.129723, "lat": 35.876881}}, {"id": 1808899, "name": "Hanjiashu", "country": "CN", "coord": {"lon": 117.073059, "lat": 39.1875}}, {"id": 1643445, "name": "Hanjuang", "country": "ID", "coord": {"lon": 107.595299, "lat": -7.4648}}, {"id": 1643446, "name": "Hanjuang", "country": "ID", "coord": {"lon": 106.276199, "lat": -6.5791}}, {"id": 659025, "name": "Hankasalmi", "country": "FI", "coord": {"lon": 26.5, "lat": 62.416672}}, {"id": 659024, "name": "Hankasalmi", "country": "FI", "coord": {"lon": 26.433331, "lat": 62.383331}}, {"id": 2910863, "name": "Hankensbuttel", "country": "DE", "coord": {"lon": 10.6, "lat": 52.73333}}, {"id": 6552306, "name": "Hankensb\u00fcttel", "country": "DE", "coord": {"lon": 10.5923, "lat": 52.724499}}, {"id": 2647526, "name": "Hankerton", "country": "GB", "coord": {"lon": -2.045, "lat": 51.614441}}, {"id": 1610800, "name": "Hankha", "country": "TH", "coord": {"lon": 100.014702, "lat": 14.98122}}, {"id": 659101, "name": "Hanko", "country": "FI", "coord": {"lon": 22.950001, "lat": 59.833328}}, {"id": 5540148, "name": "Hanksville", "country": "US", "coord": {"lon": -110.714043, "lat": 38.373039}}, {"id": 2647525, "name": "Hanley", "country": "GB", "coord": {"lon": -2.17395, "lat": 53.024921}}, {"id": 5970216, "name": "Hanley", "country": "CA", "coord": {"lon": -106.434532, "lat": 51.633369}}, {"id": 4389411, "name": "Hanley Hills", "country": "US", "coord": {"lon": -90.32373, "lat": 38.685879}}, {"id": 7338248, "name": "Hanlin", "country": "CN", "coord": {"lon": 104.902153, "lat": 33.47541}}, {"id": 7638764, "name": "Hanlin", "country": "CN", "coord": {"lon": 110.258263, "lat": 19.333879}}, {"id": 1548831, "name": "Hanliu", "country": "CN", "coord": {"lon": 119.672218, "lat": 32.76944}}, {"id": 7292820, "name": "Hanmer", "country": "GB", "coord": {"lon": -2.83166, "lat": 52.957821}}, {"id": 2647522, "name": "Hanmer", "country": "GB", "coord": {"lon": -2.81289, "lat": 52.951069}}, {"id": 2190299, "name": "Hanmer Springs", "country": "NZ", "coord": {"lon": 172.816666, "lat": -42.51667}}, {"id": 5970234, "name": "Hanna", "country": "CA", "coord": {"lon": -111.90181, "lat": 51.63343}}, {"id": 4895050, "name": "Hanna City", "country": "US", "coord": {"lon": -89.795113, "lat": 40.6917}}, {"id": 2163972, "name": "Hannaford", "country": "AU", "coord": {"lon": 150.066666, "lat": -27.33333}}, {"id": 6241223, "name": "Hannahs Bay", "country": "NZ", "coord": {"lon": 176.309799, "lat": -38.115379}}, {"id": 4199055, "name": "Hannahs Mill", "country": "US", "coord": {"lon": -84.349358, "lat": 32.932911}}, {"id": 5119946, "name": "Hannawa Falls", "country": "US", "coord": {"lon": -74.971031, "lat": 44.612282}}, {"id": 7872739, "name": "Hannersdorf", "country": "AT", "coord": {"lon": 16.392879, "lat": 47.2206}}, {"id": 2776891, "name": "Hannersdorf", "country": "AT", "coord": {"lon": 16.383329, "lat": 47.23333}}, {"id": 4389418, "name": "Hannibal", "country": "US", "coord": {"lon": -91.358482, "lat": 39.708382}}, {"id": 2647519, "name": "Hannington", "country": "GB", "coord": {"lon": -1.75, "lat": 51.633331}}, {"id": 1863183, "name": "Hanno", "country": "JP", "coord": {"lon": 139.318054, "lat": 35.85194}}, {"id": 2910831, "name": "Hannover", "country": "DE", "coord": {"lon": 9.73322, "lat": 52.370522}}, {"id": 6559065, "name": "Hannover, Landeshauptstadt", "country": "DE", "coord": {"lon": 9.73711, "lat": 52.373619}}, {"id": 2867613, "name": "Hannoversch Munden", "country": "DE", "coord": {"lon": 9.65046, "lat": 51.415051}}, {"id": 2796584, "name": "Hannut", "country": "BE", "coord": {"lon": 5.07603, "lat": 50.67231}}, {"id": 2796583, "name": "Hannut", "country": "BE", "coord": {"lon": 5.07898, "lat": 50.671421}}, {"id": 745884, "name": "Hanonu", "country": "TR", "coord": {"lon": 34.466671, "lat": 41.627048}}, {"id": 5970301, "name": "Hanover", "country": "CA", "coord": {"lon": -81.033028, "lat": 44.150089}}, {"id": 4558475, "name": "Hanover", "country": "US", "coord": {"lon": -76.98304, "lat": 39.800659}}, {"id": 4938836, "name": "Hanover", "country": "US", "coord": {"lon": -70.811989, "lat": 42.113159}}, {"id": 4258510, "name": "Hanover", "country": "US", "coord": {"lon": -85.473572, "lat": 38.71423}}, {"id": 4762979, "name": "Hanover", "country": "US", "coord": {"lon": -77.370262, "lat": 37.766529}}, {"id": 5029276, "name": "Hanover", "country": "US", "coord": {"lon": -93.666351, "lat": 45.1558}}, {"id": 5087168, "name": "Hanover", "country": "US", "coord": {"lon": -72.289543, "lat": 43.70229}}, {"id": 4762988, "name": "Hanover County", "country": "US", "coord": {"lon": -77.48304, "lat": 37.750141}}, {"id": 4895066, "name": "Hanover Park", "country": "US", "coord": {"lon": -88.145073, "lat": 41.99947}}, {"id": 6553830, "name": "Hanroth", "country": "DE", "coord": {"lon": 7.65, "lat": 50.583302}}, {"id": 2910814, "name": "Hanroth", "country": "DE", "coord": {"lon": 7.65, "lat": 50.583328}}, {"id": 3232585, "name": "Hansaland", "country": "DE", "coord": {"lon": 10.76667, "lat": 54.066669}}, {"id": 2910791, "name": "Hansen", "country": "DE", "coord": {"lon": 10.48333, "lat": 52.950001}}, {"id": 5595086, "name": "Hansen", "country": "US", "coord": {"lon": -114.30101, "lat": 42.530682}}, {"id": 6548187, "name": "Hanshagen", "country": "DE", "coord": {"lon": 11.15, "lat": 53.799999}}, {"id": 2910777, "name": "Hanshagen", "country": "DE", "coord": {"lon": 11.15, "lat": 53.799999}}, {"id": 6548264, "name": "Hanshagen", "country": "DE", "coord": {"lon": 13.5333, "lat": 54.049999}}, {"id": 2910776, "name": "Hanshagen", "country": "DE", "coord": {"lon": 13.53333, "lat": 54.049999}}, {"id": 1808887, "name": "Hanshou", "country": "CN", "coord": {"lon": 111.956108, "lat": 28.90583}}, {"id": 1270417, "name": "Hansi", "country": "IN", "coord": {"lon": 75.966667, "lat": 29.1}}, {"id": 771139, "name": "Hansk", "country": "PL", "coord": {"lon": 23.39942, "lat": 51.412861}}, {"id": 2647518, "name": "Hanslope", "country": "GB", "coord": {"lon": -0.82672, "lat": 52.11425}}, {"id": 3153910, "name": "Hansnes", "country": "NO", "coord": {"lon": 19.61862, "lat": 69.962372}}, {"id": 4938829, "name": "Hanson", "country": "US", "coord": {"lon": -70.880043, "lat": 42.0751}}, {"id": 2163954, "name": "Hansonville", "country": "AU", "coord": {"lon": 146.300003, "lat": -36.599998}}, {"id": 1270413, "name": "Hansot", "country": "IN", "coord": {"lon": 72.800003, "lat": 21.58333}}, {"id": 2910761, "name": "Hanstedt", "country": "DE", "coord": {"lon": 9.0893, "lat": 53.30595}}, {"id": 6552634, "name": "Hanstedt", "country": "DE", "coord": {"lon": 10.0167, "lat": 53.266701}}, {"id": 2910762, "name": "Hanstedt", "country": "DE", "coord": {"lon": 10.01667, "lat": 53.26667}}, {"id": 2910760, "name": "Hanstedt Eins", "country": "DE", "coord": {"lon": 10.3756, "lat": 53.046299}}, {"id": 2620786, "name": "Hanstholm", "country": "DK", "coord": {"lon": 8.61667, "lat": 57.116669}}, {"id": 5796685, "name": "Hansville", "country": "US", "coord": {"lon": -122.554314, "lat": 47.918701}}, {"id": 5970410, "name": "Hant's Harbour", "country": "CA", "coord": {"lon": -53.264771, "lat": 48.01659}}, {"id": 1808881, "name": "Hantang", "country": "CN", "coord": {"lon": 114.789398, "lat": 28.15283}}, {"id": 8054229, "name": "Hantara", "country": "ID", "coord": {"lon": 108.455299, "lat": -7.0579}}, {"id": 1808879, "name": "Hanting", "country": "CN", "coord": {"lon": 119.210831, "lat": 36.770828}}, {"id": 1808880, "name": "Hanting", "country": "CN", "coord": {"lon": 118.548477, "lat": 30.91868}}, {"id": 627909, "name": "Hantsavichy", "country": "BY", "coord": {"lon": 26.43, "lat": 52.757999}}, {"id": 1091828, "name": "Hantsindzi", "country": "KM", "coord": {"lon": 43.402222, "lat": -11.42917}}, {"id": 5970414, "name": "Hantsport", "country": "CA", "coord": {"lon": -64.165443, "lat": 45.066849}}, {"id": 2910748, "name": "Hanum", "country": "DE", "coord": {"lon": 10.85, "lat": 52.683331}}, {"id": 1270407, "name": "Hanumangarh", "country": "IN", "coord": {"lon": 74.316673, "lat": 29.58333}}, {"id": 3075958, "name": "Hanusovice", "country": "CZ", "coord": {"lon": 16.936411, "lat": 50.08049}}, {"id": 3013971, "name": "Hanvec", "country": "FR", "coord": {"lon": -4.1595, "lat": 48.32692}}, {"id": 6437567, "name": "Hanviller", "country": "FR", "coord": {"lon": 7.46667, "lat": 49.099998}}, {"id": 3013970, "name": "Hanviller", "country": "FR", "coord": {"lon": 7.45911, "lat": 49.102699}}, {"id": 7019842, "name": "Hanwa", "country": "NG", "coord": {"lon": 7.70193, "lat": 11.11861}}, {"id": 7340457, "name": "Hanwang", "country": "CN", "coord": {"lon": 105.01046, "lat": 33.343128}}, {"id": 2647516, "name": "Hanwell", "country": "GB", "coord": {"lon": -0.33517, "lat": 51.518089}}, {"id": 1244773, "name": "Hanwella Ihala", "country": "LK", "coord": {"lon": 80.085197, "lat": 6.9012}}, {"id": 2163953, "name": "Hanwood", "country": "AU", "coord": {"lon": 146.033325, "lat": -34.333328}}, {"id": 7734844, "name": "Hanxia", "country": "CN", "coord": {"lon": 120.936798, "lat": 30.133699}}, {"id": 1922364, "name": "Hanxian", "country": "CN", "coord": {"lon": 117.2901, "lat": 26.359739}}, {"id": 1863173, "name": "Hanyu", "country": "JP", "coord": {"lon": 139.533325, "lat": 36.166672}}, {"id": 1799362, "name": "Hanyuan", "country": "CN", "coord": {"lon": 106.250351, "lat": 32.834}}, {"id": 1808861, "name": "Hanyuan", "country": "CN", "coord": {"lon": 105.291939, "lat": 34.01083}}, {"id": 7326345, "name": "Hanyuan", "country": "CN", "coord": {"lon": 104.688713, "lat": 33.954891}}, {"id": 1808857, "name": "Hanzhong", "country": "CN", "coord": {"lon": 107.030281, "lat": 33.072781}}, {"id": 7071654, "name": "Haoba", "country": "CN", "coord": {"lon": 120.847748, "lat": 29.955299}}, {"id": 1808848, "name": "Haocun", "country": "CN", "coord": {"lon": 118.46817, "lat": 27.59152}}, {"id": 1907972, "name": "Haodi", "country": "CN", "coord": {"lon": 105.758873, "lat": 35.000961}}, {"id": 1808836, "name": "Haodian", "country": "CN", "coord": {"lon": 113.745461, "lat": 31.793039}}, {"id": 2037020, "name": "Haoguantun", "country": "CN", "coord": {"lon": 123.486908, "lat": 42.674438}}, {"id": 1808795, "name": "Haokou", "country": "CN", "coord": {"lon": 112.639931, "lat": 30.381281}}, {"id": 7326394, "name": "Haoli", "country": "CN", "coord": {"lon": 104.81012, "lat": 33.98362}}, {"id": 7373371, "name": "Haolin", "country": "CN", "coord": {"lon": 105.213448, "lat": 33.76791}},