[{"id": 6734345, "name": "Kadieng", "country": "ID", "coord": {"lon": 119.558701, "lat": -5.0623}}, {"id": 6459966, "name": "Kadievo", "country": "BG", "coord": {"lon": 24.6, "lat": 42.133331}}, {"id": 730789, "name": "Kadievo", "country": "BG", "coord": {"lon": 24.6, "lat": 42.133331}}, {"id": 744926, "name": "Kadikoy", "country": "TR", "coord": {"lon": 29.225361, "lat": 40.620152}}, {"id": 8058268, "name": "Kadilangu", "country": "ID", "coord": {"lon": 111.086304, "lat": -6.6465}}, {"id": 2068856, "name": "Kadina", "country": "AU", "coord": {"lon": 137.716675, "lat": -33.966671}}, {"id": 1709828, "name": "Kadingilan", "country": "PH", "coord": {"lon": 124.908607, "lat": 7.60111}}, {"id": 310907, "name": "Kadinhani", "country": "TR", "coord": {"lon": 32.211391, "lat": 38.239719}}, {"id": 624318, "name": "Kadino", "country": "BY", "coord": {"lon": 30.520281, "lat": 53.883888}}, {"id": 789703, "name": "Kadino", "country": "MK", "coord": {"lon": 21.601391, "lat": 41.968891}}, {"id": 7375666, "name": "Kadipaten", "country": "ID", "coord": {"lon": 113.215797, "lat": -8.1357}}, {"id": 1268677, "name": "Kadipur", "country": "IN", "coord": {"lon": 82.383331, "lat": 26.16667}}, {"id": 1268673, "name": "Kadiri", "country": "IN", "coord": {"lon": 78.166672, "lat": 14.11667}}, {"id": 2492873, "name": "Kadiria", "country": "DZ", "coord": {"lon": 3.68278, "lat": 36.534439}}, {"id": 310892, "name": "Kadirli", "country": "TR", "coord": {"lon": 36.096111, "lat": 37.37389}}, {"id": 310888, "name": "Kadisehri", "country": "TR", "coord": {"lon": 35.791931, "lat": 39.995682}}, {"id": 8070952, "name": "Kadiwono", "country": "ID", "coord": {"lon": 111.431198, "lat": -6.8601}}, {"id": 554554, "name": "Kadnikov", "country": "RU", "coord": {"lon": 40.338032, "lat": 59.502178}}, {"id": 1860876, "name": "Kado", "country": "JP", "coord": {"lon": 133.850006, "lat": 34.783329}}, {"id": 1268667, "name": "Kadod", "country": "IN", "coord": {"lon": 73.23333, "lat": 21.216669}}, {"id": 1860875, "name": "Kadogawa", "country": "JP", "coord": {"lon": 131.649994, "lat": 32.466671}}, {"id": 5766162, "name": "Kadoka", "country": "US", "coord": {"lon": -101.509872, "lat": 43.833881}}, {"id": 554549, "name": "Kadom", "country": "RU", "coord": {"lon": 42.467499, "lat": 54.55917}}, {"id": 889453, "name": "Kadoma", "country": "ZW", "coord": {"lon": 29.91534, "lat": -18.333281}}, {"id": 1860871, "name": "Kadoma", "country": "JP", "coord": {"lon": 135.583328, "lat": 34.73333}}, {"id": 7780367, "name": "Kadomas", "country": "ID", "coord": {"lon": 106.1101, "lat": -6.3293}}, {"id": 2112473, "name": "Kadonowaki", "country": "JP", "coord": {"lon": 141.300003, "lat": 38.416672}}, {"id": 554544, "name": "Kadoshkino", "country": "RU", "coord": {"lon": 44.419102, "lat": 54.0257}}, {"id": 591783, "name": "Kadrina", "country": "EE", "coord": {"lon": 26.145, "lat": 59.334721}}, {"id": 7522290, "name": "Kadrina vald", "country": "EE", "coord": {"lon": 26.0415, "lat": 59.37463}}, {"id": 8055555, "name": "Kadrovik", "country": "RU", "coord": {"lon": 61.665001, "lat": 55.105202}}, {"id": 8073880, "name": "Kaduagung", "country": "ID", "coord": {"lon": 108.657204, "lat": -7.0999}}, {"id": 7759613, "name": "Kadubadak", "country": "ID", "coord": {"lon": 105.861099, "lat": -6.6476}}, {"id": 7765954, "name": "Kadubadak", "country": "ID", "coord": {"lon": 105.87088, "lat": -6.39103}}, {"id": 7780940, "name": "Kadubamban", "country": "ID", "coord": {"lon": 105.899399, "lat": -6.3192}}, {"id": 7766770, "name": "Kadubera", "country": "ID", "coord": {"lon": 105.920799, "lat": -6.4593}}, {"id": 7782350, "name": "Kadubetara", "country": "ID", "coord": {"lon": 106.071899, "lat": -6.6274}}, {"id": 1642207, "name": "Kadubeureum", "country": "ID", "coord": {"lon": 105.941597, "lat": -6.3595}}, {"id": 7780283, "name": "Kadubincarung", "country": "ID", "coord": {"lon": 106.108597, "lat": -6.3523}}, {"id": 1642206, "name": "Kadubitung", "country": "ID", "coord": {"lon": 106.353104, "lat": -6.537}}, {"id": 707257, "name": "Kadubivtsi", "country": "UA", "coord": {"lon": 25.768709, "lat": 48.58337}}, {"id": 7779994, "name": "Kaducondong", "country": "ID", "coord": {"lon": 105.855003, "lat": -6.3472}}, {"id": 7766459, "name": "Kaducukang", "country": "ID", "coord": {"lon": 105.917999, "lat": -6.3929}}, {"id": 7857780, "name": "Kadudampit", "country": "ID", "coord": {"lon": 107.675797, "lat": -7.4574}}, {"id": 7781790, "name": "Kaduela", "country": "ID", "coord": {"lon": 106.081398, "lat": -6.2452}}, {"id": 1642204, "name": "Kaduengang", "country": "ID", "coord": {"lon": 106.074203, "lat": -6.2598}}, {"id": 7765975, "name": "Kadugadung", "country": "ID", "coord": {"lon": 105.856201, "lat": -6.3928}}, {"id": 7845736, "name": "Kadugadung", "country": "ID", "coord": {"lon": 106.017998, "lat": -6.3832}}, {"id": 1242571, "name": "Kadugannawa", "country": "LK", "coord": {"lon": 80.5242, "lat": 7.2547}}, {"id": 1642202, "name": "Kadugede", "country": "ID", "coord": {"lon": 108.4543, "lat": -7.0043}}, {"id": 1642201, "name": "Kadugedong", "country": "ID", "coord": {"lon": 106.099998, "lat": -6.3639}}, {"id": 373141, "name": "Kadugli", "country": "SD", "coord": {"lon": 29.716669, "lat": 11.01667}}, {"id": 7780949, "name": "Kaduheuleut", "country": "ID", "coord": {"lon": 105.898102, "lat": -6.3361}}, {"id": 1642199, "name": "Kadujajar", "country": "ID", "coord": {"lon": 106.026161, "lat": -6.74826}}, {"id": 7781152, "name": "Kadujampang", "country": "ID", "coord": {"lon": 105.975304, "lat": -6.306}}, {"id": 7781065, "name": "Kadujangkung", "country": "ID", "coord": {"lon": 105.946701, "lat": -6.2602}}, {"id": 7766675, "name": "Kadukandel", "country": "ID", "coord": {"lon": 105.909798, "lat": -6.4334}}, {"id": 7781605, "name": "Kadukaung", "country": "ID", "coord": {"lon": 106.107002, "lat": -6.2479}}, {"id": 7767010, "name": "Kaduketug", "country": "ID", "coord": {"lon": 106.2248, "lat": -6.598}}, {"id": 7781128, "name": "Kadukoneng", "country": "ID", "coord": {"lon": 105.968102, "lat": -6.265}}, {"id": 7780919, "name": "Kadukotok", "country": "ID", "coord": {"lon": 105.890701, "lat": -6.3571}}, {"id": 7766921, "name": "Kadulari", "country": "ID", "coord": {"lon": 106.161201, "lat": -6.5445}}, {"id": 7780196, "name": "Kadulomber", "country": "ID", "coord": {"lon": 106.041397, "lat": -6.37}}, {"id": 8073497, "name": "Kaduluhur", "country": "ID", "coord": {"lon": 108.6334, "lat": -7.1928}}, {"id": 7780561, "name": "Kadumantung", "country": "ID", "coord": {"lon": 106.118347, "lat": -6.2899}}, {"id": 7765757, "name": "Kadumelati", "country": "ID", "coord": {"lon": 105.921204, "lat": -6.5056}}, {"id": 7792473, "name": "Kadumonyong", "country": "ID", "coord": {"lon": 105.884727, "lat": -6.17252}}, {"id": 1642193, "name": "Kadumula", "country": "ID", "coord": {"lon": 105.966103, "lat": -6.5162}}, {"id": 2335727, "name": "Kaduna", "country": "NG", "coord": {"lon": 7.43828, "lat": 10.52224}}, {"id": 2335722, "name": "Kaduna State", "country": "NG", "coord": {"lon": 7.75, "lat": 10.33333}}, {"id": 7845845, "name": "Kadungabaris", "country": "ID", "coord": {"lon": 106.089973, "lat": -6.40461}}, {"id": 7781032, "name": "Kadupager", "country": "ID", "coord": {"lon": 105.935402, "lat": -6.3487}}, {"id": 1642188, "name": "Kadupandak", "country": "ID", "coord": {"lon": 107.047203, "lat": -7.2611}}, {"id": 1642189, "name": "Kadupandak", "country": "ID", "coord": {"lon": 105.969002, "lat": -6.5061}}, {"id": 8046208, "name": "Kadupandak", "country": "ID", "coord": {"lon": 108.252502, "lat": -7.3717}}, {"id": 8059789, "name": "Kadupandak", "country": "ID", "coord": {"lon": 108.564499, "lat": -7.2173}}, {"id": 7765972, "name": "Kadupayung", "country": "ID", "coord": {"lon": 105.847702, "lat": -6.3968}}, {"id": 7766634, "name": "Kadupinang", "country": "ID", "coord": {"lon": 105.969398, "lat": -6.4197}}, {"id": 1268662, "name": "Kadur", "country": "IN", "coord": {"lon": 76.013062, "lat": 13.55333}}, {"id": 7766959, "name": "Kadurahayu", "country": "ID", "coord": {"lon": 106.1287, "lat": -6.569}}, {"id": 1642186, "name": "Kaduranca", "country": "ID", "coord": {"lon": 105.929901, "lat": -6.361}}, {"id": 7792445, "name": "Kaduranca", "country": "ID", "coord": {"lon": 105.9254, "lat": -6.2202}}, {"id": 7781161, "name": "Kaduronyok", "country": "ID", "coord": {"lon": 105.960701, "lat": -6.3731}}, {"id": 7766584, "name": "Kaduseeng", "country": "ID", "coord": {"lon": 105.969299, "lat": -6.3965}}, {"id": 7845903, "name": "Kadusimbar", "country": "ID", "coord": {"lon": 106.088898, "lat": -6.4222}}, {"id": 7766541, "name": "Kadusirung Hilir", "country": "ID", "coord": {"lon": 105.934998, "lat": -6.4296}}, {"id": 7781099, "name": "Kadutalahab", "country": "ID", "coord": {"lon": 105.948196, "lat": -6.3475}}, {"id": 554535, "name": "Kaduy", "country": "RU", "coord": {"lon": 37.150002, "lat": 59.200001}}, {"id": 554502, "name": "Kadyy", "country": "RU", "coord": {"lon": 43.190289, "lat": 57.787041}}, {"id": 1528241, "name": "Kadzhi-Say", "country": "KG", "coord": {"lon": 77.178482, "lat": 42.141071}}, {"id": 769835, "name": "Kadzidlo", "country": "PL", "coord": {"lon": 21.46454, "lat": 53.234348}}, {"id": 1610510, "name": "Kae Dam", "country": "TH", "coord": {"lon": 103.384438, "lat": 16.02397}}, {"id": 2378736, "name": "Kaedi", "country": "MR", "coord": {"lon": -13.50474, "lat": 16.14653}}, {"id": 2230599, "name": "Kaele", "country": "CM", "coord": {"lon": 14.45083, "lat": 10.10917}}, {"id": 2230600, "name": "Kael\u00e9", "country": "CM", "coord": {"lon": 14.44651, "lat": 10.10672}}, {"id": 7290028, "name": "Kaenerkinden", "country": "CH", "coord": {"lon": 7.83716, "lat": 47.41188}}, {"id": 1618705, "name": "Kaeng Hang Maeo", "country": "TH", "coord": {"lon": 101.906082, "lat": 13.00825}}, {"id": 1610503, "name": "Kaeng Khoi", "country": "TH", "coord": {"lon": 100.997581, "lat": 14.58617}}, {"id": 1610505, "name": "Kaeng Khro", "country": "TH", "coord": {"lon": 102.25808, "lat": 16.108641}}, {"id": 1157277, "name": "Kaeng Krachan", "country": "TH", "coord": {"lon": 99.647949, "lat": 12.90742}}, {"id": 1618680, "name": "Kaeng Sanam Nang", "country": "TH", "coord": {"lon": 102.254837, "lat": 15.74954}}, {"id": 7510948, "name": "Kaeng Sanam Nang", "country": "TH", "coord": {"lon": 102.254562, "lat": 15.74958}}, {"id": 2189343, "name": "Kaeo", "country": "NZ", "coord": {"lon": 173.783325, "lat": -35.099998}}, {"id": 1876373, "name": "Kaesong", "country": "KP", "coord": {"lon": 126.554443, "lat": 37.970829}}, {"id": 2701096, "name": "Kaevlinge", "country": "SE", "coord": {"lon": 13.11021, "lat": 55.791882}}, {"id": 2335713, "name": "Kafachan", "country": "NG", "coord": {"lon": 8.3, "lat": 9.58333}}, {"id": 2335709, "name": "Kafarati", "country": "NG", "coord": {"lon": 11.09567, "lat": 10.38304}}, {"id": 2251007, "name": "Kaffrine", "country": "SN", "coord": {"lon": -15.5508, "lat": 14.10594}}, {"id": 1142404, "name": "Kafir Qala", "country": "AF", "coord": {"lon": 61.066669, "lat": 34.666672}}, {"id": 283386, "name": "Kafr Abbush", "country": "PS", "coord": {"lon": 35.085041, "lat": 32.22353}}, {"id": 248738, "name": "Kafr Abil", "country": "JO", "coord": {"lon": 35.66938, "lat": 32.417549}}, {"id": 248734, "name": "Kafr Asad", "country": "JO", "coord": {"lon": 35.712399, "lat": 32.598282}}, {"id": 283379, "name": "Kafr Ayn", "country": "PS", "coord": {"lon": 35.12038, "lat": 32.047581}}, {"id": 283378, "name": "Kafr Dan", "country": "PS", "coord": {"lon": 35.25425, "lat": 32.478519}}, {"id": 283373, "name": "Kafr Jammal", "country": "PS", "coord": {"lon": 35.043369, "lat": 32.22551}}, {"id": 294611, "name": "Kafr Kama", "country": "IL", "coord": {"lon": 35.441219, "lat": 32.721291}}, {"id": 294610, "name": "Kafr Kanna", "country": "IL", "coord": {"lon": 35.342419, "lat": 32.746601}}, {"id": 168668, "name": "Kafr Laha", "country": "SY", "coord": {"lon": 36.495819, "lat": 34.894691}}, {"id": 283370, "name": "Kafr Malik", "country": "PS", "coord": {"lon": 35.309319, "lat": 31.9884}}, {"id": 294608, "name": "Kafr Manda", "country": "IL", "coord": {"lon": 35.260281, "lat": 32.80722}}, {"id": 294607, "name": "Kafr Misr", "country": "IL", "coord": {"lon": 35.421471, "lat": 32.64521}}, {"id": 168661, "name": "Kafr Nabl", "country": "SY", "coord": {"lon": 36.564491, "lat": 35.613762}}, {"id": 283366, "name": "Kafr Qaddum", "country": "PS", "coord": {"lon": 35.144711, "lat": 32.221619}}, {"id": 283365, "name": "Kafr Qallil", "country": "PS", "coord": {"lon": 35.282841, "lat": 32.193508}}, {"id": 294604, "name": "Kafr Qasim", "country": "IL", "coord": {"lon": 34.973888, "lat": 32.11417}}, {"id": 283362, "name": "Kafr Qud", "country": "PS", "coord": {"lon": 35.22649, "lat": 32.456612}}, {"id": 283361, "name": "Kafr Rai", "country": "PS", "coord": {"lon": 35.15451, "lat": 32.373981}}, {"id": 354105, "name": "Kafr Saqr", "country": "EG", "coord": {"lon": 31.62575, "lat": 30.79336}}, {"id": 248719, "name": "Kafr Sawm", "country": "JO", "coord": {"lon": 35.799999, "lat": 32.683331}}, {"id": 354076, "name": "Kafr Shukr", "country": "EG", "coord": {"lon": 31.24444, "lat": 30.549721}}, {"id": 283353, "name": "Kafr Sur", "country": "PS", "coord": {"lon": 35.063938, "lat": 32.24366}}, {"id": 168629, "name": "Kafr Takharim", "country": "SY", "coord": {"lon": 36.515282, "lat": 36.11684}}, {"id": 283351, "name": "Kafr Thulth", "country": "PS", "coord": {"lon": 35.046982, "lat": 32.153301}}, {"id": 294600, "name": "Kafr Yasif", "country": "IL", "coord": {"lon": 35.1623, "lat": 32.95451}}, {"id": 168620, "name": "Kafr Zaytah", "country": "SY", "coord": {"lon": 36.602982, "lat": 35.374489}}, {"id": 283348, "name": "Kafr Zibad", "country": "PS", "coord": {"lon": 35.071789, "lat": 32.225842}}, {"id": 354775, "name": "Kafr ad Dawwar", "country": "EG", "coord": {"lon": 30.128429, "lat": 31.13385}}, {"id": 283385, "name": "Kafr ad Dik", "country": "PS", "coord": {"lon": 35.08287, "lat": 32.067101}}, {"id": 283384, "name": "Kafr al Labad", "country": "PS", "coord": {"lon": 35.10955, "lat": 32.299671}}, {"id": 354502, "name": "Kafr ash Shaykh", "country": "EG", "coord": {"lon": 30.940121, "lat": 31.1143}}, {"id": 354365, "name": "Kafr az Zayyat", "country": "EG", "coord": {"lon": 30.81805, "lat": 30.8248}}, {"id": 915883, "name": "Kafue", "country": "ZM", "coord": {"lon": 28.18136, "lat": -15.76911}}, {"id": 554491, "name": "Kafyr-Kumukh", "country": "RU", "coord": {"lon": 47.154121, "lat": 42.83754}}, {"id": 2386012, "name": "Kaga Bandoro", "country": "CF", "coord": {"lon": 19.187441, "lat": 6.98961}}, {"id": 232834, "name": "Kagadi", "country": "UG", "coord": {"lon": 30.796671, "lat": 0.96056}}, {"id": 1268651, "name": "Kagal", "country": "IN", "coord": {"lon": 74.316673, "lat": 16.58333}}, {"id": 554482, "name": "Kagalnitskaya", "country": "RU", "coord": {"lon": 40.146568, "lat": 46.880562}}, {"id": 554486, "name": "Kagal\u2019nik", "country": "RU", "coord": {"lon": 39.323009, "lat": 47.07695}}, {"id": 2095101, "name": "Kagamuga", "country": "PG", "coord": {"lon": 144.286728, "lat": -5.82604}}, {"id": 1860847, "name": "Kaganji", "country": "JP", "coord": {"lon": 127.650002, "lat": 26.200001}}, {"id": 803138, "name": "Kaganovicheskiy", "country": "RU", "coord": {"lon": 40.494446, "lat": 45.466667}}, {"id": 1860841, "name": "Kagasuno", "country": "JP", "coord": {"lon": 134.583328, "lat": 34.116669}}, {"id": 1860834, "name": "Kagawa-ken", "country": "JP", "coord": {"lon": 133.994705, "lat": 34.247169}}, {"id": 1958471, "name": "Kagawasan", "country": "PH", "coord": {"lon": 123.394997, "lat": 7.86611}}, {"id": 5988608, "name": "Kagawong", "country": "CA", "coord": {"lon": -82.249832, "lat": 45.90007}}, {"id": 1709809, "name": "Kagay", "country": "PH", "coord": {"lon": 120.907402, "lat": 6.0088}}, {"id": 7971832, "name": "Kagbenee", "country": "NP", "coord": {"lon": 83.787109, "lat": 28.83882}}, {"id": 7800941, "name": "Kagbeni", "country": "NP", "coord": {"lon": 83.727898, "lat": 28.849649}}, {"id": 605428, "name": "Kage", "country": "SE", "coord": {"lon": 20.984529, "lat": 64.835709}}, {"id": 2894273, "name": "Kager", "country": "DE", "coord": {"lon": 12.03333, "lat": 49.033329}}, {"id": 148679, "name": "Kagera Region", "country": "TZ", "coord": {"lon": 31.5, "lat": -2}}, {"id": 2702683, "name": "Kagerod", "country": "SE", "coord": {"lon": 13.1, "lat": 56.01667}}, {"id": 2894253, "name": "Kagers", "country": "DE", "coord": {"lon": 12.56667, "lat": 48.883331}}, {"id": 744873, "name": "Kagizman", "country": "TR", "coord": {"lon": 43.134239, "lat": 40.156689}}, {"id": 2335614, "name": "Kagoro", "country": "NG", "coord": {"lon": 8.38333, "lat": 9.6}}, {"id": 1860825, "name": "Kagoshima-ken", "country": "JP", "coord": {"lon": 130.432922, "lat": 31.032249}}, {"id": 1860827, "name": "Kagoshima-shi", "country": "JP", "coord": {"lon": 130.558136, "lat": 31.560181}}, {"id": 1642168, "name": "Kahale", "country": "ID", "coord": {"lon": 119.104698, "lat": -9.6962}}, {"id": 5847207, "name": "Kahaluu", "country": "US", "coord": {"lon": -157.83667, "lat": 21.463329}}, {"id": 7262725, "name": "Kahaluu-Keauhou", "country": "US", "coord": {"lon": -155.961716, "lat": 19.57181}}, {"id": 158597, "name": "Kahama", "country": "TZ", "coord": {"lon": 32.599998, "lat": -3.83333}}, {"id": 707251, "name": "Kaharlyk", "country": "UA", "coord": {"lon": 30.82815, "lat": 49.862331}}, {"id": 2162025, "name": "Kahibah", "country": "AU", "coord": {"lon": 151.716675, "lat": -32.966671}}, {"id": 2894245, "name": "Kahl am Main", "country": "DE", "coord": {"lon": 9.00553, "lat": 50.069809}}, {"id": 2894247, "name": "Kahla", "country": "DE", "coord": {"lon": 11.58333, "lat": 50.799999}}, {"id": 2894181, "name": "Kahlenberg", "country": "DE", "coord": {"lon": 11.06667, "lat": 52.616669}}, {"id": 2960399, "name": "Kahler", "country": "LU", "coord": {"lon": 5.91778, "lat": 49.63139}}, {"id": 2894136, "name": "Kahlheckerhof", "country": "DE", "coord": {"lon": 7.81667, "lat": 49.583328}}, {"id": 1175453, "name": "Kahna", "country": "PK", "coord": {"lon": 74.36528, "lat": 31.369169}}, {"id": 2894113, "name": "Kahnsdorf", "country": "DE", "coord": {"lon": 14, "lat": 51.816669}}, {"id": 5055742, "name": "Kahoka", "country": "US", "coord": {"lon": -91.719612, "lat": 40.420319}}, {"id": 2113698, "name": "Kahoku", "country": "JP", "coord": {"lon": 141.321671, "lat": 38.51667}}, {"id": 2250982, "name": "Kahone", "country": "SN", "coord": {"lon": -16.033331, "lat": 14.15}}, {"id": 310859, "name": "Kahramanmaras", "country": "TR", "coord": {"lon": 36.926399, "lat": 37.584702}}, {"id": 310858, "name": "Kahramanmara\u015f", "country": "TR", "coord": {"lon": 37, "lat": 38}}, {"id": 23814, "name": "Kahriz", "country": "IR", "coord": {"lon": 47.055302, "lat": 34.383801}}, {"id": 310855, "name": "Kahta", "country": "TR", "coord": {"lon": 38.623699, "lat": 37.785519}}, {"id": 5847387, "name": "Kahuku", "country": "US", "coord": {"lon": -157.951111, "lat": 21.680281}}, {"id": 5847411, "name": "Kahului", "country": "US", "coord": {"lon": -156.470001, "lat": 20.89472}}, {"id": 8024174, "name": "Kahuripan", "country": "ID", "coord": {"lon": 108.228104, "lat": -7.3471}}, {"id": 1175436, "name": "Kahuta", "country": "PK", "coord": {"lon": 73.386757, "lat": 33.591301}}, {"id": 1138801, "name": "Kai", "country": "AF", "coord": {"lon": 70.718277, "lat": 34.128189}}, {"id": 2413160, "name": "Kaiaf", "country": "GM", "coord": {"lon": -15.61667, "lat": 13.4}}, {"id": 2335596, "name": "Kaiama", "country": "NG", "coord": {"lon": 3.94806, "lat": 9.6225}}, {"id": 6220587, "name": "Kaiapoi", "country": "NZ", "coord": {"lon": 172.640137, "lat": -43.378319}}, {"id": 7873429, "name": "Kaibing", "country": "AT", "coord": {"lon": 15.84404, "lat": 47.20277}}, {"id": 2774981, "name": "Kaibing", "country": "AT", "coord": {"lon": 15.83333, "lat": 47.200001}}, {"id": 5300756, "name": "Kaibito", "country": "US", "coord": {"lon": -111.07431, "lat": 36.597221}}, {"id": 2894095, "name": "Kaibitz", "country": "DE", "coord": {"lon": 11.88333, "lat": 49.849998}}, {"id": 2894094, "name": "Kaichen", "country": "DE", "coord": {"lon": 8.83333, "lat": 50.25}}, {"id": 2894091, "name": "Kaider", "country": "DE", "coord": {"lon": 11.07257, "lat": 50.055908}}, {"id": 1804879, "name": "Kaifeng", "country": "CN", "coord": {"lon": 114.348328, "lat": 34.791111}}, {"id": 6553694, "name": "Kaifenheim", "country": "DE", "coord": {"lon": 7.2254, "lat": 50.24424}}, {"id": 2894085, "name": "Kaifenheim", "country": "DE", "coord": {"lon": 7.22643, "lat": 50.24501}}, {"id": 1860797, "name": "Kaigand\u014dri", "country": "JP", "coord": {"lon": 133.916672, "lat": 34.666672}}, {"id": 1804874, "name": "Kaihua", "country": "CN", "coord": {"lon": 104.279999, "lat": 23.3687}}, {"id": 1804873, "name": "Kaihua Chengguanzhen", "country": "CN", "coord": {"lon": 118.403328, "lat": 29.143061}}, {"id": 1784373, "name": "Kaijiang", "country": "CN", "coord": {"lon": 104.674477, "lat": 31.039591}}, {"id": 1268627, "name": "Kaikalur", "country": "IN", "coord": {"lon": 81.199997, "lat": 16.566669}}, {"id": 3853323, "name": "Kaiken", "country": "AR", "coord": {"lon": -67.199997, "lat": -54.533329}}, {"id": 2894082, "name": "Kaikenried", "country": "DE", "coord": {"lon": 13.03333, "lat": 49.01667}}, {"id": 2189272, "name": "Kaikoura", "country": "NZ", "coord": {"lon": 173.683334, "lat": -42.416672}}, {"id": 7303619, "name": "Kaikoura", "country": "NZ", "coord": {"lon": 173.68132, "lat": -42.40749}}, {"id": 7910046, "name": "Kaikoura District", "country": "NZ", "coord": {"lon": 173.622025, "lat": -42.236408}}, {"id": 6553695, "name": "Kail", "country": "DE", "coord": {"lon": 7.23333, "lat": 50.1833}}, {"id": 2894081, "name": "Kail", "country": "DE", "coord": {"lon": 7.23333, "lat": 50.183331}}, {"id": 2408250, "name": "Kailahun", "country": "SL", "coord": {"lon": -10.56667, "lat": 8.28333}}, {"id": 1268624, "name": "Kailaras", "country": "IN", "coord": {"lon": 77.616669, "lat": 26.316669}}, {"id": 1268622, "name": "Kailashahar", "country": "IN", "coord": {"lon": 92.01667, "lat": 24.33333}}, {"id": 2036341, "name": "Kailu", "country": "CN", "coord": {"lon": 121.199997, "lat": 43.583328}}, {"id": 5847486, "name": "Kailua", "country": "US", "coord": {"lon": -157.739441, "lat": 21.40222}}, {"id": 5847504, "name": "Kailua-Kona", "country": "US", "coord": {"lon": -155.99556, "lat": 19.64056}}, {"id": 1268616, "name": "Kaimganj", "country": "IN", "coord": {"lon": 79.349998, "lat": 27.566669}}, {"id": 2162021, "name": "Kaimkillenbun", "country": "AU", "coord": {"lon": 151.433334, "lat": -27.066669}}, {"id": 1268615, "name": "Kaimori", "country": "IN", "coord": {"lon": 79.75, "lat": 23.383329}}, {"id": 7872496, "name": "Kainach bei Voitsberg", "country": "AT", "coord": {"lon": 15.04548, "lat": 47.161949}}, {"id": 2774977, "name": "Kainach bei Voitsberg", "country": "AT", "coord": {"lon": 15.08333, "lat": 47.133331}}, {"id": 2774976, "name": "Kainach bei Wildon", "country": "AT", "coord": {"lon": 15.48333, "lat": 46.883331}}, {"id": 1860785, "name": "Kainan", "country": "JP", "coord": {"lon": 135.199997, "lat": 34.150002}}, {"id": 2095038, "name": "Kainantu", "country": "PG", "coord": {"lon": 145.865479, "lat": -6.28872}}, {"id": 7873430, "name": "Kaindorf", "country": "AT", "coord": {"lon": 15.92354, "lat": 47.21973}}, {"id": 2774970, "name": "Kaindorf", "country": "AT", "coord": {"lon": 15.9, "lat": 47.216671}}, {"id": 7872405, "name": "Kaindorf an der Sulm", "country": "AT", "coord": {"lon": 15.52689, "lat": 46.794361}}, {"id": 2774967, "name": "Kaindorf an der Sulm", "country": "AT", "coord": {"lon": 15.53879, "lat": 46.79248}}, {"id": 1528234, "name": "Kaindy", "country": "KG", "coord": {"lon": 73.67585, "lat": 42.824692}}, {"id": 2335568, "name": "Kaingiwa", "country": "NG", "coord": {"lon": 3.81867, "lat": 12.55208}}, {"id": 261680, "name": "Kainouryion", "country": "GR", "coord": {"lon": 22.716669, "lat": 38.799999}}, {"id": 261681, "name": "Kainouryion", "country": "GR", "coord": {"lon": 21.5, "lat": 38.599998}}, {"id": 2894060, "name": "Kainsbach", "country": "DE", "coord": {"lon": 11.4832, "lat": 49.47036}}, {"id": 1268610, "name": "Kaintaragarh", "country": "IN", "coord": {"lon": 84.533333, "lat": 20.716669}}, {"id": 830664, "name": "Kainuu", "country": "FI", "coord": {"lon": 28, "lat": 64.5}}, {"id": 7910047, "name": "Kaipara District", "country": "NZ", "coord": {"lon": 174.046875, "lat": -35.995461}}, {"id": 523137, "name": "Kaipkulovo", "country": "RU", "coord": {"lon": 59.008202, "lat": 54.1077}}, {"id": 1268601, "name": "Kairana", "country": "IN", "coord": {"lon": 77.199997, "lat": 29.4}}, {"id": 1642125, "name": "Kairatu", "country": "ID", "coord": {"lon": 128.362762, "lat": -3.35337}}, {"id": 2162019, "name": "Kairi", "country": "AU", "coord": {"lon": 145.550003, "lat": -17.216669}}, {"id": 2473449, "name": "Kairouan", "country": "TN", "coord": {"lon": 10.09633, "lat": 35.678101}}, {"id": 261678, "name": "Kaisariani", "country": "GR", "coord": {"lon": 23.799999, "lat": 37.966671}}, {"id": 6552201, "name": "Kaisborstel", "country": "DE", "coord": {"lon": 9.48122, "lat": 54.01371}}, {"id": 2894048, "name": "Kaisborstel", "country": "DE", "coord": {"lon": 9.48116, "lat": 54.013672}}, {"id": 7286170, "name": "Kaiseraugst", "country": "CH", "coord": {"lon": 7.74212, "lat": 47.536121}}, {"id": 2660204, "name": "Kaiseraugst", "country": "CH", "coord": {"lon": 7.72605, "lat": 47.539661}}, {"id": 2894023, "name": "Kaiseringen", "country": "DE", "coord": {"lon": 9.09629, "lat": 48.157799}}, {"id": 3322740, "name": "Kaiserm\u00fchlen", "country": "AT", "coord": {"lon": 16.424999, "lat": 48.226109}}, {"id": 6555498, "name": "Kaisersbach", "country": "DE", "coord": {"lon": 9.63907, "lat": 48.930302}}, {"id": 2894014, "name": "Kaisersbach", "country": "DE", "coord": {"lon": 9.63898, "lat": 48.930229}}, {"id": 7871601, "name": "Kaisersdorf", "country": "AT", "coord": {"lon": 16.385349, "lat": 47.536018}}, {"id": 2774932, "name": "Kaisersdorf", "country": "AT", "coord": {"lon": 16.4, "lat": 47.533329}}, {"id": 2894007, "name": "Kaisersesch", "country": "DE", "coord": {"lon": 7.15, "lat": 50.23333}}, {"id": 2894006, "name": "Kaisershagen", "country": "DE", "coord": {"lon": 10.48333, "lat": 51.26667}}, {"id": 2894003, "name": "Kaiserslautern", "country": "DE", "coord": {"lon": 7.75, "lat": 49.450001}}, {"id": 7286171, "name": "Kaiserstuhl", "country": "CH", "coord": {"lon": 8.41902, "lat": 47.567669}}, {"id": 2660201, "name": "Kaiserstuhl", "country": "CH", "coord": {"lon": 8.418, "lat": 47.56839}}, {"id": 2660202, "name": "Kaiserstuhl", "country": "CH", "coord": {"lon": 8.17205, "lat": 46.813808}}, {"id": 2893993, "name": "Kaiserswerth", "country": "DE", "coord": {"lon": 6.73624, "lat": 51.301472}}, {"id": 5123094, "name": "Kaisertown", "country": "US", "coord": {"lon": -74.284042, "lat": 41.50732}}, {"id": 3208607, "name": "Kaiserwinkel", "country": "DE", "coord": {"lon": 10.95903, "lat": 52.52364}}, {"id": 1922473, "name": "Kaishan", "country": "CN", "coord": {"lon": 117.180138, "lat": 26.753281}}, {"id": 2036339, "name": "Kaishantun", "country": "CN", "coord": {"lon": 129.757385, "lat": 42.701771}}, {"id": 2893983, "name": "Kaisheim", "country": "DE", "coord": {"lon": 10.8, "lat": 48.76667}}, {"id": 598567, "name": "Kaisiadorys", "country": "LT", "coord": {"lon": 24.450001, "lat": 54.866669}}, {"id": 2893978, "name": "Kaisten", "country": "DE", "coord": {"lon": 10.05438, "lat": 50.043468}}, {"id": 7286172, "name": "Kaisten", "country": "CH", "coord": {"lon": 8.04491, "lat": 47.539001}}, {"id": 2660200, "name": "Kaisten", "country": "CH", "coord": {"lon": 8.04337, "lat": 47.541599}}, {"id": 5988699, "name": "Kaisun", "country": "CA", "coord": {"lon": -132.45343, "lat": 53.032768}}, {"id": 1897590, "name": "Kaita", "country": "JP", "coord": {"lon": 132.550003, "lat": 34.366669}}, {"id": 6228827, "name": "Kaitaia", "country": "NZ", "coord": {"lon": 173.263657, "lat": -35.114849}}, {"id": 1268593, "name": "Kaithal", "country": "IN", "coord": {"lon": 76.383331, "lat": 29.799999}}, {"id": 1268592, "name": "Kaithan Khera", "country": "IN", "coord": {"lon": 80.599998, "lat": 26.933332}}, {"id": 2036338, "name": "Kaitong", "country": "CN", "coord": {"lon": 123.150002, "lat": 44.813511}}, {"id": 2189167, "name": "Kaiwaka", "country": "NZ", "coord": {"lon": 174.449997, "lat": -36.166672}}, {"id": 2189162, "name": "Kaiwharawhara", "country": "NZ", "coord": {"lon": 174.783325, "lat": -41.26667}}, {"id": 1804850, "name": "Kaiyuan", "country": "CN", "coord": {"lon": 103.303719, "lat": 23.69767}}, {"id": 2036337, "name": "Kaiyuan", "country": "CN", "coord": {"lon": 124.040283, "lat": 42.533058}}, {"id": 1808421, "name": "Kaiyun", "country": "CN", "coord": {"lon": 112.856003, "lat": 27.213511}}, {"id": 2129791, "name": "Kaiy\u014d", "country": "JP", "coord": {"lon": 144.916672, "lat": 43.583328}}, {"id": 1860765, "name": "Kaizuka", "country": "JP", "coord": {"lon": 135.350006, "lat": 34.450001}}, {"id": 654901, "name": "Kajaani", "country": "FI", "coord": {"lon": 27.66667, "lat": 64.166672}}, {"id": 654899, "name": "Kajaani", "country": "FI", "coord": {"lon": 27.72846, "lat": 64.22728}}, {"id": 7084611, "name": "Kajanan", "country": "ID", "coord": {"lon": 114.940697, "lat": -8.2201}}, {"id": 8071158, "name": "Kajangansawan", "country": "ID", "coord": {"lon": 111.399803, "lat": -6.9696}}, {"id": 232713, "name": "Kajansi", "country": "UG", "coord": {"lon": 32.522221, "lat": 0.20806}}, {"id": 8068080, "name": "Kajar", "country": "ID", "coord": {"lon": 111.476501, "lat": -6.6909}}, {"id": 8070998, "name": "Kajar", "country": "ID", "coord": {"lon": 111.480598, "lat": -6.8821}}, {"id": 7037376, "name": "Kajaran", "country": "ID", "coord": {"lon": 113.190903, "lat": -8.0854}}, {"id": 7037526, "name": "Kajaran", "country": "ID", "coord": {"lon": 113.190903, "lat": -8.0854}}, {"id": 1957914, "name": "Kajatian", "country": "PH", "coord": {"lon": 120.991943, "lat": 6.03111}}, {"id": 8056485, "name": "Kajen", "country": "ID", "coord": {"lon": 111.059402, "lat": -6.6067}}, {"id": 7413597, "name": "Kajiadao", "country": "CN", "coord": {"lon": 102.993507, "lat": 35.11718}}, {"id": 195298, "name": "Kajiado", "country": "KE", "coord": {"lon": 36.776829, "lat": -1.85238}}, {"id": 1790685, "name": "Kajiaman", "country": "CN", "coord": {"lon": 102.913933, "lat": 35.088509}}, {"id": 1860750, "name": "Kajiki", "country": "JP", "coord": {"lon": 130.666672, "lat": 31.73333}}, {"id": 371712, "name": "Kajok", "country": "SS", "coord": {"lon": 27.99028, "lat": 8.30016}}, {"id": 8078454, "name": "Kajongan", "country": "ID", "coord": {"lon": 112.060402, "lat": -6.8933}}, {"id": 3074004, "name": "Kajov", "country": "CZ", "coord": {"lon": 14.25859, "lat": 48.810822}}, {"id": 1138714, "name": "Kajran", "country": "AF", "coord": {"lon": 65.473106, "lat": 33.203571}}, {"id": 2335502, "name": "Kajul", "country": "NG", "coord": {"lon": 7.9981, "lat": 10.03176}}, {"id": 2335500, "name": "Kajuru", "country": "NG", "coord": {"lon": 7.68924, "lat": 10.31921}}, {"id": 161901, "name": "Kaka", "country": "TM", "coord": {"lon": 59.614311, "lat": 37.348209}}, {"id": 6690107, "name": "Kakaguda", "country": "IN", "coord": {"lon": 78.504646, "lat": 17.45948}}, {"id": 195272, "name": "Kakamega", "country": "KE", "coord": {"lon": 34.752281, "lat": 0.28422}}, {"id": 1860735, "name": "Kakamigahara", "country": "JP", "coord": {"lon": 136.866669, "lat": 35.416672}}, {"id": 2094982, "name": "Kakandetta", "country": "PG", "coord": {"lon": 148.233337, "lat": -8.76667}}, {"id": 3198490, "name": "Kakanj", "country": "BA", "coord": {"lon": 18.118059, "lat": 44.12722}}, {"id": 2189146, "name": "Kakanui", "country": "NZ", "coord": {"lon": 170.899994, "lat": -45.183331}}, {"id": 1268571, "name": "Kakarmatha", "country": "IN", "coord": {"lon": 82.966667, "lat": 25.283333}}, {"id": 2276086, "name": "Kakata", "country": "LR", "coord": {"lon": -10.35167, "lat": 6.53}}, {"id": 2893962, "name": "Kakau", "country": "DE", "coord": {"lon": 10.77827, "lat": 52.868919}}, {"id": 6548820, "name": "Kakau", "country": "DE", "coord": {"lon": 12.4333, "lat": 51.799999}}, {"id": 2893963, "name": "Kakau", "country": "DE", "coord": {"lon": 12.43333, "lat": 51.799999}}, {"id": 1268567, "name": "Kakching", "country": "IN", "coord": {"lon": 93.98333, "lat": 24.48333}}, {"id": 1860728, "name": "Kakegawa", "country": "JP", "coord": {"lon": 138.016663, "lat": 34.76667}}, {"id": 6552639, "name": "Kakenstorf", "country": "DE", "coord": {"lon": 9.76667, "lat": 53.3167}}, {"id": 2893954, "name": "Kakenstorf", "country": "DE", "coord": {"lon": 9.76667, "lat": 53.316669}}, {"id": 2893952, "name": "Kakerbeck", "country": "DE", "coord": {"lon": 10.75, "lat": 52.700001}}, {"id": 2893951, "name": "Kakerbeck", "country": "DE", "coord": {"lon": 9.43333, "lat": 53.416672}}, {"id": 865537, "name": "Kakheti", "country": "GE", "coord": {"lon": 45.716671, "lat": 41.75}}, {"id": 1337071, "name": "Kakhor", "country": "PK", "coord": {"lon": 62.656387, "lat": 25.545279}}, {"id": 707244, "name": "Kakhovka", "country": "UA", "coord": {"lon": 33.48698, "lat": 46.813709}}, {"id": 707240, "name": "Kakhovskoye", "country": "UA", "coord": {"lon": 34.066669, "lat": 44.98333}}, {"id": 554444, "name": "Kakhun", "country": "RU", "coord": {"lon": 43.876389, "lat": 43.54306}}, {"id": 2125112, "name": "Kaki", "country": "RU", "coord": {"lon": 140.399994, "lat": 53.099998}}, {"id": 1268561, "name": "Kakinada", "country": "IN", "coord": {"lon": 82.216667, "lat": 16.933331}}, {"id": 310839, "name": "Kakl\u0131\u00e7", "country": "TR", "coord": {"lon": 26.9881, "lat": 38.50877}}, {"id": 1860704, "name": "Kakogawa", "country": "JP", "coord": {"lon": 134.850006, "lat": 34.76667}}, {"id": 158563, "name": "Kakonko", "country": "TZ", "coord": {"lon": 30.96417, "lat": -3.28278}}, {"id": 146582, "name": "Kakopetria", "country": "CY", "coord": {"lon": 32.904171, "lat": 34.991669}}, {"id": 1268545, "name": "Kakori", "country": "IN", "coord": {"lon": 80.800003, "lat": 26.883333}}, {"id": 1268540, "name": "Kakrala", "country": "IN", "coord": {"lon": 79.199997, "lat": 27.9}}, {"id": 5865670, "name": "Kaktovik", "country": "US", "coord": {"lon": -143.623886, "lat": 70.131943}}, {"id": 3050750, "name": "Kakucs", "country": "HU", "coord": {"lon": 19.36467, "lat": 47.242001}}, {"id": 2112455, "name": "Kakuda", "country": "JP", "coord": {"lon": 140.783325, "lat": 37.966671}}, {"id": 2112454, "name": "Kakudate", "country": "JP", "coord": {"lon": 140.566666, "lat": 39.583328}}, {"id": 3198478, "name": "Kal", "country": "SI", "coord": {"lon": 15.11667, "lat": 46.166672}}, {"id": 719511, "name": "Kal", "country": "HU", "coord": {"lon": 20.26667, "lat": 47.73333}}, {"id": 6910806, "name": "Kala Dangan", "country": "ML", "coord": {"lon": -6.2699, "lat": 13.4629}}, {"id": 6619707, "name": "Kala Ghoda", "country": "IN", "coord": {"lon": 72.832962, "lat": 18.92926}}, {"id": 1447254, "name": "Kala-Navi-Sarm-Reg", "country": "AF", "coord": {"lon": 68.416389, "lat": 33.53833}}, {"id": 1175365, "name": "Kalabagh", "country": "PK", "coord": {"lon": 71.556969, "lat": 32.965}}, {"id": 915471, "name": "Kalabo", "country": "ZM", "coord": {"lon": 22.681379, "lat": -14.97004}}, {"id": 554410, "name": "Kalach", "country": "RU", "coord": {"lon": 41.0261, "lat": 50.4258}}, {"id": 554397, "name": "Kalach-na-Donu", "country": "RU", "coord": {"lon": 43.526379, "lat": 48.69099}}, {"id": 1505074, "name": "Kalachinsk", "country": "RU", "coord": {"lon": 74.575111, "lat": 55.05286}}, {"id": 5988860, "name": "Kaladar", "country": "CA", "coord": {"lon": -77.116142, "lat": 44.65012}}, {"id": 1268513, "name": "Kaladhungi", "country": "IN", "coord": {"lon": 79.349998, "lat": 29.283331}}, {"id": 1138657, "name": "Kalafgan", "country": "AF", "coord": {"lon": 69.945, "lat": 36.772739}}, {"id": 1268510, "name": "Kalagarh", "country": "IN", "coord": {"lon": 78.75, "lat": 29.5}}, {"id": 7780242, "name": "Kalahang", "country": "ID", "coord": {"lon": 106.053101, "lat": -6.3606}}, {"id": 7781183, "name": "Kalahang", "country": "ID", "coord": {"lon": 105.994202, "lat": -6.2805}}, {"id": 5847662, "name": "Kalaheo", "country": "US", "coord": {"lon": -159.526855, "lat": 21.92416}}, {"id": 1268504, "name": "Kalaikunda", "country": "IN", "coord": {"lon": 87.25, "lat": 22.35}}, {"id": 1709668, "name": "Kalaisan", "country": "PH", "coord": {"lon": 125.044998, "lat": 7.01028}}, {"id": 654838, "name": "Kalajoki", "country": "FI", "coord": {"lon": 24, "lat": 64.25}}, {"id": 654837, "name": "Kalajoki", "country": "FI", "coord": {"lon": 23.950001, "lat": 64.25}}, {"id": 1138636, "name": "Kalakan", "country": "AF", "coord": {"lon": 69.150009, "lat": 34.78371}}, {"id": 1268495, "name": "Kalakkadu", "country": "IN", "coord": {"lon": 77.566673, "lat": 8.5}}, {"id": 129512, "name": "Kalaleh", "country": "IR", "coord": {"lon": 55.491638, "lat": 37.380711}}, {"id": 5799410, "name": "Kalama", "country": "US", "coord": {"lon": -122.844551, "lat": 46.00845}}, {"id": 1709719, "name": "Kalamangog", "country": "PH", "coord": {"lon": 124.068893, "lat": 6.72556}}, {"id": 1709717, "name": "Kalamansig", "country": "PH", "coord": {"lon": 124.051109, "lat": 6.55187}}, {"id": 933696, "name": "Kalamare", "country": "BW", "coord": {"lon": 26.57032, "lat": -22.933689}}, {"id": 736083, "name": "Kalamaria", "country": "GR", "coord": {"lon": 22.950279, "lat": 40.5825}}, {"id": 261604, "name": "Kalamata", "country": "GR", "coord": {"lon": 22.11417, "lat": 37.038891}}, {"id": 4997787, "name": "Kalamazoo", "country": "US", "coord": {"lon": -85.587227, "lat": 42.29171}}, {"id": 4997791, "name": "Kalamazoo County", "country": "US", "coord": {"lon": -85.550003, "lat": 42.250599}}, {"id": 1268484, "name": "Kalamb", "country": "IN", "coord": {"lon": 73.949997, "lat": 19.049999}}, {"id": 261596, "name": "Kalamia", "country": "GR", "coord": {"lon": 20.931669, "lat": 39.165562}}, {"id": 1268480, "name": "Kalamnuri", "country": "IN", "coord": {"lon": 77.333328, "lat": 19.66667}}, {"id": 4997811, "name": "Kalamo", "country": "US", "coord": {"lon": -85.012772, "lat": 42.542809}}, {"id": 261571, "name": "Kalamos", "country": "GR", "coord": {"lon": 23.866671, "lat": 38.283329}}, {"id": 261601, "name": "Kalampaka", "country": "GR", "coord": {"lon": 21.62694, "lat": 39.704441}}, {"id": 736082, "name": "Kalampaki", "country": "GR", "coord": {"lon": 24.183331, "lat": 41.049999}}, {"id": 7839518, "name": "Kalamunda", "country": "AU", "coord": {"lon": 116.132919, "lat": -32.003979}}, {"id": 1138590, "name": "Kalan Deh", "country": "AF", "coord": {"lon": 68.402328, "lat": 33.836761}}, {"id": 3256023, "name": "Kalanac", "country": "BA", "coord": {"lon": 18.78389, "lat": 44.86861}}, {"id": 1268476, "name": "Kalanaur", "country": "IN", "coord": {"lon": 76.400002, "lat": 28.83333}}, {"id": 1268475, "name": "Kalanaur", "country": "IN", "coord": {"lon": 75.150002, "lat": 32.01667}}, {"id": 707232, "name": "Kalanchak", "country": "UA", "coord": {"lon": 33.290699, "lat": 46.256229}}, {"id": 1709707, "name": "Kalandagan", "country": "PH", "coord": {"lon": 124.723328, "lat": 6.67861}}, {"id": 1957866, "name": "Kalang", "country": "PH", "coord": {"lon": 121.36306, "lat": 5.91972}}, {"id": 2162006, "name": "Kalangadoo", "country": "AU", "coord": {"lon": 140.699997, "lat": -37.566669}}, {"id": 232571, "name": "Kalangala", "country": "UG", "coord": {"lon": 32.224998, "lat": -0.30889}}, {"id": 8058360, "name": "Kalangan", "country": "ID", "coord": {"lon": 111.106499, "lat": -6.7054}}, {"id": 8067867, "name": "Kalangan", "country": "ID", "coord": {"lon": 111.371597, "lat": -6.9421}}, {"id": 1709704, "name": "Kalanganan", "country": "PH", "coord": {"lon": 124.246674, "lat": 8.08333}}, {"id": 1985348, "name": "Kalanganyartambak", "country": "ID", "coord": {"lon": 112.7938, "lat": -7.3995}}, {"id": 8052970, "name": "Kalangsari", "country": "ID", "coord": {"lon": 108.424103, "lat": -7.4933}}, {"id": 2023298, "name": "Kalanguy", "country": "RU", "coord": {"lon": 116.51667, "lat": 51.01667}}, {"id": 2068838, "name": "Kalannie", "country": "AU", "coord": {"lon": 117.116669, "lat": -30.35}}, {"id": 1268469, "name": "Kalanwali", "country": "IN", "coord": {"lon": 74.949997, "lat": 29.85}}, {"id": 5847746, "name": "Kalaoa", "country": "US", "coord": {"lon": -155.981674, "lat": 19.728609}}, {"id": 2162005, "name": "Kalapa", "country": "AU", "coord": {"lon": 150.266663, "lat": -23.51667}}, {"id": 7764812, "name": "Kalapadua", "country": "ID", "coord": {"lon": 105.85495, "lat": -6.56391}}, {"id": 8070098, "name": "Kalapagada", "country": "ID", "coord": {"lon": 108.6614, "lat": -7.3943}}, {"id": 1640524, "name": "Kalapagenep", "country": "ID", "coord": {"lon": 108.292603, "lat": -7.8073}}, {"id": 8033531, "name": "Kalapanunggal", "country": "ID", "coord": {"lon": 107.0047, "lat": -7.2146}}, {"id": 1268460, "name": "Kalas", "country": "IN", "coord": {"lon": 74.800003, "lat": 18.16667}}, {"id": 2023293, "name": "Kalashnikova", "country": "RU", "coord": {"lon": 102.816391, "lat": 53.316669}}, {"id": 554363, "name": "Kalashnikovo", "country": "RU", "coord": {"lon": 35.22617, "lat": 57.282372}}, {"id": 1610469, "name": "Kalasin", "country": "TH", "coord": {"lon": 103.506577, "lat": 16.43281}}, {"id": 1175297, "name": "Kalaswala", "country": "PK", "coord": {"lon": 74.649139, "lat": 32.200932}}, {"id": 1175296, "name": "Kalat", "country": "PK", "coord": {"lon": 66.591599, "lat": 29.02252}}, {"id": 1175290, "name": "Kalat Lines", "country": "PK", "coord": {"lon": 67.199997, "lat": 24.933331}}, {"id": 1268450, "name": "Kalavad", "country": "IN", "coord": {"lon": 70.383331, "lat": 22.216669}}, {"id": 1268449, "name": "Kalavai", "country": "IN", "coord": {"lon": 79.419991, "lat": 12.77029}}, {"id": 261537, "name": "Kalavryta", "country": "GR", "coord": {"lon": 22.112499, "lat": 38.032219}}, {"id": 1709653, "name": "Kalawit", "country": "PH", "coord": {"lon": 122.51667, "lat": 8.06667}}, {"id": 1709650, "name": "Kalayaan", "country": "PH", "coord": {"lon": 121.566673, "lat": 14.35}}, {"id": 7522621, "name": "Kalayaan", "country": "PH", "coord": {"lon": 121.476898, "lat": 14.3247}}, {"id": 1454033, "name": "Kalayi-Daulat", "country": "AF", "coord": {"lon": 69.180573, "lat": 34.581692}}, {"id": 1428258, "name": "Kalayi-Gulyamsheykhi", "country": "AF", "coord": {"lon": 62.152641, "lat": 32.374889}}, {"id": 2893942, "name": "Kalbach", "country": "DE", "coord": {"lon": 8.6471, "lat": 50.187012}}, {"id": 3208074, "name": "Kalbach", "country": "DE", "coord": {"lon": 9.61667, "lat": 50.416672}}, {"id": 6544447, "name": "Kalbach", "country": "DE", "coord": {"lon": 9.68256, "lat": 50.404469}}, {"id": 2162002, "name": "Kalbar", "country": "AU", "coord": {"lon": 152.616669, "lat": -27.933331}}, {"id": 2068835, "name": "Kalbarri", "country": "AU", "coord": {"lon": 114.166672, "lat": -27.66667}}, {"id": 1709647, "name": "Kalbay", "country": "PH", "coord": {"lon": 125.498611, "lat": 5.72333}}, {"id": 6552738, "name": "Kalbe", "country": "DE", "coord": {"lon": 9.55, "lat": 53.299999}}, {"id": 2893938, "name": "Kalbe", "country": "DE", "coord": {"lon": 9.55, "lat": 53.299999}}, {"id": 2893939, "name": "Kalbe", "country": "DE", "coord": {"lon": 11.4, "lat": 52.650002}}, {"id": 6549973, "name": "Kalbsrieth", "country": "DE", "coord": {"lon": 11.3333, "lat": 51.349998}}, {"id": 2893884, "name": "Kalbsrieth", "country": "DE", "coord": {"lon": 11.33333, "lat": 51.349998}}, {"id": 1709644, "name": "Kalbugan", "country": "PH", "coord": {"lon": 124.659172, "lat": 6.95972}}, {"id": 707220, "name": "Kalchevaya", "country": "UA", "coord": {"lon": 28.814051, "lat": 45.73737}}, {"id": 730776, "name": "Kalchovska", "country": "BG", "coord": {"lon": 24.716669, "lat": 42.883331}}, {"id": 6556869, "name": "Kalchreuth", "country": "DE", "coord": {"lon": 11.1333, "lat": 49.5667}}, {"id": 2893881, "name": "Kalchreuth", "country": "DE", "coord": {"lon": 11.13333, "lat": 49.566669}}, {"id": 310784, "name": "Kale", "country": "TR", "coord": {"lon": 38, "lat": 39.033329}}, {"id": 310789, "name": "Kale", "country": "TR", "coord": {"lon": 28.84528, "lat": 37.439171}}, {"id": 323251, "name": "Kale", "country": "TR", "coord": {"lon": 38.76667, "lat": 38.416672}}, {"id": 744814, "name": "Kalecik", "country": "TR", "coord": {"lon": 33.408329, "lat": 40.097221}}, {"id": 7381989, "name": "Kalede", "country": "ID", "coord": {"lon": 118.987503, "lat": -8.5714}}, {"id": 6619483, "name": "Kaleen", "country": "AU", "coord": {"lon": 149.105164, "lat": -35.21814}}, {"id": 6552379, "name": "Kalefeld", "country": "DE", "coord": {"lon": 10.0333, "lat": 51.799999}}, {"id": 2893868, "name": "Kalefeld", "country": "DE", "coord": {"lon": 10.03333, "lat": 51.799999}}, {"id": 3096924, "name": "Kalej", "country": "PL", "coord": {"lon": 18.984289, "lat": 50.83662}}, {"id": 1175283, "name": "Kaleke Mandi", "country": "PK", "coord": {"lon": 73.602592, "lat": 31.97718}}, {"id": 7556335, "name": "Kalembutillu", "country": "ID", "coord": {"lon": 119.243652, "lat": -9.5604}}, {"id": 214974, "name": "Kalemie", "country": "CD", "coord": {"lon": 29.19471, "lat": -5.94749}}, {"id": 7688462, "name": "Kalenaren", "country": "ID", "coord": {"lon": 108.785141, "lat": -7.58}}, {"id": 2893865, "name": "Kalenberg", "country": "DE", "coord": {"lon": 6.6, "lat": 50.566669}}, {"id": 6553314, "name": "Kalenborn", "country": "DE", "coord": {"lon": 7, "lat": 50.549999}}, {"id": 2893859, "name": "Kalenborn", "country": "DE", "coord": {"lon": 7, "lat": 50.549999}}, {"id": 6553696, "name": "Kalenborn", "country": "DE", "coord": {"lon": 7.08333, "lat": 50.266701}}, {"id": 2893860, "name": "Kalenborn", "country": "DE", "coord": {"lon": 7.08333, "lat": 50.26667}}, {"id": 6554643, "name": "Kalenborn-Scheuern", "country": "DE", "coord": {"lon": 6.6, "lat": 50.25}}, {"id": 3207747, "name": "Kalenborn-Scheuern", "country": "DE", "coord": {"lon": 6.6, "lat": 50.25}}, {"id": 3198462, "name": "Kalenderovci Donji", "country": "BA", "coord": {"lon": 17.833891, "lat": 44.945}}, {"id": 915285, "name": "Kalengwa", "country": "ZM", "coord": {"lon": 25.00271, "lat": -13.46586}}, {"id": 7688470, "name": "Kalenpring", "country": "ID", "coord": {"lon": 108.761101, "lat": -7.585}}, {"id": 7780070, "name": "Kalepasan", "country": "ID", "coord": {"lon": 106.079903, "lat": -6.26}}, {"id": 7759951, "name": "Kaleps", "country": "RU", "coord": {"lon": 39.3605, "lat": 44.007301}}, {"id": 2299872, "name": "Kalesesi", "country": "GH", "coord": {"lon": -1.05, "lat": 10.55}}, {"id": 7532708, "name": "Kalety", "country": "PL", "coord": {"lon": 18.929701, "lat": 50.568699}}, {"id": 3096911, "name": "Kalety", "country": "PL", "coord": {"lon": 18.892599, "lat": 50.562698}}, {"id": 554318, "name": "Kalevala", "country": "RU", "coord": {"lon": 31.166668, "lat": 65.199997}}, {"id": 554315, "name": "Kaleykino", "country": "RU", "coord": {"lon": 52.200001, "lat": 54.916668}}, {"id": 2023286, "name": "Kalga", "country": "RU", "coord": {"lon": 118.898003, "lat": 50.925098}}, {"id": 2068827, "name": "Kalgan", "country": "AU", "coord": {"lon": 118.013062, "lat": -34.88472}}, {"id": 1268434, "name": "Kalghatgi", "country": "IN", "coord": {"lon": 74.966667, "lat": 15.18333}}, {"id": 7839519, "name": "Kalgoorlie/Boulder", "country": "AU", "coord": {"lon": 124.92347, "lat": -30.77632}}, {"id": 3198457, "name": "Kali", "country": "HR", "coord": {"lon": 15.20556, "lat": 44.062778}}, {"id": 736071, "name": "Kali", "country": "GR", "coord": {"lon": 22.17528, "lat": 40.82}}, {"id": 1966827, "name": "Kali", "country": "ID", "coord": {"lon": 121.427803, "lat": 1.1627}}, {"id": 736051, "name": "Kali Vrisi", "country": "GR", "coord": {"lon": 23.9, "lat": 41.150002}}, {"id": 1185272, "name": "Kalia", "country": "BD", "coord": {"lon": 89.632797, "lat": 23.0396}}, {"id": 1709641, "name": "Kalian", "country": "PH", "coord": {"lon": 125.700279, "lat": 6.12306}}, {"id": 1958297, "name": "Kalian", "country": "PH", "coord": {"lon": 123.231903, "lat": 7.5916}}, {"id": 1641978, "name": "Kaliandak", "country": "ID", "coord": {"lon": 105.591599, "lat": -5.73805}}, {"id": 1641977, "name": "Kalianget", "country": "ID", "coord": {"lon": 113.933327, "lat": -7.05}}, {"id": 7406470, "name": "Kalianyar Selatan", "country": "ID", "coord": {"lon": 113.829102, "lat": -8.0152}}, {"id": 7545199, "name": "Kaliasin", "country": "ID", "coord": {"lon": 114.3778, "lat": -8.2203}}, {"id": 1641958, "name": "Kalibaru", "country": "ID", "coord": {"lon": 113.985901, "lat": -8.2897}}, {"id": 7888802, "name": "Kalibaru", "country": "ID", "coord": {"lon": 107.042603, "lat": -7.0759}}, {"id": 7580910, "name": "Kalibaru Kulon", "country": "ID", "coord": {"lon": 113.979103, "lat": -8.2877}}, {"id": 1709632, "name": "Kalibo (poblacion)", "country": "PH", "coord": {"lon": 122.364441, "lat": 11.70611}}, {"id": 7579548, "name": "Kaliboto", "country": "ID", "coord": {"lon": 111.979897, "lat": -8.0431}}, {"id": 1641943, "name": "Kalibunder", "country": "ID", "coord": {"lon": 106.722198, "lat": -7.2627}}, {"id": 1720345, "name": "Kalibungan", "country": "PH", "coord": {"lon": 120.723999, "lat": 15.5982}}, {"id": 7781585, "name": "Kalibuntu", "country": "ID", "coord": {"lon": 106.1138, "lat": -6.2134}}, {"id": 5159421, "name": "Kalida", "country": "US", "coord": {"lon": -84.199387, "lat": 40.98283}}, {"id": 1641939, "name": "Kalidawir", "country": "ID", "coord": {"lon": 111.972298, "lat": -8.1808}}, {"id": 7920391, "name": "Kalidung", "country": "ID", "coord": {"lon": 107.890198, "lat": -7.1913}}, {"id": 6385763, "name": "Kaliduren", "country": "ID", "coord": {"lon": 109.098061, "lat": -7.56028}}, {"id": 8017827, "name": "Kalieung", "country": "ID", "coord": {"lon": 108.0821, "lat": -7.3185}}, {"id": 5865702, "name": "Kalifornsky", "country": "US", "coord": {"lon": -151.289993, "lat": 60.418331}}, {"id": 8079255, "name": "Kaligambir", "country": "ID", "coord": {"lon": 112.276001, "lat": -8.279}}, {"id": 1185199, "name": "Kaliganj", "country": "BD", "coord": {"lon": 89.140198, "lat": 23.4095}}, {"id": 7034696, "name": "Kaligentong", "country": "ID", "coord": {"lon": 111.989899, "lat": -8.2282}}, {"id": 8080441, "name": "Kaligerman", "country": "ID", "coord": {"lon": 112.328903, "lat": -6.9985}}, {"id": 8079125, "name": "Kaligrenjeng", "country": "ID", "coord": {"lon": 112.129204, "lat": -8.2739}}, {"id": 1958729, "name": "Kaligutan", "country": "PH", "coord": {"lon": 125.813057, "lat": 7.70306}}, {"id": 7849746, "name": "Kalijaga", "country": "ID", "coord": {"lon": 106.648598, "lat": -7.2133}}, {"id": 1641917, "name": "Kalijeruk", "country": "ID", "coord": {"lon": 113.338997, "lat": -8.0653}}, {"id": 1268408, "name": "Kalikapur", "country": "IN", "coord": {"lon": 86.283333, "lat": 22.616671}}, {"id": 554297, "name": "Kalikino", "country": "RU", "coord": {"lon": 39.8269, "lat": 52.949299}}, {"id": 1709627, "name": "Kalilangan", "country": "PH", "coord": {"lon": 124.731392, "lat": 7.82111}}, {"id": 1720988, "name": "Kaliliog", "country": "PH", "coord": {"lon": 123.292503, "lat": 13.9039}}, {"id": 8068057, "name": "Kalilu", "country": "ID", "coord": {"lon": 111.487701, "lat": -6.6825}}, {"id": 7351981, "name": "Kalimango", "country": "ID", "coord": {"lon": 116.995399, "lat": -8.52212}}, {"id": 7035506, "name": "Kalimanis", "country": "ID", "coord": {"lon": 112.437401, "lat": -8.045}}, {"id": 1969935, "name": "Kalimat", "country": "ID", "coord": {"lon": 112.499702, "lat": -7.0086}}, {"id": 8058012, "name": "Kalimati", "country": "ID", "coord": {"lon": 111.238197, "lat": -6.7588}}, {"id": 7456052, "name": "Kalimbukuni", "country": "ID", "coord": {"lon": 119.436096, "lat": -9.6362}}, {"id": 8078999, "name": "Kalimeneng", "country": "ID", "coord": {"lon": 112.090302, "lat": -8.2843}}, {"id": 1268403, "name": "Kalimpang", "country": "IN", "coord": {"lon": 88.48333, "lat": 27.066669}}, {"id": 1268398, "name": "Kalina Khas", "country": "IN", "coord": {"lon": 76.316673, "lat": 28.33333}}, {"id": 1268399, "name": "Kalinagar", "country": "IN", "coord": {"lon": 80.099998, "lat": 28.616671}}, {"id": 8061086, "name": "Kalinanas", "country": "ID", "coord": {"lon": 111.260803, "lat": -6.8629}}, {"id": 7115730, "name": "Kalinga", "country": "PH", "coord": {"lon": 121.416092, "lat": 17.425989}}, {"id": 554269, "name": "Kalinin", "country": "RU", "coord": {"lon": 39.51088, "lat": 47.24678}}, {"id": 808190, "name": "Kalinin", "country": "RU", "coord": {"lon": 36.611328, "lat": 50.74049}}, {"id": 554265, "name": "Kalinin", "country": "RU", "coord": {"lon": 40.417099, "lat": 47.376999}}, {"id": 554236, "name": "Kalininaul", "country": "RU", "coord": {"lon": 46.566792, "lat": 43.071209}}, {"id": 554234, "name": "Kaliningrad", "country": "RU", "coord": {"lon": 20.51095, "lat": 54.70649}}, {"id": 554230, "name": "Kaliningradskaya Oblast\u2019", "country": "RU", "coord": {"lon": 21.5, "lat": 54.75}}, {"id": 554206, "name": "Kalinino", "country": "RU", "coord": {"lon": 42.25, "lat": 59.616669}}, {"id": 554229, "name": "Kalinino", "country": "RU", "coord": {"lon": 39.020279, "lat": 45.094444}}, {"id": 1490053, "name": "Kalinino", "country": "RU", "coord": {"lon": 91.387497, "lat": 53.738331}}, {"id": 554263, "name": "Kalininovka", "country": "RU", "coord": {"lon": 40.271942, "lat": 48.141945}}, {"id": 554199, "name": "Kalininsk", "country": "RU", "coord": {"lon": 44.4758, "lat": 51.5}}, {"id": 554173, "name": "Kalininskaya", "country": "RU", "coord": {"lon": 38.662777, "lat": 45.482224}}, {"id": 8142155, "name": "Kalininskiy", "country": "RU", "coord": {"lon": 49.138561, "lat": 55.74963}}, {"id": 1528211, "name": "Kalininskoe", "country": "KG", "coord": {"lon": 73.855659, "lat": 42.829021}}, {"id": 627751, "name": "Kalinkavichy", "country": "BY", "coord": {"lon": 29.325701, "lat": 52.132301}}, {"id": 6608785, "name": "Kalinki", "country": "RU", "coord": {"lon": 43.624722, "lat": 56.849167}}, {"id": 554153, "name": "Kalino", "country": "RU", "coord": {"lon": 57.608501, "lat": 58.250401}}, {"id": 809736, "name": "Kalinov", "country": "RU", "coord": {"lon": 39.915501, "lat": 48.005798}}, {"id": 707133, "name": "Kalinova Popasnaya", "country": "UA", "coord": {"lon": 38.332642, "lat": 48.608479}}, {"id": 3198450, "name": "Kalinovac", "country": "HR", "coord": {"lon": 17.115561, "lat": 46.029442}}, {"id": 813643, "name": "Kalinovka", "country": "BY", "coord": {"lon": 31.000278, "lat": 54.597221}}, {"id": 554096, "name": "Kalinovka", "country": "RU", "coord": {"lon": 37.719444, "lat": 55.516388}}, {"id": 554093, "name": "Kalinovka", "country": "RU", "coord": {"lon": 39.733421, "lat": 56.482841}}, {"id": 1505003, "name": "Kalinovo", "country": "RU", "coord": {"lon": 60.1464, "lat": 57.131699}}, {"id": 805620, "name": "Kalinovoye Ozero", "country": "RU", "coord": {"lon": 39.884724, "lat": 43.613888}}, {"id": 554077, "name": "Kalinovskaya", "country": "RU", "coord": {"lon": 45.519169, "lat": 43.575829}}, {"id": 554064, "name": "Kalinovskoye", "country": "RU", "coord": {"lon": 42.9622, "lat": 44.863499}}, {"id": 8061022, "name": "Kaliombo Wetan", "country": "ID", "coord": {"lon": 111.362099, "lat": -6.7868}}, {"id": 1641885, "name": "Kaliori", "country": "ID", "coord": {"lon": 111.247498, "lat": -6.7019}}, {"id": 1641882, "name": "Kalipang", "country": "ID", "coord": {"lon": 111.653603, "lat": -6.7241}}, {"id": 1641881, "name": "Kalipare", "country": "ID", "coord": {"lon": 112.466301, "lat": -8.2066}}, {"id": 7035120, "name": "Kalipare", "country": "ID", "coord": {"lon": 112.466301, "lat": -8.2066}}, {"id": 730752, "name": "Kalipetrovo", "country": "BG", "coord": {"lon": 27.23333, "lat": 44.083328}}, {"id": 8074101, "name": "Kaliprak", "country": "ID", "coord": {"lon": 111.583, "lat": -6.8864}}, {"id": 1641879, "name": "Kalipucang", "country": "ID", "coord": {"lon": 108.752602, "lat": -7.6433}}, {"id": 1641877, "name": "Kalipuro", "country": "ID", "coord": {"lon": 114.3591, "lat": -8.1687}}, {"id": 7863619, "name": "Kalirejo", "country": "ID", "coord": {"lon": 104.961311, "lat": -5.22582}}, {"id": 8071065, "name": "Kalirejo", "country": "ID", "coord": {"lon": 111.434303, "lat": -6.9231}}, {"id": 232526, "name": "Kaliro", "country": "UG", "coord": {"lon": 33.499439, "lat": 0.89444}}, {"id": 8060237, "name": "Kalisabuk", "country": "ID", "coord": {"lon": 111.129501, "lat": -6.6929}}, {"id": 8080018, "name": "Kalisangkrah Lor", "country": "ID", "coord": {"lon": 112.388496, "lat": -8.2852}}, {"id": 1965450, "name": "Kalisari", "country": "ID", "coord": {"lon": 112.6483, "lat": -8.0234}}, {"id": 7532521, "name": "Kaliska", "country": "PL", "coord": {"lon": 18.1784, "lat": 53.896}}, {"id": 3096885, "name": "Kaliska", "country": "PL", "coord": {"lon": 18.218849, "lat": 53.90535}}, {"id": 5660340, "name": "Kalispell", "country": "US", "coord": {"lon": -114.312912, "lat": 48.195789}}, {"id": 554052, "name": "Kalistovo", "country": "RU", "coord": {"lon": 37.950001, "lat": 56.166668}}, {"id": 7530863, "name": "Kalisz", "country": "PL", "coord": {"lon": 18.076059, "lat": 51.74725}}, {"id": 7531679, "name": "Kalisz", "country": "PL", "coord": {"lon": 18.076, "lat": 51.7472}}, {"id": 3096880, "name": "Kalisz", "country": "PL", "coord": {"lon": 18.091021, "lat": 51.761089}}, {"id": 7533047, "name": "Kalisz Pomorski", "country": "PL", "coord": {"lon": 15.9031, "lat": 53.2929}}, {"id": 3096873, "name": "Kalisz Pomorski", "country": "PL", "coord": {"lon": 15.90631, "lat": 53.29908}}, {"id": 707123, "name": "Kalita", "country": "UA", "coord": {"lon": 31.016666, "lat": 50.75}}, {"id": 1641858, "name": "Kalitelo", "country": "ID", "coord": {"lon": 112.434097, "lat": -8.2572}}, {"id": 1641857, "name": "Kalitengah", "country": "ID", "coord": {"lon": 112.400398, "lat": -6.9954}}, {"id": 6374092, "name": "Kaliterus", "country": "ID", "coord": {"lon": 109.197777, "lat": -7.62389}}, {"id": 547449, "name": "Kalitino", "country": "RU", "coord": {"lon": 38.56889, "lat": 55.929169}}, {"id": 158514, "name": "Kaliua", "country": "TZ", "coord": {"lon": 31.79361, "lat": -5.06056}}, {"id": 8180824, "name": "Kaliuling", "country": "ID", "coord": {"lon": 112.951302, "lat": -8.267}}, {"id": 261497, "name": "Kalivai", "country": "GR", "coord": {"lon": 24.173531, "lat": 35.45116}}, {"id": 736056, "name": "Kalivia Poliyirou", "country": "GR", "coord": {"lon": 23.4, "lat": 40.283329}}, {"id": 261490, "name": "Kaliv\u00e1rion", "country": "GR", "coord": {"lon": 24.75, "lat": 37.966671}}, {"id": 7083151, "name": "Kaliwates", "country": "ID", "coord": {"lon": 113.671204, "lat": -8.1821}}, {"id": 8054252, "name": "Kaliwon Kertawirama", "country": "ID", "coord": {"lon": 108.4272, "lat": -7.0112}}, {"id": 605393, "name": "Kalix", "country": "SE", "coord": {"lon": 23.15645, "lat": 65.852982}}, {"id": 605387, "name": "Kalix Kommun", "country": "SE", "coord": {"lon": 23, "lat": 66}}, {"id": 1268383, "name": "Kaliyaganj", "country": "IN", "coord": {"lon": 88.316673, "lat": 25.633329}}, {"id": 2893841, "name": "Kalk", "country": "DE", "coord": {"lon": 7.00327, "lat": 50.942421}}, {"id": 1268381, "name": "Kalka", "country": "IN", "coord": {"lon": 76.933327, "lat": 30.83444}}, {"id": 2161990, "name": "Kalkallo", "country": "AU", "coord": {"lon": 144.949997, "lat": -37.533329}}, {"id": 310677, "name": "Kalkan", "country": "TR", "coord": {"lon": 29.413691, "lat": 36.265099}}, {"id": 744767, "name": "Kalkandere", "country": "TR", "coord": {"lon": 40.441898, "lat": 40.92804}}, {"id": 2893837, "name": "Kalkar", "country": "DE", "coord": {"lon": 6.3, "lat": 51.73333}}, {"id": 2562830, "name": "Kalkara", "country": "MT", "coord": {"lon": 14.53278, "lat": 35.889172}}, {"id": 4997805, "name": "Kalkaska", "country": "US", "coord": {"lon": -85.175888, "lat": 44.734169}}, {"id": 2619183, "name": "Kalkerup", "country": "DK", "coord": {"lon": 11.81373, "lat": 55.27396}}, {"id": 2893807, "name": "Kalkgraben", "country": "DE", "coord": {"lon": 11.85, "lat": 47.75}}, {"id": 6548238, "name": "Kalkhorst", "country": "DE", "coord": {"lon": 11.0667, "lat": 53.966702}}, {"id": 2893792, "name": "Kalkhorst", "country": "DE", "coord": {"lon": 11.04469, "lat": 53.970119}}, {"id": 2161986, "name": "Kalkite", "country": "AU", "coord": {"lon": 148.633331, "lat": -36.333328}}, {"id": 6554958, "name": "Kalkofen", "country": "DE", "coord": {"lon": 7.83333, "lat": 49.733299}}, {"id": 2893779, "name": "Kalkofen", "country": "DE", "coord": {"lon": 7.83333, "lat": 49.73333}}, {"id": 2893775, "name": "Kalkreuth", "country": "DE", "coord": {"lon": 13.63333, "lat": 51.283329}}, {"id": 2893767, "name": "Kalkum", "country": "DE", "coord": {"lon": 6.78646, "lat": 51.312271}}, {"id": 2893762, "name": "Kall", "country": "DE", "coord": {"lon": 6.55, "lat": 50.549999}}, {"id": 6553067, "name": "Kall", "country": "DE", "coord": {"lon": 6.555, "lat": 50.527401}}, {"id": 1242170, "name": "Kallady", "country": "LK", "coord": {"lon": 81.716301, "lat": 7.7124}}, {"id": 1268376, "name": "Kallakkurichchi", "country": "IN", "coord": {"lon": 78.966667, "lat": 11.73333}}, {"id": 1175232, "name": "Kallar Kahar", "country": "PK", "coord": {"lon": 72.699997, "lat": 32.783329}}, {"id": 591703, "name": "Kallaste", "country": "EE", "coord": {"lon": 27.15917, "lat": 58.654999}}, {"id": 2702489, "name": "Kallby", "country": "SE", "coord": {"lon": 13.31667, "lat": 58.51667}}, {"id": 2893754, "name": "Kallehne", "country": "DE", "coord": {"lon": 11.38333, "lat": 52.799999}}, {"id": 2893738, "name": "Kallenhardt", "country": "DE", "coord": {"lon": 8.41667, "lat": 51.450001}}, {"id": 2702449, "name": "Kallered", "country": "SE", "coord": {"lon": 12.05106, "lat": 57.609921}}, {"id": 1268360, "name": "Kallidaikurichchi", "country": "IN", "coord": {"lon": 77.48333, "lat": 8.66667}}, {"id": 736049, "name": "Kallifitos", "country": "GR", "coord": {"lon": 24.216669, "lat": 41.166672}}, {"id": 261431, "name": "Kallifonion", "country": "GR", "coord": {"lon": 21.95611, "lat": 39.272499}}, {"id": 2702405, "name": "Kallinge", "country": "SE", "coord": {"lon": 15.28333, "lat": 56.23333}}, {"id": 654706, "name": "Kallio", "country": "FI", "coord": {"lon": 24.95034, "lat": 60.184269}}, {"id": 2161984, "name": "Kallista", "country": "AU", "coord": {"lon": 145.366669, "lat": -37.883331}}, {"id": 261414, "name": "Kallithea", "country": "GR", "coord": {"lon": 23.700001, "lat": 37.950001}}, {"id": 736034, "name": "Kallithea", "country": "GR", "coord": {"lon": 24.73333, "lat": 41.25}}, {"id": 736039, "name": "Kallithea", "country": "GR", "coord": {"lon": 22.578329, "lat": 40.27639}}, {"id": 261401, "name": "Kallithiron", "country": "GR", "coord": {"lon": 21.906111, "lat": 39.28167}}, {"id": 6549789, "name": "Kallmerode", "country": "DE", "coord": {"lon": 10.3, "lat": 51.349998}}, {"id": 2893723, "name": "Kallmerode", "country": "DE", "coord": {"lon": 10.3, "lat": 51.349998}}, {"id": 2893721, "name": "Kallmunz", "country": "DE", "coord": {"lon": 11.96667, "lat": 49.150002}}, {"id": 7286174, "name": "Kallnach", "country": "CH", "coord": {"lon": 7.21497, "lat": 47.015671}}, {"id": 2660195, "name": "Kallnach", "country": "CH", "coord": {"lon": 7.23545, "lat": 47.020321}}, {"id": 261396, "name": "Kalloni", "country": "GR", "coord": {"lon": 26.208059, "lat": 39.23278}}, {"id": 719493, "name": "Kallosemjen", "country": "HU", "coord": {"lon": 21.93928, "lat": 47.860809}}, {"id": 6554908, "name": "Kallstadt", "country": "DE", "coord": {"lon": 8.17611, "lat": 49.490799}}, {"id": 2893717, "name": "Kallstadt", "country": "DE", "coord": {"lon": 8.17611, "lat": 49.490829}}, {"id": 2893716, "name": "Kallstadt", "country": "DE", "coord": {"lon": 8.73333, "lat": 49.549999}}, {"id": 1268355, "name": "Kallupatti", "country": "IN", "coord": {"lon": 77.866669, "lat": 9.71667}}, {"id": 719489, "name": "Kalmanhaza", "country": "HU", "coord": {"lon": 21.58333, "lat": 47.883331}}, {"id": 1504985, "name": "Kalmanka", "country": "RU", "coord": {"lon": 83.543327, "lat": 52.89917}}, {"id": 553998, "name": "Kalmantay", "country": "RU", "coord": {"lon": 47.122448, "lat": 52.563522}}, {"id": 2702261, "name": "Kalmar", "country": "SE", "coord": {"lon": 16.361629, "lat": 56.661572}}, {"id": 2702260, "name": "Kalmar Kommun", "country": "SE", "coord": {"lon": 16.333059, "lat": 56.666672}}, {"id": 2702259, "name": "Kalmar L\u00e4n", "country": "SE", "coord": {"lon": 16, "lat": 57.333328}}, {"id": 2893713, "name": "Kalme", "country": "DE", "coord": {"lon": 10.65, "lat": 52.083328}}, {"id": 1268344, "name": "Kalmeshwar", "country": "IN", "coord": {"lon": 78.900002, "lat": 21.23333}}, {"id": 2794789, "name": "Kalmthout", "country": "BE", "coord": {"lon": 4.47418, "lat": 51.38464}}, {"id": 2794788, "name": "Kalmthout", "country": "BE", "coord": {"lon": 4.47556, "lat": 51.384418}}, {"id": 1242110, "name": "Kalmunai", "country": "LK", "coord": {"lon": 81.816673, "lat": 7.41667}}, {"id": 1268341, "name": "Kalna", "country": "IN", "coord": {"lon": 88.366669, "lat": 23.216669}}, {"id": 459102, "name": "Kalnciems", "country": "LV", "coord": {"lon": 23.60972, "lat": 56.801109}}, {"id": 553955, "name": "Kalnibolotskaya", "country": "RU", "coord": {"lon": 40.456821, "lat": 46.005821}}, {"id": 459072, "name": "Kalnkrustce\u013ci", "country": "LV", "coord": {"lon": 26.283331, "lat": 55.966671}}, {"id": 736029, "name": "Kalochorion", "country": "GR", "coord": {"lon": 22.855801, "lat": 40.641209}}, {"id": 3050719, "name": "Kalocsa", "country": "HU", "coord": {"lon": 18.98583, "lat": 46.52639}}, {"id": 7378119, "name": "Kalodu", "country": "ID", "coord": {"lon": 118.838402, "lat": -8.6589}}, {"id": 627083, "name": "Kalodzishchy", "country": "BY", "coord": {"lon": 27.782301, "lat": 53.944}}, {"id": 6459906, "name": "Kalofer", "country": "BG", "coord": {"lon": 24.98333, "lat": 42.616669}}, {"id": 730744, "name": "Kalofer", "country": "BG", "coord": {"lon": 24.98333, "lat": 42.616669}}, {"id": 1268339, "name": "Kalol", "country": "IN", "coord": {"lon": 73.449997, "lat": 22.6}}, {"id": 4863181, "name": "Kalona", "country": "US", "coord": {"lon": -91.706001, "lat": 41.48307}}, {"id": 2161976, "name": "Kalorama", "country": "AU", "coord": {"lon": 145.366669, "lat": -37.816669}}, {"id": 736024, "name": "Kalos Agros", "country": "GR", "coord": {"lon": 24.08333, "lat": 41.099998}}, {"id": 730733, "name": "Kaloyanovo", "country": "BG", "coord": {"lon": 24.73333, "lat": 42.349998}}, {"id": 3050714, "name": "Kaloz", "country": "HU", "coord": {"lon": 18.48259, "lat": 46.954639}}, {"id": 1268327, "name": "Kalpetta", "country": "IN", "coord": {"lon": 76.082222, "lat": 11.61056}}, {"id": 1268325, "name": "Kalpi", "country": "IN", "coord": {"lon": 79.73333, "lat": 26.116671}}, {"id": 2161974, "name": "Kalpowar", "country": "AU", "coord": {"lon": 151.300003, "lat": -24.700001}}, {"id": 2893702, "name": "Kalrath", "country": "DE", "coord": {"lon": 6.45, "lat": 50.98333}}, {"id": 7872336, "name": "Kalsdorf bei Graz", "country": "AT", "coord": {"lon": 15.47231, "lat": 46.96096}}, {"id": 2774894, "name": "Kalsdorf bei Graz", "country": "AT", "coord": {"lon": 15.48028, "lat": 46.965279}}, {"id": 6553756, "name": "Kalt", "country": "DE", "coord": {"lon": 7.4, "lat": 50.266701}}, {"id": 2893693, "name": "Kalt", "country": "DE", "coord": {"lon": 7.39466, "lat": 50.267288}}, {"id": 1504972, "name": "Kaltan", "country": "RU", "coord": {"lon": 87.245697, "lat": 53.534698}}, {"id": 553929, "name": "Kaltasy", "country": "RU", "coord": {"lon": 54.803211, "lat": 55.969261}}, {"id": 1504968, "name": "Kaltay", "country": "RU", "coord": {"lon": 84.878609, "lat": 56.279171}}, {"id": 7286175, "name": "Kaltbrunn", "country": "CH", "coord": {"lon": 9.04905, "lat": 47.210018}}, {"id": 2660194, "name": "Kaltbrunn", "country": "CH", "coord": {"lon": 9.0259, "lat": 47.213669}}, {"id": 7872631, "name": "Kaltenbach", "country": "AT", "coord": {"lon": 11.84828, "lat": 47.280411}}, {"id": 2774876, "name": "Kaltenbach", "country": "AT", "coord": {"lon": 11.86667, "lat": 47.283329}}, {"id": 2893646, "name": "Kaltenbach", "country": "DE", "coord": {"lon": 7.44804, "lat": 50.971859}}, {"id": 2893647, "name": "Kaltenbach", "country": "DE", "coord": {"lon": 7.75, "lat": 49.200001}}, {"id": 7669663, "name": "Kaltenbach", "country": "CH", "coord": {"lon": 8.84388, "lat": 47.654491}}, {"id": 6553315, "name": "Kaltenborn", "country": "DE", "coord": {"lon": 7.01667, "lat": 50.400002}}, {"id": 2893622, "name": "Kaltenborn", "country": "DE", "coord": {"lon": 7.01667, "lat": 50.400002}}, {"id": 6553799, "name": "Kaltenengers", "country": "DE", "coord": {"lon": 7.55, "lat": 50.416698}}, {"id": 2893572, "name": "Kaltenengers", "country": "DE", "coord": {"lon": 7.55, "lat": 50.416672}}, {"id": 2893568, "name": "Kaltenhausen", "country": "DE", "coord": {"lon": 10.16667, "lat": 49.866669}}, {"id": 2893560, "name": "Kaltenherberg", "country": "DE", "coord": {"lon": 10.86667, "lat": 50.083328}}, {"id": 2893550, "name": "Kaltenhof", "country": "DE", "coord": {"lon": 10.98333, "lat": 53.916672}}, {"id": 6554047, "name": "Kaltenholzhausen", "country": "DE", "coord": {"lon": 8.1, "lat": 50.299999}}, {"id": 2893546, "name": "Kaltenholzhausen", "country": "DE", "coord": {"lon": 8.1, "lat": 50.299999}}, {"id": 3011976, "name": "Kaltenhouse", "country": "FR", "coord": {"lon": 7.83329, "lat": 48.791019}}, {"id": 2893544, "name": "Kaltenkirchen", "country": "DE", "coord": {"lon": 9.96667, "lat": 53.833328}}, {"id": 6549880, "name": "Kaltenlengsfeld", "country": "DE", "coord": {"lon": 10.2, "lat": 50.650002}}, {"id": 2893542, "name": "Kaltenlengsfeld", "country": "DE", "coord": {"lon": 10.2, "lat": 50.650002}}, {"id": 7872979, "name": "Kaltenleutgeben", "country": "AT", "coord": {"lon": 16.186859, "lat": 48.108311}}, {"id": 2774851, "name": "Kaltenleutgeben", "country": "AT", "coord": {"lon": 16.19956, "lat": 48.116459}}, {"id": 2893538, "name": "Kaltenmark", "country": "DE", "coord": {"lon": 11.95, "lat": 51.616669}}, {"id": 2893534, "name": "Kaltennordheim", "country": "DE", "coord": {"lon": 10.16667, "lat": 50.633331}}, {"id": 2893529, "name": "Kaltensondheim", "country": "DE", "coord": {"lon": 10.08854, "lat": 49.729469}}, {"id": 2893526, "name": "Kaltenstein", "country": "DE", "coord": {"lon": 13.53333, "lat": 48.73333}}, {"id": 6550018, "name": "Kaltensundheim", "country": "DE", "coord": {"lon": 10.1667, "lat": 50.616699}}, {"id": 2893524, "name": "Kaltensundheim", "country": "DE", "coord": {"lon": 10.16667, "lat": 50.616669}}, {"id": 6550019, "name": "Kaltenwestheim", "country": "DE", "coord": {"lon": 10.1167, "lat": 50.599998}}, {"id": 2893516, "name": "Kaltenwestheim", "country": "DE", "coord": {"lon": 10.11667, "lat": 50.599998}}, {"id": 2893488, "name": "Kalthof", "country": "DE", "coord": {"lon": 7.66667, "lat": 51.433331}}, {"id": 7670228, "name": "Kalth\u00e4usern", "country": "CH", "coord": {"lon": 8.97635, "lat": 47.52449}}, {"id": 730729, "name": "Kaltinets", "country": "BG", "coord": {"lon": 25.700001, "lat": 43.150002}}, {"id": 2893483, "name": "Kaltohmfeld", "country": "DE", "coord": {"lon": 10.39925, "lat": 51.456039}}, {"id": 2023261, "name": "Kaltuk", "country": "RU", "coord": {"lon": 101.730278, "lat": 55.679722}}, {"id": 2335369, "name": "Kaltungo", "country": "NG", "coord": {"lon": 11.30889, "lat": 9.81417}}, {"id": 2893480, "name": "Kaltwasser", "country": "DE", "coord": {"lon": 14.95, "lat": 51.26667}}, {"id": 2893477, "name": "Kalubbe", "country": "DE", "coord": {"lon": 10.28333, "lat": 54.116669}}, {"id": 553915, "name": "Kaluga", "country": "RU", "coord": {"lon": 36.275421, "lat": 54.529301}}, {"id": 1709577, "name": "Kalugmanan", "country": "PH", "coord": {"lon": 124.859718, "lat": 8.27778}}, {"id": 1268310, "name": "Kalugumalai", "country": "IN", "coord": {"lon": 77.716667, "lat": 9.15}}, {"id": 914959, "name": "Kalulushi", "country": "ZM", "coord": {"lon": 28.091921, "lat": -12.83778}}, {"id": 1644583, "name": "Kalumpang", "country": "ID", "coord": {"lon": 119.485901, "lat": -2.4781}}, {"id": 7792523, "name": "Kalumpang", "country": "ID", "coord": {"lon": 105.952904, "lat": -6.213}}, {"id": 2619154, "name": "Kalundborg", "country": "DK", "coord": {"lon": 11.08864, "lat": 55.679539}}, {"id": 2619152, "name": "Kalundborg Kommune", "country": "DK", "coord": {"lon": 11.1, "lat": 55.716671}}, {"id": 1268308, "name": "Kalundri", "country": "IN", "coord": {"lon": 73.133331, "lat": 18.98333}}, {"id": 232490, "name": "Kalungu", "country": "UG", "coord": {"lon": 31.758471, "lat": -0.16969}}, {"id": 1175180, "name": "Kalur Kot", "country": "PK", "coord": {"lon": 71.259438, "lat": 32.156391}}, {"id": 707099, "name": "Kalush", "country": "UA", "coord": {"lon": 24.373079, "lat": 49.011871}}, {"id": 769738, "name": "Kaluszyn", "country": "PL", "coord": {"lon": 21.80838, "lat": 52.206692}}, {"id": 1241964, "name": "Kalutara", "country": "LK", "coord": {"lon": 79.959297, "lat": 6.5831}}, {"id": 553901, "name": "Kaluzhskaya", "country": "RU", "coord": {"lon": 38.973888, "lat": 44.768059}}, {"id": 553899, "name": "Kaluzhskaya Oblast\u2019", "country": "RU", "coord": {"lon": 35.5, "lat": 54.5}}, {"id": 598512, "name": "Kalvarija", "country": "LT", "coord": {"lon": 23.23333, "lat": 54.400002}}, {"id": 654533, "name": "Kalvia", "country": "FI", "coord": {"lon": 23.45289, "lat": 63.860668}}, {"id": 654521, "name": "Kalvola", "country": "FI", "coord": {"lon": 24.116671, "lat": 61.099998}}, {"id": 7873483, "name": "Kalwang", "country": "AT", "coord": {"lon": 14.7588, "lat": 47.448002}}, {"id": 2774839, "name": "Kalwang", "country": "AT", "coord": {"lon": 14.75, "lat": 47.416672}}, {"id": 7533132, "name": "Kalwaria Zebrzydowska", "country": "PL", "coord": {"lon": 19.6663, "lat": 49.8671}}, {"id": 3096852, "name": "Kalwaria Zebrzydowska", "country": "PL", "coord": {"lon": 19.6772, "lat": 49.867592}}, {"id": 1268295, "name": "Kalyan", "country": "IN", "coord": {"lon": 73.150002, "lat": 19.25}}, {"id": 7302838, "name": "Kalyandurg", "country": "IN", "coord": {"lon": 77.105522, "lat": 14.54519}}, {"id": 1268293, "name": "Kalyani", "country": "IN", "coord": {"lon": 88.48333, "lat": 22.98333}}, {"id": 553884, "name": "Kalyazin", "country": "RU", "coord": {"lon": 37.84333, "lat": 57.24028}}, {"id": 261507, "name": "Kalymnos", "country": "GR", "coord": {"lon": 26.98333, "lat": 36.950001}}, {"id": 707189, "name": "Kalyniv", "country": "UA", "coord": {"lon": 23.316669, "lat": 49.549999}}, {"id": 707155, "name": "Kalynivka", "country": "UA", "coord": {"lon": 28.526079, "lat": 49.453892}}, {"id": 707127, "name": "Kalyny", "country": "UA", "coord": {"lon": 23.8738, "lat": 48.140781}}, {"id": 736065, "name": "Kalyvia", "country": "GR", "coord": {"lon": 22.21361, "lat": 40.756111}}, {"id": 261445, "name": "Kalyvia Thorikou", "country": "GR", "coord": {"lon": 23.92766, "lat": 37.84066}}, {"id": 2893453, "name": "Kalzendorf", "country": "DE", "coord": {"lon": 11.68333, "lat": 51.299999}}, {"id": 736067, "name": "Kal\u00edvai", "country": "GR", "coord": {"lon": 24.58333, "lat": 40.75}}, {"id": 6551737, "name": "Kal\u00fcbbe", "country": "DE", "coord": {"lon": 10.2833, "lat": 54.116699}}, {"id": 1175334, "name": "Kal\u0101m", "country": "PK", "coord": {"lon": 72.584778, "lat": 35.481602}}, {"id": 1138565, "name": "Kal\u0101t", "country": "AF", "coord": {"lon": 63.3778, "lat": 34.389931}}, {"id": 129406, "name": "Kal\u0101teh-ye B\u0101l\u012b", "country": "IR", "coord": {"lon": 58.198681, "lat": 37.573441}}, {"id": 7264, "name": "Kal\u0101teh-ye Dowlat", "country": "IR", "coord": {"lon": 57.616982, "lat": 36.163841}}, {"id": 129364, "name": "Kal\u0101teh-ye Karbal\u0101\u2019\u012b \u1e28\u0101jj\u012b", "country": "IR", "coord": {"lon": 59.257221, "lat": 32.901669}}, {"id": 553937, "name": "Kal\u2019shali", "country": "RU", "coord": {"lon": 54.099998, "lat": 54.316669}}, {"id": 553878, "name": "Kama", "country": "RU", "coord": {"lon": 54.09362, "lat": 56.305119}}, {"id": 214755, "name": "Kama", "country": "CD", "coord": {"lon": 25.950001, "lat": -2.95}}, {"id": 158492, "name": "Kamachumu", "country": "TZ", "coord": {"lon": 31.620001, "lat": -1.61861}}, {"id": 6822181, "name": "Kamagaya-shi", "country": "JP", "coord": {"lon": 140.000748, "lat": 35.776741}}, {"id": 1138464, "name": "Kamah Jarkanah", "country": "AF", "coord": {"lon": 68.506393, "lat": 33.065559}}, {"id": 2112444, "name": "Kamaishi", "country": "JP", "coord": {"lon": 141.883331, "lat": 39.26667}}, {"id": 1268279, "name": "Kamakhyanagar", "country": "IN", "coord": {"lon": 85.550003, "lat": 20.933331}}, {"id": 1860672, "name": "Kamakura", "country": "JP", "coord": {"lon": 139.550278, "lat": 35.308891}}, {"id": 2408154, "name": "Kamakwie", "country": "SL", "coord": {"lon": -12.23333, "lat": 9.5}}, {"id": 1641792, "name": "Kamal", "country": "ID", "coord": {"lon": 112.71917, "lat": -7.16778}}, {"id": 1268277, "name": "Kamalapuram", "country": "IN", "coord": {"lon": 78.650002, "lat": 14.58333}}, {"id": 7610554, "name": "Kamalaputi", "country": "ID", "coord": {"lon": 120.263397, "lat": -9.6484}}, {"id": 1610459, "name": "Kamalasai", "country": "TH", "coord": {"lon": 103.575638, "lat": 16.33839}}, {"id": 1268276, "name": "Kamalganj", "country": "IN", "coord": {"lon": 79.650002, "lat": 27.26667}}, {"id": 1175156, "name": "Kamalia", "country": "PK", "coord": {"lon": 72.650002, "lat": 30.73333}}, {"id": 1268271, "name": "Kamalpur", "country": "IN", "coord": {"lon": 91.833328, "lat": 24.200001}}, {"id": 310641, "name": "Kaman", "country": "TR", "coord": {"lon": 33.723888, "lat": 39.357498}}, {"id": 1268266, "name": "Kaman", "country": "IN", "coord": {"lon": 77.26667, "lat": 27.65}}, {"id": 553862, "name": "Kamandak", "country": "RU", "coord": {"lon": 47.516666, "lat": 54.116669}}, {"id": 1709537, "name": "Kamanga", "country": "PH", "coord": {"lon": 125.056107, "lat": 5.85778}}, {"id": 1175125, "name": "Kamar Mushani", "country": "PK", "coord": {"lon": 71.366943, "lat": 32.843891}}, {"id": 2161970, "name": "Kamarah", "country": "AU", "coord": {"lon": 146.766663, "lat": -34.333328}}, {"id": 261283, "name": "Kamarai", "country": "GR", "coord": {"lon": 22, "lat": 38.299999}}, {"id": 3661292, "name": "Kamarang", "country": "GY", "coord": {"lon": -60.616669, "lat": 5.86667}}, {"id": 1268259, "name": "Kamareddi", "country": "IN", "coord": {"lon": 78.349998, "lat": 18.316669}}, {"id": 1268257, "name": "Kamarhati", "country": "IN", "coord": {"lon": 88.374718, "lat": 22.67111}}, {"id": 261259, "name": "Kamarion", "country": "GR", "coord": {"lon": 22.58333, "lat": 38.099998}}, {"id": 261263, "name": "Kamarion", "country": "GR", "coord": {"lon": 25.816669, "lat": 36.799999}}, {"id": 736017, "name": "Kamariotissa", "country": "GR", "coord": {"lon": 25.466669, "lat": 40.48333}}, {"id": 823797, "name": "Kamaris", "country": "AM", "coord": {"lon": 44.694592, "lat": 40.23539}}, {"id": 2161969, "name": "Kamarooka", "country": "AU", "coord": {"lon": 144.333328, "lat": -36.466671}}, {"id": 5776692, "name": "Kamas", "country": "US", "coord": {"lon": -111.280739, "lat": 40.643009}}, {"id": 889390, "name": "Kamativi Mine", "country": "ZW", "coord": {"lon": 27.05728, "lat": -18.31563}}, {"id": 85820, "name": "Kamb al \u2018Ajj\u0101j", "country": "LY", "coord": {"lon": 20.25659, "lat": 32.097271}}, {"id": 2335333, "name": "Kamba", "country": "NG", "coord": {"lon": 3.65761, "lat": 11.84864}}, {"id": 1167622, "name": "Kambar", "country": "PK", "coord": {"lon": 68.00103, "lat": 27.58676}}, {"id": 553835, "name": "Kambarka", "country": "RU", "coord": {"lon": 54.206169, "lat": 56.26944}}, {"id": 7412015, "name": "Kambatatamakawu", "country": "ID", "coord": {"lon": 119.893883, "lat": -9.42137}}, {"id": 1281256, "name": "Kambaxoi", "country": "CN", "coord": {"lon": 88.533333, "lat": 28.299999}}, {"id": 2408088, "name": "Kambia", "country": "SL", "coord": {"lon": -12.91667, "lat": 9.11667}}, {"id": 553828, "name": "Kambileyevskoye", "country": "RU", "coord": {"lon": 44.752159, "lat": 43.078579}}, {"id": 1709498, "name": "Kambing", "country": "PH", "coord": {"lon": 121.307571, "lat": 5.94646}}, {"id": 1965534, "name": "Kambingan Satu", "country": "ID", "coord": {"lon": 112.710297, "lat": -8.012}}, {"id": 7522294, "name": "Kambja vald", "country": "EE", "coord": {"lon": 26.68996, "lat": 58.202549}}, {"id": 914555, "name": "Kamboka", "country": "ZM", "coord": {"lon": 31.15, "lat": -14.13333}}, {"id": 7701425, "name": "Kambos", "country": "GR", "coord": {"lon": 26.123341, "lat": 38.32246}}, {"id": 923058, "name": "Kambove", "country": "CD", "coord": {"lon": 26.596939, "lat": -10.87639}}, {"id": 2893443, "name": "Kambs", "country": "DE", "coord": {"lon": 12.56667, "lat": 53.316669}}, {"id": 1641747, "name": "Kambu", "country": "ID", "coord": {"lon": 118.321198, "lat": -8.3861}}, {"id": 176947, "name": "Kambwali", "country": "ZM", "coord": {"lon": 28.737801, "lat": -9.41681}}, {"id": 553816, "name": "Kamchuga", "country": "RU", "coord": {"lon": 43.167778, "lat": 60.04361}}, {"id": 1860649, "name": "Kamearimachi", "country": "JP", "coord": {"lon": 139.850006, "lat": 35.75}}, {"id": 1860648, "name": "Kameda", "country": "JP", "coord": {"lon": 139.116669, "lat": 37.866669}}, {"id": 2893438, "name": "Kamen", "country": "DE", "coord": {"lon": 7.66667, "lat": 51.599998}}, {"id": 3281054, "name": "Kamen", "country": "HR", "coord": {"lon": 16.514721, "lat": 43.514172}}, {"id": 2023226, "name": "Kamen-Rybolov", "country": "RU", "coord": {"lon": 132.040283, "lat": 44.748058}}, {"id": 1504871, "name": "Kamen-na-Obi", "country": "RU", "coord": {"lon": 81.3423, "lat": 53.788399}}, {"id": 261211, "name": "Kamena Vourla", "country": "GR", "coord": {"lon": 22.78573, "lat": 38.778439}}, {"id": 6461356, "name": "Kamenec", "country": "BG", "coord": {"lon": 26.73333, "lat": 42.333328}}, {"id": 730699, "name": "Kamenets", "country": "BG", "coord": {"lon": 26.73333, "lat": 42.333328}}, {"id": 553791, "name": "Kamenetskiy", "country": "RU", "coord": {"lon": 38.221149, "lat": 54.013531}}, {"id": 3198410, "name": "Kamenica", "country": "RS", "coord": {"lon": 19.7225, "lat": 44.342499}}, {"id": 789227, "name": "Kamenica", "country": "XK", "coord": {"lon": 21.58028, "lat": 42.57806}}, {"id": 724535, "name": "Kamenica nad Cirochou", "country": "SK", "coord": {"lon": 21.997009, "lat": 48.931438}}, {"id": 3073944, "name": "Kamenice", "country": "CZ", "coord": {"lon": 14.58242, "lat": 49.901508}}, {"id": 3073948, "name": "Kamenice", "country": "CZ", "coord": {"lon": 15.78023, "lat": 49.366589}}, {"id": 3073936, "name": "Kamenice nad Lipou", "country": "CZ", "coord": {"lon": 15.07519, "lat": 49.303028}}, {"id": 3073928, "name": "Kamenicky Senov", "country": "CZ", "coord": {"lon": 14.47287, "lat": 50.77359}}, {"id": 789611, "name": "Kamenjane", "country": "MK", "coord": {"lon": 20.92667, "lat": 41.944439}}, {"id": 2023249, "name": "Kamenka", "country": "RU", "coord": {"lon": 136.012222, "lat": 44.45694}}, {"id": 553609, "name": "Kamenka", "country": "RU", "coord": {"lon": 44.11261, "lat": 65.887589}}, {"id": 553655, "name": "Kamenka", "country": "RU", "coord": {"lon": 41.793831, "lat": 57.392139}}, {"id": 553766, "name": "Kamenka", "country": "RU", "coord": {"lon": 42.767799, "lat": 51.3223}}, {"id": 553691, "name": "Kamenka", "country": "RU", "coord": {"lon": 37.464596, "lat": 54.956604}}, {"id": 553605, "name": "Kamenka", "country": "RU", "coord": {"lon": 30.182777, "lat": 60.041943}}, {"id": 553668, "name": "Kamenka", "country": "RU", "coord": {"lon": 45.579723, "lat": 56.184166}}, {"id": 553778, "name": "Kamenka", "country": "RU", "coord": {"lon": 43.51667, "lat": 43.533329}}, {"id": 553725, "name": "Kamenka", "country": "RU", "coord": {"lon": 44.049438, "lat": 53.181389}}, {"id": 553606, "name": "Kamenka", "country": "RU", "coord": {"lon": 30.33333, "lat": 59.799999}}, {"id": 609721, "name": "Kamenka", "country": "KZ", "coord": {"lon": 50.316669, "lat": 51.116669}}, {"id": 707026, "name": "Kamenka-Na-Dnepre", "country": "UA", "coord": {"lon": 34.411461, "lat": 47.48481}}, {"id": 553553, "name": "Kamenna-Tyazhina", "country": "RU", "coord": {"lon": 38.013889, "lat": 55.540558}}, {"id": 3073899, "name": "Kamenne Zehrovice", "country": "CZ", "coord": {"lon": 14.01809, "lat": 50.126968}}, {"id": 553518, "name": "Kamennogorsk", "country": "RU", "coord": {"lon": 29.133909, "lat": 60.95451}}, {"id": 553514, "name": "Kamennomostskiy", "country": "RU", "coord": {"lon": 40.185555, "lat": 44.298332}}, {"id": 553513, "name": "Kamennomostskoye", "country": "RU", "coord": {"lon": 43.051392, "lat": 43.737221}}, {"id": 553504, "name": "Kamennoye", "country": "RU", "coord": {"lon": 43.87611, "lat": 57.234165}}, {"id": 707002, "name": "Kamennoye", "country": "UA", "coord": {"lon": 39.165649, "lat": 48.169281}}, {"id": 3073893, "name": "Kamenny Privoz", "country": "CZ", "coord": {"lon": 14.50339, "lat": 49.862991}}, {"id": 3073892, "name": "Kamenny Ujezd", "country": "CZ", "coord": {"lon": 14.44638, "lat": 48.89753}}, {"id": 841095, "name": "Kamennyy", "country": "RU", "coord": {"lon": 40.038055, "lat": 45.869167}}, {"id": 627664, "name": "Kamennyye Lavy", "country": "BY", "coord": {"lon": 30.301666, "lat": 54.091667}}, {"id": 706987, "name": "Kamennyye Potoki", "country": "UA", "coord": {"lon": 33.526379, "lat": 48.97974}}, {"id": 730680, "name": "Kameno", "country": "BG", "coord": {"lon": 27.299999, "lat": 42.566669}}, {"id": 553427, "name": "Kamenolomni", "country": "RU", "coord": {"lon": 40.205101, "lat": 47.668522}}, {"id": 2023225, "name": "Kamensk", "country": "RU", "coord": {"lon": 106.599998, "lat": 51.966671}}, {"id": 553399, "name": "Kamensk-Shakhtinskiy", "country": "RU", "coord": {"lon": 40.25948, "lat": 48.317791}}, {"id": 1504826, "name": "Kamensk-Uralskiy", "country": "RU", "coord": {"lon": 61.932899, "lat": 56.418499}}, {"id": 553416, "name": "Kamenskiy", "country": "RU", "coord": {"lon": 45.48801, "lat": 50.885471}}, {"id": 553397, "name": "Kamentsy", "country": "RU", "coord": {"lon": 39.333332, "lat": 55.583332}}, {"id": 2893437, "name": "Kamenz", "country": "DE", "coord": {"lon": 14.09374, "lat": 51.267979}}, {"id": 1860635, "name": "Kameoka", "country": "JP", "coord": {"lon": 135.583328, "lat": 35}}, {"id": 6549506, "name": "Kamern", "country": "DE", "coord": {"lon": 12.1167, "lat": 52.75}}, {"id": 2893430, "name": "Kamern", "country": "DE", "coord": {"lon": 12.11251, "lat": 52.748501}}, {"id": 2893422, "name": "Kamerun", "country": "DE", "coord": {"lon": 12.76667, "lat": 51.25}}, {"id": 553389, "name": "Kameshkovo", "country": "RU", "coord": {"lon": 41.004723, "lat": 56.348057}}, {"id": 3096847, "name": "Kamesznica", "country": "PL", "coord": {"lon": 19.0212, "lat": 49.56469}}, {"id": 1860626, "name": "Kameyama", "country": "JP", "coord": {"lon": 136.449997, "lat": 34.849998}}, {"id": 3185270, "name": "Kamez", "country": "AL", "coord": {"lon": 19.760281, "lat": 41.381672}}, {"id": 2129757, "name": "Kami-kawakami", "country": "JP", "coord": {"lon": 143.716675, "lat": 43.150002}}, {"id": 1860521, "name": "Kami-k\u014djaku", "country": "JP", "coord": {"lon": 130.760193, "lat": 33.828579}}, {"id": 1860483, "name": "Kami-nagarekawach\u014d", "country": "JP", "coord": {"lon": 132.449997, "lat": 34.400002}}, {"id": 1860437, "name": "Kami-renjaku", "country": "JP", "coord": {"lon": 139.550003, "lat": 35.683331}}, {"id": 1860380, "name": "Kami-yamasa", "country": "JP", "coord": {"lon": 133.116669, "lat": 35.316669}}, {"id": 5597538, "name": "Kamiah", "country": "US", "coord": {"lon": -116.029312, "lat": 46.227119}}, {"id": 707052, "name": "Kamianka", "country": "UA", "coord": {"lon": 32.103958, "lat": 49.031799}}, {"id": 1719699, "name": "Kamias", "country": "PH", "coord": {"lon": 120.965103, "lat": 15.1736}}, {"id": 769719, "name": "Kamien", "country": "PL", "coord": {"lon": 22.135389, "lat": 50.340641}}, {"id": 3096844, "name": "Kamien", "country": "PL", "coord": {"lon": 19.58536, "lat": 50.01215}}, {"id": 3096791, "name": "Kamien Krajenski", "country": "PL", "coord": {"lon": 17.520189, "lat": 53.53352}}, {"id": 3096765, "name": "Kamien Pomorski", "country": "PL", "coord": {"lon": 14.77262, "lat": 53.968491}}, {"id": 3096827, "name": "Kamienica", "country": "PL", "coord": {"lon": 19.886459, "lat": 50.35247}}, {"id": 769697, "name": "Kamienica", "country": "PL", "coord": {"lon": 20.345051, "lat": 49.575329}}, {"id": 3096826, "name": "Kamienica", "country": "PL", "coord": {"lon": 16.95396, "lat": 50.450069}}, {"id": 3096816, "name": "Kamienica Polska", "country": "PL", "coord": {"lon": 19.12265, "lat": 50.670898}}, {"id": 3096797, "name": "Kamieniec", "country": "PL", "coord": {"lon": 16.461639, "lat": 52.166142}}, {"id": 706950, "name": "Kamieniec Podolski", "country": "UA", "coord": {"lon": 26.566668, "lat": 48.666668}}, {"id": 3096796, "name": "Kamieniec Wroclawski", "country": "PL", "coord": {"lon": 17.181931, "lat": 51.071819}}, {"id": 3096795, "name": "Kamieniec Zabkowicki", "country": "PL", "coord": {"lon": 16.87921, "lat": 50.52541}}, {"id": 7531969, "name": "Kamieniec Z\u0105bkowicki", "country": "PL", "coord": {"lon": 16.9105, "lat": 50.521301}}, {"id": 3096779, "name": "Kamienna Gora", "country": "PL", "coord": {"lon": 16.030371, "lat": 50.783138}}, {"id": 7532304, "name": "Kamienna G\u00f3ra", "country": "PL", "coord": {"lon": 16.0336, "lat": 50.784599}}, {"id": 3096773, "name": "Kamiennik", "country": "PL", "coord": {"lon": 17.14979, "lat": 50.57032}}, {"id": 3096763, "name": "Kamiensk", "country": "PL", "coord": {"lon": 19.496611, "lat": 51.202419}}, {"id": 7533056, "name": "Kamie\u0144 Pomorski", "country": "PL", "coord": {"lon": 14.7829, "lat": 53.969501}}, {"id": 1907125, "name": "Kamifukuoka", "country": "JP", "coord": {"lon": 139.50972, "lat": 35.872501}}, {"id": 8125829, "name": "Kamigyo-ku", "country": "JP", "coord": {"lon": 135.756653, "lat": 35.029541}}, {"id": 1860588, "name": "Kamig\u014dri", "country": "JP", "coord": {"lon": 134.366669, "lat": 34.866669}}, {"id": 1860563, "name": "Kamiichi", "country": "JP", "coord": {"lon": 137.366669, "lat": 36.700001}}, {"id": 2129766, "name": "Kamiiso", "country": "JP", "coord": {"lon": 140.649994, "lat": 41.816669}}, {"id": 2129761, "name": "Kamikawa", "country": "JP", "coord": {"lon": 142.771103, "lat": 43.84}}, {"id": 2129752, "name": "Kamikitak\u014dzan", "country": "JP", "coord": {"lon": 140.956116, "lat": 40.736111}}, {"id": 707025, "name": "Kamin-Kashyrskyy", "country": "UA", "coord": {"lon": 24.958639, "lat": 51.624119}}, {"id": 214614, "name": "Kamina", "country": "CD", "coord": {"lon": 24.990561, "lat": -8.73861}}, {"id": 923051, "name": "Kamina", "country": "CD", "coord": {"lon": 23.533331, "lat": -10.63333}}, {"id": 243503, "name": "Kamina", "country": "TD", "coord": {"lon": 20.83333, "lat": 13.83333}}, {"id": 5989022, "name": "Kaministiquia", "country": "CA", "coord": {"lon": -89.566841, "lat": 48.533401}}, {"id": 1860458, "name": "Kaminokawa", "country": "JP", "coord": {"lon": 139.916672, "lat": 36.433331}}, {"id": 2112409, "name": "Kaminoyama", "country": "JP", "coord": {"lon": 140.273605, "lat": 38.153889}}, {"id": 553374, "name": "Kaminskiy", "country": "RU", "coord": {"lon": 41.473179, "lat": 57.151588}}, {"id": 769640, "name": "Kamionka", "country": "PL", "coord": {"lon": 22.462749, "lat": 51.471649}}, {"id": 707027, "name": "Kamionka Strumitowa", "country": "UA", "coord": {"lon": 24.344509, "lat": 50.106548}}, {"id": 769609, "name": "Kamionka Wielka", "country": "PL", "coord": {"lon": 20.823641, "lat": 49.568481}}, {"id": 1175098, "name": "Kamir", "country": "PK", "coord": {"lon": 73.050003, "lat": 30.433331}}, {"id": 1523563, "name": "Kamkaly", "country": "KZ", "coord": {"lon": 70.160828, "lat": 44.84639}}, {"id": 817749, "name": "Kamkino", "country": "RU", "coord": {"lon": 37.8125, "lat": 55.478611}}, {"id": 929083, "name": "Kamlembo", "country": "MW", "coord": {"lon": 33.783329, "lat": -13.78333}}, {"id": 5989045, "name": "Kamloops", "country": "CA", "coord": {"lon": -120.319199, "lat": 50.666481}}, {"id": 2893414, "name": "Kamm", "country": "DE", "coord": {"lon": 13.21667, "lat": 48.549999}}, {"id": 2893406, "name": "Kammer", "country": "DE", "coord": {"lon": 12.3134, "lat": 48.00322}}, {"id": 2893395, "name": "Kammerberg", "country": "DE", "coord": {"lon": 11.51667, "lat": 48.366669}}, {"id": 6549925, "name": "Kammerforst", "country": "DE", "coord": {"lon": 10.4167, "lat": 51.133301}}, {"id": 2893378, "name": "Kammerforst", "country": "DE", "coord": {"lon": 10.41667, "lat": 51.133331}}, {"id": 6554149, "name": "Kammerforst", "country": "DE", "coord": {"lon": 7.68333, "lat": 50.450001}}, {"id": 2893379, "name": "Kammerforst", "country": "DE", "coord": {"lon": 7.68333, "lat": 50.450001}}, {"id": 2893354, "name": "Kammerland", "country": "DE", "coord": {"lon": 9.55459, "lat": 53.795231}}, {"id": 7872424, "name": "Kammern im Liesingtal", "country": "AT", "coord": {"lon": 14.91663, "lat": 47.393551}}, {"id": 2774823, "name": "Kammern im Liesingtal", "country": "AT", "coord": {"lon": 14.9, "lat": 47.383331}}, {"id": 6556922, "name": "Kammerstein", "country": "DE", "coord": {"lon": 10.97388, "lat": 49.292889}}, {"id": 2893328, "name": "Kammerstein", "country": "DE", "coord": {"lon": 10.97277, "lat": 49.293171}}, {"id": 6548271, "name": "Kamminke", "country": "DE", "coord": {"lon": 14.2, "lat": 53.866699}}, {"id": 2893322, "name": "Kamminke", "country": "DE", "coord": {"lon": 14.2, "lat": 53.866669}}, {"id": 3198366, "name": "Kamnica", "country": "SI", "coord": {"lon": 15.61417, "lat": 46.57444}}, {"id": 3198365, "name": "Kamnik", "country": "SI", "coord": {"lon": 14.61207, "lat": 46.225868}}, {"id": 616598, "name": "Kamo", "country": "AM", "coord": {"lon": 43.95071, "lat": 40.825722}}, {"id": 1860341, "name": "Kamo", "country": "JP", "coord": {"lon": 139.050003, "lat": 37.650002}}, {"id": 2129696, "name": "Kamoenai", "country": "JP", "coord": {"lon": 140.434433, "lat": 43.138329}}, {"id": 1860335, "name": "Kamogata", "country": "JP", "coord": {"lon": 133.583328, "lat": 34.533329}}, {"id": 1860321, "name": "Kamojima", "country": "JP", "coord": {"lon": 134.350006, "lat": 34.066669}}, {"id": 1175088, "name": "Kamoke", "country": "PK", "coord": {"lon": 74.224442, "lat": 31.97444}}, {"id": 1860310, "name": "Kamonomiya", "country": "JP", "coord": {"lon": 139.183334, "lat": 35.283329}}, {"id": 6325493, "name": "Kamouraska", "country": "CA", "coord": {"lon": -69.86631, "lat": 47.565929}}, {"id": 2893311, "name": "Kamp", "country": "DE", "coord": {"lon": 7.78333, "lat": 50.933331}}, {"id": 6554048, "name": "Kamp-Bornhofen", "country": "DE", "coord": {"lon": 7.61667, "lat": 50.216702}}, {"id": 2893307, "name": "Kamp-Bornhofen", "country": "DE", "coord": {"lon": 7.61667, "lat": 50.216671}}, {"id": 2893264, "name": "Kamp-Lintfort", "country": "DE", "coord": {"lon": 6.53333, "lat": 51.5}}, {"id": 232422, "name": "Kampala", "country": "UG", "coord": {"lon": 32.582191, "lat": 0.31628}}, {"id": 443339, "name": "Kampala District", "country": "UG", "coord": {"lon": 32.58313, "lat": 0.33508}}, {"id": 736014, "name": "Kampanis", "country": "GR", "coord": {"lon": 22.91028, "lat": 40.888062}}, {"id": 1735274, "name": "Kampar", "country": "MY", "coord": {"lon": 101.150002, "lat": 4.3}}, {"id": 2893303, "name": "Kampe", "country": "DE", "coord": {"lon": 7.83333, "lat": 53.083328}}, {"id": 2753106, "name": "Kampen", "country": "NL", "coord": {"lon": 5.91111, "lat": 52.555}}, {"id": 214575, "name": "Kampene", "country": "CD", "coord": {"lon": 26.66667, "lat": -3.6}}, {"id": 2794764, "name": "Kampenhout", "country": "BE", "coord": {"lon": 4.55, "lat": 50.950001}}, {"id": 2794763, "name": "Kampenhout", "country": "BE", "coord": {"lon": 4.55103, "lat": 50.942101}}, {"id": 1153090, "name": "Kamphaeng Phet", "country": "TH", "coord": {"lon": 99.52153, "lat": 16.48344}}, {"id": 1610445, "name": "Kamphaeng Saen", "country": "TH", "coord": {"lon": 99.989807, "lat": 13.99966}}, {"id": 1904618, "name": "Kamph\u00e8ng Nakhon Viangchan", "country": "LA", "coord": {"lon": 102.666672, "lat": 18.08333}}, {"id": 261242, "name": "Kampi", "country": "GR", "coord": {"lon": 20.9, "lat": 39.216671}}, {"id": 2774804, "name": "Kampichl", "country": "AT", "coord": {"lon": 16.15, "lat": 47.533329}}, {"id": 1268215, "name": "Kampil", "country": "IN", "coord": {"lon": 79.283333, "lat": 27.616671}}, {"id": 769600, "name": "Kampinos", "country": "PL", "coord": {"lon": 20.46307, "lat": 52.268372}}, {"id": 1268214, "name": "Kampli", "country": "IN", "coord": {"lon": 76.616669, "lat": 15.4}}, {"id": 1709478, "name": "Kampokpok", "country": "PH", "coord": {"lon": 124.404999, "lat": 11.2962}}, {"id": 1771304, "name": "Kampong Baharu Balakong", "country": "MY", "coord": {"lon": 101.75, "lat": 3.03333}}, {"id": 1770847, "name": "Kampong Batu Perak", "country": "MY", "coord": {"lon": 110.349998, "lat": 1.46667}}, {"id": 1831173, "name": "Kampong Cham", "country": "KH", "coord": {"lon": 105.463501, "lat": 11.99339}}, {"id": 1831167, "name": "Kampong Chhnang", "country": "KH", "coord": {"lon": 104.666672, "lat": 12.25}}, {"id": 1769612, "name": "Kampong Dungun", "country": "MY", "coord": {"lon": 101.316673, "lat": 3.21667}}, {"id": 1769157, "name": "Kampong Gual Payong", "country": "MY", "coord": {"lon": 102.083328, "lat": 5.95}}, {"id": 1768664, "name": "Kampong Kadok", "country": "MY", "coord": {"lon": 102.25, "lat": 6}}, {"id": 1767021, "name": "Kampong Masjid Tanah", "country": "MY", "coord": {"lon": 102.116669, "lat": 2.35}}, {"id": 1766249, "name": "Kampong Pangkal Kalong", "country": "MY", "coord": {"lon": 102.216667, "lat": 5.91667}}, {"id": 1820614, "name": "Kampong Parit", "country": "BN", "coord": {"lon": 114.933327, "lat": 4.88333}}, {"id": 1880574, "name": "Kampong Pasir Ris", "country": "SG", "coord": {"lon": 103.931938, "lat": 1.37833}}, {"id": 1820572, "name": "Kampong Serusup", "country": "BN", "coord": {"lon": 114.933327, "lat": 4.95}}, {"id": 1882749, "name": "Kampong Siren", "country": "SG", "coord": {"lon": 103.898064, "lat": 1.35222}}, {"id": 1831133, "name": "Kampong Spoe", "country": "KH", "coord": {"lon": 104.533333, "lat": 11.45}}, {"id": 1763774, "name": "Kampong Sungai Tanah Liat", "country": "MY", "coord": {"lon": 100.683327, "lat": 4.63333}}, {"id": 1762985, "name": "Kampong Telok Reba", "country": "MY", "coord": {"lon": 102.300003, "lat": 6.16667}}, {"id": 1762882, "name": "Kampong Tengah", "country": "MY", "coord": {"lon": 111.466667, "lat": 1.23333}}, {"id": 1831125, "name": "Kampong Thum", "country": "KH", "coord": {"lon": 104.888733, "lat": 12.71112}}, {"id": 1762251, "name": "Kampong Wakuba", "country": "MY", "coord": {"lon": 118.12175, "lat": 4.2969}}, {"id": 3217900, "name": "Kampor", "country": "HR", "coord": {"lon": 14.71861, "lat": 44.775002}}, {"id": 1831112, "name": "Kampot", "country": "KH", "coord": {"lon": 104.183327, "lat": 10.61667}}, {"id": 7603928, "name": "Kampung Agung Agung", "country": "MY", "coord": {"lon": 116.834801, "lat": 6.9342}}, {"id": 6807148, "name": "Kampung Alor Perang", "country": "MY", "coord": {"lon": 100.392662, "lat": 6.18751}}, {"id": 1734753, "name": "Kampung Ayer Keroh", "country": "MY", "coord": {"lon": 102.280098, "lat": 2.2654}}, {"id": 1771485, "name": "Kampung Ayer Molek", "country": "MY", "coord": {"lon": 102.327797, "lat": 2.2139}}, {"id": 7795482, "name": "Kampung Baharu", "country": "MY", "coord": {"lon": 101.893303, "lat": 3.6578}}, {"id": 1771287, "name": "Kampung Baharu Nilai", "country": "MY", "coord": {"lon": 101.797203, "lat": 2.8033}}, {"id": 6819195, "name": "Kampung Bakau", "country": "MY", "coord": {"lon": 100.197571, "lat": 6.43082}}, {"id": 1771023, "name": "Kampung Baru Subang", "country": "MY", "coord": {"lon": 101.533333, "lat": 3.15}}, {"id": 1770876, "name": "Kampung Batu Lapan Tiga Suku", "country": "MY", "coord": {"lon": 103.216599, "lat": 3.7708}}, {"id": 1770351, "name": "Kampung Bukit Baharu", "country": "MY", "coord": {"lon": 102.285103, "lat": 2.2152}}, {"id": 1735133, "name": "Kampung Bukit Tinggi", "country": "MY", "coord": {"lon": 101.816673, "lat": 3.35}}, {"id": 7797983, "name": "Kampung Dua", "country": "MY", "coord": {"lon": 102.246696, "lat": 2.1969}}, {"id": 1768129, "name": "Kampung Kota Lama", "country": "MY", "coord": {"lon": 102.166397, "lat": 2.5181}},