[{"id": 2928874, "name": "Espelkamp", "country": "DE", "coord": {"lon": 8.61667, "lat": 52.383331}}, {"id": 2811644, "name": "Weiterstadt", "country": "DE", "coord": {"lon": 8.59528, "lat": 49.90778}}, {"id": 2827213, "name": "Stetten bei Hechingen", "country": "DE", "coord": {"lon": 8.97978, "lat": 48.345531}}, {"id": 2949511, "name": "Bad Bevensen", "country": "DE", "coord": {"lon": 10.58333, "lat": 53.083328}}, {"id": 2847890, "name": "Reusrath", "country": "DE", "coord": {"lon": 6.95, "lat": 51.099998}}, {"id": 2829686, "name": "Stahl", "country": "DE", "coord": {"lon": 6.5, "lat": 49.966671}}, {"id": 2904992, "name": "Heusenstamm", "country": "DE", "coord": {"lon": 8.8, "lat": 50.066669}}, {"id": 2932997, "name": "Eglhartinger Kolonie", "country": "DE", "coord": {"lon": 11.86667, "lat": 48.083328}}, {"id": 2910985, "name": "Handewittbusch", "country": "DE", "coord": {"lon": 9.33333, "lat": 54.76667}}, {"id": 2837837, "name": "Schmidt", "country": "DE", "coord": {"lon": 6.4, "lat": 50.666672}}, {"id": 6555412, "name": "Bempflingen", "country": "DE", "coord": {"lon": 9.26853, "lat": 48.571751}}, {"id": 2951124, "name": "Bempflingen", "country": "DE", "coord": {"lon": 9.26834, "lat": 48.571781}}, {"id": 2807846, "name": "Winsen", "country": "DE", "coord": {"lon": 9.91667, "lat": 52.666672}}, {"id": 6552653, "name": "Tostedt", "country": "DE", "coord": {"lon": 9.7114, "lat": 53.2771}}, {"id": 2821736, "name": "Tostedt", "country": "DE", "coord": {"lon": 9.71667, "lat": 53.283329}}, {"id": 2947444, "name": "Boblingen", "country": "DE", "coord": {"lon": 9.01667, "lat": 48.683331}}, {"id": 2831397, "name": "Sommerfelde", "country": "DE", "coord": {"lon": 13.86766, "lat": 52.82362}}, {"id": 2933882, "name": "Eberswalde", "country": "DE", "coord": {"lon": 13.81951, "lat": 52.834919}}, {"id": 2864276, "name": "Neuruppin", "country": "DE", "coord": {"lon": 12.80311, "lat": 52.92815}}, {"id": 2902533, "name": "Hofheim am Taunus", "country": "DE", "coord": {"lon": 8.45, "lat": 50.083328}}, {"id": 2817599, "name": "Verden", "country": "DE", "coord": {"lon": 9.23333, "lat": 52.916672}}, {"id": 6552845, "name": "Oyten", "country": "DE", "coord": {"lon": 9.0297, "lat": 53.053799}}, {"id": 2855794, "name": "Oyten", "country": "DE", "coord": {"lon": 9.01667, "lat": 53.049999}}, {"id": 2953386, "name": "Bad Oeynhausen", "country": "DE", "coord": {"lon": 8.8, "lat": 52.200001}}, {"id": 2955273, "name": "Landkreis Aschaffenburg", "country": "DE", "coord": {"lon": 9.23167, "lat": 50.02639}}, {"id": 2888411, "name": "Kleinostheim", "country": "DE", "coord": {"lon": 9.06667, "lat": 50}}, {"id": 2843739, "name": "Rottenbach", "country": "DE", "coord": {"lon": 11.26667, "lat": 50.400002}}, {"id": 2854419, "name": "Pfaffengreuth", "country": "DE", "coord": {"lon": 10.58333, "lat": 49.299999}}, {"id": 2937959, "name": "Dessau", "country": "DE", "coord": {"lon": 12.24555, "lat": 51.838638}}, {"id": 2814510, "name": "Wallwitzhafen", "country": "DE", "coord": {"lon": 12.25, "lat": 51.833328}}, {"id": 2876218, "name": "Lohmar", "country": "DE", "coord": {"lon": 7.21667, "lat": 50.833328}}, {"id": 2922582, "name": "Garching bei Munchen", "country": "DE", "coord": {"lon": 11.65, "lat": 48.25}}, {"id": 2849156, "name": "Reichenbach/Vogtland", "country": "DE", "coord": {"lon": 12.3, "lat": 50.616669}}, {"id": 2938663, "name": "Debring", "country": "DE", "coord": {"lon": 10.85827, "lat": 49.858898}}, {"id": 2904808, "name": "Hilchenbach", "country": "DE", "coord": {"lon": 8.1, "lat": 50.98333}}, {"id": 2878313, "name": "Leutenbach", "country": "DE", "coord": {"lon": 9.39267, "lat": 48.887909}}, {"id": 2959686, "name": "Achern", "country": "DE", "coord": {"lon": 8.07607, "lat": 48.631149}}, {"id": 2858763, "name": "Obertshausen", "country": "DE", "coord": {"lon": 8.85, "lat": 50.083328}}, {"id": 2919054, "name": "Goppingen", "country": "DE", "coord": {"lon": 9.65488, "lat": 48.702801}}, {"id": 2877088, "name": "Lingen", "country": "DE", "coord": {"lon": 7.31667, "lat": 52.51667}}, {"id": 2945756, "name": "Bottrop", "country": "DE", "coord": {"lon": 6.91667, "lat": 51.51667}}, {"id": 3247460, "name": "Landkreis Ahrweiler", "country": "DE", "coord": {"lon": 7.04917, "lat": 50.477219}}, {"id": 6553334, "name": "Rech", "country": "DE", "coord": {"lon": 7.03333, "lat": 50.516701}}, {"id": 2849754, "name": "Rech", "country": "DE", "coord": {"lon": 7.03333, "lat": 50.51667}}, {"id": 2945542, "name": "Brakel", "country": "DE", "coord": {"lon": 9.18333, "lat": 51.716671}}, {"id": 2926178, "name": "Flintbek", "country": "DE", "coord": {"lon": 10.06667, "lat": 54.25}}, {"id": 2887736, "name": "Klingenberg am Main", "country": "DE", "coord": {"lon": 9.18611, "lat": 49.784168}}, {"id": 2873352, "name": "Markkleeberg", "country": "DE", "coord": {"lon": 12.4, "lat": 51.283329}}, {"id": 2871079, "name": "Miltenberg", "country": "DE", "coord": {"lon": 9.26444, "lat": 49.703892}}, {"id": 2881980, "name": "Ladenburg", "country": "DE", "coord": {"lon": 8.60694, "lat": 49.474998}}, {"id": 2811159, "name": "Wenge", "country": "DE", "coord": {"lon": 6.98333, "lat": 51.683331}}, {"id": 2892786, "name": "Karlstadt", "country": "DE", "coord": {"lon": 9.77222, "lat": 49.960281}}, {"id": 2907585, "name": "Heiligenhaus", "country": "DE", "coord": {"lon": 6.97106, "lat": 51.326618}}, {"id": 2847645, "name": "Rheine", "country": "DE", "coord": {"lon": 7.45, "lat": 52.283329}}, {"id": 2944079, "name": "Brilon", "country": "DE", "coord": {"lon": 8.58333, "lat": 51.400002}}, {"id": 2906676, "name": "Helmstedt", "country": "DE", "coord": {"lon": 11.00985, "lat": 52.227901}}, {"id": 2933484, "name": "Eddersheim", "country": "DE", "coord": {"lon": 8.46667, "lat": 50.033329}}, {"id": 2869894, "name": "Monchengladbach", "country": "DE", "coord": {"lon": 6.43333, "lat": 51.200001}}, {"id": 2811292, "name": "Wendelstein", "country": "DE", "coord": {"lon": 11.14833, "lat": 49.353611}}, {"id": 2813216, "name": "Wehrheim", "country": "DE", "coord": {"lon": 8.56667, "lat": 50.299999}}, {"id": 2923305, "name": "Gaimersheim", "country": "DE", "coord": {"lon": 11.36801, "lat": 48.807049}}, {"id": 2927635, "name": "Feckelsberg", "country": "DE", "coord": {"lon": 7.43333, "lat": 51}}, {"id": 2874242, "name": "Main-Kinzig-Kreis", "country": "DE", "coord": {"lon": 9.30472, "lat": 50.25}}, {"id": 2930030, "name": "Ennigerloh", "country": "DE", "coord": {"lon": 8.01667, "lat": 51.833328}}, {"id": 2931574, "name": "Eisenach", "country": "DE", "coord": {"lon": 10.31667, "lat": 50.98333}}, {"id": 2891643, "name": "Kempen", "country": "DE", "coord": {"lon": 6.41667, "lat": 51.366669}}, {"id": 2811278, "name": "Wenden", "country": "DE", "coord": {"lon": 7.86667, "lat": 50.966671}}, {"id": 2878695, "name": "Leonberg", "country": "DE", "coord": {"lon": 9.01667, "lat": 48.799999}}, {"id": 2848245, "name": "Rendsburg", "country": "DE", "coord": {"lon": 9.66667, "lat": 54.299999}}, {"id": 2896514, "name": "Ilmenau", "country": "DE", "coord": {"lon": 10.9, "lat": 50.683331}}, {"id": 2940132, "name": "Chemnitz", "country": "DE", "coord": {"lon": 12.91667, "lat": 50.833328}}, {"id": 6559101, "name": "Hennef (Sieg), Stadt", "country": "DE", "coord": {"lon": 7.28456, "lat": 50.77565}}, {"id": 2940213, "name": "Celle", "country": "DE", "coord": {"lon": 10.08047, "lat": 52.622639}}, {"id": 2933959, "name": "Ebersbach an der Fils", "country": "DE", "coord": {"lon": 9.5236, "lat": 48.716}}, {"id": 2924803, "name": "Friedberg", "country": "DE", "coord": {"lon": 10.98461, "lat": 48.35693}}, {"id": 2917540, "name": "Grevenbroich", "country": "DE", "coord": {"lon": 6.5827, "lat": 51.091019}}, {"id": 2851782, "name": "Puchheim", "country": "DE", "coord": {"lon": 11.35, "lat": 48.150002}}, {"id": 2817724, "name": "Velbert", "country": "DE", "coord": {"lon": 7.05, "lat": 51.333328}}, {"id": 2920478, "name": "Gifhorn", "country": "DE", "coord": {"lon": 10.55, "lat": 52.48333}}, {"id": 2877648, "name": "Limburg an der Lahn", "country": "DE", "coord": {"lon": 8.05, "lat": 50.383331}}, {"id": 2874028, "name": "Malterdingen", "country": "DE", "coord": {"lon": 7.8, "lat": 48.166672}}, {"id": 2910675, "name": "Hard", "country": "DE", "coord": {"lon": 11.11667, "lat": 48.816669}}, {"id": 2945845, "name": "Bossee", "country": "DE", "coord": {"lon": 9.9, "lat": 54.283329}}, {"id": 2926120, "name": "Florsheim", "country": "DE", "coord": {"lon": 8.43333, "lat": 50.01667}}, {"id": 2831486, "name": "Soltau", "country": "DE", "coord": {"lon": 9.83333, "lat": 52.98333}}, {"id": 2917466, "name": "Gries", "country": "DE", "coord": {"lon": 7.4, "lat": 49.416672}}, {"id": 2853209, "name": "Plettenberg", "country": "DE", "coord": {"lon": 7.88333, "lat": 51.216671}}, {"id": 2953347, "name": "Bad Schwartau", "country": "DE", "coord": {"lon": 10.69691, "lat": 53.918869}}, {"id": 2885536, "name": "Korbach", "country": "DE", "coord": {"lon": 8.873, "lat": 51.275612}}, {"id": 2911007, "name": "Hanau am Main", "country": "DE", "coord": {"lon": 8.91667, "lat": 50.133331}}, {"id": 2805761, "name": "Wunstorf", "country": "DE", "coord": {"lon": 9.41667, "lat": 52.433331}}, {"id": 2925910, "name": "Forchheim", "country": "DE", "coord": {"lon": 11.05877, "lat": 49.717541}}, {"id": 2897385, "name": "Hungerberg", "country": "DE", "coord": {"lon": 8.08333, "lat": 48.533329}}, {"id": 2841874, "name": "Sandesneben", "country": "DE", "coord": {"lon": 10.5, "lat": 53.683331}}, {"id": 2954006, "name": "Aurich", "country": "DE", "coord": {"lon": 7.48333, "lat": 53.466671}}, {"id": 3220887, "name": "Landkreis Neu-Ulm", "country": "DE", "coord": {"lon": 10.15222, "lat": 48.306389}}, {"id": 6558414, "name": "Illertissen, Stadt", "country": "DE", "coord": {"lon": 10.1026, "lat": 48.222698}}, {"id": 2896546, "name": "Illertissen", "country": "DE", "coord": {"lon": 10.10347, "lat": 48.223358}}, {"id": 2842632, "name": "Saarlouis", "country": "DE", "coord": {"lon": 6.75, "lat": 49.316669}}, {"id": 2836203, "name": "Schramberg", "country": "DE", "coord": {"lon": 8.38583, "lat": 48.223991}}, {"id": 2880077, "name": "Laupheim", "country": "DE", "coord": {"lon": 9.88333, "lat": 48.23333}}, {"id": 2931414, "name": "Eislingen", "country": "DE", "coord": {"lon": 9.70676, "lat": 48.695148}}, {"id": 2857807, "name": "Offenbach", "country": "DE", "coord": {"lon": 8.76667, "lat": 50.099998}}, {"id": 3274259, "name": "Leingarten", "country": "DE", "coord": {"lon": 9.11694, "lat": 49.146389}}, {"id": 2839801, "name": "Schellnhausen", "country": "DE", "coord": {"lon": 9.15, "lat": 50.666672}}, {"id": 2931784, "name": "Markt Einersheim", "country": "DE", "coord": {"lon": 10.3, "lat": 49.683331}}, {"id": 2953439, "name": "Bad Hersfeld", "country": "DE", "coord": {"lon": 9.7, "lat": 50.866669}}, {"id": 2823590, "name": "Telgte", "country": "DE", "coord": {"lon": 7.78333, "lat": 51.98333}}, {"id": 2830582, "name": "Speyer", "country": "DE", "coord": {"lon": 8.42778, "lat": 49.32972}}, {"id": 2871736, "name": "Merseburg", "country": "DE", "coord": {"lon": 12, "lat": 51.366669}}, {"id": 6555423, "name": "K\u00f6ngen", "country": "DE", "coord": {"lon": 9.3691, "lat": 48.681702}}, {"id": 2886008, "name": "Kongen", "country": "DE", "coord": {"lon": 9.36667, "lat": 48.683331}}, {"id": 2887835, "name": "Kleve", "country": "DE", "coord": {"lon": 6.15, "lat": 51.783329}}, {"id": 2820973, "name": "Trossingen", "country": "DE", "coord": {"lon": 8.64409, "lat": 48.076672}}, {"id": 2804034, "name": "Zirndorf", "country": "DE", "coord": {"lon": 10.95414, "lat": 49.442402}}, {"id": 2953395, "name": "Bad Nauheim", "country": "DE", "coord": {"lon": 8.73859, "lat": 50.364632}}, {"id": 2923362, "name": "Gaggenau", "country": "DE", "coord": {"lon": 8.33333, "lat": 48.799999}}, {"id": 2817324, "name": "Viernheim", "country": "DE", "coord": {"lon": 8.57861, "lat": 49.541672}}, {"id": 2946111, "name": "Bornheim", "country": "DE", "coord": {"lon": 7, "lat": 50.76667}}, {"id": 2879367, "name": "Lehrte", "country": "DE", "coord": {"lon": 9.96667, "lat": 52.383331}}, {"id": 2892080, "name": "Kaufbeuren", "country": "DE", "coord": {"lon": 10.61667, "lat": 47.883331}}, {"id": 2922230, "name": "Gauting", "country": "DE", "coord": {"lon": 11.37703, "lat": 48.069191}}, {"id": 2878840, "name": "Lengerich", "country": "DE", "coord": {"lon": 7.86667, "lat": 52.183331}}, {"id": 2946228, "name": "Borken", "country": "DE", "coord": {"lon": 6.86667, "lat": 51.849998}}, {"id": 2817674, "name": "Velten", "country": "DE", "coord": {"lon": 13.18333, "lat": 52.683331}}, {"id": 3249078, "name": "Kreis Stormarn", "country": "DE", "coord": {"lon": 10.33111, "lat": 53.764721}}, {"id": 6552286, "name": "Rehhorst", "country": "DE", "coord": {"lon": 10.4667, "lat": 53.883301}}, {"id": 2849320, "name": "Rehhorst", "country": "DE", "coord": {"lon": 10.46667, "lat": 53.883331}}, {"id": 2872375, "name": "Mehring", "country": "DE", "coord": {"lon": 6.83333, "lat": 49.799999}}, {"id": 2956710, "name": "Alzey", "country": "DE", "coord": {"lon": 8.11611, "lat": 49.751671}}, {"id": 2906595, "name": "Hemer", "country": "DE", "coord": {"lon": 7.76667, "lat": 51.383331}}, {"id": 2893311, "name": "Kamp", "country": "DE", "coord": {"lon": 7.78333, "lat": 50.933331}}, {"id": 3220978, "name": "Landkreis Offenbach", "country": "DE", "coord": {"lon": 8.825, "lat": 50.022221}}, {"id": 6553199, "name": "Egelsbach", "country": "DE", "coord": {"lon": 8.6736, "lat": 49.96595}}, {"id": 2933246, "name": "Egelsbach", "country": "DE", "coord": {"lon": 8.67028, "lat": 49.971111}}, {"id": 6555301, "name": "Sprendlingen", "country": "DE", "coord": {"lon": 7.98333, "lat": 49.866699}}, {"id": 2830080, "name": "Sprendlingen", "country": "DE", "coord": {"lon": 7.98333, "lat": 49.866669}}, {"id": 3249066, "name": "Landkreis Neunkirchen", "country": "DE", "coord": {"lon": 7.13056, "lat": 49.37944}}, {"id": 6547518, "name": "Eppelborn", "country": "DE", "coord": {"lon": 6.9706, "lat": 49.402199}}, {"id": 2929865, "name": "Eppelborn", "country": "DE", "coord": {"lon": 6.96667, "lat": 49.400002}}, {"id": 2871668, "name": "Meschede", "country": "DE", "coord": {"lon": 8.28333, "lat": 51.349998}}, {"id": 2857455, "name": "Landkreis Oldenburg", "country": "DE", "coord": {"lon": 8.36, "lat": 53.03722}}, {"id": 2832495, "name": "Siegen", "country": "DE", "coord": {"lon": 8.03333, "lat": 50.866669}}, {"id": 6553161, "name": "Wald-Michelbach", "country": "DE", "coord": {"lon": 8.83167, "lat": 49.57}}, {"id": 2814853, "name": "Wald-Michelbach", "country": "DE", "coord": {"lon": 8.83167, "lat": 49.57}}, {"id": 2955159, "name": "Aschheim", "country": "DE", "coord": {"lon": 11.71675, "lat": 48.17112}}, {"id": 2876865, "name": "Lippstadt", "country": "DE", "coord": {"lon": 8.35, "lat": 51.666672}}, {"id": 2877021, "name": "Linnich", "country": "DE", "coord": {"lon": 6.26667, "lat": 50.98333}}, {"id": 6556243, "name": "Oberammergau", "country": "DE", "coord": {"lon": 11.0652, "lat": 47.597401}}, {"id": 2861422, "name": "Oberammergau", "country": "DE", "coord": {"lon": 11.06692, "lat": 47.598122}}, {"id": 2872126, "name": "Meitingen", "country": "DE", "coord": {"lon": 10.85, "lat": 48.549999}}, {"id": 2906331, "name": "Hennigsdorf", "country": "DE", "coord": {"lon": 13.20419, "lat": 52.635979}}, {"id": 2897715, "name": "Hummel", "country": "DE", "coord": {"lon": 6.78333, "lat": 50.466671}}, {"id": 2895630, "name": "Isselburg", "country": "DE", "coord": {"lon": 6.46667, "lat": 51.833328}}, {"id": 2812480, "name": "Weimar-Land", "country": "DE", "coord": {"lon": 11.25, "lat": 50.916672}}, {"id": 6550283, "name": "Schmiedehausen", "country": "DE", "coord": {"lon": 11.6667, "lat": 51.0667}}, {"id": 2837776, "name": "Schmiedehausen", "country": "DE", "coord": {"lon": 11.66667, "lat": 51.066669}}, {"id": 2835537, "name": "Schwabach", "country": "DE", "coord": {"lon": 11.02556, "lat": 49.32917}}, {"id": 6555396, "name": "Ehningen", "country": "DE", "coord": {"lon": 8.94064, "lat": 48.658821}}, {"id": 2932882, "name": "Ehningen", "country": "DE", "coord": {"lon": 8.94124, "lat": 48.658821}}, {"id": 2826837, "name": "St\u00f6cken", "country": "DE", "coord": {"lon": 7.08333, "lat": 51.183331}}, {"id": 2936213, "name": "Donnersbergkreis", "country": "DE", "coord": {"lon": 7.91639, "lat": 49.634441}}, {"id": 6554975, "name": "Orbis", "country": "DE", "coord": {"lon": 8, "lat": 49.700001}}, {"id": 2857114, "name": "Orbis", "country": "DE", "coord": {"lon": 8, "lat": 49.700001}}, {"id": 2810716, "name": "Wertheim", "country": "DE", "coord": {"lon": 9.50944, "lat": 49.7575}}, {"id": 2893646, "name": "Kaltenbach", "country": "DE", "coord": {"lon": 7.44804, "lat": 50.971859}}, {"id": 2898980, "name": "Horm", "country": "DE", "coord": {"lon": 6.43333, "lat": 50.75}}, {"id": 2844600, "name": "R\u00f6st", "country": "DE", "coord": {"lon": 9.25, "lat": 54.133331}}, {"id": 2873270, "name": "Markwaldsiedlung", "country": "DE", "coord": {"lon": 8.96667, "lat": 50.166672}}, {"id": 3247441, "name": "Kreis Borken", "country": "DE", "coord": {"lon": 6.9225, "lat": 51.957779}}, {"id": 6553090, "name": "Raesfeld", "country": "DE", "coord": {"lon": 6.85, "lat": 51.766701}}, {"id": 2850942, "name": "Raesfeld", "country": "DE", "coord": {"lon": 6.85, "lat": 51.76667}}, {"id": 2807184, "name": "Witzenhausen", "country": "DE", "coord": {"lon": 9.86667, "lat": 51.333328}}, {"id": 7284171, "name": "Weststadt", "country": "DE", "coord": {"lon": 11.39565, "lat": 53.63472}}, {"id": 2941605, "name": "Burach", "country": "DE", "coord": {"lon": 9.63333, "lat": 47.799999}}, {"id": 2958533, "name": "Alfeld", "country": "DE", "coord": {"lon": 9.81989, "lat": 51.983822}}, {"id": 2953089, "name": "Balingen", "country": "DE", "coord": {"lon": 8.85464, "lat": 48.275249}}, {"id": 2874230, "name": "Maintal", "country": "DE", "coord": {"lon": 8.83333, "lat": 50.150002}}, {"id": 2864820, "name": "Neu Isenburg", "country": "DE", "coord": {"lon": 8.7, "lat": 50.049999}}, {"id": 2806142, "name": "Worms", "country": "DE", "coord": {"lon": 8.35972, "lat": 49.635559}}, {"id": 2950877, "name": "Berchtesgadener Land", "country": "DE", "coord": {"lon": 12.88361, "lat": 47.73222}}, {"id": 2906121, "name": "Herford", "country": "DE", "coord": {"lon": 8.68333, "lat": 52.133331}}, {"id": 2947421, "name": "Bocholt", "country": "DE", "coord": {"lon": 6.6, "lat": 51.833328}}, {"id": 3220738, "name": "Landkreis Heidenheim", "country": "DE", "coord": {"lon": 10.17, "lat": 48.68417}}, {"id": 6555569, "name": "Hermaringen", "country": "DE", "coord": {"lon": 10.2667, "lat": 48.599998}}, {"id": 2905954, "name": "Hermaringen", "country": "DE", "coord": {"lon": 10.26065, "lat": 48.59544}}, {"id": 3247907, "name": "Landkreis Germersheim", "country": "DE", "coord": {"lon": 8.29889, "lat": 49.14333}}, {"id": 6555021, "name": "Schwegenheim", "country": "DE", "coord": {"lon": 8.32, "lat": 49.2733}}, {"id": 2834611, "name": "Schwegenheim", "country": "DE", "coord": {"lon": 8.32861, "lat": 49.27}}, {"id": 2959285, "name": "Aha", "country": "DE", "coord": {"lon": 10.75, "lat": 49.099998}}, {"id": 6558503, "name": "Murr", "country": "DE", "coord": {"lon": 9.25877, "lat": 48.962189}}, {"id": 2867436, "name": "Murr", "country": "DE", "coord": {"lon": 9.25924, "lat": 48.96207}}, {"id": 2872028, "name": "Melsungen", "country": "DE", "coord": {"lon": 9.55, "lat": 51.133331}}, {"id": 2930596, "name": "Emden", "country": "DE", "coord": {"lon": 7.21667, "lat": 53.366669}}, {"id": 2894253, "name": "Kagers", "country": "DE", "coord": {"lon": 12.56667, "lat": 48.883331}}, {"id": 2953552, "name": "Bad Bentheim", "country": "DE", "coord": {"lon": 7.16667, "lat": 52.316669}}, {"id": 2944796, "name": "Landkreis Breisgau-Hochschwarzwald", "country": "DE", "coord": {"lon": 7.96611, "lat": 47.96806}}, {"id": 6555762, "name": "Umkirch", "country": "DE", "coord": {"lon": 7.7642, "lat": 48.0312}}, {"id": 2820190, "name": "Umkirch", "country": "DE", "coord": {"lon": 7.76667, "lat": 48.033329}}, {"id": 6555157, "name": "Waldmohr", "country": "DE", "coord": {"lon": 7.3301, "lat": 49.381802}}, {"id": 2814851, "name": "Waldmohr", "country": "DE", "coord": {"lon": 7.33333, "lat": 49.383331}}, {"id": 6557422, "name": "Elze, Stadt", "country": "DE", "coord": {"lon": 9.7259, "lat": 52.115601}}, {"id": 2930623, "name": "Elze", "country": "DE", "coord": {"lon": 9.73595, "lat": 52.122631}}, {"id": 3220818, "name": "Landkreis Dachau", "country": "DE", "coord": {"lon": 11.37111, "lat": 48.334438}}, {"id": 6556136, "name": "Karlsfeld", "country": "DE", "coord": {"lon": 11.45473, "lat": 48.229172}}, {"id": 2892874, "name": "Karlsfeld", "country": "DE", "coord": {"lon": 11.46667, "lat": 48.216671}}, {"id": 2859380, "name": "Ober-Ramstadt", "country": "DE", "coord": {"lon": 8.75194, "lat": 49.833611}}, {"id": 2807240, "name": "Wittlich", "country": "DE", "coord": {"lon": 6.88333, "lat": 49.98333}}, {"id": 2917412, "name": "Griesheim", "country": "DE", "coord": {"lon": 8.57528, "lat": 49.862782}}, {"id": 2871039, "name": "Minden", "country": "DE", "coord": {"lon": 8.91667, "lat": 52.283329}}, {"id": 2907201, "name": "Heinsberg", "country": "DE", "coord": {"lon": 6.08333, "lat": 51.066669}}, {"id": 2873289, "name": "Marktredwitz", "country": "DE", "coord": {"lon": 12.08111, "lat": 50.005001}}, {"id": 2940512, "name": "Butzbach", "country": "DE", "coord": {"lon": 8.67122, "lat": 50.433949}}, {"id": 2810808, "name": "Wernigerode", "country": "DE", "coord": {"lon": 10.78333, "lat": 51.833328}}, {"id": 2866135, "name": "Neubrandenburg", "country": "DE", "coord": {"lon": 13.26667, "lat": 53.566669}}, {"id": 2882737, "name": "K\u00fchn", "country": "DE", "coord": {"lon": 13.55155, "lat": 48.711182}}, {"id": 2853907, "name": "Philippsburg", "country": "DE", "coord": {"lon": 8.45639, "lat": 49.235828}}, {"id": 2913275, "name": "Gypsweiler", "country": "DE", "coord": {"lon": 10.1324, "lat": 48.964539}}, {"id": 2826287, "name": "Stralsund", "country": "DE", "coord": {"lon": 13.0818, "lat": 54.309109}}, {"id": 2920236, "name": "Gladbeck", "country": "DE", "coord": {"lon": 6.98333, "lat": 51.566669}}, {"id": 2823567, "name": "Teltow", "country": "DE", "coord": {"lon": 13.26667, "lat": 52.400002}}, {"id": 2872582, "name": "Meckenheim", "country": "DE", "coord": {"lon": 7.01667, "lat": 50.633331}}, {"id": 3221129, "name": "Kreis Herford", "country": "DE", "coord": {"lon": 8.66194, "lat": 52.189442}}, {"id": 6553121, "name": "Hiddenhausen", "country": "DE", "coord": {"lon": 8.6118, "lat": 52.1791}}, {"id": 2904886, "name": "Hiddenhausen", "country": "DE", "coord": {"lon": 8.61667, "lat": 52.166672}}, {"id": 2939945, "name": "Coesfeld", "country": "DE", "coord": {"lon": 7.15, "lat": 51.933331}}, {"id": 2928665, "name": "Ettendorf", "country": "DE", "coord": {"lon": 12.65, "lat": 47.883331}}, {"id": 2931804, "name": "Einbeck", "country": "DE", "coord": {"lon": 9.86667, "lat": 51.816669}}, {"id": 2919645, "name": "G\u00f6bel", "country": "DE", "coord": {"lon": 12.01667, "lat": 52.066669}}, {"id": 2831924, "name": "Singen", "country": "DE", "coord": {"lon": 8.8403, "lat": 47.75935}}, {"id": 2881646, "name": "Landau in der Pfalz", "country": "DE", "coord": {"lon": 8.11333, "lat": 49.2075}}, {"id": 6553120, "name": "Verl", "country": "DE", "coord": {"lon": 8.5008, "lat": 51.87355}}, {"id": 2817576, "name": "Verl", "country": "DE", "coord": {"lon": 8.51667, "lat": 51.883331}}, {"id": 2898004, "name": "Hugelsheim", "country": "DE", "coord": {"lon": 8.11667, "lat": 48.799999}}, {"id": 2810430, "name": "Westerb\u00f6nen", "country": "DE", "coord": {"lon": 7.76667, "lat": 51.599998}}, {"id": 2864713, "name": "Neukleff", "country": "DE", "coord": {"lon": 7.53333, "lat": 50.950001}}, {"id": 2826766, "name": "Stockhausen", "country": "DE", "coord": {"lon": 8.32403, "lat": 50.545181}}, {"id": 2958141, "name": "Alsdorf", "country": "DE", "coord": {"lon": 6.16667, "lat": 50.883331}}, {"id": 2848918, "name": "Reiff", "country": "DE", "coord": {"lon": 6.2, "lat": 50.099998}}, {"id": 2925789, "name": "Forstenh\u00e4user", "country": "DE", "coord": {"lon": 9.86667, "lat": 47.583328}}, {"id": 2860360, "name": "Oberheldenstein", "country": "DE", "coord": {"lon": 12.36667, "lat": 48.25}}, {"id": 2955394, "name": "Artern", "country": "DE", "coord": {"lon": 11.3, "lat": 51.366669}}, {"id": 2903884, "name": "Hintlaber", "country": "DE", "coord": {"lon": 11.96667, "lat": 48.666672}}, {"id": 6555002, "name": "Bellheim", "country": "DE", "coord": {"lon": 8.27944, "lat": 49.198299}}, {"id": 2951206, "name": "Bellheim", "country": "DE", "coord": {"lon": 8.27944, "lat": 49.19833}}, {"id": 2810612, "name": "Wesseling", "country": "DE", "coord": {"lon": 6.98333, "lat": 50.833328}}, {"id": 2948147, "name": "Bitz", "country": "DE", "coord": {"lon": 9.09144, "lat": 48.243999}}, {"id": 2851446, "name": "Quellental", "country": "DE", "coord": {"lon": 9.8, "lat": 53.650002}}, {"id": 2954211, "name": "Auf Sirrenberg", "country": "DE", "coord": {"lon": 7.25, "lat": 51.349998}}, {"id": 2906194, "name": "Herbrechtingen", "country": "DE", "coord": {"lon": 10.176, "lat": 48.621731}}, {"id": 2954439, "name": "Auf dem Sande", "country": "DE", "coord": {"lon": 8.2, "lat": 53.066669}}, {"id": 6551709, "name": "Tornesch", "country": "DE", "coord": {"lon": 9.731, "lat": 53.703949}}, {"id": 2821779, "name": "Tornesch", "country": "DE", "coord": {"lon": 9.71667, "lat": 53.700001}}, {"id": 2937945, "name": "Deterberg", "country": "DE", "coord": {"lon": 7.35, "lat": 51.299999}}, {"id": 6553180, "name": "Neu-Anspach", "country": "DE", "coord": {"lon": 8.515, "lat": 50.290001}}, {"id": 2866280, "name": "Neu-Anspach", "country": "DE", "coord": {"lon": 8.5, "lat": 50.316669}}, {"id": 2844062, "name": "Rothenburg", "country": "DE", "coord": {"lon": 14.96667, "lat": 51.333328}}, {"id": 2955421, "name": "Bad Arolsen", "country": "DE", "coord": {"lon": 9.01445, "lat": 51.379822}}, {"id": 2924585, "name": "Friedrichshafen", "country": "DE", "coord": {"lon": 9.48333, "lat": 47.650002}}, {"id": 2956715, "name": "Alzenau in Unterfranken", "country": "DE", "coord": {"lon": 9.06667, "lat": 50.083328}}, {"id": 2938376, "name": "Delitzsch", "country": "DE", "coord": {"lon": 12.35, "lat": 51.533329}}, {"id": 2850887, "name": "Rahden", "country": "DE", "coord": {"lon": 8.61667, "lat": 52.433331}}, {"id": 2810919, "name": "Werdohl", "country": "DE", "coord": {"lon": 7.76667, "lat": 51.26667}}, {"id": 2908032, "name": "Heide", "country": "DE", "coord": {"lon": 9.1, "lat": 54.200001}}, {"id": 6553201, "name": "Niedernhausen", "country": "DE", "coord": {"lon": 8.31667, "lat": 50.150002}}, {"id": 2863046, "name": "Niedernhausen", "country": "DE", "coord": {"lon": 8.31667, "lat": 50.150002}}, {"id": 2825003, "name": "S\u00fcdlengern", "country": "DE", "coord": {"lon": 8.63333, "lat": 52.200001}}, {"id": 6555494, "name": "Alfdorf", "country": "DE", "coord": {"lon": 9.71893, "lat": 48.843922}}, {"id": 2958535, "name": "Alfdorf", "country": "DE", "coord": {"lon": 9.71857, "lat": 48.843849}}, {"id": 2900260, "name": "Holsten", "country": "DE", "coord": {"lon": 8.13333, "lat": 52.216671}}, {"id": 2852193, "name": "Pressen", "country": "DE", "coord": {"lon": 12.53333, "lat": 51.466671}}, {"id": 2892791, "name": "Landkreis Karlsruhe", "country": "DE", "coord": {"lon": 8.53139, "lat": 49.07972}}, {"id": 6555613, "name": "Oberderdingen", "country": "DE", "coord": {"lon": 8.80306, "lat": 49.065601}}, {"id": 2861116, "name": "Oberderdingen", "country": "DE", "coord": {"lon": 8.80306, "lat": 49.065559}}, {"id": 2812174, "name": "Weinheim", "country": "DE", "coord": {"lon": 8.66611, "lat": 49.548328}}, {"id": 2871535, "name": "Mettmann", "country": "DE", "coord": {"lon": 6.96667, "lat": 51.25}}, {"id": 2920834, "name": "Geseke", "country": "DE", "coord": {"lon": 8.51667, "lat": 51.650002}}, {"id": 6555750, "name": "Kirchzarten", "country": "DE", "coord": {"lon": 7.95, "lat": 47.966702}}, {"id": 2890328, "name": "Kirchzarten", "country": "DE", "coord": {"lon": 7.95, "lat": 47.966671}}, {"id": 2873369, "name": "Markgroningen", "country": "DE", "coord": {"lon": 9.08059, "lat": 48.90493}}, {"id": 6555772, "name": "Teningen", "country": "DE", "coord": {"lon": 7.81667, "lat": 48.133301}}, {"id": 2823504, "name": "Teningen", "country": "DE", "coord": {"lon": 7.81205, "lat": 48.12952}}, {"id": 2946977, "name": "Bohlen", "country": "DE", "coord": {"lon": 8.75, "lat": 52.333328}}, {"id": 2864005, "name": "Neustrelitz", "country": "DE", "coord": {"lon": 13.08333, "lat": 53.366669}}, {"id": 2959821, "name": "Abla\u00df", "country": "DE", "coord": {"lon": 12.95, "lat": 51.23333}}, {"id": 2824938, "name": "Suhler Neundorf", "country": "DE", "coord": {"lon": 10.7, "lat": 50.599998}}, {"id": 2809835, "name": "Weyhe", "country": "DE", "coord": {"lon": 8.66667, "lat": 52.966671}}, {"id": 2944200, "name": "Bretten", "country": "DE", "coord": {"lon": 8.70278, "lat": 49.039169}}, {"id": 2810855, "name": "Wermelskirchen", "country": "DE", "coord": {"lon": 7.21667, "lat": 51.150002}}, {"id": 2905826, "name": "Herrenberg", "country": "DE", "coord": {"lon": 8.86648, "lat": 48.59523}}, {"id": 2936267, "name": "Donaueschingen", "country": "DE", "coord": {"lon": 8.5, "lat": 47.950001}}, {"id": 2954602, "name": "Auerbach", "country": "DE", "coord": {"lon": 12.4, "lat": 50.51667}}, {"id": 2861934, "name": "Nordhorn", "country": "DE", "coord": {"lon": 7.08333, "lat": 52.433331}}, {"id": 2863534, "name": "Niederdollendorf", "country": "DE", "coord": {"lon": 7.18333, "lat": 50.683331}}, {"id": 2864435, "name": "Neunkirchen", "country": "DE", "coord": {"lon": 7.18333, "lat": 49.349998}}, {"id": 6547694, "name": "Karst\u00e4dt", "country": "DE", "coord": {"lon": 11.7073, "lat": 53.184399}}, {"id": 2892648, "name": "Karstadt", "country": "DE", "coord": {"lon": 11.75, "lat": 53.150002}}, {"id": 6555572, "name": "Sontheim an der Brenz", "country": "DE", "coord": {"lon": 10.29114, "lat": 48.552181}}, {"id": 2831091, "name": "Sontheim an der Brenz", "country": "DE", "coord": {"lon": 10.29097, "lat": 48.552349}}, {"id": 2922190, "name": "Gebersdorf", "country": "DE", "coord": {"lon": 11.01667, "lat": 49.416672}}, {"id": 2907414, "name": "Heimbuchsh\u00f6fe", "country": "DE", "coord": {"lon": 9.7, "lat": 50.48333}}, {"id": 2929831, "name": "Eppingen", "country": "DE", "coord": {"lon": 8.91028, "lat": 49.13694}}, {"id": 2815651, "name": "Wachtendonk", "country": "DE", "coord": {"lon": 6.33894, "lat": 51.409161}}, {"id": 2812220, "name": "Weine", "country": "DE", "coord": {"lon": 8.53333, "lat": 51.533329}}, {"id": 2886179, "name": "Kolonie Harenberg", "country": "DE", "coord": {"lon": 9.63333, "lat": 52.383331}}, {"id": 3221024, "name": "Landkreis Diepholz", "country": "DE", "coord": {"lon": 8.73417, "lat": 52.749168}}, {"id": 6552462, "name": "Stuhr", "country": "DE", "coord": {"lon": 8.7656, "lat": 53.020279}}, {"id": 2825422, "name": "Stuhr", "country": "DE", "coord": {"lon": 8.75, "lat": 53.033329}}, {"id": 2905929, "name": "Hermeskeil", "country": "DE", "coord": {"lon": 6.95, "lat": 49.650002}}, {"id": 6554265, "name": "Salz", "country": "DE", "coord": {"lon": 7.96667, "lat": 50.5}}, {"id": 2842201, "name": "Salz", "country": "DE", "coord": {"lon": 7.96667, "lat": 50.5}}, {"id": 2957773, "name": "Altenburg", "country": "DE", "coord": {"lon": 12.45, "lat": 50.98333}}, {"id": 2851077, "name": "Radebeul", "country": "DE", "coord": {"lon": 13.66047, "lat": 51.106541}}, {"id": 6555419, "name": "Frickenhausen", "country": "DE", "coord": {"lon": 9.35971, "lat": 48.593498}}, {"id": 2924837, "name": "Frickenhausen", "country": "DE", "coord": {"lon": 9.36005, "lat": 48.593529}}, {"id": 6552656, "name": "Welle", "country": "DE", "coord": {"lon": 9.8053, "lat": 53.230202}}, {"id": 2811537, "name": "Welle", "country": "DE", "coord": {"lon": 9.80178, "lat": 53.239849}}, {"id": 2843784, "name": "Rotta", "country": "DE", "coord": {"lon": 12.61667, "lat": 51.76667}}, {"id": 2811837, "name": "Weissenthurm", "country": "DE", "coord": {"lon": 7.45, "lat": 50.416672}}, {"id": 2880996, "name": "Langenkamp", "country": "DE", "coord": {"lon": 9.27272, "lat": 51.862709}}, {"id": 2920479, "name": "Landkreis Gifhorn", "country": "DE", "coord": {"lon": 10.63056, "lat": 52.59}}, {"id": 6552332, "name": "Weyhausen", "country": "DE", "coord": {"lon": 10.7167, "lat": 52.466702}}, {"id": 2809837, "name": "Weyhausen", "country": "DE", "coord": {"lon": 10.71699, "lat": 52.462078}}, {"id": 2905654, "name": "Herrnfelden", "country": "DE", "coord": {"lon": 12.35, "lat": 48.450001}}, {"id": 2850995, "name": "Radevormwald", "country": "DE", "coord": {"lon": 7.35, "lat": 51.200001}}, {"id": 2928761, "name": "Essingen", "country": "DE", "coord": {"lon": 10.02773, "lat": 48.80859}}, {"id": 2886102, "name": "Wasserstra\u00dfe", "country": "DE", "coord": {"lon": 9.11667, "lat": 52.48333}}, {"id": 2877904, "name": "Lieblos", "country": "DE", "coord": {"lon": 9.1432, "lat": 50.20789}}, {"id": 2934430, "name": "D\u00fcrn\u00f6d", "country": "DE", "coord": {"lon": 13.29466, "lat": 48.35585}}, {"id": 2804008, "name": "Zittau", "country": "DE", "coord": {"lon": 14.83333, "lat": 50.900002}}, {"id": 2834240, "name": "Schwetzingen", "country": "DE", "coord": {"lon": 8.58194, "lat": 49.378059}}, {"id": 2847654, "name": "Rheinbrohl", "country": "DE", "coord": {"lon": 7.33333, "lat": 50.5}}, {"id": 3206409, "name": "Heimstatt", "country": "DE", "coord": {"lon": 8.64212, "lat": 52.66608}}, {"id": 2905604, "name": "Herrsching am Ammersee", "country": "DE", "coord": {"lon": 11.17679, "lat": 47.998878}}, {"id": 6551682, "name": "Halstenbek", "country": "DE", "coord": {"lon": 9.8372, "lat": 53.6334}}, {"id": 2911408, "name": "Halstenbek", "country": "DE", "coord": {"lon": 9.85, "lat": 53.633331}}, {"id": 2894375, "name": "Kaarst", "country": "DE", "coord": {"lon": 6.61667, "lat": 51.23333}}, {"id": 6556476, "name": "Jandelsbrunn", "country": "DE", "coord": {"lon": 13.7, "lat": 48.733299}}, {"id": 2895213, "name": "Jandelsbrunn", "country": "DE", "coord": {"lon": 13.7, "lat": 48.73333}}, {"id": 3249067, "name": "Saar-Pfalz-Kreis", "country": "DE", "coord": {"lon": 7.24778, "lat": 49.27}}, {"id": 2890321, "name": "Kirkel", "country": "DE", "coord": {"lon": 7.23333, "lat": 49.283329}}, {"id": 2890322, "name": "Kirkel", "country": "DE", "coord": {"lon": 7.23333, "lat": 49.283329}}, {"id": 2850257, "name": "Rastatt", "country": "DE", "coord": {"lon": 8.2, "lat": 48.849998}}, {"id": 2948201, "name": "Bissingen ob Lontal", "country": "DE", "coord": {"lon": 10.17235, "lat": 48.567379}}, {"id": 2887812, "name": "Klieken", "country": "DE", "coord": {"lon": 12.36667, "lat": 51.883331}}, {"id": 2809889, "name": "Wetzlar", "country": "DE", "coord": {"lon": 8.5, "lat": 50.549999}}, {"id": 2884878, "name": "Krailling", "country": "DE", "coord": {"lon": 11.4, "lat": 48.099998}}, {"id": 2866971, "name": "Natorp", "country": "DE", "coord": {"lon": 7.63333, "lat": 51.5}}, {"id": 2928396, "name": "Euskirchen", "country": "DE", "coord": {"lon": 6.78333, "lat": 50.666672}}, {"id": 2847052, "name": "Riege", "country": "DE", "coord": {"lon": 8.53333, "lat": 51.76667}}, {"id": 3305827, "name": "Landkreis Gie\u00dfen", "country": "DE", "coord": {"lon": 8.81917, "lat": 50.583328}}, {"id": 6553216, "name": "Langg\u00f6ns", "country": "DE", "coord": {"lon": 8.6361, "lat": 50.494099}}, {"id": 2880672, "name": "Langgons", "country": "DE", "coord": {"lon": 8.66667, "lat": 50.5}}, {"id": 3221044, "name": "Landkreis Rotenburg", "country": "DE", "coord": {"lon": 9.32611, "lat": 53.262218}}, {"id": 6552749, "name": "Schee\u00dfel", "country": "DE", "coord": {"lon": 9.4767, "lat": 53.163799}}, {"id": 2840070, "name": "Scheessel", "country": "DE", "coord": {"lon": 9.48333, "lat": 53.166672}}, {"id": 2860049, "name": "Oberkochen", "country": "DE", "coord": {"lon": 10.10519, "lat": 48.783791}}, {"id": 2946255, "name": "Borgsdorf", "country": "DE", "coord": {"lon": 13.25, "lat": 52.716671}}, {"id": 2906199, "name": "Herborn", "country": "DE", "coord": {"lon": 8.31667, "lat": 50.683331}}, {"id": 6544522, "name": "Neugr\u00fcnwald", "country": "DE", "coord": {"lon": 11.53333, "lat": 48.05032}}, {"id": 2836413, "name": "Schopfheim", "country": "DE", "coord": {"lon": 7.82089, "lat": 47.651051}}, {"id": 2953540, "name": "Bad Bocklet", "country": "DE", "coord": {"lon": 10.08333, "lat": 50.26667}}, {"id": 2817537, "name": "Versmold", "country": "DE", "coord": {"lon": 8.15, "lat": 52.049999}}, {"id": 2936705, "name": "Ditzingen", "country": "DE", "coord": {"lon": 9.06703, "lat": 48.826721}}, {"id": 2866906, "name": "Naumburg", "country": "DE", "coord": {"lon": 11.81667, "lat": 51.150002}}, {"id": 2895569, "name": "Itzehoe", "country": "DE", "coord": {"lon": 9.51529, "lat": 53.92099}}, {"id": 2936985, "name": "Dillenburg", "country": "DE", "coord": {"lon": 8.28333, "lat": 50.73333}}, {"id": 2930227, "name": "Engelsdorf", "country": "DE", "coord": {"lon": 12.48333, "lat": 51.333328}}, {"id": 2881115, "name": "Langendernbach", "country": "DE", "coord": {"lon": 8.05, "lat": 50.549999}}, {"id": 2844265, "name": "Roth", "country": "DE", "coord": {"lon": 11.09111, "lat": 49.244999}}, {"id": 2829804, "name": "Stadtallendorf", "country": "DE", "coord": {"lon": 9.01667, "lat": 50.833328}}, {"id": 2827955, "name": "Steinhoring", "country": "DE", "coord": {"lon": 12.0314, "lat": 48.086788}}, {"id": 2888751, "name": "Kleinheubach", "country": "DE", "coord": {"lon": 9.21472, "lat": 49.722778}}, {"id": 2921034, "name": "Germersheim", "country": "DE", "coord": {"lon": 8.36389, "lat": 49.223061}}, {"id": 2879713, "name": "Leegebruch", "country": "DE", "coord": {"lon": 13.19304, "lat": 52.7234}}, {"id": 2879878, "name": "Lautersee", "country": "DE", "coord": {"lon": 11.23333, "lat": 47.433331}}, {"id": 3220874, "name": "Landkreis G\u00fcnzburg", "country": "DE", "coord": {"lon": 10.39722, "lat": 48.352779}}, {"id": 6547458, "name": "Gundremmingen", "country": "DE", "coord": {"lon": 10.4, "lat": 48.5}}, {"id": 2913657, "name": "Gundremmingen", "country": "DE", "coord": {"lon": 10.4, "lat": 48.5}}, {"id": 3247914, "name": "Landkreis Daun", "country": "DE", "coord": {"lon": 6.74806, "lat": 50.252499}}, {"id": 6554636, "name": "G\u00f6nnersdorf", "country": "DE", "coord": {"lon": 6.6, "lat": 50.333302}}, {"id": 2919105, "name": "Gonnersdorf", "country": "DE", "coord": {"lon": 6.6, "lat": 50.333328}}, {"id": 2837160, "name": "Schollbrunn", "country": "DE", "coord": {"lon": 9.08056, "lat": 49.436111}}, {"id": 6554174, "name": "Siershahn", "country": "DE", "coord": {"lon": 7.8, "lat": 50.483299}}, {"id": 2832332, "name": "Siershahn", "country": "DE", "coord": {"lon": 7.8, "lat": 50.48333}}, {"id": 2815137, "name": "Waldbrol", "country": "DE", "coord": {"lon": 7.61667, "lat": 50.883331}}, {"id": 2933345, "name": "Edingen-Neckarhausen", "country": "DE", "coord": {"lon": 8.60639, "lat": 49.457218}}, {"id": 2872276, "name": "Meiling", "country": "DE", "coord": {"lon": 11.22382, "lat": 48.054218}}, {"id": 2925190, "name": "Landkreis Mittelsachsen", "country": "DE", "coord": {"lon": 13.33333, "lat": 50.833328}}, {"id": 6548753, "name": "Mochau", "country": "DE", "coord": {"lon": 13.1833, "lat": 51.133301}}, {"id": 2870304, "name": "Mochau", "country": "DE", "coord": {"lon": 13.18333, "lat": 51.133331}}, {"id": 6553215, "name": "Heuchelheim", "country": "DE", "coord": {"lon": 8.6416, "lat": 50.5867}}, {"id": 2905070, "name": "Heuchelheim", "country": "DE", "coord": {"lon": 8.63333, "lat": 50.583328}}, {"id": 6554155, "name": "Mogendorf", "country": "DE", "coord": {"lon": 7.847, "lat": 50.473701}}, {"id": 2870212, "name": "Mogendorf", "country": "DE", "coord": {"lon": 7.76667, "lat": 50.5}}, {"id": 3205593, "name": "Mitterfelden", "country": "DE", "coord": {"lon": 12.95, "lat": 47.816669}}, {"id": 2830035, "name": "Springe", "country": "DE", "coord": {"lon": 9.55416, "lat": 52.20845}}, {"id": 6555074, "name": "Altenglan", "country": "DE", "coord": {"lon": 7.4533, "lat": 49.550999}}, {"id": 2957681, "name": "Altenglan", "country": "DE", "coord": {"lon": 7.46667, "lat": 49.549999}}, {"id": 2926670, "name": "Finsterwalde", "country": "DE", "coord": {"lon": 13.71667, "lat": 51.633331}}, {"id": 2938813, "name": "Dassel", "country": "DE", "coord": {"lon": 9.6884, "lat": 51.803249}}, {"id": 3221124, "name": "Kreis Soest", "country": "DE", "coord": {"lon": 8.20444, "lat": 51.56694}}, {"id": 6553148, "name": "Anr\u00f6chte", "country": "DE", "coord": {"lon": 8.33333, "lat": 51.5667}}, {"id": 2955940, "name": "Anrochte", "country": "DE", "coord": {"lon": 8.33333, "lat": 51.566669}}, {"id": 2870355, "name": "Mitterteich", "country": "DE", "coord": {"lon": 12.23833, "lat": 49.948608}}, {"id": 2925655, "name": "Franken", "country": "DE", "coord": {"lon": 7.23333, "lat": 50.5}}, {"id": 2945545, "name": "Brake (Unterweser)", "country": "DE", "coord": {"lon": 8.48333, "lat": 53.333328}}, {"id": 2835013, "name": "Schwarzenbek", "country": "DE", "coord": {"lon": 10.48333, "lat": 53.5}}, {"id": 2906289, "name": "Henstedt", "country": "DE", "coord": {"lon": 10, "lat": 53.783329}}, {"id": 2954932, "name": "Attendorn", "country": "DE", "coord": {"lon": 7.90333, "lat": 51.12645}}, {"id": 2820693, "name": "Tuttlingen", "country": "DE", "coord": {"lon": 8.81667, "lat": 47.98333}}, {"id": 2853574, "name": "Pirmasens", "country": "DE", "coord": {"lon": 7.60529, "lat": 49.20145}}, {"id": 2914929, "name": "Gross-Umstadt", "country": "DE", "coord": {"lon": 8.93389, "lat": 49.867779}}, {"id": 6557195, "name": "Hergensweiler", "country": "DE", "coord": {"lon": 9.7708, "lat": 47.613701}}, {"id": 2906110, "name": "Hergensweiler", "country": "DE", "coord": {"lon": 9.78333, "lat": 47.616669}}, {"id": 2828737, "name": "Steinbach am Taunus", "country": "DE", "coord": {"lon": 8.56667, "lat": 50.166672}}, {"id": 2898603, "name": "Horstel", "country": "DE", "coord": {"lon": 7.58333, "lat": 52.316669}}, {"id": 2890504, "name": "Kirchhain", "country": "DE", "coord": {"lon": 8.96667, "lat": 50.816669}}, {"id": 2939995, "name": "Clausthal-Zellerfeld", "country": "DE", "coord": {"lon": 10.33333, "lat": 51.799999}}, {"id": 2936977, "name": "Dillingen", "country": "DE", "coord": {"lon": 6.73333, "lat": 49.349998}}, {"id": 2940231, "name": "Castrop-Rauxel", "country": "DE", "coord": {"lon": 7.31667, "lat": 51.549999}}, {"id": 2909230, "name": "Hattingen", "country": "DE", "coord": {"lon": 7.16667, "lat": 51.400002}}, {"id": 2904789, "name": "Hildesheim", "country": "DE", "coord": {"lon": 9.95112, "lat": 52.150768}}, {"id": 2953371, "name": "Bad Reichenhall", "country": "DE", "coord": {"lon": 12.88333, "lat": 47.73333}}, {"id": 2843674, "name": "R\u00f6ttingen", "country": "DE", "coord": {"lon": 10.3, "lat": 48.883331}}, {"id": 2849371, "name": "Rehburg-Loccum", "country": "DE", "coord": {"lon": 9.2, "lat": 52.466671}}, {"id": 2805385, "name": "Xanten", "country": "DE", "coord": {"lon": 6.45, "lat": 51.666672}}, {"id": 2956206, "name": "Andernach", "country": "DE", "coord": {"lon": 7.4, "lat": 50.433331}}, {"id": 2906514, "name": "Hemsbach", "country": "DE", "coord": {"lon": 8.64639, "lat": 49.591671}}, {"id": 2875831, "name": "Losheim", "country": "DE", "coord": {"lon": 6.75, "lat": 49.51667}}, {"id": 2920757, "name": "Gevelsberg", "country": "DE", "coord": {"lon": 7.33333, "lat": 51.316669}}, {"id": 2861690, "name": "Nufringen", "country": "DE", "coord": {"lon": 8.89009, "lat": 48.622532}}, {"id": 2893438, "name": "Kamen", "country": "DE", "coord": {"lon": 7.66667, "lat": 51.599998}}, {"id": 2921473, "name": "Gelnhausen", "country": "DE", "coord": {"lon": 9.18333, "lat": 50.200001}}, {"id": 2930821, "name": "Elmshorn", "country": "DE", "coord": {"lon": 9.65, "lat": 53.75}}, {"id": 2857129, "name": "Oranienburg", "country": "DE", "coord": {"lon": 13.23333, "lat": 52.75}}, {"id": 6547617, "name": "Birkenwerder", "country": "DE", "coord": {"lon": 13.2833, "lat": 52.6833}}, {"id": 2948503, "name": "Birkenwerder", "country": "DE", "coord": {"lon": 13.28333, "lat": 52.683331}}, {"id": 2922342, "name": "Gatersleben", "country": "DE", "coord": {"lon": 11.28661, "lat": 51.822151}}, {"id": 2864717, "name": "Neukirnberg", "country": "DE", "coord": {"lon": 11.38333, "lat": 47.76667}}, {"id": 2872486, "name": "Meersburg", "country": "DE", "coord": {"lon": 9.27113, "lat": 47.694191}}, {"id": 6555526, "name": "Neckarwestheim", "country": "DE", "coord": {"lon": 9.19, "lat": 49.046902}}, {"id": 2866753, "name": "Neckarwestheim", "country": "DE", "coord": {"lon": 9.19, "lat": 49.04694}}, {"id": 2842535, "name": "Sachsenfeld", "country": "DE", "coord": {"lon": 12.78333, "lat": 50.549999}}, {"id": 2845222, "name": "Ronnenberg", "country": "DE", "coord": {"lon": 9.65544, "lat": 52.319389}}, {"id": 2820087, "name": "Unna", "country": "DE", "coord": {"lon": 7.68333, "lat": 51.533329}}, {"id": 3249086, "name": "Landkreis Oder-Spree", "country": "DE", "coord": {"lon": 14.24028, "lat": 52.249439}}, {"id": 6551098, "name": "Reichenwalde", "country": "DE", "coord": {"lon": 13.9889, "lat": 52.2556}}, {"id": 2849052, "name": "Reichenwalde", "country": "DE", "coord": {"lon": 14, "lat": 52.26667}}, {"id": 3247462, "name": "Rhein-Lahn-Kreis", "country": "DE", "coord": {"lon": 7.86583, "lat": 50.26889}}, {"id": 6554087, "name": "Pohl", "country": "DE", "coord": {"lon": 7.86667, "lat": 50.25}}, {"id": 2852996, "name": "Pohl", "country": "DE", "coord": {"lon": 7.86667, "lat": 50.25}}, {"id": 2921743, "name": "Geiselgasteig", "country": "DE", "coord": {"lon": 11.545, "lat": 48.061218}}, {"id": 2816841, "name": "Voggendorf", "country": "DE", "coord": {"lon": 10.73296, "lat": 49.670071}}, {"id": 2906088, "name": "Heringen", "country": "DE", "coord": {"lon": 10.00717, "lat": 50.887981}}, {"id": 2885237, "name": "Kothen", "country": "DE", "coord": {"lon": 11.96667, "lat": 51.75}}, {"id": 2870206, "name": "M\u00f6ggenweiler", "country": "DE", "coord": {"lon": 9.4, "lat": 47.716671}}, {"id": 2885764, "name": "Konigstein", "country": "DE", "coord": {"lon": 14.07186, "lat": 50.915699}}, {"id": 2820407, "name": "Uhingen", "country": "DE", "coord": {"lon": 9.5857, "lat": 48.70475}}, {"id": 2815188, "name": "Waldacker", "country": "DE", "coord": {"lon": 8.81667, "lat": 50}}, {"id": 2902852, "name": "Hockenheim", "country": "DE", "coord": {"lon": 8.54583, "lat": 49.322781}}, {"id": 2926716, "name": "Finnentrop", "country": "DE", "coord": {"lon": 7.96667, "lat": 51.166672}}, {"id": 3209057, "name": "Steinfurth", "country": "DE", "coord": {"lon": 12.28333, "lat": 51.666672}}, {"id": 2846523, "name": "Rinteln", "country": "DE", "coord": {"lon": 9.07917, "lat": 52.186039}}, {"id": 2808893, "name": "Wildeshausen", "country": "DE", "coord": {"lon": 8.43333, "lat": 52.900002}}, {"id": 2899676, "name": "Holzkirchen", "country": "DE", "coord": {"lon": 11.70181, "lat": 47.876629}}, {"id": 2931361, "name": "Eitorf", "country": "DE", "coord": {"lon": 7.45, "lat": 50.76667}}, {"id": 3336891, "name": "Filderstadt", "country": "DE", "coord": {"lon": 9.22049, "lat": 48.656979}}, {"id": 2939989, "name": "Klef", "country": "DE", "coord": {"lon": 7.30758, "lat": 50.94902}}, {"id": 6556226, "name": "Maisach", "country": "DE", "coord": {"lon": 11.26315, "lat": 48.216351}}, {"id": 2874200, "name": "Maisach", "country": "DE", "coord": {"lon": 11.26667, "lat": 48.216671}}, {"id": 3249080, "name": "Landkreis Dahme-Spreewald", "country": "DE", "coord": {"lon": 13.88444, "lat": 52.013611}}, {"id": 6547578, "name": "Zeuthen", "country": "DE", "coord": {"lon": 13.6167, "lat": 52.366699}}, {"id": 2804646, "name": "Zeuthen", "country": "DE", "coord": {"lon": 13.61667, "lat": 52.366669}}, {"id": 6555491, "name": "Tamm", "country": "DE", "coord": {"lon": 9.11599, "lat": 48.91988}}, {"id": 2824284, "name": "Tamm", "country": "DE", "coord": {"lon": 9.11556, "lat": 48.91988}}, {"id": 2865427, "name": "Neue Siedlung", "country": "DE", "coord": {"lon": 13.45, "lat": 52.283329}}, {"id": 2912351, "name": "Hahnbach", "country": "DE", "coord": {"lon": 11.80302, "lat": 49.53389}}, {"id": 2913884, "name": "G\u00fcdesweiler", "country": "DE", "coord": {"lon": 7.1, "lat": 49.51667}}, {"id": 2846076, "name": "R\u00f6demis", "country": "DE", "coord": {"lon": 9.05, "lat": 54.466671}}, {"id": 2842644, "name": "Saarburg", "country": "DE", "coord": {"lon": 6.55, "lat": 49.599998}}, {"id": 2847690, "name": "Rheda-Wiedenbruck", "country": "DE", "coord": {"lon": 8.30017, "lat": 51.84967}}, {"id": 3272458, "name": "Karlsdorf-Neuthard", "country": "DE", "coord": {"lon": 8.53028, "lat": 49.13472}}, {"id": 2824461, "name": "Syke", "country": "DE", "coord": {"lon": 8.83333, "lat": 52.900002}}, {"id": 2891750, "name": "Kellinghusen", "country": "DE", "coord": {"lon": 9.71959, "lat": 53.952019}}, {"id": 2855837, "name": "Overndorf", "country": "DE", "coord": {"lon": 9.71667, "lat": 53.950001}}, {"id": 2936658, "name": "Dobeln", "country": "DE", "coord": {"lon": 13.11667, "lat": 51.116669}}, {"id": 2861914, "name": "Noerdlingen", "country": "DE", "coord": {"lon": 10.48868, "lat": 48.851219}}, {"id": 2836260, "name": "Sch\u00f6tmar", "country": "DE", "coord": {"lon": 8.7543, "lat": 52.070171}}, {"id": 2824909, "name": "Sulenbecke", "country": "DE", "coord": {"lon": 7.65, "lat": 51.116669}}, {"id": 2882087, "name": "Laatzen", "country": "DE", "coord": {"lon": 9.8, "lat": 52.316669}}, {"id": 2817704, "name": "Velen", "country": "DE", "coord": {"lon": 6.98333, "lat": 51.900002}}, {"id": 6555291, "name": "Nierstein", "country": "DE", "coord": {"lon": 8.3497, "lat": 49.8671}}, {"id": 2862485, "name": "Nierstein", "country": "DE", "coord": {"lon": 8.34667, "lat": 49.875278}}, {"id": 2936787, "name": "Dissen", "country": "DE", "coord": {"lon": 8.2, "lat": 52.116669}}, {"id": 2930603, "name": "Embsen", "country": "DE", "coord": {"lon": 9.01667, "lat": 53.033329}}, {"id": 6544448, "name": "Erlenhof", "country": "DE", "coord": {"lon": 9.61458, "lat": 50.432961}}, {"id": 3221098, "name": "Landkreis Osnabr\u00fcck", "country": "DE", "coord": {"lon": 8.04722, "lat": 52.412498}}, {"id": 6552976, "name": "Bad Laer", "country": "DE", "coord": {"lon": 8.08333, "lat": 52.099998}}, {"id": 2881972, "name": "Bad Laer", "country": "DE", "coord": {"lon": 8.08333, "lat": 52.099998}}, {"id": 2804748, "name": "Zerbst", "country": "DE", "coord": {"lon": 12.08333, "lat": 51.966671}}, {"id": 2949229, "name": "Biedenkopf", "country": "DE", "coord": {"lon": 8.53333, "lat": 50.916672}}, {"id": 2905293, "name": "Hessisch Lichtenau", "country": "DE", "coord": {"lon": 9.71667, "lat": 51.200001}}, {"id": 2860696, "name": "Oberflintsbach", "country": "DE", "coord": {"lon": 12.13333, "lat": 47.716671}}, {"id": 2868506, "name": "Muhldorf", "country": "DE", "coord": {"lon": 12.53333, "lat": 48.25}}, {"id": 2863223, "name": "Niederkassel", "country": "DE", "coord": {"lon": 7.03333, "lat": 50.816669}}, {"id": 2821807, "name": "Torgau", "country": "DE", "coord": {"lon": 13, "lat": 51.566669}}, {"id": 2860483, "name": "Oberhammer", "country": "DE", "coord": {"lon": 13.8, "lat": 51.5}}, {"id": 2935519, "name": "Dorth", "country": "DE", "coord": {"lon": 7.58333, "lat": 50.150002}}, {"id": 2807984, "name": "Winkelheim", "country": "DE", "coord": {"lon": 6.58333, "lat": 51}}, {"id": 2836068, "name": "Schroersend", "country": "DE", "coord": {"lon": 6.26667, "lat": 51.216671}}, {"id": 2806339, "name": "Wolnzach", "country": "DE", "coord": {"lon": 11.62568, "lat": 48.603802}}, {"id": 2826082, "name": "Strausberg", "country": "DE", "coord": {"lon": 13.88741, "lat": 52.57859}}, {"id": 2851079, "name": "Radeberg", "country": "DE", "coord": {"lon": 13.91667, "lat": 51.116669}}, {"id": 3220796, "name": "Landkreis Ansbach", "country": "DE", "coord": {"lon": 10.51556, "lat": 49.252781}}, {"id": 6556837, "name": "Burgoberbach", "country": "DE", "coord": {"lon": 10.5833, "lat": 49.233299}}, {"id": 2941179, "name": "Burgoberbach", "country": "DE", "coord": {"lon": 10.58333, "lat": 49.23333}}, {"id": 2808619, "name": "Willebadessen", "country": "DE", "coord": {"lon": 9.03694, "lat": 51.625641}}, {"id": 2928890, "name": "Eslohe", "country": "DE", "coord": {"lon": 8.16667, "lat": 51.25}}, {"id": 2952252, "name": "Bassum", "country": "DE", "coord": {"lon": 8.73333, "lat": 52.849998}}, {"id": 2925832, "name": "Forst", "country": "DE", "coord": {"lon": 14.63333, "lat": 51.73333}}, {"id": 2888053, "name": "Kleinwallstadt", "country": "DE", "coord": {"lon": 9.16778, "lat": 49.871941}}, {"id": 2867164, "name": "Nagold", "country": "DE", "coord": {"lon": 8.72366, "lat": 48.549801}}, {"id": 2885678, "name": "Landkreis Konstanz", "country": "DE", "coord": {"lon": 8.87694, "lat": 47.806938}}, {"id": 6555860, "name": "Eigeltingen", "country": "DE", "coord": {"lon": 8.9, "lat": 47.866699}}, {"id": 2931911, "name": "Eigeltingen", "country": "DE", "coord": {"lon": 8.9, "lat": 47.866669}}, {"id": 2930383, "name": "Endingen", "country": "DE", "coord": {"lon": 7.7, "lat": 48.133331}}, {"id": 2856210, "name": "\u00d6strich", "country": "DE", "coord": {"lon": 6.31667, "lat": 51.083328}}, {"id": 2886446, "name": "Kolbermoor", "country": "DE", "coord": {"lon": 12.06667, "lat": 47.849998}}, {"id": 2910048, "name": "Hartmannsdorf", "country": "DE", "coord": {"lon": 12.8, "lat": 50.900002}}, {"id": 3247456, "name": "Landkreis Altenkirchen", "country": "DE", "coord": {"lon": 7.75, "lat": 50.779171}}, {"id": 6553391, "name": "Friesenhagen", "country": "DE", "coord": {"lon": 7.8, "lat": 50.900002}}, {"id": 2924388, "name": "Friesenhagen", "country": "DE", "coord": {"lon": 7.8, "lat": 50.900002}}, {"id": 2900825, "name": "Hohr-Grenzhausen", "country": "DE", "coord": {"lon": 7.66667, "lat": 50.433331}}, {"id": 2957763, "name": "Landkreis Altenburg", "country": "DE", "coord": {"lon": 12.41667, "lat": 51}}, {"id": 6550562, "name": "Windischleuba", "country": "DE", "coord": {"lon": 12.472, "lat": 51.0187}}, {"id": 2808143, "name": "Windischleuba", "country": "DE", "coord": {"lon": 12.48333, "lat": 51.033329}}, {"id": 6554064, "name": "Miehlen", "country": "DE", "coord": {"lon": 7.83333, "lat": 50.216702}}, {"id": 2871225, "name": "Miehlen", "country": "DE", "coord": {"lon": 7.83333, "lat": 50.216671}}, {"id": 2853065, "name": "Pocking", "country": "DE", "coord": {"lon": 13.31667, "lat": 48.400002}}, {"id": 2828688, "name": "Steinbecker Vorstadt", "country": "DE", "coord": {"lon": 13.38333, "lat": 54.099998}}, {"id": 2864548, "name": "Landkreis Neumarkt in der Oberpfalz", "country": "DE", "coord": {"lon": 11.57722, "lat": 49.218891}}, {"id": 6556650, "name": "M\u00fchlhausen", "country": "DE", "coord": {"lon": 11.45, "lat": 49.166698}}, {"id": 2868005, "name": "Muhlhausen", "country": "DE", "coord": {"lon": 11.44664, "lat": 49.169472}}, {"id": 2845550, "name": "R\u00f6hrsdorf", "country": "DE", "coord": {"lon": 12.83333, "lat": 50.866669}}, {"id": 2866497, "name": "Neppersdorf", "country": "DE", "coord": {"lon": 13.4, "lat": 48.700001}}, {"id": 2891951, "name": "Kehl", "country": "DE", "coord": {"lon": 7.81523, "lat": 48.572971}}, {"id": 2957092, "name": "Altje\u00dfnitz", "country": "DE", "coord": {"lon": 12.31667, "lat": 51.700001}}, {"id": 3305800, "name": "Direktionsbezirk Leipzig", "country": "DE", "coord": {"lon": 12.75, "lat": 51.25}}, {"id": 2879138, "name": "Landkreis Leipzig", "country": "DE", "coord": {"lon": 12.33333, "lat": 51.333328}}, {"id": 6548760, "name": "Espenhain", "country": "DE", "coord": {"lon": 12.4667, "lat": 51.1833}}, {"id": 2928862, "name": "Espenhain", "country": "DE", "coord": {"lon": 12.46667, "lat": 51.183331}}, {"id": 2912921, "name": "Hachenburg", "country": "DE", "coord": {"lon": 7.83333, "lat": 50.650002}}, {"id": 2940992, "name": "Burkhardtsdorf", "country": "DE", "coord": {"lon": 11.5, "lat": 51.01667}}, {"id": 2841165, "name": "Sauerthal", "country": "DE", "coord": {"lon": 7.83333, "lat": 50.433331}}, {"id": 6555428, "name": "Neuhausen auf den Fildern", "country": "DE", "coord": {"lon": 9.28333, "lat": 48.6833}}, {"id": 2865086, "name": "Neuhausen auf den Fildern", "country": "DE", "coord": {"lon": 9.28333, "lat": 48.683331}}, {"id": 2864403, "name": "Neuoberhaus", "country": "DE", "coord": {"lon": 12.73333, "lat": 50.433331}}, {"id": 2815841, "name": "Vossum", "country": "DE", "coord": {"lon": 6.26667, "lat": 51.450001}}, {"id": 2815392, "name": "Wahlstedt", "country": "DE", "coord": {"lon": 10.21667, "lat": 53.950001}}, {"id": 2855093, "name": "Peenedamm", "country": "DE", "coord": {"lon": 13.6857, "lat": 53.86113}}, {"id": 2896020, "name": "Ingelheim am Rhein", "country": "DE", "coord": {"lon": 8.07361, "lat": 49.98056}}, {"id": 6555402, "name": "Rutesheim", "country": "DE", "coord": {"lon": 8.94583, "lat": 48.8083}}, {"id": 2842824, "name": "Rutesheim", "country": "DE", "coord": {"lon": 8.94536, "lat": 48.808079}}, {"id": 2893023, "name": "Kappeln", "country": "DE", "coord": {"lon": 9.9313, "lat": 54.661221}}, {"id": 2852218, "name": "Prenzlau", "country": "DE", "coord": {"lon": 13.86667, "lat": 53.316669}}, {"id": 2933984, "name": "Ebern", "country": "DE", "coord": {"lon": 10.8, "lat": 50.083328}}, {"id": 2841464, "name": "Landkreis Sankt Wendel", "country": "DE", "coord": {"lon": 7.11944, "lat": 49.51778}}, {"id": 2925039, "name": "Freisen", "country": "DE", "coord": {"lon": 7.25201, "lat": 49.549271}}, {"id": 2925038, "name": "Freisen", "country": "DE", "coord": {"lon": 7.25, "lat": 49.549999}}, {"id": 2920686, "name": "Gibbinghausen", "country": "DE", "coord": {"lon": 7.4, "lat": 50.916672}}, {"id": 2864476, "name": "Neum\u00fcnster", "country": "DE", "coord": {"lon": 7.16667, "lat": 49.400002}}, {"id": 6555601, "name": "Unterschneidheim", "country": "DE", "coord": {"lon": 10.3667, "lat": 48.9333}}, {"id": 2818754, "name": "Unterschneidheim", "country": "DE", "coord": {"lon": 10.36667, "lat": 48.933331}}, {"id": 2936260, "name": "Landkreis Donau-Ries", "country": "DE", "coord": {"lon": 10.72194, "lat": 48.816109}}, {"id": 6557300, "name": "Wechingen", "country": "DE", "coord": {"lon": 10.6167, "lat": 48.900002}}, {"id": 2813531, "name": "Wechingen", "country": "DE", "coord": {"lon": 10.61667, "lat": 48.900002}}, {"id": 2820859, "name": "Landkreis T\u00fcbingen", "country": "DE", "coord": {"lon": 9.00056, "lat": 48.5}}, {"id": 6555939, "name": "Gomaringen", "country": "DE", "coord": {"lon": 9.09944, "lat": 48.45306}}, {"id": 2919146, "name": "Gomaringen", "country": "DE", "coord": {"lon": 9.09582, "lat": 48.453491}}, {"id": 2857798, "name": "Offenburg", "country": "DE", "coord": {"lon": 7.93333, "lat": 48.48333}}, {"id": 2869306, "name": "Morbach", "country": "DE", "coord": {"lon": 7.11667, "lat": 49.816669}}, {"id": 2805762, "name": "Wunsiedel", "country": "DE", "coord": {"lon": 12.01667, "lat": 50.033329}}, {"id": 2856930, "name": "Oschersleben", "country": "DE", "coord": {"lon": 11.25, "lat": 52.033329}}, {"id": 6555316, "name": "Clausen", "country": "DE", "coord": {"lon": 7.68333, "lat": 49.266701}}, {"id": 2940003, "name": "Clausen", "country": "DE", "coord": {"lon": 7.6773, "lat": 49.26075}}, {"id": 2823398, "name": "Teterow", "country": "DE", "coord": {"lon": 12.56667, "lat": 53.783329}}, {"id": 2803476, "name": "Zwonitz", "country": "DE", "coord": {"lon": 12.8, "lat": 50.633331}}, {"id": 2946291, "name": "Borgentreich", "country": "DE", "coord": {"lon": 9.24113, "lat": 51.569172}}, {"id": 2948205, "name": "Bisses", "country": "DE", "coord": {"lon": 8.9, "lat": 50.400002}}, {"id": 2890327, "name": "Kirchzell", "country": "DE", "coord": {"lon": 9.17778, "lat": 49.618889}}, {"id": 2935825, "name": "Dormagen", "country": "DE", "coord": {"lon": 6.83333, "lat": 51.099998}}, {"id": 2896538, "name": "Illingen", "country": "DE", "coord": {"lon": 7.05, "lat": 49.366669}}, {"id": 2936683, "name": "Dobbertin", "country": "DE", "coord": {"lon": 12.07466, "lat": 53.623058}}, {"id": 2922572, "name": "Garding", "country": "DE", "coord": {"lon": 8.78408, "lat": 54.330238}}, {"id": 2922571, "name": "Garding", "country": "DE", "coord": {"lon": 8.78056, "lat": 54.330559}}, {"id": 2950073, "name": "Bernburg", "country": "DE", "coord": {"lon": 11.73333, "lat": 51.799999}}, {"id": 3220841, "name": "Landkreis Traunstein", "country": "DE", "coord": {"lon": 12.61472, "lat": 47.922218}}, {"id": 6556406, "name": "Palling", "country": "DE", "coord": {"lon": 12.6333, "lat": 48}}, {"id": 2855665, "name": "Palling", "country": "DE", "coord": {"lon": 12.63333, "lat": 48}}, {"id": 2932553, "name": "Eiche", "country": "DE", "coord": {"lon": 14.08333, "lat": 51.883331}}, {"id": 2875877, "name": "Lorsch", "country": "DE", "coord": {"lon": 8.56861, "lat": 49.65472}}, {"id": 2861974, "name": "Nordheim", "country": "DE", "coord": {"lon": 10.8, "lat": 48.700001}}, {"id": 6555528, "name": "Oedheim", "country": "DE", "coord": {"lon": 9.25333, "lat": 49.240299}}, {"id": 2857967, "name": "Oedheim", "country": "DE", "coord": {"lon": 9.25333, "lat": 49.24028}}, {"id": 2853180, "name": "Plochingen", "country": "DE", "coord": {"lon": 9.41949, "lat": 48.71067}}, {"id": 2835641, "name": "Sch\u00fc\u00dfelhausen", "country": "DE", "coord": {"lon": 11.78333, "lat": 48.650002}}, {"id": 2937790, "name": "Deutz", "country": "DE", "coord": {"lon": 6.97495, "lat": 50.934631}}, {"id": 2817065, "name": "Voerde", "country": "DE", "coord": {"lon": 6.68333, "lat": 51.599998}}, {"id": 2910275, "name": "Harsleben", "country": "DE", "coord": {"lon": 11.1, "lat": 51.866669}}, {"id": 2832043, "name": "Simbach am Inn", "country": "DE", "coord": {"lon": 13.01667, "lat": 48.26667}}, {"id": 2949620, "name": "Beuditzvorstadt", "country": "DE", "coord": {"lon": 11.96667, "lat": 51.200001}}, {"id": 6553118, "name": "Langenberg", "country": "DE", "coord": {"lon": 8.32065, "lat": 51.779701}}, {"id": 2881175, "name": "Langenberg", "country": "DE", "coord": {"lon": 8.31667, "lat": 51.783329}}, {"id": 2886968, "name": "Kobern", "country": "DE", "coord": {"lon": 7.46667, "lat": 50.316669}}, {"id": 2878350, "name": "Leuna", "country": "DE", "coord": {"lon": 12.01667, "lat": 51.316669}}, {"id": 6555578, "name": "Durlangen", "country": "DE", "coord": {"lon": 9.79644, "lat": 48.856289}}, {"id": 2934466, "name": "Durlangen", "country": "DE", "coord": {"lon": 9.79654, "lat": 48.856319}}, {"id": 6555363, "name": "Wilgartswiesen", "country": "DE", "coord": {"lon": 7.88333, "lat": 49.216702}}, {"id": 2808792, "name": "Wilgartswiesen", "country": "DE", "coord": {"lon": 7.88333, "lat": 49.216671}}, {"id": 6554665, "name": "Schutz", "country": "DE", "coord": {"lon": 6.75, "lat": 50.133301}}, {"id": 2835584, "name": "Schutz", "country": "DE", "coord": {"lon": 6.75, "lat": 50.133331}}, {"id": 2899154, "name": "Hoppenstedt", "country": "DE", "coord": {"lon": 10.66667, "lat": 51.98333}}, {"id": 2888237, "name": "Kleinschwamborn", "country": "DE", "coord": {"lon": 7.25244, "lat": 50.934582}}, {"id": 2923325, "name": "Gaildorf", "country": "DE", "coord": {"lon": 9.76953, "lat": 49.000271}}, {"id": 2869936, "name": "Mombris", "country": "DE", "coord": {"lon": 9.16667, "lat": 50.066669}}, {"id": 2902618, "name": "Hofer", "country": "DE", "coord": {"lon": 10.25, "lat": 52.683331}}, {"id": 6553171, "name": "Seeheim-Jugenheim", "country": "DE", "coord": {"lon": 8.65194, "lat": 49.764999}}, {"id": 3337504, "name": "Seeheim-Jugenheim", "country": "DE", "coord": {"lon": 8.65194, "lat": 49.764999}}, {"id": 2953317, "name": "Bad Wildungen", "country": "DE", "coord": {"lon": 9.12475, "lat": 51.119629}}, {"id": 2894002, "name": "Landkreis Kaiserslautern", "country": "DE", "coord": {"lon": 7.71861, "lat": 49.451939}}, {"id": 6555065, "name": "Weilerbach", "country": "DE", "coord": {"lon": 7.63333, "lat": 49.483299}}, {"id": 2812568, "name": "Weilerbach", "country": "DE", "coord": {"lon": 7.63333, "lat": 49.48333}}, {"id": 2847524, "name": "Ribnitz-Damgarten", "country": "DE", "coord": {"lon": 12.46667, "lat": 54.25}}, {"id": 2880130, "name": "Laufen", "country": "DE", "coord": {"lon": 7.68408, "lat": 47.84174}}, {"id": 2915620, "name": "Gro\u00df Gaglow", "country": "DE", "coord": {"lon": 14.33333, "lat": 51.716671}}, {"id": 2947899, "name": "Blechhammer", "country": "DE", "coord": {"lon": 12.56667, "lat": 50.450001}}, {"id": 2930697, "name": "Elstal", "country": "DE", "coord": {"lon": 13, "lat": 52.533329}}, {"id": 2846837, "name": "Rieter", "country": "DE", "coord": {"lon": 9.48333, "lat": 47.76667}}, {"id": 2948393, "name": "Birlinghoven", "country": "DE", "coord": {"lon": 7.21667, "lat": 50.75}}, {"id": 2870318, "name": "Mittweida", "country": "DE", "coord": {"lon": 12.98333, "lat": 50.98333}}, {"id": 6554355, "name": "Monzelfeld", "country": "DE", "coord": {"lon": 7.06667, "lat": 49.900002}}, {"id": 2869734, "name": "Monzelfeld", "country": "DE", "coord": {"lon": 7.06667, "lat": 49.900002}}, {"id": 2806799, "name": "Wolfhagen", "country": "DE", "coord": {"lon": 9.17015, "lat": 51.326111}}, {"id": 2856500, "name": "Osterholz-Scharmbeck", "country": "DE", "coord": {"lon": 8.8, "lat": 53.23333}}, {"id": 2855441, "name": "Parchim", "country": "DE", "coord": {"lon": 11.84875, "lat": 53.426311}}, {"id": 2833140, "name": "Selters", "country": "DE", "coord": {"lon": 9.03471, "lat": 50.34042}}, {"id": 2826336, "name": "Stotternheim", "country": "DE", "coord": {"lon": 11.05, "lat": 51.066669}}, {"id": 2823836, "name": "Taucha", "country": "DE", "coord": {"lon": 12.48333, "lat": 51.383331}}, {"id": 2928967, "name": "Eschwege", "country": "DE", "coord": {"lon": 10.06667, "lat": 51.183331}}, {"id": 2813113, "name": "Weickersdorf", "country": "DE", "coord": {"lon": 14.16667, "lat": 51.116669}}, {"id": 2854385, "name": "Landkreis Pfaffenhofen an der Ilm", "country": "DE", "coord": {"lon": 11.53472, "lat": 48.58139}}, {"id": 6556355, "name": "Schweitenkirchen", "country": "DE", "coord": {"lon": 11.5817, "lat": 48.5112}}, {"id": 2834416, "name": "Schweitenkirchen", "country": "DE", "coord": {"lon": 11.61667, "lat": 48.5}}, {"id": 2817264, "name": "Vietlipp", "country": "DE", "coord": {"lon": 13.0442, "lat": 54.087589}}, {"id": 2937403, "name": "Dielingen", "country": "DE", "coord": {"lon": 8.35, "lat": 52.450001}}, {"id": 2810674, "name": "Kreis Wesel", "country": "DE", "coord": {"lon": 6.63917, "lat": 51.643608}}, {"id": 6553045, "name": "Schermbeck", "country": "DE", "coord": {"lon": 6.86667, "lat": 51.6833}}, {"id": 2839674, "name": "Schermbeck", "country": "DE", "coord": {"lon": 6.86667, "lat": 51.683331}}, {"id": 2806501, "name": "Wolgast", "country": "DE", "coord": {"lon": 13.76667, "lat": 54.049999}}, {"id": 2834629, "name": "Schwedt (Oder)", "country": "DE", "coord": {"lon": 14.28154, "lat": 53.059631}}, {"id": 3247461, "name": "Landkreis Mayen-Koblenz", "country": "DE", "coord": {"lon": 7.31722, "lat": 50.333328}}, {"id": 6553810, "name": "Urmitz", "country": "DE", "coord": {"lon": 7.51667, "lat": 50.416698}}, {"id": 2818184, "name": "Urmitz", "country": "DE", "coord": {"lon": 7.51667, "lat": 50.416672}}, {"id": 2884658, "name": "Krausch\u00fctz", "country": "DE", "coord": {"lon": 13.53333, "lat": 51.450001}}, {"id": 6555592, "name": "Neuler", "country": "DE", "coord": {"lon": 10.0691, "lat": 48.928028}}, {"id": 2864616, "name": "Neuler", "country": "DE", "coord": {"lon": 10.06888, "lat": 48.928028}}, {"id": 2872153, "name": "Landkreis Mei\u00dfen", "country": "DE", "coord": {"lon": 13.41667, "lat": 51.166672}}, {"id": 6548630, "name": "Moritzburg", "country": "DE", "coord": {"lon": 13.6833, "lat": 51.166698}}, {"id": 2869244, "name": "Moritzburg", "country": "DE", "coord": {"lon": 13.68021, "lat": 51.159222}}, {"id": 2849198, "name": "Reichelsheim", "country": "DE", "coord": {"lon": 8.84306, "lat": 49.715}}, {"id": 6555480, "name": "Gemmrigheim", "country": "DE", "coord": {"lon": 9.15556, "lat": 49.028301}}, {"id": 2921388, "name": "Gemmrigheim", "country": "DE", "coord": {"lon": 9.15556, "lat": 49.028332}}, {"id": 2893264, "name": "Kamp-Lintfort", "country": "DE", "coord": {"lon": 6.53333, "lat": 51.5}}, {"id": 2950096, "name": "Bernau bei Berlin", "country": "DE", "coord": {"lon": 13.58708, "lat": 52.679821}}, {"id": 2803870, "name": "Zossen", "country": "DE", "coord": {"lon": 13.45, "lat": 52.216671}}, {"id": 2876147, "name": "Lohr", "country": "DE", "coord": {"lon": 9.57833, "lat": 49.99361}}, {"id": 2815013, "name": "Waldgirmes", "country": "DE", "coord": {"lon": 8.55, "lat": 50.583328}}, {"id": 2817812, "name": "Vechta", "country": "DE", "coord": {"lon": 8.28333, "lat": 52.716671}}, {"id": 2814131, "name": "Waren", "country": "DE", "coord": {"lon": 12.68333, "lat": 53.51667}}, {"id": 2816761, "name": "Vohringen", "country": "DE", "coord": {"lon": 10.08236, "lat": 48.278389}}, {"id": 2862118, "name": "Norden", "country": "DE", "coord": {"lon": 7.2, "lat": 53.599998}}, {"id": 2854179, "name": "Pfarrkirchen", "country": "DE", "coord": {"lon": 12.93812, "lat": 48.432049}}, {"id": 2953313, "name": "Bad Worishofen", "country": "DE", "coord": {"lon": 10.6, "lat": 48.01667}}, {"id": 2873301, "name": "Marktheidenfeld", "country": "DE", "coord": {"lon": 9.60389, "lat": 49.84417}}, {"id": 2858964, "name": "Oberstdorf", "country": "DE", "coord": {"lon": 10.28333, "lat": 47.400002}}, {"id": 2822282, "name": "Tiefstadt", "country": "DE", "coord": {"lon": 12.76667, "lat": 48.400002}}, {"id": 2813801, "name": "Wasenstein", "country": "DE", "coord": {"lon": 11.56667, "lat": 47.683331}}, {"id": 2843186, "name": "Ruhstorf", "country": "DE", "coord": {"lon": 13.33333, "lat": 48.433331}}, {"id": 2842671, "name": "Saalekreis", "country": "DE", "coord": {"lon": 11.93333, "lat": 51.53167}}, {"id": 6551142, "name": "Schkopau", "country": "DE", "coord": {"lon": 12.04629, "lat": 51.400002}}, {"id": 2839044, "name": "Schkopau", "country": "DE", "coord": {"lon": 11.98333, "lat": 51.400002}}, {"id": 2839229, "name": "Schillig", "country": "DE", "coord": {"lon": 8.01667, "lat": 53.700001}}, {"id": 6552987, "name": "Hasbergen", "country": "DE", "coord": {"lon": 7.93333, "lat": 52.233299}}, {"id": 2909915, "name": "Hasbergen", "country": "DE", "coord": {"lon": 7.93333, "lat": 52.23333}}, {"id": 2831403, "name": "Sommerda", "country": "DE", "coord": {"lon": 11.1, "lat": 51.150002}}, {"id": 2814473, "name": "Walsen", "country": "DE", "coord": {"lon": 8.49329, "lat": 52.718201}}, {"id": 2947092, "name": "Bodenwerder", "country": "DE", "coord": {"lon": 9.51931, "lat": 51.971561}}, {"id": 2955009, "name": "Asslar", "country": "DE", "coord": {"lon": 8.46273, "lat": 50.591629}}, {"id": 2806201, "name": "W\u00f6pplinsberg", "country": "DE", "coord": {"lon": 7.85419, "lat": 48.135738}}, {"id": 2880281, "name": "Lauben", "country": "DE", "coord": {"lon": 10.03854, "lat": 47.869839}}, {"id": 2809976, "name": "Wetteraukreis", "country": "DE", "coord": {"lon": 8.91333, "lat": 50.362782}}, {"id": 6553203, "name": "Waldems", "country": "DE", "coord": {"lon": 8.33333, "lat": 50.25}}, {"id": 3208130, "name": "Waldems", "country": "DE", "coord": {"lon": 8.33333, "lat": 50.25}}, {"id": 3221049, "name": "Landkreis Uelzen", "country": "DE", "coord": {"lon": 10.55222, "lat": 52.999168}}, {"id": 6552834, "name": "Suderburg", "country": "DE", "coord": {"lon": 10.4667, "lat": 52.900002}}, {"id": 2825180, "name": "Suderburg", "country": "DE", "coord": {"lon": 10.46667, "lat": 52.900002}}, {"id": 2814244, "name": "Wankum", "country": "DE", "coord": {"lon": 6.3, "lat": 51.400002}}, {"id": 2844991, "name": "Rosenhammer", "country": "DE", "coord": {"lon": 12.06667, "lat": 49.98333}}, {"id": 2865596, "name": "Neuenpleen", "country": "DE", "coord": {"lon": 12.92447, "lat": 54.349152}}, {"id": 2921309, "name": "Genthin", "country": "DE", "coord": {"lon": 12.16667, "lat": 52.400002}}, {"id": 2837652, "name": "Schmolln", "country": "DE", "coord": {"lon": 12.36667, "lat": 50.900002}}, {"id": 2950620, "name": "Bergen auf Ruegen", "country": "DE", "coord": {"lon": 13.43349, "lat": 54.418228}}, {"id": 2894394, "name": "Juterbog", "country": "DE", "coord": {"lon": 13.08333, "lat": 51.98333}}, {"id": 3221073, "name": "Landkreis Emsland", "country": "DE", "coord": {"lon": 7.39583, "lat": 52.746109}}, {"id": 6552924, "name": "Twist", "country": "DE", "coord": {"lon": 7.1057, "lat": 52.656101}}, {"id": 2820649, "name": "Twist", "country": "DE", "coord": {"lon": 7.05, "lat": 52.633331}}, {"id": 6552233, "name": "Puls", "country": "DE", "coord": {"lon": 9.51667, "lat": 54.083302}}, {"id": 2851727, "name": "Puls", "country": "DE", "coord": {"lon": 9.51667, "lat": 54.083328}}, {"id": 2829860, "name": "Stadenhausen", "country": "DE", "coord": {"lon": 8.8, "lat": 51.98333}}, {"id": 2820296, "name": "Ulberndorf", "country": "DE", "coord": {"lon": 13.67231, "lat": 50.874722}}, {"id": 2921707, "name": "Geisenheim", "country": "DE", "coord": {"lon": 7.96667, "lat": 49.98333}}, {"id": 3220808, "name": "Landkreis Dingolfing-Landau", "country": "DE", "coord": {"lon": 12.60944, "lat": 48.65028}}, {"id": 6556609, "name": "Niederviehbach", "country": "DE", "coord": {"lon": 12.3833, "lat": 48.616699}}, {"id": 2862785, "name": "Niederviehbach", "country": "DE", "coord": {"lon": 12.38333, "lat": 48.616669}}, {"id": 2944354, "name": "Bremervorde", "country": "DE", "coord": {"lon": 9.13333, "lat": 53.48333}}, {"id": 2910269, "name": "Harsum", "country": "DE", "coord": {"lon": 9.96486, "lat": 52.210449}}, {"id": 2847960, "name": "Retzau", "country": "DE", "coord": {"lon": 12.31667, "lat": 51.73333}}, {"id": 2910140, "name": "Hartha", "country": "DE", "coord": {"lon": 12.96667, "lat": 51.099998}}, {"id": 2863598, "name": "Niederbexbach", "country": "DE", "coord": {"lon": 7.26162, "lat": 49.331829}}, {"id": 2878784, "name": "Lennestadt", "country": "DE", "coord": {"lon": 8.06667, "lat": 51.116669}}, {"id": 2831852, "name": "Sinzig", "country": "DE", "coord": {"lon": 7.25, "lat": 50.549999}}, {"id": 2930509, "name": "Emmerich", "country": "DE", "coord": {"lon": 6.25, "lat": 51.833328}}, {"id": 6556068, "name": "Ki\u00dflegg", "country": "DE", "coord": {"lon": 9.88023, "lat": 47.788929}}, {"id": 2890199, "name": "Kisslegg", "country": "DE", "coord": {"lon": 9.88383, "lat": 47.78894}}, {"id": 2803813, "name": "Zschieren", "country": "DE", "coord": {"lon": 13.88333, "lat": 50.98333}}, {"id": 2865171, "name": "Neuhaus", "country": "DE", "coord": {"lon": 8.7, "lat": 48.099998}}, {"id": 3220840, "name": "Landkreis Rosenheim", "country": "DE", "coord": {"lon": 12.17, "lat": 47.88028}}, {"id": 6556380, "name": "Schonstett", "country": "DE", "coord": {"lon": 12.25, "lat": 47.983299}}, {"id": 2836469, "name": "Schonstett", "country": "DE", "coord": {"lon": 12.25, "lat": 47.98333}}, {"id": 2865560, "name": "Neuenstadt am Kocher", "country": "DE", "coord": {"lon": 9.33028, "lat": 49.235279}}, {"id": 6547536, "name": "Nonnweiler", "country": "DE", "coord": {"lon": 6.95, "lat": 49.616699}}, {"id": 2862174, "name": "Nonnweiler", "country": "DE", "coord": {"lon": 6.95, "lat": 49.616669}}, {"id": 6553704, "name": "L\u00fctz", "country": "DE", "coord": {"lon": 7.35, "lat": 50.166698}}, {"id": 2874778, "name": "Lutz", "country": "DE", "coord": {"lon": 7.35, "lat": 50.166672}}, {"id": 3220846, "name": "Landkreis Bayreuth", "country": "DE", "coord": {"lon": 11.56583, "lat": 49.881111}}, {"id": 6556765, "name": "Mistelgau", "country": "DE", "coord": {"lon": 11.4667, "lat": 49.916698}}, {"id": 2870936, "name": "Mistelgau", "country": "DE", "coord": {"lon": 11.46586, "lat": 49.912601}}, {"id": 2876922, "name": "Kreis Lippe", "country": "DE", "coord": {"lon": 8.95278, "lat": 51.99472}}, {"id": 2878943, "name": "Lemgo", "country": "DE", "coord": {"lon": 8.9, "lat": 52.033329}}, {"id": 2932548, "name": "Eiche-Golm", "country": "DE", "coord": {"lon": 12.96667, "lat": 52.400002}}, {"id": 2862640, "name": "Niemegk", "country": "DE", "coord": {"lon": 12.7, "lat": 52.083328}}, {"id": 2827336, "name": "Sternberg", "country": "DE", "coord": {"lon": 11.82678, "lat": 53.71236}}, {"id": 2884122, "name": "Kreuzfelderhof", "country": "DE", "coord": {"lon": 6.68333, "lat": 51.033329}}, {"id": 2833127, "name": "Selzerbrunnen", "country": "DE", "coord": {"lon": 8.75, "lat": 50.23333}}, {"id": 2908974, "name": "Hausach", "country": "DE", "coord": {"lon": 8.16667, "lat": 48.283329}}, {"id": 2864748, "name": "Neukirchen", "country": "DE", "coord": {"lon": 9.33333, "lat": 50.866669}}, {"id": 2821151, "name": "Triesdorf", "country": "DE", "coord": {"lon": 10.66667, "lat": 49.200001}}, {"id": 6547577, "name": "Wildau", "country": "DE", "coord": {"lon": 13.61525, "lat": 52.316952}}, {"id": 2809033, "name": "Wildau", "country": "DE", "coord": {"lon": 13.63333, "lat": 52.316669}}, {"id": 6552982, "name": "Bissendorf", "country": "DE", "coord": {"lon": 8.16667, "lat": 52.233299}}, {"id": 2948212, "name": "Bissendorf", "country": "DE", "coord": {"lon": 8.16667, "lat": 52.23333}}, {"id": 2803588, "name": "Zwenkau", "country": "DE", "coord": {"lon": 12.31667, "lat": 51.216671}}, {"id": 2839050, "name": "Schkeuditz", "country": "DE", "coord": {"lon": 12.21667, "lat": 51.400002}}, {"id": 2803984, "name": "Zizishausen", "country": "DE", "coord": {"lon": 9.34825, "lat": 48.64119}}, {"id": 2823854, "name": "Tauberbischofsheim", "country": "DE", "coord": {"lon": 9.66278, "lat": 49.624722}}, {"id": 2953528, "name": "Bad Doberan", "country": "DE", "coord": {"lon": 11.90051, "lat": 54.107121}}, {"id": 2821517, "name": "Traunreut", "country": "DE", "coord": {"lon": 12.59231, "lat": 47.962688}}, {"id": 6547535, "name": "Nohfelden", "country": "DE", "coord": {"lon": 7.0808, "lat": 49.575901}}, {"id": 2862294, "name": "Nohfelden", "country": "DE", "coord": {"lon": 7.14283, "lat": 49.586929}}, {"id": 2824655, "name": "Sundern", "country": "DE", "coord": {"lon": 8, "lat": 51.333328}}, {"id": 2804560, "name": "Ziegelerden", "country": "DE", "coord": {"lon": 11.30613, "lat": 50.23172}}, {"id": 2946746, "name": "Boklund", "country": "DE", "coord": {"lon": 9.56667, "lat": 54.416672}}, {"id": 6555236, "name": "B\u00f6hl-Iggelheim", "country": "DE", "coord": {"lon": 8.30389, "lat": 49.3806}}, {"id": 3272463, "name": "Bohl-Iggelheim", "country": "DE", "coord": {"lon": 8.30389, "lat": 49.380562}}, {"id": 6554148, "name": "Kadenbach", "country": "DE", "coord": {"lon": 7.73333, "lat": 50.383301}}, {"id": 2894335, "name": "Kadenbach", "country": "DE", "coord": {"lon": 7.73333, "lat": 50.383331}}, {"id": 2875509, "name": "Luckau", "country": "DE", "coord": {"lon": 13.71667, "lat": 51.849998}}, {"id": 2891590, "name": "Kenzingen", "country": "DE", "coord": {"lon": 7.76974, "lat": 48.196301}}, {"id": 2921355, "name": "Gengenbach", "country": "DE", "coord": {"lon": 8.01667, "lat": 48.400002}}, {"id": 2886543, "name": "Kohlstatt", "country": "DE", "coord": {"lon": 12.18333, "lat": 47.616669}}, {"id": 2915210, "name": "Gro\u00dfohrenbronn", "country": "DE", "coord": {"lon": 10.43333, "lat": 49.150002}}, {"id": 6556856, "name": "Weihenzell", "country": "DE", "coord": {"lon": 10.6167, "lat": 49.349998}}, {"id": 2812831, "name": "Weihenzell", "country": "DE", "coord": {"lon": 10.61667, "lat": 49.349998}}, {"id": 2949654, "name": "Betzenstein", "country": "DE", "coord": {"lon": 11.41667, "lat": 49.683331}}, {"id": 2871238, "name": "Miebach", "country": "DE", "coord": {"lon": 7.41667, "lat": 50.98333}}, {"id": 2883410, "name": "Krumbach", "country": "DE", "coord": {"lon": 10.3632, "lat": 48.241821}}, {"id": 6554635, "name": "Gillenfeld", "country": "DE", "coord": {"lon": 6.9, "lat": 50.116699}}, {"id": 2920413, "name": "Gillenfeld", "country": "DE", "coord": {"lon": 6.9, "lat": 50.116669}}, {"id": 2919812, "name": "Glonn", "country": "DE", "coord": {"lon": 11.86721, "lat": 47.987511}}, {"id": 2851393, "name": "Querfurt", "country": "DE", "coord": {"lon": 11.6, "lat": 51.383331}}, {"id": 2844437, "name": "Rotenburg", "country": "DE", "coord": {"lon": 9.4, "lat": 53.116669}}, {"id": 2816630, "name": "Volklingen", "country": "DE", "coord": {"lon": 6.85873, "lat": 49.251621}}, {"id": 2866757, "name": "Neckartailfingen", "country": "DE", "coord": {"lon": 9.26371, "lat": 48.611721}}, {"id": 2867560, "name": "Munsingen", "country": "DE", "coord": {"lon": 9.49704, "lat": 48.411259}}, {"id": 2836396, "name": "Schoppenstedt", "country": "DE", "coord": {"lon": 10.7745, "lat": 52.143082}}, {"id": 2831276, "name": "Sondershausen", "country": "DE", "coord": {"lon": 10.86667, "lat": 51.366669}}, {"id": 2946821, "name": "Boizenburg", "country": "DE", "coord": {"lon": 10.71667, "lat": 53.383331}}, {"id": 6555891, "name": "Schliengen", "country": "DE", "coord": {"lon": 7.58333, "lat": 47.75}}, {"id": 2838534, "name": "Schliengen", "country": "DE", "coord": {"lon": 7.57645, "lat": 47.756981}}, {"id": 3208086, "name": "Liederbach", "country": "DE", "coord": {"lon": 8.5, "lat": 50.116669}}, {"id": 2845914, "name": "Rodleben", "country": "DE", "coord": {"lon": 12.2, "lat": 51.900002}}, {"id": 6547440, "name": "Nu\u00dfloch", "country": "DE", "coord": {"lon": 8.6872, "lat": 49.326199}}, {"id": 2861579, "name": "Nussloch", "country": "DE", "coord": {"lon": 8.69556, "lat": 49.323891}}, {"id": 2829901, "name": "Stade", "country": "DE", "coord": {"lon": 9.48333, "lat": 53.599998}}, {"id": 2804109, "name": "Ostseebad Zinnowitz", "country": "DE", "coord": {"lon": 13.9, "lat": 54.066669}}, {"id": 2920891, "name": "Gersthofen", "country": "DE", "coord": {"lon": 10.88333, "lat": 48.416672}}, {"id": 2831872, "name": "Sinsheim", "country": "DE", "coord": {"lon": 8.87867, "lat": 49.252899}}, {"id": 2835531, "name": "Schwabbruck", "country": "DE", "coord": {"lon": 10.83333, "lat": 47.833328}}, {"id": 2862686, "name": "Niefern", "country": "DE", "coord": {"lon": 8.78333, "lat": 48.916672}}, {"id": 2820537, "name": "Uchte", "country": "DE", "coord": {"lon": 8.91667, "lat": 52.5}}, {"id": 2947837, "name": "Bleicherode", "country": "DE", "coord": {"lon": 10.57202, "lat": 51.440262}}, {"id": 3221059, "name": "Landkreis Aurich", "country": "DE", "coord": {"lon": 7.31389, "lat": 53.492222}}, {"id": 6558478, "name": "Dornum", "country": "DE", "coord": {"lon": 7.43019, "lat": 53.655499}}, {"id": 2935633, "name": "Dornum", "country": "DE", "coord": {"lon": 7.41667, "lat": 53.650002}}, {"id": 2947120, "name": "Bodenmais", "country": "DE", "coord": {"lon": 13.1, "lat": 49.066669}}, {"id": 2893244, "name": "Kandel", "country": "DE", "coord": {"lon": 8.18417, "lat": 49.089169}}, {"id": 2933627, "name": "Eckernforde", "country": "DE", "coord": {"lon": 9.83333, "lat": 54.466671}}, {"id": 2817927, "name": "Vaihingen an der Enz", "country": "DE", "coord": {"lon": 8.96667, "lat": 48.933331}}, {"id": 2895638, "name": "Isny im Allgau", "country": "DE", "coord": {"lon": 10.03333, "lat": 47.700001}}, {"id": 2863952, "name": "Neutrauchburg", "country": "DE", "coord": {"lon": 10.03333, "lat": 47.700001}}, {"id": 2810680, "name": "Weseke", "country": "DE", "coord": {"lon": 6.85, "lat": 51.916672}}, {"id": 3220844, "name": "Landkreis Bamberg", "country": "DE", "coord": {"lon": 10.96833, "lat": 49.908058}}, {"id": 6556748, "name": "Strullendorf", "country": "DE", "coord": {"lon": 10.9622, "lat": 49.8452}}, {"id": 2825638, "name": "Strullendorf", "country": "DE", "coord": {"lon": 10.97208, "lat": 49.844292}}, {"id": 2897307, "name": "H\u00fcnshoven", "country": "DE", "coord": {"lon": 6.11667, "lat": 50.966671}}, {"id": 6555591, "name": "Mutlangen", "country": "DE", "coord": {"lon": 9.79699, "lat": 48.826012}}, {"id": 2867335, "name": "Mutlangen", "country": "DE", "coord": {"lon": 9.79714, "lat": 48.825878}}, {"id": 2894754, "name": "Johannis-Vorstadt", "country": "DE", "coord": {"lon": 11.46667, "lat": 51.75}}, {"id": 2823887, "name": "Taubenheim", "country": "DE", "coord": {"lon": 14.48333, "lat": 51.049999}}, {"id": 2847553, "name": "Landkreis Rh\u00f6n-Grabfeld", "country": "DE", "coord": {"lon": 10.295, "lat": 50.387501}}, {"id": 6556983, "name": "Oberstreu", "country": "DE", "coord": {"lon": 10.2833, "lat": 50.400002}}, {"id": 2858874, "name": "Oberstreu", "country": "DE", "coord": {"lon": 10.31667, "lat": 50.400002}}, {"id": 2951528, "name": "Beeskow", "country": "DE", "coord": {"lon": 14.25, "lat": 52.166672}}, {"id": 2814883, "name": "Waldkirch", "country": "DE", "coord": {"lon": 7.96371, "lat": 48.095852}}, {"id": 2833170, "name": "Selm", "country": "DE", "coord": {"lon": 7.46667, "lat": 51.700001}}, {"id": 2949468, "name": "Bexten", "country": "DE", "coord": {"lon": 8.70169, "lat": 52.05439}}, {"id": 2838112, "name": "Schmalenbach", "country": "DE", "coord": {"lon": 7.46667, "lat": 51.200001}}, {"id": 6548633, "name": "Weinb\u00f6hla", "country": "DE", "coord": {"lon": 13.5672, "lat": 51.184299}}, {"id": 2812225, "name": "Weinbohla", "country": "DE", "coord": {"lon": 13.56667, "lat": 51.166672}}, {"id": 2842164, "name": "Salzburghofen", "country": "DE", "coord": {"lon": 12.98333, "lat": 47.849998}}, {"id": 2953770, "name": "Babenhausen", "country": "DE", "coord": {"lon": 8.95778, "lat": 49.966671}}, {"id": 2821558, "name": "Trappenkamp", "country": "DE", "coord": {"lon": 10.25, "lat": 54.049999}}, {"id": 2959223, "name": "Ahlen", "country": "DE", "coord": {"lon": 7.8887, "lat": 51.763378}}, {"id": 6553112, "name": "Westerkappeln", "country": "DE", "coord": {"lon": 7.88333, "lat": 52.3167}}, {"id": 2810289, "name": "Westerkappeln", "country": "DE", "coord": {"lon": 7.88333, "lat": 52.316669}}, {"id": 6557187, "name": "Nersingen", "country": "DE", "coord": {"lon": 10.1333, "lat": 48.4333}}, {"id": 2866473, "name": "Nersingen", "country": "DE", "coord": {"lon": 10.12356, "lat": 48.428291}}, {"id": 3205592, "name": "Kirchdorf", "country": "DE", "coord": {"lon": 12.10874, "lat": 47.779709}}, {"id": 2847472, "name": "Richtervenne", "country": "DE", "coord": {"lon": 6.85, "lat": 52.616669}}, {"id": 2857739, "name": "Oggenhof", "country": "DE", "coord": {"lon": 10.76667, "lat": 48.349998}}, {"id": 2846020, "name": "Roder", "country": "DE", "coord": {"lon": 6.53333, "lat": 50.466671}}, {"id": 2821806, "name": "Landkreis Nordsachsen", "country": "DE", "coord": {"lon": 13.04472, "lat": 51.42556}}, {"id": 6550843, "name": "Eilenburg, Stadt", "country": "DE", "coord": {"lon": 12.6612, "lat": 51.465}}, {"id": 2813458, "name": "Wedelwitz", "country": "DE", "coord": {"lon": 12.6187, "lat": 51.442589}}, {"id": 2950698, "name": "Eilenburg, Berg", "country": "DE", "coord": {"lon": 12.61471, "lat": 51.46133}}, {"id": 2951881, "name": "Bautzen", "country": "DE", "coord": {"lon": 14.43333, "lat": 51.183331}}, {"id": 2872079, "name": "Melle", "country": "DE", "coord": {"lon": 8.35, "lat": 52.200001}}, {"id": 6557104, "name": "Veitsh\u00f6chheim", "country": "DE", "coord": {"lon": 9.8792, "lat": 49.824402}}, {"id": 2817733, "name": "Veitshochheim", "country": "DE", "coord": {"lon": 9.88167, "lat": 49.832779}}, {"id": 6556653, "name": "Sengenthal", "country": "DE", "coord": {"lon": 11.46174, "lat": 49.23217}}, {"id": 2833050, "name": "Sengenthal", "country": "DE", "coord": {"lon": 11.46667, "lat": 49.23333}}, {"id": 2939390, "name": "Dahlwitz-Hoppegarten", "country": "DE", "coord": {"lon": 13.66667, "lat": 52.51667}}, {"id": 2947109, "name": "Bodenseekreis", "country": "DE", "coord": {"lon": 9.38528, "lat": 47.72694}}, {"id": 6556044, "name": "Kressbronn am Bodensee", "country": "DE", "coord": {"lon": 9.60195, "lat": 47.596901}}, {"id": 2884344, "name": "Kressbronn am Bodensee", "country": "DE", "coord": {"lon": 9.6, "lat": 47.599998}}, {"id": 2932923, "name": "Ehingen", "country": "DE", "coord": {"lon": 8.93274, "lat": 48.47298}}, {"id": 2903093, "name": "Hochmutting", "country": "DE", "coord": {"lon": 11.58333, "lat": 48.23333}}, {"id": 2865033, "name": "Neuherberg", "country": "DE", "coord": {"lon": 11.58333, "lat": 48.216671}}, {"id": 3220817, "name": "Landkreis Alt\u00f6tting", "country": "DE", "coord": {"lon": 12.72722, "lat": 48.211391}}, {"id": 6554323, "name": "Stammham", "country": "DE", "coord": {"lon": 12.8833, "lat": 48.25}}, {"id": 2829582, "name": "Stammham", "country": "DE", "coord": {"lon": 12.88333, "lat": 48.25}}, {"id": 2820453, "name": "Uengershausen", "country": "DE", "coord": {"lon": 9.90694, "lat": 49.704441}}, {"id": 2866064, "name": "Landkreis Neuburg-Schrobenhausen", "country": "DE", "coord": {"lon": 11.20056, "lat": 48.666389}}, {"id": 6556338, "name": "Karlskron", "country": "DE", "coord": {"lon": 11.4167, "lat": 48.6833}}, {"id": 2892808, "name": "Karlskron", "country": "DE", "coord": {"lon": 11.41667, "lat": 48.683331}}, {"id": 6553091, "name": "Sch\u00f6ppingen", "country": "DE", "coord": {"lon": 7.23333, "lat": 52.099998}}, {"id": 2836390, "name": "Schoppingen", "country": "DE", "coord": {"lon": 7.23333, "lat": 52.099998}}, {"id": 2814127, "name": "Warendorf", "country": "DE", "coord": {"lon": 7.98333, "lat": 51.950001}}, {"id": 2953544, "name": "Bad Berneck im Fichtelgebirge", "country": "DE", "coord": {"lon": 11.66667, "lat": 50.049999}}, {"id": 2920842, "name": "Gescher", "country": "DE", "coord": {"lon": 7.00481, "lat": 51.953999}}, {"id": 6556046, "name": "Meckenbeuren", "country": "DE", "coord": {"lon": 9.55715, "lat": 47.690849}}, {"id": 2872585, "name": "Meckenbeuren", "country": "DE", "coord": {"lon": 9.56667, "lat": 47.700001}}, {"id": 2855065, "name": "Pegnitz", "country": "DE", "coord": {"lon": 11.545, "lat": 49.75639}}, {"id": 3247453, "name": "Kreis D\u00fcren", "country": "DE", "coord": {"lon": 6.46944, "lat": 50.827782}}, {"id": 6553057, "name": "Langerwehe", "country": "DE", "coord": {"lon": 6.35, "lat": 50.8167}}, {"id": 2880726, "name": "Langerwehe", "country": "DE", "coord": {"lon": 6.35, "lat": 50.816669}}, {"id": 2836616, "name": "Schongau", "country": "DE", "coord": {"lon": 10.9, "lat": 47.816669}}, {"id": 6550070, "name": "Emleben", "country": "DE", "coord": {"lon": 10.7, "lat": 50.900002}}, {"id": 2930547, "name": "Emleben", "country": "DE", "coord": {"lon": 10.7, "lat": 50.900002}}, {"id": 2848335, "name": "Remagen", "country": "DE", "coord": {"lon": 7.22703, "lat": 50.578789}}, {"id": 2953413, "name": "Bad Langensalza", "country": "DE", "coord": {"lon": 10.65, "lat": 51.099998}}, {"id": 2835345, "name": "Schwalmstadt", "country": "DE", "coord": {"lon": 9.21667, "lat": 50.933331}}, {"id": 2841386, "name": "Sarstedt", "country": "DE", "coord": {"lon": 9.85, "lat": 52.23333}}, {"id": 2880215, "name": "Lauchheim", "country": "DE", "coord": {"lon": 10.24222, "lat": 48.871349}}, {"id": 6555545, "name": "Blaufelden", "country": "DE", "coord": {"lon": 9.9693, "lat": 49.2967}}, {"id": 2947919, "name": "Blaufelden", "country": "DE", "coord": {"lon": 9.97389, "lat": 49.297779}}, {"id": 6556959, "name": "Waldaschaff", "country": "DE", "coord": {"lon": 9.2768, "lat": 49.981899}}, {"id": 2815180, "name": "Waldaschaff", "country": "DE", "coord": {"lon": 9.30194, "lat": 49.975281}}, {"id": 2841567, "name": "Sankt Johannisrain", "country": "DE", "coord": {"lon": 11.38333, "lat": 47.75}}, {"id": 2863000, "name": "Niederpesterwitz", "country": "DE", "coord": {"lon": 13.65, "lat": 51.01667}}, {"id": 2834594, "name": "Schweich", "country": "DE", "coord": {"lon": 6.75256, "lat": 49.822151}}, {"id": 2807788, "name": "Winterberg", "country": "DE", "coord": {"lon": 8.53333, "lat": 51.200001}}, {"id": 2953321, "name": "Bad Vilbel", "country": "DE", "coord": {"lon": 8.73756, "lat": 50.178661}}, {"id": 2951404, "name": "Beierfeld", "country": "DE", "coord": {"lon": 12.8, "lat": 50.566669}}, {"id": 2867111, "name": "Nankendorf", "country": "DE", "coord": {"lon": 10.83166, "lat": 49.609928}}, {"id": 2933986, "name": "Ebermannstadt", "country": "DE", "coord": {"lon": 11.18111, "lat": 49.782219}}, {"id": 2874789, "name": "Luttow", "country": "DE", "coord": {"lon": 13.28333, "lat": 54.349998}}, {"id": 2830829, "name": "Spangenberg", "country": "DE", "coord": {"lon": 9.66667, "lat": 51.116669}}, {"id": 6553104, "name": "Lienen", "country": "DE", "coord": {"lon": 7.98333, "lat": 52.150002}}, {"id": 2877843, "name": "Lienen", "country": "DE", "coord": {"lon": 7.98333, "lat": 52.150002}}, {"id": 2826584, "name": "Stollberg", "country": "DE", "coord": {"lon": 12.8, "lat": 50.716671}}, {"id": 6556216, "name": "Althegnenberg", "country": "DE", "coord": {"lon": 11.0644, "lat": 48.2332}}, {"id": 2957153, "name": "Althegnenberg", "country": "DE", "coord": {"lon": 11.06667, "lat": 48.23333}}, {"id": 2911795, "name": "Hainichen", "country": "DE", "coord": {"lon": 13.11667, "lat": 50.966671}}, {"id": 2907459, "name": "Heimbach", "country": "DE", "coord": {"lon": 6.48333, "lat": 50.633331}}, {"id": 2836329, "name": "Schorn", "country": "DE", "coord": {"lon": 11.28333, "lat": 47.916672}}, {"id": 2837387, "name": "Schneidhausen", "country": "DE", "coord": {"lon": 6.48333, "lat": 50.75}}, {"id": 2836545, "name": "Sch\u00f6ning", "country": "DE", "coord": {"lon": 8.48333, "lat": 51.783329}}, {"id": 2856883, "name": "Osnabruck", "country": "DE", "coord": {"lon": 8.05, "lat": 52.26667}}, {"id": 2851343, "name": "Quickborn", "country": "DE", "coord": {"lon": 9.9, "lat": 53.73333}}, {"id": 6552983, "name": "Bohmte", "country": "DE", "coord": {"lon": 8.3046, "lat": 52.358501}}, {"id": 2946923, "name": "Bohmte", "country": "DE", "coord": {"lon": 8.31667, "lat": 52.366669}}, {"id": 6555786, "name": "Kippenheim", "country": "DE", "coord": {"lon": 7.82415, "lat": 48.294731}}, {"id": 2890795, "name": "Kippenheim", "country": "DE", "coord": {"lon": 7.8251, "lat": 48.295639}}, {"id": 2859823, "name": "Obermarsberg", "country": "DE", "coord": {"lon": 8.85292, "lat": 51.44994}}, {"id": 2809055, "name": "Wigratz", "country": "DE", "coord": {"lon": 9.83333, "lat": 47.650002}}, {"id": 2869449, "name": "Moosburg", "country": "DE", "coord": {"lon": 11.93333, "lat": 48.466671}}, {"id": 2836065, "name": "Schrofen", "country": "DE", "coord": {"lon": 8.08333, "lat": 48.400002}}, {"id": 2832397, "name": "Siekholz", "country": "DE", "coord": {"lon": 9.14758, "lat": 51.937168}}, {"id": 2839491, "name": "Schieder", "country": "DE", "coord": {"lon": 9.15316, "lat": 51.91404}}, {"id": 2821248, "name": "Treuenbrietzen", "country": "DE", "coord": {"lon": 12.86667, "lat": 52.099998}}, {"id": 2940204, "name": "Cham", "country": "DE", "coord": {"lon": 12.66361, "lat": 49.225559}}, {"id": 2904607, "name": "Hilter", "country": "DE", "coord": {"lon": 8.15, "lat": 52.150002}}, {"id": 2908933, "name": "Hausdorf", "country": "DE", "coord": {"lon": 13.1, "lat": 50.883331}}, {"id": 6548522, "name": "Niederwiesa", "country": "DE", "coord": {"lon": 13.0033, "lat": 50.8624}}, {"id": 2862724, "name": "Niederwiesa", "country": "DE", "coord": {"lon": 13.01667, "lat": 50.866669}}, {"id": 2853071, "name": "Pockau", "country": "DE", "coord": {"lon": 13.23333, "lat": 50.700001}}, {"id": 2835018, "name": "Schwarzenbach an der Saale", "country": "DE", "coord": {"lon": 11.93333, "lat": 50.216671}}, {"id": 2955951, "name": "Annweiler am Trifels", "country": "DE", "coord": {"lon": 7.96667, "lat": 49.200001}}, {"id": 6556701, "name": "Dieterskirchen", "country": "DE", "coord": {"lon": 12.4167, "lat": 49.416698}}, {"id": 2937115, "name": "Dieterskirchen", "country": "DE", "coord": {"lon": 12.41667, "lat": 49.416672}}, {"id": 6556358, "name": "Chiemsee", "country": "DE", "coord": {"lon": 12.4167, "lat": 47.866699}}, {"id": 2940126, "name": "Chiemsee", "country": "DE", "coord": {"lon": 12.41667, "lat": 47.866669}}, {"id": 6556279, "name": "Otterfing", "country": "DE", "coord": {"lon": 11.668, "lat": 47.906502}}, {"id": 2856038, "name": "Otterfing", "country": "DE", "coord": {"lon": 11.67546, "lat": 47.908981}}, {"id": 2848762, "name": "Reinheim", "country": "DE", "coord": {"lon": 8.83611, "lat": 49.826939}}, {"id": 6557103, "name": "Unterpleichfeld", "country": "DE", "coord": {"lon": 10.05, "lat": 49.866699}}, {"id": 2818929, "name": "Unterpleichfeld", "country": "DE", "coord": {"lon": 10.05, "lat": 49.866669}}, {"id": 6557102, "name": "Uettingen", "country": "DE", "coord": {"lon": 9.73056, "lat": 49.794701}}, {"id": 2820439, "name": "Uettingen", "country": "DE", "coord": {"lon": 9.73056, "lat": 49.79472}}, {"id": 2952310, "name": "B\u00e4sch", "country": "DE", "coord": {"lon": 7, "lat": 49.75}}, {"id": 3249074, "name": "Landkreis Ostholstein", "country": "DE", "coord": {"lon": 10.76972, "lat": 54.16111}}, {"id": 6551655, "name": "Lensahn", "country": "DE", "coord": {"lon": 10.8833, "lat": 54.233299}}, {"id": 2878773, "name": "Lensahn", "country": "DE", "coord": {"lon": 10.88333, "lat": 54.23333}}, {"id": 2890586, "name": "Kirchen", "country": "DE", "coord": {"lon": 7.88333, "lat": 50.799999}}, {"id": 2846939, "name": "Riesa", "country": "DE", "coord": {"lon": 13.3, "lat": 51.299999}}, {"id": 2944322, "name": "Bremsstallm\u00fchle", "country": "DE", "coord": {"lon": 12.73333, "lat": 48.166672}}, {"id": 2853928, "name": "Pfullingen", "country": "DE", "coord": {"lon": 9.22796, "lat": 48.464581}}, {"id": 6557125, "name": "Todtenweis", "country": "DE", "coord": {"lon": 10.9333, "lat": 48.516701}}, {"id": 2821985, "name": "Todtenweis", "country": "DE", "coord": {"lon": 10.93333, "lat": 48.51667}}, {"id": 2930650, "name": "Eltmann", "country": "DE", "coord": {"lon": 10.66667, "lat": 49.966671}}, {"id": 2817357, "name": "Vierhausen", "country": "DE", "coord": {"lon": 8.75, "lat": 53.183331}}, {"id": 6558483, "name": "Friedeburg", "country": "DE", "coord": {"lon": 7.84016, "lat": 53.4529}}, {"id": 2924788, "name": "Friedeburg", "country": "DE", "coord": {"lon": 7.83333, "lat": 53.450001}}, {"id": 2939291, "name": "Dallgow", "country": "DE", "coord": {"lon": 13.08333, "lat": 52.51667}}, {"id": 2956940, "name": "Altotting", "country": "DE", "coord": {"lon": 12.68333, "lat": 48.23333}}, {"id": 2867445, "name": "Murnau am Staffelsee", "country": "DE", "coord": {"lon": 11.20125, "lat": 47.680851}}, {"id": 2880539, "name": "Langweid", "country": "DE", "coord": {"lon": 10.85, "lat": 48.48333}}, {"id": 2948071, "name": "Blankenburg", "country": "DE", "coord": {"lon": 10.95, "lat": 51.783329}}, {"id": 2905599, "name": "Hersbruck", "country": "DE", "coord": {"lon": 11.43389, "lat": 49.512501}}, {"id": 2896736, "name": "Idstein", "country": "DE", "coord": {"lon": 8.26667, "lat": 50.23333}}, {"id": 6552480, "name": "Giesen", "country": "DE", "coord": {"lon": 9.9, "lat": 52.200001}}, {"id": 3206402, "name": "Giesen", "country": "DE", "coord": {"lon": 9.8989, "lat": 52.197159}}, {"id": 2885025, "name": "Kradenpuhl", "country": "DE", "coord": {"lon": 7.01667, "lat": 51.116669}}, {"id": 3205706, "name": "Gosse", "country": "DE", "coord": {"lon": 7.01667, "lat": 51.116669}}, {"id": 3220871, "name": "Landkreis Augsburg", "country": "DE", "coord": {"lon": 10.71056, "lat": 48.352501}}, {"id": 6557126, "name": "Adelsried", "country": "DE", "coord": {"lon": 10.7167, "lat": 48.416698}}, {"id": 2959498, "name": "Adelsried", "country": "DE", "coord": {"lon": 10.71667, "lat": 48.416672}}, {"id": 6555459, "name": "Gingen an der Fils", "country": "DE", "coord": {"lon": 9.7818, "lat": 48.658001}}, {"id": 2920348, "name": "Gingen an der Fils", "country": "DE", "coord": {"lon": 9.78092, "lat": 48.65979}}, {"id": 2880913, "name": "Langenselbold", "country": "DE", "coord": {"lon": 9.04003, "lat": 50.176571}}, {"id": 2904400, "name": "Hinserdorf", "country": "DE", "coord": {"lon": 9.03333, "lat": 50.183331}}, {"id": 2921528, "name": "Geldern", "country": "DE", "coord": {"lon": 6.33333, "lat": 51.51667}}, {"id": 2949917, "name": "Berringhausen", "country": "DE", "coord": {"lon": 7.11667, "lat": 51.099998}}, {"id": 2885672, "name": "Konz", "country": "DE", "coord": {"lon": 6.58333, "lat": 49.700001}}, {"id": 2953558, "name": "Bad Aibling", "country": "DE", "coord": {"lon": 12.01055, "lat": 47.8638}}, {"id": 2891807, "name": "Keller", "country": "DE", "coord": {"lon": 9.86667, "lat": 53.650002}}, {"id": 6555571, "name": "Nattheim", "country": "DE", "coord": {"lon": 10.2413, "lat": 48.699402}}, {"id": 2866942, "name": "Nattheim", "country": "DE", "coord": {"lon": 10.24209, "lat": 48.699631}}, {"id": 6553843, "name": "Niederbreitbach", "country": "DE", "coord": {"lon": 7.41667, "lat": 50.533298}}, {"id": 2863574, "name": "Niederbreitbach", "country": "DE", "coord": {"lon": 7.41667, "lat": 50.533329}}, {"id": 6547462, "name": "Nalbach", "country": "DE", "coord": {"lon": 6.78333, "lat": 49.383301}}, {"id": 2867127, "name": "Nalbach", "country": "DE", "coord": {"lon": 6.78333, "lat": 49.383331}},