[{"id": 2991470, "name": "Moulins-les-Metz", "country": "FR", "coord": {"lon": 6.10721, "lat": 49.10318}}, {"id": 6438030, "name": "Moulins-Engilbert", "country": "FR", "coord": {"lon": 3.81667, "lat": 46.98333}}, {"id": 2991474, "name": "Moulins-Engilbert", "country": "FR", "coord": {"lon": 3.81084, "lat": 46.988209}}, {"id": 6436439, "name": "Moulay", "country": "FR", "coord": {"lon": -0.63333, "lat": 48.26667}}, {"id": 2991530, "name": "Moulay", "country": "FR", "coord": {"lon": -0.62734, "lat": 48.272449}}, {"id": 6445154, "name": "Mouilleron-le-Captif", "country": "FR", "coord": {"lon": -1.45, "lat": 46.716671}}, {"id": 2991537, "name": "Mouilleron-le-Captif", "country": "FR", "coord": {"lon": -1.45462, "lat": 46.718979}}, {"id": 6445153, "name": "Mouilleron-en-Pareds", "country": "FR", "coord": {"lon": -0.85, "lat": 46.666672}}, {"id": 2991538, "name": "Mouilleron-en-Pareds", "country": "FR", "coord": {"lon": -0.8494, "lat": 46.6763}}, {"id": 6613365, "name": "Mougon", "country": "FR", "coord": {"lon": -0.28333, "lat": 46.299999}}, {"id": 2991549, "name": "Mougon", "country": "FR", "coord": {"lon": -0.2866, "lat": 46.295609}}, {"id": 6438377, "name": "Mouchin", "country": "FR", "coord": {"lon": 3.28333, "lat": 50.51667}}, {"id": 2991565, "name": "Mouchin", "country": "FR", "coord": {"lon": 3.29627, "lat": 50.516392}}, {"id": 6433663, "name": "Mouchard", "country": "FR", "coord": {"lon": 5.8, "lat": 46.966671}}, {"id": 2991573, "name": "Mouchard", "country": "FR", "coord": {"lon": 5.79626, "lat": 46.972591}}, {"id": 6445152, "name": "Mouchamps", "country": "FR", "coord": {"lon": -1.06667, "lat": 46.783329}}, {"id": 2991575, "name": "Mouchamps", "country": "FR", "coord": {"lon": -1.06179, "lat": 46.781311}}, {"id": 6446720, "name": "Mouans-Sartoux", "country": "FR", "coord": {"lon": 6.96667, "lat": 43.616669}}, {"id": 2991579, "name": "Mouans-Sartoux", "country": "FR", "coord": {"lon": 6.97312, "lat": 43.622238}}, {"id": 6451920, "name": "Morvillars", "country": "FR", "coord": {"lon": 6.93333, "lat": 47.549999}}, {"id": 2991649, "name": "Morvillars", "country": "FR", "coord": {"lon": 6.93439, "lat": 47.54874}}, {"id": 2991692, "name": "Morteau", "country": "FR", "coord": {"lon": 6.60716, "lat": 47.057838}}, {"id": 2991695, "name": "Mortcerf", "country": "FR", "coord": {"lon": 2.91692, "lat": 48.788792}}, {"id": 6445151, "name": "Mortagne-sur-S\u00e8vre", "country": "FR", "coord": {"lon": -0.95, "lat": 47}}, {"id": 2991700, "name": "Mortagne-sur-Sevre", "country": "FR", "coord": {"lon": -0.94738, "lat": 46.992031}}, {"id": 6428010, "name": "Mortagne-sur-Gironde", "country": "FR", "coord": {"lon": -0.78333, "lat": 45.48333}}, {"id": 2991701, "name": "Mortagne-sur-Gironde", "country": "FR", "coord": {"lon": -0.78702, "lat": 45.481392}}, {"id": 6438376, "name": "Mortagne-du-Nord", "country": "FR", "coord": {"lon": 3.45, "lat": 50.5}}, {"id": 2991702, "name": "Mortagne-du-Nord", "country": "FR", "coord": {"lon": 3.45352, "lat": 50.503521}}, {"id": 6439176, "name": "Mortagne-au-Perche", "country": "FR", "coord": {"lon": 0.55, "lat": 48.51667}}, {"id": 2991704, "name": "Mortagne-au-Perche", "country": "FR", "coord": {"lon": 0.55, "lat": 48.51667}}, {"id": 6441537, "name": "Morschwiller-le-Bas", "country": "FR", "coord": {"lon": 7.271, "lat": 47.736}}, {"id": 2991713, "name": "Morschwiller-le-Bas", "country": "FR", "coord": {"lon": 7.26687, "lat": 47.736092}}, {"id": 6437731, "name": "Morsbach", "country": "FR", "coord": {"lon": 6.86667, "lat": 49.166672}}, {"id": 2991716, "name": "Morsbach", "country": "FR", "coord": {"lon": 6.87958, "lat": 49.17086}}, {"id": 6429904, "name": "Morre", "country": "FR", "coord": {"lon": 6.06667, "lat": 47.23333}}, {"id": 2991725, "name": "Morre", "country": "FR", "coord": {"lon": 6.07512, "lat": 47.225948}}, {"id": 6431178, "name": "Morosaglia", "country": "FR", "coord": {"lon": 9.31667, "lat": 42.433331}}, {"id": 2991727, "name": "Morosaglia", "country": "FR", "coord": {"lon": 9.30694, "lat": 42.436001}}, {"id": 6451578, "name": "Mornas", "country": "FR", "coord": {"lon": 4.73333, "lat": 44.200001}}, {"id": 2991741, "name": "Mornas", "country": "FR", "coord": {"lon": 4.72902, "lat": 44.200249}}, {"id": 6441718, "name": "Mornant", "country": "FR", "coord": {"lon": 4.66667, "lat": 45.616669}}, {"id": 2991743, "name": "Mornant", "country": "FR", "coord": {"lon": 4.6737, "lat": 45.61898}}, {"id": 6453707, "name": "Mornac", "country": "FR", "coord": {"lon": 0.26667, "lat": 45.683331}}, {"id": 2991747, "name": "Mornac", "country": "FR", "coord": {"lon": 0.26667, "lat": 45.683331}}, {"id": 6451577, "name": "Mormoiron", "country": "FR", "coord": {"lon": 5.18333, "lat": 44.066669}}, {"id": 2991750, "name": "Mormoiron", "country": "FR", "coord": {"lon": 5.17885, "lat": 44.067829}}, {"id": 6443759, "name": "Mormant", "country": "FR", "coord": {"lon": 2.88333, "lat": 48.599998}}, {"id": 2991754, "name": "Mormant", "country": "FR", "coord": {"lon": 2.89026, "lat": 48.609009}}, {"id": 6446176, "name": "Morigny-Champigny", "country": "FR", "coord": {"lon": 2.2, "lat": 48.450001}}, {"id": 2991792, "name": "Morigny-Champigny", "country": "FR", "coord": {"lon": 2.18352, "lat": 48.44685}}, {"id": 6451576, "name": "Mori\u00e8res-l\u00e8s-Avignon", "country": "FR", "coord": {"lon": 4.9, "lat": 43.933331}}, {"id": 2991799, "name": "Morieres-les-Avignon", "country": "FR", "coord": {"lon": 4.9011, "lat": 43.9403}}, {"id": 6438844, "name": "Morienval", "country": "FR", "coord": {"lon": 2.92078, "lat": 49.297699}}, {"id": 2991802, "name": "Morienval", "country": "FR", "coord": {"lon": 2.92078, "lat": 49.297699}}, {"id": 6437730, "name": "Morhange", "country": "FR", "coord": {"lon": 6.63333, "lat": 48.916672}}, {"id": 2991806, "name": "Morhange", "country": "FR", "coord": {"lon": 6.64179, "lat": 48.922989}}, {"id": 6433662, "name": "Morez", "country": "FR", "coord": {"lon": 6.03333, "lat": 46.51667}}, {"id": 2991832, "name": "Morez", "country": "FR", "coord": {"lon": 6.02589, "lat": 46.525398}}, {"id": 6444635, "name": "Moreuil", "country": "FR", "coord": {"lon": 2.48333, "lat": 49.76667}}, {"id": 2991839, "name": "Moreuil", "country": "FR", "coord": {"lon": 2.48273, "lat": 49.77457}}, {"id": 6443758, "name": "Moret-sur-Loing", "country": "FR", "coord": {"lon": 2.81628, "lat": 48.371761}}, {"id": 2991842, "name": "Moret-sur-Loing", "country": "FR", "coord": {"lon": 2.81713, "lat": 48.372391}}, {"id": 6454079, "name": "Morestel", "country": "FR", "coord": {"lon": 5.4701, "lat": 45.6777}}, {"id": 2991847, "name": "Morestel", "country": "FR", "coord": {"lon": 5.47079, "lat": 45.675999}}, {"id": 6434066, "name": "Mor\u00e9e", "country": "FR", "coord": {"lon": 1.23333, "lat": 47.900002}}, {"id": 2991861, "name": "Moree", "country": "FR", "coord": {"lon": 1.23421, "lat": 47.903969}}, {"id": 6437316, "name": "Mor\u00e9ac", "country": "FR", "coord": {"lon": -2.81667, "lat": 47.916672}}, {"id": 2991866, "name": "Moreac", "country": "FR", "coord": {"lon": -2.81934, "lat": 47.91967}}, {"id": 6432769, "name": "Mordelles", "country": "FR", "coord": {"lon": -1.85, "lat": 48.066669}}, {"id": 2991868, "name": "Mordelles", "country": "FR", "coord": {"lon": -1.84286, "lat": 48.07571}}, {"id": 6433661, "name": "Morbier", "country": "FR", "coord": {"lon": 6.01667, "lat": 46.533329}}, {"id": 2991880, "name": "Morbier", "country": "FR", "coord": {"lon": 6.01532, "lat": 46.53693}}, {"id": 6438375, "name": "Morbecque", "country": "FR", "coord": {"lon": 2.51667, "lat": 50.700001}}, {"id": 2991881, "name": "Morbecque", "country": "FR", "coord": {"lon": 2.51787, "lat": 50.693649}}, {"id": 6435252, "name": "Morannes", "country": "FR", "coord": {"lon": -0.41667, "lat": 47.75}}, {"id": 2991888, "name": "Morannes", "country": "FR", "coord": {"lon": -0.41604, "lat": 47.743641}}, {"id": 6446175, "name": "Morangis", "country": "FR", "coord": {"lon": 2.33333, "lat": 48.700001}}, {"id": 2991891, "name": "Morangis", "country": "FR", "coord": {"lon": 2.33908, "lat": 48.703831}}, {"id": 6430819, "name": "Morancez", "country": "FR", "coord": {"lon": 1.5, "lat": 48.400002}}, {"id": 2991895, "name": "Morancez", "country": "FR", "coord": {"lon": 1.49388, "lat": 48.400509}}, {"id": 6441717, "name": "Moranc\u00e9", "country": "FR", "coord": {"lon": 4.7, "lat": 45.900002}}, {"id": 2991896, "name": "Morance", "country": "FR", "coord": {"lon": 4.70041, "lat": 45.897812}}, {"id": 6444035, "name": "Morainvilliers", "country": "FR", "coord": {"lon": 1.93333, "lat": 48.933331}}, {"id": 2991898, "name": "Morainvilliers", "country": "FR", "coord": {"lon": 1.93621, "lat": 48.92902}}, {"id": 6441536, "name": "Moosch", "country": "FR", "coord": {"lon": 7.03333, "lat": 47.866669}}, {"id": 2991906, "name": "Moosch", "country": "FR", "coord": {"lon": 7.05007, "lat": 47.85968}}, {"id": 6436438, "name": "Monts\u00fbrs", "country": "FR", "coord": {"lon": -0.55, "lat": 48.133331}}, {"id": 2991947, "name": "Montsurs", "country": "FR", "coord": {"lon": -0.55413, "lat": 48.13604}}, {"id": 6433659, "name": "Mont-sous-Vaudrey", "country": "FR", "coord": {"lon": 5.6024, "lat": 46.98}}, {"id": 2991954, "name": "Mont-sous-Vaudrey", "country": "FR", "coord": {"lon": 5.60295, "lat": 46.978741}}, {"id": 6430151, "name": "Monts\u00e9gur-sur-Lauzon", "country": "FR", "coord": {"lon": 4.8599, "lat": 44.3601}}, {"id": 2991970, "name": "Montsegur-sur-Lauzon", "country": "FR", "coord": {"lon": 4.85926, "lat": 44.361351}}, {"id": 6443003, "name": "Mont-Saxonnex", "country": "FR", "coord": {"lon": 6.48333, "lat": 46.049999}}, {"id": 2991974, "name": "Mont-Saxonnex", "country": "FR", "coord": {"lon": 6.48788, "lat": 46.054588}}, {"id": 6436763, "name": "Mont-Saint-Martin", "country": "FR", "coord": {"lon": 5.78333, "lat": 49.533329}}, {"id": 2991992, "name": "Mont-Saint-Martin", "country": "FR", "coord": {"lon": 5.79375, "lat": 49.5467}}, {"id": 6439733, "name": "Mont-Saint-\u00c9loi", "country": "FR", "coord": {"lon": 2.7, "lat": 50.349998}}, {"id": 2992001, "name": "Mont-Saint-Eloi", "country": "FR", "coord": {"lon": 2.69249, "lat": 50.351051}}, {"id": 6454055, "name": "Monts", "country": "FR", "coord": {"lon": 0.61667, "lat": 47.283329}}, {"id": 2992008, "name": "Monts", "country": "FR", "coord": {"lon": 0.62473, "lat": 47.277229}}, {"id": 6443757, "name": "Montry", "country": "FR", "coord": {"lon": 2.83333, "lat": 48.883331}}, {"id": 2992009, "name": "Montry", "country": "FR", "coord": {"lon": 2.82914, "lat": 48.88409}}, {"id": 6441716, "name": "Montrottier", "country": "FR", "coord": {"lon": 4.46667, "lat": 45.783329}}, {"id": 2992022, "name": "Montrottier", "country": "FR", "coord": {"lon": 4.46627, "lat": 45.79142}}, {"id": 6434205, "name": "Montrond-les-Bains", "country": "FR", "coord": {"lon": 4.2308, "lat": 45.643501}}, {"id": 2992024, "name": "Montrond-les-Bains", "country": "FR", "coord": {"lon": 4.23187, "lat": 45.650982}}, {"id": 6435122, "name": "Montrodat", "country": "FR", "coord": {"lon": 3.33333, "lat": 44.549999}}, {"id": 2992035, "name": "Montrodat", "country": "FR", "coord": {"lon": 3.32928, "lat": 44.550381}}, {"id": 6445010, "name": "Montricoux", "country": "FR", "coord": {"lon": 1.61667, "lat": 44.083328}}, {"id": 2992044, "name": "Montricoux", "country": "FR", "coord": {"lon": 1.61946, "lat": 44.07589}}, {"id": 6434063, "name": "Montrichard", "country": "FR", "coord": {"lon": 1.18333, "lat": 47.349998}}, {"id": 2992047, "name": "Montrichard", "country": "FR", "coord": {"lon": 1.18653, "lat": 47.343102}}, {"id": 6424603, "name": "Montrevel-en-Bresse", "country": "FR", "coord": {"lon": 5.13333, "lat": 46.333328}}, {"id": 2992050, "name": "Montrevel-en-Bresse", "country": "FR", "coord": {"lon": 5.1234, "lat": 46.336639}}, {"id": 6435250, "name": "Montrevault", "country": "FR", "coord": {"lon": -1.05, "lat": 47.26667}}, {"id": 2992054, "name": "Montrevault", "country": "FR", "coord": {"lon": -1.04679, "lat": 47.259651}}, {"id": 6451919, "name": "Montreux-Ch\u00e2teau", "country": "FR", "coord": {"lon": 7, "lat": 47.616669}}, {"id": 2992057, "name": "Montreux-Chateau", "country": "FR", "coord": {"lon": 7.00423, "lat": 47.60857}}, {"id": 6618354, "name": "Montreuil", "country": "FR", "coord": {"lon": 1.7639, "lat": 50.463902}}, {"id": 2992061, "name": "Montreuil", "country": "FR", "coord": {"lon": 1.76667, "lat": 50.466671}}, {"id": 2992065, "name": "Montreuil-sur-Ille", "country": "FR", "coord": {"lon": -1.6688, "lat": 48.30788}}, {"id": 2992070, "name": "Montreuil-sous-Perouse", "country": "FR", "coord": {"lon": -1.23946, "lat": 48.15176}}, {"id": 6432766, "name": "Montreuil-le-Gast", "country": "FR", "coord": {"lon": -1.71667, "lat": 48.25}}, {"id": 2992074, "name": "Montreuil-le-Gast", "country": "FR", "coord": {"lon": -1.72498, "lat": 48.246471}}, {"id": 6612218, "name": "Montreuil-aux-Lions", "country": "FR", "coord": {"lon": 3.2, "lat": 49.01667}}, {"id": 2992086, "name": "Montreuil-aux-Lions", "country": "FR", "coord": {"lon": 3.19543, "lat": 49.02124}}, {"id": 6429459, "name": "Montrem", "country": "FR", "coord": {"lon": 0.575, "lat": 45.150299}}, {"id": 2992098, "name": "Montrem", "country": "FR", "coord": {"lon": 0.59029, "lat": 45.134171}}, {"id": 6431728, "name": "Montr\u00e9jeau", "country": "FR", "coord": {"lon": 0.58333, "lat": 43.083328}}, {"id": 2992102, "name": "Montrejeau", "country": "FR", "coord": {"lon": 0.5647, "lat": 43.085548}}, {"id": 6444893, "name": "Montredon-Labessonni\u00e9", "country": "FR", "coord": {"lon": 2.3273, "lat": 43.7202}}, {"id": 2992104, "name": "Montredon-Labessonnie", "country": "FR", "coord": {"lon": 2.32454, "lat": 43.717232}}, {"id": 6615625, "name": "Montr\u00e9al-la-Cluse", "country": "FR", "coord": {"lon": 5.5709, "lat": 46.187099}}, {"id": 2992116, "name": "Montreal-la-Cluse", "country": "FR", "coord": {"lon": 5.58333, "lat": 46.183331}}, {"id": 6432033, "name": "Montr\u00e9al", "country": "FR", "coord": {"lon": 0.2, "lat": 43.950001}}, {"id": 2992118, "name": "Montreal", "country": "FR", "coord": {"lon": 0.20358, "lat": 43.950161}}, {"id": 6453641, "name": "Montr\u00e9al", "country": "FR", "coord": {"lon": 2.15, "lat": 43.200001}}, {"id": 2992119, "name": "Montreal", "country": "FR", "coord": {"lon": 2.14122, "lat": 43.199799}}, {"id": 6431727, "name": "Montrab\u00e9", "country": "FR", "coord": {"lon": 1.51667, "lat": 43.650002}}, {"id": 2992124, "name": "Montrabe", "country": "FR", "coord": {"lon": 1.52384, "lat": 43.644772}}, {"id": 6434062, "name": "Mont-pr\u00e8s-Chambord", "country": "FR", "coord": {"lon": 1.45, "lat": 47.566669}}, {"id": 2992126, "name": "Mont-pres-Chambord", "country": "FR", "coord": {"lon": 1.45712, "lat": 47.562351}}, {"id": 6442338, "name": "Montpont-en-Bresse", "country": "FR", "coord": {"lon": 5.15, "lat": 46.549999}}, {"id": 2992131, "name": "Montpont-en-Bresse", "country": "FR", "coord": {"lon": 5.16459, "lat": 46.556301}}, {"id": 6432562, "name": "Montpeyroux", "country": "FR", "coord": {"lon": 3.5072, "lat": 43.695}}, {"id": 2992153, "name": "Montpeyroux", "country": "FR", "coord": {"lon": 3.50542, "lat": 43.6959}}, {"id": 6445149, "name": "Montournais", "country": "FR", "coord": {"lon": -0.76667, "lat": 46.75}}, {"id": 2992177, "name": "Montournais", "country": "FR", "coord": {"lon": -0.76464, "lat": 46.741909}}, {"id": 6430148, "name": "Montoison", "country": "FR", "coord": {"lon": 4.9409, "lat": 44.797501}}, {"id": 2992202, "name": "Montoison", "country": "FR", "coord": {"lon": 4.94186, "lat": 44.796921}}, {"id": 6612656, "name": "Montois-la-Montagne", "country": "FR", "coord": {"lon": 6.01667, "lat": 49.216671}}, {"id": 2992203, "name": "Montois-la-Montagne", "country": "FR", "coord": {"lon": 6.02305, "lat": 49.217522}}, {"id": 6434061, "name": "Montoire-sur-le-Loir", "country": "FR", "coord": {"lon": 0.86667, "lat": 47.75}}, {"id": 2992204, "name": "Montoire-sur-le-Loir", "country": "FR", "coord": {"lon": 0.86525, "lat": 47.753159}}, {"id": 6433657, "name": "Montmorot", "country": "FR", "coord": {"lon": 5.51667, "lat": 46.683331}}, {"id": 2992220, "name": "Montmorot", "country": "FR", "coord": {"lon": 5.52284, "lat": 46.675411}}, {"id": 6454818, "name": "Montmorillon", "country": "FR", "coord": {"lon": 0.86667, "lat": 46.433331}}, {"id": 2992225, "name": "Montmorillon", "country": "FR", "coord": {"lon": 0.86667, "lat": 46.433331}}, {"id": 6615981, "name": "Montmoreau-Saint-Cybard", "country": "FR", "coord": {"lon": 0.1313, "lat": 45.398701}}, {"id": 2992230, "name": "Montmoreau-Saint-Cybard", "country": "FR", "coord": {"lon": 0.13333, "lat": 45.400002}}, {"id": 6454246, "name": "Montmirail", "country": "FR", "coord": {"lon": 3.53333, "lat": 48.866669}}, {"id": 2992240, "name": "Montmirail", "country": "FR", "coord": {"lon": 3.53797, "lat": 48.872139}}, {"id": 6430146, "name": "Montmeyran", "country": "FR", "coord": {"lon": 4.98333, "lat": 44.833328}}, {"id": 2992249, "name": "Montmeyran", "country": "FR", "coord": {"lon": 4.97473, "lat": 44.833199}}, {"id": 6618061, "name": "Montmerle-sur-Sa\u00f4ne", "country": "FR", "coord": {"lon": 4.7591, "lat": 46.081799}}, {"id": 2992254, "name": "Montmerle-sur-Saone", "country": "FR", "coord": {"lon": 4.76667, "lat": 46.083328}}, {"id": 6442832, "name": "Montm\u00e9lian", "country": "FR", "coord": {"lon": 6.06667, "lat": 45.5}}, {"id": 2992255, "name": "Montmelian", "country": "FR", "coord": {"lon": 6.05047, "lat": 45.499939}}, {"id": 6454330, "name": "Montm\u00e9dy", "country": "FR", "coord": {"lon": 5.36667, "lat": 49.51667}}, {"id": 2992260, "name": "Montmedy", "country": "FR", "coord": {"lon": 5.36835, "lat": 49.520962}}, {"id": 2992274, "name": "Montmarault", "country": "FR", "coord": {"lon": 2.95613, "lat": 46.316681}}, {"id": 6443349, "name": "Montmain", "country": "FR", "coord": {"lon": 1.25, "lat": 49.416672}}, {"id": 2992282, "name": "Montmain", "country": "FR", "coord": {"lon": 1.23742, "lat": 49.409962}}, {"id": 6612928, "name": "Montmagny", "country": "FR", "coord": {"lon": 2.35, "lat": 48.966671}}, {"id": 2992287, "name": "Montmagny", "country": "FR", "coord": {"lon": 2.34688, "lat": 48.973381}}, {"id": 6438838, "name": "Montmacq", "country": "FR", "coord": {"lon": 2.9, "lat": 49.48333}}, {"id": 2992288, "name": "Montmacq", "country": "FR", "coord": {"lon": 2.90257, "lat": 49.481812}}, {"id": 6424601, "name": "Montluel", "country": "FR", "coord": {"lon": 5.05, "lat": 45.849998}}, {"id": 2992290, "name": "Montluel", "country": "FR", "coord": {"lon": 5.0578, "lat": 45.851898}}, {"id": 6433059, "name": "Montlouis-sur-Loire", "country": "FR", "coord": {"lon": 0.83333, "lat": 47.383331}}, {"id": 2992293, "name": "Montlouis-sur-Loire", "country": "FR", "coord": {"lon": 0.83208, "lat": 47.388451}}, {"id": 6434060, "name": "Montlivault", "country": "FR", "coord": {"lon": 1.45, "lat": 47.633331}}, {"id": 2992302, "name": "Montlivault", "country": "FR", "coord": {"lon": 1.44486, "lat": 47.63987}}, {"id": 6446304, "name": "Montlignon", "country": "FR", "coord": {"lon": 2.28333, "lat": 49.01667}}, {"id": 2992304, "name": "Montlignon", "country": "FR", "coord": {"lon": 2.28705, "lat": 49.006359}}, {"id": 2992305, "name": "Montlieu-la-Garde", "country": "FR", "coord": {"lon": -0.25, "lat": 45.25}}, {"id": 2992309, "name": "Montlhery", "country": "FR", "coord": {"lon": 2.27465, "lat": 48.640041}}, {"id": 6429899, "name": "Montlebon", "country": "FR", "coord": {"lon": 6.61667, "lat": 47.033329}}, {"id": 2992321, "name": "Montlebon", "country": "FR", "coord": {"lon": 6.61111, "lat": 47.037781}}, {"id": 6616481, "name": "Montlaur", "country": "FR", "coord": {"lon": 1.5722, "lat": 43.487999}}, {"id": 2992327, "name": "Montlaur", "country": "FR", "coord": {"lon": 1.56807, "lat": 43.489349}}, {"id": 6431722, "name": "Montjoire", "country": "FR", "coord": {"lon": 1.5344, "lat": 43.770599}}, {"id": 2992347, "name": "Montjoire", "country": "FR", "coord": {"lon": 1.53362, "lat": 43.76899}}, {"id": 6426259, "name": "Montjoie-en-Couserans", "country": "FR", "coord": {"lon": 1.16667, "lat": 43}}, {"id": 2992350, "name": "Montjoie-en-Couserans", "country": "FR", "coord": {"lon": 1.16, "lat": 43.002499}}, {"id": 6435245, "name": "Montjean-sur-Loire", "country": "FR", "coord": {"lon": -0.86667, "lat": 47.383331}}, {"id": 2992354, "name": "Montjean-sur-Loire", "country": "FR", "coord": {"lon": -0.85873, "lat": 47.38842}}, {"id": 6443754, "name": "Montigny-sur-Loing", "country": "FR", "coord": {"lon": 2.73333, "lat": 48.333328}}, {"id": 2992387, "name": "Montigny-sur-Loing", "country": "FR", "coord": {"lon": 2.74423, "lat": 48.335751}}, {"id": 6443753, "name": "Montigny-Lencoup", "country": "FR", "coord": {"lon": 3.05, "lat": 48.450001}}, {"id": 2992410, "name": "Montigny-Lencoup", "country": "FR", "coord": {"lon": 3.06503, "lat": 48.451618}}, {"id": 6617197, "name": "Montigny-en-Ostrevent", "country": "FR", "coord": {"lon": 3.1877, "lat": 50.366699}}, {"id": 2992418, "name": "Montigny-en-Ostrevent", "country": "FR", "coord": {"lon": 3.18333, "lat": 50.366669}}, {"id": 6439732, "name": "Montigny-en-Gohelle", "country": "FR", "coord": {"lon": 2.93333, "lat": 50.433331}}, {"id": 2992420, "name": "Montigny-en-Gohelle", "country": "FR", "coord": {"lon": 2.93902, "lat": 50.4254}}, {"id": 6613839, "name": "Montigny", "country": "FR", "coord": {"lon": 1, "lat": 49.466671}}, {"id": 2992431, "name": "Montigny", "country": "FR", "coord": {"lon": 1.00168, "lat": 49.459599}}, {"id": 6436436, "name": "Montign\u00e9-le-Brillant", "country": "FR", "coord": {"lon": -0.81667, "lat": 48.01667}}, {"id": 2992443, "name": "Montigne-le-Brillant", "country": "FR", "coord": {"lon": -0.81488, "lat": 48.00872}}, {"id": 6616170, "name": "Montignac", "country": "FR", "coord": {"lon": 1.1618, "lat": 45.066601}}, {"id": 2992453, "name": "Montignac", "country": "FR", "coord": {"lon": 1.16196, "lat": 45.064289}}, {"id": 6436257, "name": "Montier-en-Der", "country": "FR", "coord": {"lon": 4.76667, "lat": 48.48333}}, {"id": 2992466, "name": "Montier-en-Der", "country": "FR", "coord": {"lon": 4.77073, "lat": 48.47823}}, {"id": 6432920, "name": "Montierchaume", "country": "FR", "coord": {"lon": 1.76667, "lat": 46.866669}}, {"id": 2992467, "name": "Montierchaume", "country": "FR", "coord": {"lon": 1.77181, "lat": 46.863621}}, {"id": 6431177, "name": "Monticello", "country": "FR", "coord": {"lon": 8.95, "lat": 42.616669}}, {"id": 2992470, "name": "Monticello", "country": "FR", "coord": {"lon": 8.95478, "lat": 42.61705}}, {"id": 6443751, "name": "Monthyon", "country": "FR", "coord": {"lon": 2.83333, "lat": 49.01667}}, {"id": 2992476, "name": "Monthyon", "country": "FR", "coord": {"lon": 2.8261, "lat": 49.00753}}, {"id": 6426029, "name": "Montherm\u00e9", "country": "FR", "coord": {"lon": 4.73333, "lat": 49.883331}}, {"id": 2992495, "name": "Montherme", "country": "FR", "coord": {"lon": 4.73013, "lat": 49.884651}}, {"id": 6453729, "name": "Montguyon", "country": "FR", "coord": {"lon": -0.18333, "lat": 45.216671}}, {"id": 2992506, "name": "Montguyon", "country": "FR", "coord": {"lon": -0.18333, "lat": 45.216671}}, {"id": 6432919, "name": "Montgivray", "country": "FR", "coord": {"lon": 1.98333, "lat": 46.599998}}, {"id": 2992525, "name": "Montgivray", "country": "FR", "coord": {"lon": 1.98162, "lat": 46.603241}}, {"id": 6431720, "name": "Montgiscard", "country": "FR", "coord": {"lon": 1.58333, "lat": 43.450001}}, {"id": 2992526, "name": "Montgiscard", "country": "FR", "coord": {"lon": 1.56738, "lat": 43.46072}}, {"id": 6432762, "name": "Montgermont", "country": "FR", "coord": {"lon": -1.71667, "lat": 48.150002}}, {"id": 2992537, "name": "Montgermont", "country": "FR", "coord": {"lon": -1.71464, "lat": 48.155918}}, {"id": 6618211, "name": "Montgaillard", "country": "FR", "coord": {"lon": 1.6352, "lat": 42.934502}}, {"id": 2992571, "name": "Montgaillard", "country": "FR", "coord": {"lon": 1.63333, "lat": 42.933331}}, {"id": 6431341, "name": "Montfrin", "country": "FR", "coord": {"lon": 4.6, "lat": 43.883331}}, {"id": 2992577, "name": "Montfrin", "country": "FR", "coord": {"lon": 4.5996, "lat": 43.875961}}, {"id": 6432761, "name": "Montfort-sur-Meu", "country": "FR", "coord": {"lon": -1.96667, "lat": 48.133331}}, {"id": 2992581, "name": "Montfort-sur-Meu", "country": "FR", "coord": {"lon": -1.95201, "lat": 48.135422}}, {"id": 6617563, "name": "Montfort-le-Gesnois", "country": "FR", "coord": {"lon": 0.404, "lat": 48.048302}}, {"id": 2992584, "name": "Montfort-le-Gesnois", "country": "FR", "coord": {"lon": 0.41667, "lat": 48.049999}}, {"id": 6433899, "name": "Montfort-en-Chalosse", "country": "FR", "coord": {"lon": -0.83333, "lat": 43.716671}}, {"id": 2992586, "name": "Montfort-en-Chalosse", "country": "FR", "coord": {"lon": -0.83947, "lat": 43.711239}}, {"id": 6432559, "name": "Montferrier-sur-Lez", "country": "FR", "coord": {"lon": 3.85, "lat": 43.666672}}, {"id": 2992602, "name": "Montferrier-sur-Lez", "country": "FR", "coord": {"lon": 3.85439, "lat": 43.667419}}, {"id": 6433257, "name": "Montferrat", "country": "FR", "coord": {"lon": 5.58333, "lat": 45.48333}}, {"id": 2992605, "name": "Montferrat", "country": "FR", "coord": {"lon": 5.59072, "lat": 45.485909}}, {"id": 6451504, "name": "Montferrat", "country": "FR", "coord": {"lon": 6.48333, "lat": 43.616669}}, {"id": 2992606, "name": "Montferrat", "country": "FR", "coord": {"lon": 6.48238, "lat": 43.610722}}, {"id": 6429893, "name": "Montferrand-le-Ch\u00e2teau", "country": "FR", "coord": {"lon": 5.93333, "lat": 47.183331}}, {"id": 2992607, "name": "Montferrand-le-Chateau", "country": "FR", "coord": {"lon": 5.91534, "lat": 47.175362}}, {"id": 2992618, "name": "Montfavet", "country": "FR", "coord": {"lon": 4.87342, "lat": 43.93335}}, {"id": 6429892, "name": "Montfaucon", "country": "FR", "coord": {"lon": 6.08333, "lat": 47.23333}}, {"id": 2992623, "name": "Montfaucon", "country": "FR", "coord": {"lon": 6.08162, "lat": 47.235619}}, {"id": 6458635, "name": "Montfaucon-Montign\u00e9", "country": "FR", "coord": {"lon": -1.11667, "lat": 47.099998}}, {"id": 2992624, "name": "Montfaucon-Montigne", "country": "FR", "coord": {"lon": -1.11667, "lat": 47.099998}}, {"id": 6616794, "name": "Montfaucon-en-Velay", "country": "FR", "coord": {"lon": 4.3145, "lat": 45.185398}}, {"id": 2992625, "name": "Montfaucon-en-Velay", "country": "FR", "coord": {"lon": 4.31376, "lat": 45.185612}}, {"id": 6612446, "name": "Montfaucon", "country": "FR", "coord": {"lon": 4.75, "lat": 44.083328}}, {"id": 2992627, "name": "Montfaucon", "country": "FR", "coord": {"lon": 4.75504, "lat": 44.072441}}, {"id": 6443750, "name": "Mont\u00e9vrain", "country": "FR", "coord": {"lon": 2.75, "lat": 48.866669}}, {"id": 2992637, "name": "Montevrain", "country": "FR", "coord": {"lon": 2.75114, "lat": 48.874149}}, {"id": 6431714, "name": "Montesquieu-Volvestre", "country": "FR", "coord": {"lon": 1.23333, "lat": 43.216671}}, {"id": 2992654, "name": "Montesquieu-Volvestre", "country": "FR", "coord": {"lon": 1.22862, "lat": 43.207241}}, {"id": 6617396, "name": "Montesquieu-des-Alb\u00e8res", "country": "FR", "coord": {"lon": 2.8826, "lat": 42.516899}}, {"id": 2992661, "name": "Montesquiu dAlbera", "country": "FR", "coord": {"lon": 2.88243, "lat": 42.517979}}, {"id": 6425066, "name": "Montescourt-Lizerolles", "country": "FR", "coord": {"lon": 3.25, "lat": 49.73333}}, {"id": 2992664, "name": "Montescourt-Lizerolles", "country": "FR", "coord": {"lon": 3.25736, "lat": 49.738281}}, {"id": 6440981, "name": "Montescot", "country": "FR", "coord": {"lon": 2.93333, "lat": 42.616669}}, {"id": 2992665, "name": "Montescot", "country": "FR", "coord": {"lon": 2.93318, "lat": 42.606918}}, {"id": 6432760, "name": "Monterfil", "country": "FR", "coord": {"lon": -1.98333, "lat": 48.066669}}, {"id": 2992669, "name": "Monterfil", "country": "FR", "coord": {"lon": -1.97905, "lat": 48.067329}}, {"id": 6437313, "name": "Monterblanc", "country": "FR", "coord": {"lon": -2.68333, "lat": 47.75}}, {"id": 2992674, "name": "Monterblanc", "country": "FR", "coord": {"lon": -2.6795, "lat": 47.742111}}, {"id": 6429891, "name": "Montenois", "country": "FR", "coord": {"lon": 6.66667, "lat": 47.5}}, {"id": 2992683, "name": "Montenois", "country": "FR", "coord": {"lon": 6.66561, "lat": 47.492222}}, {"id": 6428004, "name": "Montendre", "country": "FR", "coord": {"lon": -0.4, "lat": 45.283329}}, {"id": 2992689, "name": "Montendre", "country": "FR", "coord": {"lon": -0.40627, "lat": 45.284691}}, {"id": 6436434, "name": "Montenay", "country": "FR", "coord": {"lon": -0.9, "lat": 48.283329}}, {"id": 2992690, "name": "Montenay", "country": "FR", "coord": {"lon": -0.89374, "lat": 48.287868}}, {"id": 6430139, "name": "Mont\u00e9lier", "country": "FR", "coord": {"lon": 5.03333, "lat": 44.933331}}, {"id": 2992704, "name": "Montelier", "country": "FR", "coord": {"lon": 5.03118, "lat": 44.93726}}, {"id": 6430138, "name": "Mont\u00e9l\u00e9ger", "country": "FR", "coord": {"lon": 4.9337, "lat": 44.853298}}, {"id": 2992706, "name": "Monteleger", "country": "FR", "coord": {"lon": 4.93181, "lat": 44.855221}}, {"id": 6615227, "name": "Monteils", "country": "FR", "coord": {"lon": 1.5659, "lat": 44.172901}}, {"id": 2992713, "name": "Monteils", "country": "FR", "coord": {"lon": 1.57608, "lat": 44.168621}}, {"id": 6445008, "name": "Montech", "country": "FR", "coord": {"lon": 1.23333, "lat": 43.950001}}, {"id": 2992740, "name": "Montech", "country": "FR", "coord": {"lon": 1.23204, "lat": 43.95816}}, {"id": 6454766, "name": "Montdidier", "country": "FR", "coord": {"lon": 2.56667, "lat": 49.650002}}, {"id": 2992760, "name": "Montdidier", "country": "FR", "coord": {"lon": 2.56667, "lat": 49.650002}}, {"id": 6433254, "name": "Mont-de-Lans", "country": "FR", "coord": {"lon": 6.13333, "lat": 45.033329}}, {"id": 2992777, "name": "Mont-de-Lans", "country": "FR", "coord": {"lon": 6.13141, "lat": 45.036259}}, {"id": 6426027, "name": "Montcy-Notre-Dame", "country": "FR", "coord": {"lon": 4.75, "lat": 49.783329}}, {"id": 2992788, "name": "Montcy-Notre-Dame", "country": "FR", "coord": {"lon": 4.74245, "lat": 49.77507}}, {"id": 6434841, "name": "Montcuq", "country": "FR", "coord": {"lon": 1.21667, "lat": 44.333328}}, {"id": 2992790, "name": "Montcuq", "country": "FR", "coord": {"lon": 1.2085, "lat": 44.338379}}, {"id": 6443746, "name": "Montcourt-Fromonville", "country": "FR", "coord": {"lon": 2.7, "lat": 48.299999}}, {"id": 2992799, "name": "Montcourt-Fromonville", "country": "FR", "coord": {"lon": 2.7046, "lat": 48.306721}}, {"id": 6615671, "name": "Montcornet", "country": "FR", "coord": {"lon": 4.0175, "lat": 49.695301}}, {"id": 2992802, "name": "Montcornet", "country": "FR", "coord": {"lon": 4.01667, "lat": 49.695259}}, {"id": 6442330, "name": "Montchanin", "country": "FR", "coord": {"lon": 4.45, "lat": 46.75}}, {"id": 2992838, "name": "Montchanin", "country": "FR", "coord": {"lon": 4.4707, "lat": 46.749641}}, {"id": 6442329, "name": "Montcenis", "country": "FR", "coord": {"lon": 4.38333, "lat": 46.783329}}, {"id": 2992852, "name": "Montcenis", "country": "FR", "coord": {"lon": 4.38738, "lat": 46.787849}}, {"id": 6437725, "name": "Montbronn", "country": "FR", "coord": {"lon": 7.3106, "lat": 48.994202}}, {"id": 2992885, "name": "Montbronn", "country": "FR", "coord": {"lon": 7.31058, "lat": 48.993919}}, {"id": 6453706, "name": "Montbron", "country": "FR", "coord": {"lon": 0.5, "lat": 45.666672}}, {"id": 2992886, "name": "Montbron", "country": "FR", "coord": {"lon": 0.5, "lat": 45.666672}}, {"id": 6430133, "name": "Montboucher-sur-Jabron", "country": "FR", "coord": {"lon": 4.8, "lat": 44.549999}}, {"id": 2992905, "name": "Montboucher-sur-Jabron", "country": "FR", "coord": {"lon": 4.80245, "lat": 44.550362}}, {"id": 6433251, "name": "Montbonnot-Saint-Martin", "country": "FR", "coord": {"lon": 5.8, "lat": 45.23333}}, {"id": 2992908, "name": "Montbonnot-Saint-Martin", "country": "FR", "coord": {"lon": 5.80353, "lat": 45.222359}}, {"id": 6432557, "name": "Montblanc", "country": "FR", "coord": {"lon": 3.36667, "lat": 43.400002}}, {"id": 2992917, "name": "Montblanc", "country": "FR", "coord": {"lon": 3.36752, "lat": 43.394859}}, {"id": 6442628, "name": "Montbizot", "country": "FR", "coord": {"lon": 0.2, "lat": 48.150002}}, {"id": 2992919, "name": "Montbizot", "country": "FR", "coord": {"lon": 0.18384, "lat": 48.149948}}, {"id": 6445007, "name": "Montbeton", "country": "FR", "coord": {"lon": 1.3, "lat": 44.01667}}, {"id": 2992921, "name": "Montbeton", "country": "FR", "coord": {"lon": 1.3, "lat": 44.01667}}, {"id": 6612545, "name": "Montbert", "country": "FR", "coord": {"lon": -1.5, "lat": 47.049999}}, {"id": 2992925, "name": "Montbert", "country": "FR", "coord": {"lon": -1.4889, "lat": 47.056129}}, {"id": 6431703, "name": "Montberon", "country": "FR", "coord": {"lon": 1.48333, "lat": 43.716671}}, {"id": 2992926, "name": "Montberon", "country": "FR", "coord": {"lon": 1.47968, "lat": 43.715858}}, {"id": 6617291, "name": "Mont-Bernanchon", "country": "FR", "coord": {"lon": 2.5901, "lat": 50.583599}}, {"id": 2992927, "name": "Mont-Bernanchon", "country": "FR", "coord": {"lon": 2.58333, "lat": 50.583328}}, {"id": 6433057, "name": "Montbazon", "country": "FR", "coord": {"lon": 0.71667, "lat": 47.283329}}, {"id": 2992943, "name": "Montbazon", "country": "FR", "coord": {"lon": 0.69988, "lat": 47.283482}}, {"id": 6432556, "name": "Montbazin", "country": "FR", "coord": {"lon": 3.68333, "lat": 43.51667}}, {"id": 2992944, "name": "Montbazin", "country": "FR", "coord": {"lon": 3.69667, "lat": 43.51667}}, {"id": 6426964, "name": "Montbazens", "country": "FR", "coord": {"lon": 2.23333, "lat": 44.48333}}, {"id": 2992945, "name": "Montbazens", "country": "FR", "coord": {"lon": 2.2298, "lat": 44.478069}}, {"id": 6453782, "name": "Montbard", "country": "FR", "coord": {"lon": 4.33333, "lat": 47.616669}}, {"id": 2992953, "name": "Montbard", "country": "FR", "coord": {"lon": 4.33333, "lat": 47.616669}}, {"id": 6435014, "name": "Montayral", "country": "FR", "coord": {"lon": 0.98333, "lat": 44.48333}}, {"id": 2992960, "name": "Montayral", "country": "FR", "coord": {"lon": 0.98769, "lat": 44.475128}}, {"id": 6436757, "name": "Montauville", "country": "FR", "coord": {"lon": 6.01667, "lat": 48.900002}}, {"id": 2992967, "name": "Montauville", "country": "FR", "coord": {"lon": 6.02055, "lat": 48.900139}}, {"id": 6617359, "name": "Montaut", "country": "FR", "coord": {"lon": -0.1999, "lat": 43.129799}}, {"id": 2992976, "name": "Montaut", "country": "FR", "coord": {"lon": -0.2, "lat": 43.133331}}, {"id": 6430496, "name": "Montaure", "country": "FR", "coord": {"lon": 1.08333, "lat": 49.23333}}, {"id": 2992982, "name": "Montaure", "country": "FR", "coord": {"lon": 1.08836, "lat": 49.234169}}, {"id": 6432757, "name": "Montauban-de-Bretagne", "country": "FR", "coord": {"lon": -2.05, "lat": 48.200001}}, {"id": 2992998, "name": "Montauban-de-Bretagne", "country": "FR", "coord": {"lon": -2.04476, "lat": 48.199341}}, {"id": 6438832, "name": "Montataire", "country": "FR", "coord": {"lon": 2.4389, "lat": 49.2561}}, {"id": 2993004, "name": "Montataire", "country": "FR", "coord": {"lon": 2.43777, "lat": 49.258999}}, {"id": 6431698, "name": "Montastruc-la-Conseill\u00e8re", "country": "FR", "coord": {"lon": 1.6, "lat": 43.716671}}, {"id": 2993006, "name": "Montastruc-la-Conseillere", "country": "FR", "coord": {"lon": 1.59019, "lat": 43.719818}}, {"id": 6432554, "name": "Montarnaud", "country": "FR", "coord": {"lon": 3.7, "lat": 43.650002}}, {"id": 2993013, "name": "Montarnaud", "country": "FR", "coord": {"lon": 3.6969, "lat": 43.64743}}, {"id": 6431336, "name": "Montaren-et-Saint-M\u00e9diers", "country": "FR", "coord": {"lon": 4.38333, "lat": 44.033329}}, {"id": 2993026, "name": "Montaren-et-Saint-Mediers", "country": "FR", "coord": {"lon": 4.3803, "lat": 44.02869}}, {"id": 6444887, "name": "Montans", "country": "FR", "coord": {"lon": 1.88567, "lat": 43.867031}}, {"id": 2993038, "name": "Montans", "country": "FR", "coord": {"lon": 1.88568, "lat": 43.867001}}, {"id": 6441830, "name": "Montanay", "country": "FR", "coord": {"lon": 4.85, "lat": 45.883331}}, {"id": 2993051, "name": "Montanay", "country": "FR", "coord": {"lon": 4.86302, "lat": 45.878181}}, {"id": 6445306, "name": "Montamis\u00e9", "country": "FR", "coord": {"lon": 0.43333, "lat": 46.616669}}, {"id": 2993053, "name": "Montamise", "country": "FR", "coord": {"lon": 0.42442, "lat": 46.621811}}, {"id": 6454482, "name": "Montaigut", "country": "FR", "coord": {"lon": 2.8088, "lat": 46.179001}}, {"id": 2993084, "name": "Montaigut", "country": "FR", "coord": {"lon": 3.44776, "lat": 45.612671}}, {"id": 6445003, "name": "Montaigu-de-Quercy", "country": "FR", "coord": {"lon": 1.01667, "lat": 44.333328}}, {"id": 2993088, "name": "Montaigu-de-Quercy", "country": "FR", "coord": {"lon": 1.0169, "lat": 44.339642}}, {"id": 6454806, "name": "Montaigu", "country": "FR", "coord": {"lon": -1.3087, "lat": 46.972801}}, {"id": 2993092, "name": "Montaigu", "country": "FR", "coord": {"lon": -1.30846, "lat": 46.976669}}, {"id": 6613878, "name": "Montagny", "country": "FR", "coord": {"lon": 4.75, "lat": 45.633331}}, {"id": 2993117, "name": "Montagny", "country": "FR", "coord": {"lon": 4.75782, "lat": 45.626991}}, {"id": 6432313, "name": "Montagne", "country": "FR", "coord": {"lon": -0.13333, "lat": 44.933331}}, {"id": 2993146, "name": "Montagne", "country": "FR", "coord": {"lon": -0.13333, "lat": 44.933331}}, {"id": 6424596, "name": "Montagnat", "country": "FR", "coord": {"lon": 5.28333, "lat": 46.166672}}, {"id": 2993147, "name": "Montagnat", "country": "FR", "coord": {"lon": 5.29052, "lat": 46.170479}}, {"id": 6613622, "name": "Montagnac", "country": "FR", "coord": {"lon": 3.48333, "lat": 43.48333}}, {"id": 2993160, "name": "Montagnac", "country": "FR", "coord": {"lon": 3.48312, "lat": 43.480869}}, {"id": 6432553, "name": "Montady", "country": "FR", "coord": {"lon": 3.11667, "lat": 43.333328}}, {"id": 2993166, "name": "Montady", "country": "FR", "coord": {"lon": 3.1278, "lat": 43.335899}}, {"id": 6454510, "name": "Mont", "country": "FR", "coord": {"lon": -0.65, "lat": 43.433331}}, {"id": 2993189, "name": "Mont", "country": "FR", "coord": {"lon": -0.65, "lat": 43.433331}}, {"id": 6441231, "name": "Monswiller", "country": "FR", "coord": {"lon": 7.37818, "lat": 48.75523}}, {"id": 2993191, "name": "Monswiller", "country": "FR", "coord": {"lon": 7.37732, "lat": 48.755112}}, {"id": 6438371, "name": "Mons-en-P\u00e9v\u00e8le", "country": "FR", "coord": {"lon": 3.1, "lat": 50.48333}}, {"id": 2993203, "name": "Mons-en-Pevele", "country": "FR", "coord": {"lon": 3.09767, "lat": 50.479259}}, {"id": 6616559, "name": "Mons\u00e9gur", "country": "FR", "coord": {"lon": 0.0818, "lat": 44.650799}}, {"id": 2993209, "name": "Monsegur", "country": "FR", "coord": {"lon": 0.08047, "lat": 44.650398}}, {"id": 6616441, "name": "Mons", "country": "FR", "coord": {"lon": 4.175, "lat": 44.114399}}, {"id": 2993228, "name": "Mons", "country": "FR", "coord": {"lon": 4.17325, "lat": 44.114799}}, {"id": 6616480, "name": "Mons", "country": "FR", "coord": {"lon": 1.5749, "lat": 43.610401}}, {"id": 2993230, "name": "Mons", "country": "FR", "coord": {"lon": 1.57207, "lat": 43.6124}}, {"id": 6434476, "name": "Monni\u00e8res", "country": "FR", "coord": {"lon": -1.35, "lat": 47.133331}}, {"id": 2993245, "name": "Monnieres", "country": "FR", "coord": {"lon": -1.35317, "lat": 47.133011}}, {"id": 6442999, "name": "Monnetier-Mornex", "country": "FR", "coord": {"lon": 6.21663, "lat": 46.159}}, {"id": 2993250, "name": "Monnetier-Mornex", "country": "FR", "coord": {"lon": 6.20667, "lat": 46.160301}}, {"id": 6433056, "name": "Monnaie", "country": "FR", "coord": {"lon": 0.78333, "lat": 47.5}}, {"id": 2993261, "name": "Monnaie", "country": "FR", "coord": {"lon": 0.78872, "lat": 47.501621}}, {"id": 6434379, "name": "Monistrol-sur-Loire", "country": "FR", "coord": {"lon": 4.16667, "lat": 45.283329}}, {"id": 2993277, "name": "Monistrol-sur-Loire", "country": "FR", "coord": {"lon": 4.17161, "lat": 45.293339}}, {"id": 6445934, "name": "Mon\u00e9teau", "country": "FR", "coord": {"lon": 3.58333, "lat": 47.849998}}, {"id": 2993316, "name": "Moneteau", "country": "FR", "coord": {"lon": 3.58178, "lat": 47.849232}}, {"id": 6613900, "name": "Monesti\u00e9s", "country": "FR", "coord": {"lon": 2.1, "lat": 44.066669}}, {"id": 2993320, "name": "Monesties", "country": "FR", "coord": {"lon": 2.1, "lat": 44.066669}}, {"id": 6451573, "name": "Mondragon", "country": "FR", "coord": {"lon": 4.71667, "lat": 44.23333}}, {"id": 2993342, "name": "Mondragon", "country": "FR", "coord": {"lon": 4.71005, "lat": 44.238579}}, {"id": 6434056, "name": "Mondoubleau", "country": "FR", "coord": {"lon": 0.9, "lat": 47.98333}}, {"id": 2993345, "name": "Mondoubleau", "country": "FR", "coord": {"lon": 0.89782, "lat": 47.98061}}, {"id": 6431692, "name": "Mondonville", "country": "FR", "coord": {"lon": 1.28333, "lat": 43.666672}}, {"id": 2993348, "name": "Mondonville", "country": "FR", "coord": {"lon": 1.28592, "lat": 43.672958}}, {"id": 6437723, "name": "Mondelange", "country": "FR", "coord": {"lon": 6.16667, "lat": 49.26667}}, {"id": 2993367, "name": "Mondelange", "country": "FR", "coord": {"lon": 6.17087, "lat": 49.26469}}, {"id": 6444158, "name": "Moncoutant", "country": "FR", "coord": {"lon": -0.58333, "lat": 46.716671}}, {"id": 2993375, "name": "Moncoutant", "country": "FR", "coord": {"lon": -0.58797, "lat": 46.725471}}, {"id": 6612868, "name": "Moncontour", "country": "FR", "coord": {"lon": -0.01667, "lat": 46.883331}}, {"id": 2993380, "name": "Moncontour", "country": "FR", "coord": {"lon": -0.01996, "lat": 46.880859}}, {"id": 6445001, "name": "Monclar-de-Quercy", "country": "FR", "coord": {"lon": 1.58333, "lat": 43.966671}}, {"id": 2993383, "name": "Monclar-de-Quercy", "country": "FR", "coord": {"lon": 1.58587, "lat": 43.965542}}, {"id": 6438827, "name": "Monchy-Saint-\u00c9loi", "country": "FR", "coord": {"lon": 2.46506, "lat": 49.29166}}, {"id": 2993390, "name": "Monchy-Saint-Eloi", "country": "FR", "coord": {"lon": 2.46739, "lat": 49.290421}}, {"id": 6438370, "name": "Monchecourt", "country": "FR", "coord": {"lon": 3.21667, "lat": 50.299999}}, {"id": 2993403, "name": "Monchecourt", "country": "FR", "coord": {"lon": 3.21029, "lat": 50.304131}}, {"id": 6442623, "name": "Monc\u00e9-en-Belin", "country": "FR", "coord": {"lon": 0.2, "lat": 47.900002}}, {"id": 2993419, "name": "Monce-en-Belin", "country": "FR", "coord": {"lon": 0.19809, "lat": 47.894421}}, {"id": 6441230, "name": "Mommenheim", "country": "FR", "coord": {"lon": 7.65, "lat": 48.75}}, {"id": 2993465, "name": "Mommenheim", "country": "FR", "coord": {"lon": 7.6429, "lat": 48.75758}}, {"id": 6454550, "name": "Molsheim", "country": "FR", "coord": {"lon": 7.49246, "lat": 48.54163}}, {"id": 2993476, "name": "Molsheim", "country": "FR", "coord": {"lon": 7.49199, "lat": 48.540421}}, {"id": 6447146, "name": "Moll\u00e9g\u00e8s", "country": "FR", "coord": {"lon": 4.95, "lat": 43.799999}}, {"id": 2993496, "name": "Molleges", "country": "FR", "coord": {"lon": 4.94934, "lat": 43.80703}}, {"id": 6431334, "name": "Moli\u00e8res-sur-C\u00e8ze", "country": "FR", "coord": {"lon": 4.1606, "lat": 44.260201}}, {"id": 2993523, "name": "Molieres-sur-Ceze", "country": "FR", "coord": {"lon": 4.15836, "lat": 44.259892}}, {"id": 6613621, "name": "Moli\u00e8res", "country": "FR", "coord": {"lon": 1.3634, "lat": 44.1936}}, {"id": 2993528, "name": "Molieres", "country": "FR", "coord": {"lon": 1.36318, "lat": 44.19305}}, {"id": 6437311, "name": "Molac", "country": "FR", "coord": {"lon": -2.4337, "lat": 47.730598}}, {"id": 2993562, "name": "Molac", "country": "FR", "coord": {"lon": -2.43484, "lat": 47.73011}}, {"id": 6446301, "name": "Moisselles", "country": "FR", "coord": {"lon": 2.33333, "lat": 49.049999}}, {"id": 2993578, "name": "Moisselles", "country": "FR", "coord": {"lon": 2.33597, "lat": 49.049999}}, {"id": 6444999, "name": "Moissac", "country": "FR", "coord": {"lon": 1.08333, "lat": 44.099998}}, {"id": 2993586, "name": "Moissac", "country": "FR", "coord": {"lon": 1.0945, "lat": 44.10236}}, {"id": 6444625, "name": "Moislains", "country": "FR", "coord": {"lon": 2.96667, "lat": 49.98333}}, {"id": 2993588, "name": "Moislains", "country": "FR", "coord": {"lon": 2.96404, "lat": 49.988201}}, {"id": 6454725, "name": "Moisenay", "country": "FR", "coord": {"lon": 2.7368, "lat": 48.563099}}, {"id": 2993589, "name": "Moisenay", "country": "FR", "coord": {"lon": 2.73527, "lat": 48.56266}}, {"id": 6613956, "name": "Moisdon-la-Rivi\u00e8re", "country": "FR", "coord": {"lon": -1.36667, "lat": 47.616669}}, {"id": 2993590, "name": "Moisdon-la-Riviere", "country": "FR", "coord": {"lon": -1.37258, "lat": 47.62175}}, {"id": 6433634, "name": "Moirans-en-Montagne", "country": "FR", "coord": {"lon": 5.73333, "lat": 46.433331}}, {"id": 2993604, "name": "Moirans-en-Montagne", "country": "FR", "coord": {"lon": 5.72643, "lat": 46.433811}}, {"id": 6454074, "name": "Moirans", "country": "FR", "coord": {"lon": 5.56667, "lat": 45.333328}}, {"id": 2993605, "name": "Moirans", "country": "FR", "coord": {"lon": 5.55342, "lat": 45.3283}}, {"id": 6617951, "name": "Moigny-sur-\u00c9cole", "country": "FR", "coord": {"lon": 2.4578, "lat": 48.432598}}, {"id": 2993622, "name": "Moigny-sur-Ecole", "country": "FR", "coord": {"lon": 2.45802, "lat": 48.432621}}, {"id": 6433245, "name": "Moidieu-D\u00e9tourbe", "country": "FR", "coord": {"lon": 5.01667, "lat": 45.51667}}, {"id": 2993629, "name": "Moidieu-Detourbe", "country": "FR", "coord": {"lon": 5.01613, "lat": 45.50988}}, {"id": 6424394, "name": "Mogneville", "country": "FR", "coord": {"lon": 2.46667, "lat": 49.316669}}, {"id": 2993633, "name": "Mogneville", "country": "FR", "coord": {"lon": 2.4717, "lat": 49.31535}}, {"id": 6430975, "name": "Mo\u00eblan-sur-Mer", "country": "FR", "coord": {"lon": -3.63333, "lat": 47.816669}}, {"id": 2993647, "name": "Moelan-sur-Mer", "country": "FR", "coord": {"lon": -3.62892, "lat": 47.814178}}, {"id": 6442822, "name": "Modane", "country": "FR", "coord": {"lon": 6.66667, "lat": 45.200001}}, {"id": 2993654, "name": "Modane", "country": "FR", "coord": {"lon": 6.66667, "lat": 45.200001}}, {"id": 6441226, "name": "Mittelhausbergen", "country": "FR", "coord": {"lon": 7.6894, "lat": 48.614021}}, {"id": 2993673, "name": "Mittelhausbergen", "country": "FR", "coord": {"lon": 7.69009, "lat": 48.614361}}, {"id": 6449122, "name": "Missillac", "country": "FR", "coord": {"lon": -2.16667, "lat": 47.48333}}, {"id": 2993692, "name": "Missillac", "country": "FR", "coord": {"lon": -2.16, "lat": 47.481548}}, {"id": 6424594, "name": "Mis\u00e9rieux", "country": "FR", "coord": {"lon": 4.81667, "lat": 45.98333}}, {"id": 2993700, "name": "Miserieux", "country": "FR", "coord": {"lon": 4.8123, "lat": 45.973091}}, {"id": 6429880, "name": "Miserey-Salines", "country": "FR", "coord": {"lon": 5.96667, "lat": 47.283329}}, {"id": 2993701, "name": "Miserey-Salines", "country": "FR", "coord": {"lon": 5.97387, "lat": 47.286381}}, {"id": 6433243, "name": "Miribel-les-\u00c9chelles", "country": "FR", "coord": {"lon": 5.7086, "lat": 45.429298}}, {"id": 2993709, "name": "Miribel-les-Echelles", "country": "FR", "coord": {"lon": 5.70835, "lat": 45.429062}}, {"id": 6615624, "name": "Miribel", "country": "FR", "coord": {"lon": 4.9535, "lat": 45.824402}}, {"id": 2993712, "name": "Miribel", "country": "FR", "coord": {"lon": 4.9544, "lat": 45.825802}}, {"id": 6454032, "name": "Mireval", "country": "FR", "coord": {"lon": 3.8, "lat": 43.5}}, {"id": 2993717, "name": "Mireval", "country": "FR", "coord": {"lon": 3.8017, "lat": 43.508598}}, {"id": 6618215, "name": "Mirepoix", "country": "FR", "coord": {"lon": 1.8746, "lat": 43.088402}}, {"id": 2993720, "name": "Mirepoix", "country": "FR", "coord": {"lon": 1.8735, "lat": 43.08773}}, {"id": 6424396, "name": "Mirepeix", "country": "FR", "coord": {"lon": -0.25, "lat": 43.183331}}, {"id": 2993721, "name": "Mirepeix", "country": "FR", "coord": {"lon": -0.25, "lat": 43.183331}}, {"id": 6431686, "name": "Miremont", "country": "FR", "coord": {"lon": 1.41667, "lat": 43.366669}}, {"id": 2993726, "name": "Miremont", "country": "FR", "coord": {"lon": 1.41724, "lat": 43.369949}}, {"id": 6445651, "name": "Mirecourt", "country": "FR", "coord": {"lon": 6.13333, "lat": 48.299999}}, {"id": 2993728, "name": "Mirecourt", "country": "FR", "coord": {"lon": 6.13282, "lat": 48.300892}}, {"id": 6428749, "name": "Mirebeau-sur-B\u00e8ze", "country": "FR", "coord": {"lon": 5.31667, "lat": 47.400002}}, {"id": 2993730, "name": "Mirebeau-sur-Beze", "country": "FR", "coord": {"lon": 5.32093, "lat": 47.398281}}, {"id": 6445303, "name": "Mirebeau", "country": "FR", "coord": {"lon": 0.18333, "lat": 46.783329}}, {"id": 2993732, "name": "Mirebeau", "country": "FR", "coord": {"lon": 0.18341, "lat": 46.78743}}, {"id": 6435242, "name": "Mir\u00e9", "country": "FR", "coord": {"lon": -0.48333, "lat": 47.76667}}, {"id": 2993734, "name": "Mire", "country": "FR", "coord": {"lon": -0.49158, "lat": 47.757591}}, {"id": 6444885, "name": "Mirandol-Bourgnounac", "country": "FR", "coord": {"lon": 2.16667, "lat": 44.133331}}, {"id": 2993746, "name": "Mirandol-Bourgnounac", "country": "FR", "coord": {"lon": 2.16857, "lat": 44.142731}}, {"id": 6432008, "name": "Mirande", "country": "FR", "coord": {"lon": 0.41667, "lat": 43.51667}}, {"id": 2993749, "name": "Mirande", "country": "FR", "coord": {"lon": 0.41667, "lat": 43.51667}}, {"id": 6453728, "name": "Mirambeau", "country": "FR", "coord": {"lon": -0.56667, "lat": 45.366669}}, {"id": 2993757, "name": "Mirambeau", "country": "FR", "coord": {"lon": -0.57067, "lat": 45.3731}}, {"id": 6430125, "name": "Mirabel-aux-Baronnies", "country": "FR", "coord": {"lon": 5.0993, "lat": 44.3106}}, {"id": 2993766, "name": "Mirabel-aux-Baronnies", "country": "FR", "coord": {"lon": 5.09846, "lat": 44.311329}}, {"id": 6441829, "name": "Mions", "country": "FR", "coord": {"lon": 4.95, "lat": 45.666672}}, {"id": 2993780, "name": "Mions", "country": "FR", "coord": {"lon": 4.94994, "lat": 45.664322}}, {"id": 6429023, "name": "Minihy-Tr\u00e9guier", "country": "FR", "coord": {"lon": -3.23333, "lat": 48.783329}}, {"id": 2993796, "name": "Minihy-Treguier", "country": "FR", "coord": {"lon": -3.22883, "lat": 48.777458}}, {"id": 6612499, "name": "Miniac-Morvan", "country": "FR", "coord": {"lon": -1.9, "lat": 48.51667}}, {"id": 2993801, "name": "Miniac-Morvan", "country": "FR", "coord": {"lon": -1.89955, "lat": 48.514771}}, {"id": 6447145, "name": "Mimet", "country": "FR", "coord": {"lon": 5.5, "lat": 43.416672}}, {"id": 2993832, "name": "Mimet", "country": "FR", "coord": {"lon": 5.50495, "lat": 43.413929}}, {"id": 6438824, "name": "Milly-sur-Th\u00e9rain", "country": "FR", "coord": {"lon": 2, "lat": 49.5}}, {"id": 2993839, "name": "Milly-sur-Therain", "country": "FR", "coord": {"lon": 1.99605, "lat": 49.502399}}, {"id": 6441712, "name": "Millery", "country": "FR", "coord": {"lon": 4.76667, "lat": 45.633331}}, {"id": 2993864, "name": "Millery", "country": "FR", "coord": {"lon": 4.78628, "lat": 45.631741}}, {"id": 6440978, "name": "Millas", "country": "FR", "coord": {"lon": 2.7, "lat": 42.700001}}, {"id": 2993876, "name": "Millas", "country": "FR", "coord": {"lon": 2.69508, "lat": 42.692032}}, {"id": 6430974, "name": "Milizac", "country": "FR", "coord": {"lon": -4.56667, "lat": 48.466671}}, {"id": 2993884, "name": "Milizac", "country": "FR", "coord": {"lon": -4.56667, "lat": 48.466671}}, {"id": 6431332, "name": "Milhaud", "country": "FR", "coord": {"lon": 4.3, "lat": 43.783329}}, {"id": 2993889, "name": "Milhaud", "country": "FR", "coord": {"lon": 4.31035, "lat": 43.78978}}, {"id": 6445301, "name": "Mign\u00e9-Auxances", "country": "FR", "coord": {"lon": 0.31667, "lat": 46.633331}}, {"id": 2993918, "name": "Migne-Auxances", "country": "FR", "coord": {"lon": 0.31458, "lat": 46.627449}}, {"id": 6445300, "name": "Mignaloux-Beauvoir", "country": "FR", "coord": {"lon": 0.41667, "lat": 46.549999}}, {"id": 2993921, "name": "Mignaloux-Beauvoir", "country": "FR", "coord": {"lon": 0.41538, "lat": 46.541569}}, {"id": 470012, "name": "Vysokovo", "country": "RU", "coord": {"lon": 44.02306, "lat": 56.310001}}, {"id": 6537560, "name": "Spinazzola", "country": "IT", "coord": {"lon": 16.09157, "lat": 40.967129}}, {"id": 3166253, "name": "Spinazzola", "country": "IT", "coord": {"lon": 16.09157, "lat": 40.967129}}, {"id": 3871332, "name": "Provincia de Santiago", "country": "CL", "coord": {"lon": -70.666672, "lat": -33.333328}}, {"id": 8261417, "name": "Recoleta", "country": "CL", "coord": {"lon": -70.636383, "lat": -33.40881}}, {"id": 7729816, "name": "Barrio Bellavista", "country": "CL", "coord": {"lon": -70.635918, "lat": -33.43288}}, {"id": 6439676, "name": "Ligny-Thilloy", "country": "FR", "coord": {"lon": 2.82528, "lat": 50.084438}}, {"id": 2998354, "name": "Ligny-Thilloy", "country": "FR", "coord": {"lon": 2.82232, "lat": 50.084999}}, {"id": 590385, "name": "M\u00e4gise", "country": "EE", "coord": {"lon": 25.738331, "lat": 59.137218}}, {"id": 8219813, "name": "Taylors Beach", "country": "AU", "coord": {"lon": 146.324478, "lat": -18.632681}}, {"id": 2940418, "name": "Calbecht", "country": "DE", "coord": {"lon": 10.38191, "lat": 52.090271}}, {"id": 2887164, "name": "Kniestedt", "country": "DE", "coord": {"lon": 10.38333, "lat": 52.066669}}, {"id": 3122376, "name": "Folgoso", "country": "ES", "coord": {"lon": -7.8066, "lat": 42.223808}}, {"id": 2562955, "name": "Floriana", "country": "MT", "coord": {"lon": 14.50833, "lat": 35.895828}}, {"id": 6535968, "name": "Brunico - Bruneck", "country": "IT", "coord": {"lon": 11.93638, "lat": 46.79583}}, {"id": 3181480, "name": "Brunico", "country": "IT", "coord": {"lon": 11.93638, "lat": 46.79583}}, {"id": 694342, "name": "Sharovechka", "country": "UA", "coord": {"lon": 26.911131, "lat": 49.41457}}, {"id": 3529630, "name": "Dzuich\u00e9", "country": "MX", "coord": {"lon": -88.800003, "lat": 19.9}}, {"id": 597484, "name": "Liepiai", "country": "LT", "coord": {"lon": 24.299999, "lat": 55.183331}}, {"id": 3215349, "name": "Vezac", "country": "HR", "coord": {"lon": 16.013611, "lat": 43.584721}}, {"id": 3899538, "name": "Provincia de Antofagasta", "country": "CL", "coord": {"lon": -69.666672, "lat": -24.33333}}, {"id": 8261129, "name": "Antofagasta", "country": "CL", "coord": {"lon": -69.409691, "lat": -24.27389}}, {"id": 6541968, "name": "Maletto", "country": "IT", "coord": {"lon": 14.86248, "lat": 37.82996}}, {"id": 2524322, "name": "Maletto", "country": "IT", "coord": {"lon": 14.86248, "lat": 37.82996}}, {"id": 7871305, "name": "Downsview", "country": "CA", "coord": {"lon": -79.49398, "lat": 43.732029}}, {"id": 6940463, "name": "Altstadt", "country": "DE", "coord": {"lon": 11.57521, "lat": 48.137001}}, {"id": 5643686, "name": "Carbon County", "country": "US", "coord": {"lon": -109.067368, "lat": 45.21661}}, {"id": 5673092, "name": "Rankin Place", "country": "US", "coord": {"lon": -109.492393, "lat": 45.261608}}, {"id": 1640197, "name": "Kertapati", "country": "ID", "coord": {"lon": 104.75, "lat": -3.01667}}, {"id": 3816508, "name": "Guadalupe Chichima", "country": "MX", "coord": {"lon": -92.122223, "lat": 16.20833}}, {"id": 7873205, "name": "Sankt Martin im M\u00fchlkreis", "country": "AT", "coord": {"lon": 14.03692, "lat": 48.415588}}, {"id": 2766509, "name": "Sankt Martin im M\u00fchlkreis", "country": "AT", "coord": {"lon": 14.03821, "lat": 48.415531}}, {"id": 589174, "name": "Raja", "country": "EE", "coord": {"lon": 26.94972, "lat": 58.796391}}, {"id": 588301, "name": "Tiheda", "country": "EE", "coord": {"lon": 26.959999, "lat": 58.791111}}, {"id": 6617645, "name": "Montville", "country": "FR", "coord": {"lon": 1.0763, "lat": 49.546799}}, {"id": 2991911, "name": "Montville", "country": "FR", "coord": {"lon": 1.08333, "lat": 49.549999}}, {"id": 1691503, "name": "Rosario", "country": "PH", "coord": {"lon": 120.849998, "lat": 14.41667}}, {"id": 1691483, "name": "Rosario", "country": "PH", "coord": {"lon": 120.857697, "lat": 14.41827}}, {"id": 3591296, "name": "Pino Gordo", "country": "GT", "coord": {"lon": -90.050003, "lat": 14.63333}}, {"id": 1727281, "name": "Bangculasi", "country": "PH", "coord": {"lon": 120.949997, "lat": 14.65}}, {"id": 7403425, "name": "Zhuanshantun", "country": "CN", "coord": {"lon": 121.67495, "lat": 38.900249}}, {"id": 1529617, "name": "Banfanggou", "country": "CN", "coord": {"lon": 87.400002, "lat": 43.5}}, {"id": 2921220, "name": "Geradstetten", "country": "DE", "coord": {"lon": 9.44245, "lat": 48.809971}}, {"id": 8223932, "name": "Central", "country": "HK", "coord": {"lon": 114.158463, "lat": 22.28299}}, {"id": 2782332, "name": "Aschet", "country": "AT", "coord": {"lon": 14.01667, "lat": 48.150002}}, {"id": 6693229, "name": "San Nicolas", "country": "AR", "coord": {"lon": -58.376068, "lat": -34.605019}}, {"id": 5333944, "name": "Canyon Country", "country": "US", "coord": {"lon": -118.472031, "lat": 34.423328}}, {"id": 1818336, "name": "Wong Chuk Hang Kau Wai", "country": "HK", "coord": {"lon": 114.183327, "lat": 22.25}}, {"id": 1819706, "name": "Jardines Lookout", "country": "HK", "coord": {"lon": 114.183327, "lat": 22.26667}}, {"id": 1279176, "name": "Aj\u0101pura", "country": "IN", "coord": {"lon": 76.666672, "lat": 25.616671}}, {"id": 1264337, "name": "Mah\u016bli", "country": "IN", "coord": {"lon": 82.98333, "lat": 26.633329}}, {"id": 664745, "name": "Topli\u0163a-Ciuc", "country": "RO", "coord": {"lon": 25.799999, "lat": 46.366669}}, {"id": 414980, "name": "Al Quday\u1e29", "country": "SA", "coord": {"lon": 49.989441, "lat": 26.56889}}, {"id": 2842150, "name": "Salzgitter", "country": "DE", "coord": {"lon": 10.33144, "lat": 52.152561}}, {"id": 706075, "name": "Khmil\u2019", "country": "UA", "coord": {"lon": 27.35268, "lat": 51.478821}}, {"id": 7302452, "name": "Oberfishcbach", "country": "DE", "coord": {"lon": 11.53753, "lat": 47.76218}}, {"id": 873496, "name": "Belogor\u2019ye", "country": "RU", "coord": {"lon": 45.876671, "lat": 52.43322}}, {"id": 2155350, "name": "Nicholsons Lagoon", "country": "AU", "coord": {"lon": 150.566666, "lat": -31.41667}}, {"id": 2177547, "name": "Aspendale", "country": "AU", "coord": {"lon": 145.102661, "lat": -38.029129}}, {"id": 2653590, "name": "Castle Douglas", "country": "GB", "coord": {"lon": -3.92784, "lat": 54.940948}}, {"id": 680443, "name": "Cotu Negru", "country": "RO", "coord": {"lon": 27.66667, "lat": 46.23333}}, {"id": 1667031, "name": "Touchongbu", "country": "TW", "coord": {"lon": 121.047218, "lat": 24.7775}}, {"id": 3142849, "name": "\u00d8yer", "country": "NO", "coord": {"lon": 10.41297, "lat": 61.26495}}, {"id": 3134016, "name": "Tretten", "country": "NO", "coord": {"lon": 10.30066, "lat": 61.314232}}, {"id": 7530833, "name": "Powiat milicki", "country": "PL", "coord": {"lon": 17.282921, "lat": 51.507919}}, {"id": 7533404, "name": "Milicz", "country": "PL", "coord": {"lon": 17.269899, "lat": 51.5215}}, {"id": 3091788, "name": "Milicz", "country": "PL", "coord": {"lon": 17.27137, "lat": 51.527699}}, {"id": 7531972, "name": "Cieszk\u00f3w", "country": "PL", "coord": {"lon": 17.3433, "lat": 51.6064}}, {"id": 3101330, "name": "Cieszkow", "country": "PL", "coord": {"lon": 17.35726, "lat": 51.631039}}, {"id": 7532697, "name": "Kro\u015bnice", "country": "PL", "coord": {"lon": 17.3976, "lat": 51.444599}}, {"id": 3094639, "name": "Krosnice", "country": "PL", "coord": {"lon": 17.359171, "lat": 51.47641}}, {"id": 6538501, "name": "Piobbico", "country": "IT", "coord": {"lon": 12.51015, "lat": 43.587761}}, {"id": 3170680, "name": "Piobbico", "country": "IT", "coord": {"lon": 12.51015, "lat": 43.587761}}, {"id": 6359833, "name": "Bolo (O)", "country": "ES", "coord": {"lon": -7.1203, "lat": 42.302818}}, {"id": 3125046, "name": "Celeir\u00f3s", "country": "ES", "coord": {"lon": -7.11433, "lat": 42.257488}}, {"id": 8013672, "name": "Sabrosa", "country": "PT", "coord": {"lon": -7.56524, "lat": 41.270641}}, {"id": 2734928, "name": "Sabrosa", "country": "PT", "coord": {"lon": -7.57601, "lat": 41.267021}}, {"id": 3056697, "name": "Vrbove", "country": "SK", "coord": {"lon": 17.722601, "lat": 48.619732}}, {"id": 6537667, "name": "Fiumefreddo Bruzio", "country": "IT", "coord": {"lon": 16.06959, "lat": 39.23439}}, {"id": 2524743, "name": "Fiumefreddo Bruzio", "country": "IT", "coord": {"lon": 16.06959, "lat": 39.23439}}, {"id": 6537687, "name": "San Lucido", "country": "IT", "coord": {"lon": 16.050791, "lat": 39.308891}}, {"id": 2523435, "name": "San Lucido", "country": "IT", "coord": {"lon": 16.050791, "lat": 39.308891}}, {"id": 3491805, "name": "Yaguate Arriba", "country": "DO", "coord": {"lon": -70.191551, "lat": 18.33732}}, {"id": 794067, "name": "Madise", "country": "EE", "coord": {"lon": 26.73056, "lat": 58.243328}}, {"id": 779349, "name": "Karasjok", "country": "NO", "coord": {"lon": 25.51885, "lat": 69.472237}}, {"id": 779350, "name": "Karasjok", "country": "NO", "coord": {"lon": 25.511221, "lat": 69.47187}}, {"id": 3061268, "name": "\u00c1gota Majer", "country": "SK", "coord": {"lon": 18.75976, "lat": 48.073601}}, {"id": 1269517, "name": "Jaipur", "country": "IN", "coord": {"lon": 86.133331, "lat": 23.433331}}, {"id": 6540801, "name": "Borgia", "country": "IT", "coord": {"lon": 16.508801, "lat": 38.826191}}, {"id": 2524269, "name": "Marina di Catanzaro", "country": "IT", "coord": {"lon": 16.6, "lat": 38.816669}}, {"id": 6534121, "name": "Sant Climent Sescebes", "country": "ES", "coord": {"lon": 2.98043, "lat": 42.367962}}, {"id": 3104617, "name": "Vilartol\u00ed", "country": "ES", "coord": {"lon": 2.97189, "lat": 42.390949}}, {"id": 1274609, "name": "Ch\u0101pr\u0101", "country": "IN", "coord": {"lon": 88.550003, "lat": 23.533331}}, {"id": 1274353, "name": "Chhapra", "country": "IN", "coord": {"lon": 84.75, "lat": 25.76667}}, {"id": 1667289, "name": "Dingjiaotan", "country": "TW", "coord": {"lon": 120.729721, "lat": 24.26417}}, {"id": 3499574, "name": "Loma del Yaque", "country": "DO", "coord": {"lon": -71.063141, "lat": 18.784719}}, {"id": 3497585, "name": "Los Rinconcitos", "country": "DO", "coord": {"lon": -71.77668, "lat": 18.957319}}, {"id": 6690138, "name": "Casco", "country": "ES", "coord": {"lon": -0.87994, "lat": 41.6548}}, {"id": 3452469, "name": "Praia de S\u00e3o Louren\u00e7o", "country": "BR", "coord": {"lon": -46.049999, "lat": -23.816669}}, {"id": 6536833, "name": "Calcinaia", "country": "IT", "coord": {"lon": 10.61821, "lat": 43.68354}}, {"id": 3181227, "name": "Calcinaia", "country": "IT", "coord": {"lon": 10.61821, "lat": 43.68354}}, {"id": 2866528, "name": "Nenndorf", "country": "DE", "coord": {"lon": 9.9, "lat": 53.383331}}, {"id": 387990, "name": "Al Qiblah", "country": "KW", "coord": {"lon": 47.971668, "lat": 29.37361}}, {"id": 8199371, "name": "Rambagh", "country": "IN", "coord": {"lon": 75.808319, "lat": 26.90266}}, {"id": 2689287, "name": "Nordstaden", "country": "SE", "coord": {"lon": 11.96889, "lat": 57.70694}}, {"id": 2877058, "name": "Linkenheim", "country": "DE", "coord": {"lon": 8.41003, "lat": 49.12545}}, {"id": 2871778, "name": "Merl", "country": "DE", "coord": {"lon": 7.16667, "lat": 50.033329}}, {"id": 6538418, "name": "Albareto", "country": "IT", "coord": {"lon": 9.69998, "lat": 44.446548}}, {"id": 3175791, "name": "Groppo", "country": "IT", "coord": {"lon": 9.68333, "lat": 44.433331}}, {"id": 6540306, "name": "Pietraporzio", "country": "IT", "coord": {"lon": 7.03532, "lat": 44.343719}}, {"id": 3170782, "name": "Pietraporzio", "country": "IT", "coord": {"lon": 7.03532, "lat": 44.343719}}, {"id": 3170749, "name": "Pieve di Marebbe", "country": "IT", "coord": {"lon": 11.91978, "lat": 46.718769}}, {"id": 3165179, "name": "Triggianello", "country": "IT", "coord": {"lon": 17.168711, "lat": 40.92519}}, {"id": 6167863, "name": "Downtown Toronto", "country": "CA", "coord": {"lon": -79.382896, "lat": 43.650108}}, {"id": 7626289, "name": "ByWard Market", "country": "CA", "coord": {"lon": -75.692337, "lat": 45.427101}}, {"id": 2552439, "name": "Dbagh", "country": "MA", "coord": {"lon": -6.87, "lat": 33.990002}}, {"id": 2950646, "name": "Bergeler", "country": "DE", "coord": {"lon": 8.2, "lat": 51.833328}}, {"id": 2978048, "name": "Saint-Merri", "country": "FR", "coord": {"lon": 2.35214, "lat": 48.85923}}, {"id": 3099640, "name": "Frank", "country": "PL", "coord": {"lon": 18.23307, "lat": 53.89962}}, {"id": 2724320, "name": "\u00c5tvidabergs Kommun", "country": "SE", "coord": {"lon": 16, "lat": 58.166672}}, {"id": 2717268, "name": "Dr\u00e4ngsbo", "country": "SE", "coord": {"lon": 16.133329, "lat": 58.25}}, {"id": 8014898, "name": "S\u00e3o Sebasti\u00e3o da Pedreira", "country": "PT", "coord": {"lon": -9.15241, "lat": 38.73119}}, {"id": 6946673, "name": "S\u00e3o Sebasti\u00e3o da Pedreira", "country": "PT", "coord": {"lon": -9.15389, "lat": 38.734402}}, {"id": 701032, "name": "Mironovka", "country": "UA", "coord": {"lon": 36.12899, "lat": 49.270489}}, {"id": 7734844, "name": "Hanxia", "country": "CN", "coord": {"lon": 120.936798, "lat": 30.133699}}, {"id": 3841476, "name": "Perito Moreno", "country": "AR", "coord": {"lon": -71.409401, "lat": -41.11618}}, {"id": 6451917, "name": "M\u00e9zir\u00e9", "country": "FR", "coord": {"lon": 6.91972, "lat": 47.531109}}, {"id": 2994002, "name": "Mezire", "country": "FR", "coord": {"lon": 6.91872, "lat": 47.532089}}, {"id": 7838905, "name": "Carrickaboy", "country": "IE", "coord": {"lon": -7.28475, "lat": 53.937901}}, {"id": 4304226, "name": "Pike County", "country": "US", "coord": {"lon": -82.349869, "lat": 37.46677}}, {"id": 4290554, "name": "Dunleary", "country": "US", "coord": {"lon": -82.366257, "lat": 37.318161}}, {"id": 6291517, "name": "D\u00e4nikon / Bifang", "country": "CH", "coord": {"lon": 8.40835, "lat": 47.447281}}, {"id": 1912044, "name": "Xianghuangnanying", "country": "CN", "coord": {"lon": 116.20639, "lat": 39.966942}}, {"id": 590342, "name": "M\u00e4nniku", "country": "EE", "coord": {"lon": 24.682779, "lat": 59.34333}}, {"id": 589947, "name": "N\u00f5mme", "country": "EE", "coord": {"lon": 24.67804, "lat": 59.376411}}, {"id": 8055556, "name": "Novostroyka", "country": "RU", "coord": {"lon": 61.616501, "lat": 55.1273}}, {"id": 1683053, "name": "Tanque", "country": "PH", "coord": {"lon": 121, "lat": 14.6667}}, {"id": 6439570, "name": "Gouy-Saint-Andr\u00e9", "country": "FR", "coord": {"lon": 1.89806, "lat": 50.373611}}, {"id": 3015443, "name": "Gouy-Saint-Andr\u00e9", "country": "FR", "coord": {"lon": 1.89876, "lat": 50.37508}}, {"id": 3121264, "name": "Coia", "country": "ES", "coord": {"lon": -8.75, "lat": 42.216671}}, {"id": 7795482, "name": "Kampung Baharu", "country": "MY", "coord": {"lon": 101.893303, "lat": 3.6578}}, {"id": 6269531, "name": "Paris 01 Louvre", "country": "FR", "coord": {"lon": 2.3417, "lat": 48.8592}}, {"id": 620790, "name": "Trishin", "country": "BY", "coord": {"lon": 23.75, "lat": 52.099998}}, {"id": 298388, "name": "Ulus", "country": "TR", "coord": {"lon": 32.85339, "lat": 39.93956}}, {"id": 6443286, "name": "Houppeville", "country": "FR", "coord": {"lon": 1.07944, "lat": 49.512501}}, {"id": 3013080, "name": "Houppeville", "country": "FR", "coord": {"lon": 1.07962, "lat": 49.512589}}, {"id": 2759880, "name": "Almere-Haven", "country": "NL", "coord": {"lon": 5.21919, "lat": 52.335758}}, {"id": 2460377, "name": "Bankoumana", "country": "ML", "coord": {"lon": -5.77643, "lat": 12.8383}}, {"id": 7530840, "name": "Szczecin", "country": "PL", "coord": {"lon": 14.62422, "lat": 53.429699}}, {"id": 7531766, "name": "Szczecin", "country": "PL", "coord": {"lon": 14.6242, "lat": 53.4296}}, {"id": 6989446, "name": "R\u0101mgarh", "country": "IN", "coord": {"lon": 76.249603, "lat": 30.5243}}, {"id": 2952327, "name": "B\u00e4rwalde", "country": "DE", "coord": {"lon": 14.51667, "lat": 51.416672}}, {"id": 2521554, "name": "Arroyo de la Miel", "country": "ES", "coord": {"lon": -4.54242, "lat": 36.60326}}, {"id": 3499559, "name": "Loma La Cruz", "country": "DO", "coord": {"lon": -69.457848, "lat": 19.272751}}, {"id": 7298473, "name": "Cottingham", "country": "GB", "coord": {"lon": -0.41985, "lat": 53.785069}}, {"id": 2652262, "name": "Cottingham", "country": "GB", "coord": {"lon": -0.41542, "lat": 53.780571}}, {"id": 619762, "name": "Yakubovka", "country": "BY", "coord": {"lon": 31.029301, "lat": 52.416698}}, {"id": 3576591, "name": "Marchand", "country": "LC", "coord": {"lon": -60.98333, "lat": 14}}, {"id": 8277210, "name": "Beldibi", "country": "TR", "coord": {"lon": 30.707411, "lat": 40.592731}}, {"id": 7590521, "name": "Novyy", "country": "RU", "coord": {"lon": 53.951401, "lat": 53.883701}}, {"id": 1659203, "name": "Ban Sithan Nua", "country": "LA", "coord": {"lon": 102.605186, "lat": 17.96347}}, {"id": 2778130, "name": "Grambach", "country": "AT", "coord": {"lon": 15.5, "lat": 47.01667}}, {"id": 8247183, "name": "Borovlyany", "country": "BY", "coord": {"lon": 27.6754, "lat": 54.002201}}, {"id": 8247406, "name": "Lyeskawka", "country": "BY", "coord": {"lon": 27.7108, "lat": 54.002399}}, {"id": 8247407, "name": "Lyasny", "country": "BY", "coord": {"lon": 27.696301, "lat": 54.007198}}, {"id": 8247409, "name": "Balshavik", "country": "BY", "coord": {"lon": 27.5669, "lat": 54.003601}}, {"id": 8256205, "name": "Usjazh", "country": "BY", "coord": {"lon": 28.006981, "lat": 54.075981}}, {"id": 8256270, "name": "Oktjabrskij", "country": "BY", "coord": {"lon": 28.19813, "lat": 54.040588}}, {"id": 8224455, "name": "Saint-Antoine-de-Tilly", "country": "CA", "coord": {"lon": -71.573349, "lat": 46.66346}}, {"id": 2659845, "name": "Lotzwil", "country": "CH", "coord": {"lon": 7.79102, "lat": 47.191349}}, {"id": 8259949, "name": "Vallenar", "country": "CL", "coord": {"lon": -70.255508, "lat": -28.51576}}, {"id": 1794486, "name": "Shuigou", "country": "CN", "coord": {"lon": 107.012787, "lat": 34.748581}}, {"id": 1812729, "name": "Dingzhai", "country": "CN", "coord": {"lon": 109.050003, "lat": 29.6}}, {"id": 2035677, "name": "Naji", "country": "CN", "coord": {"lon": 123.48333, "lat": 48.099998}}, {"id": 7916068, "name": "Zhangdian", "country": "CN", "coord": {"lon": 124.041351, "lat": 41.8172}}, {"id": 8201761, "name": "Sicong", "country": "CN", "coord": {"lon": 113.543808, "lat": 26.813709}}, {"id": 8201774, "name": "Mijiang", "country": "CN", "coord": {"lon": 113.555519, "lat": 26.792191}}, {"id": 8201775, "name": "Xiadong", "country": "CN", "coord": {"lon": 113.531219, "lat": 26.774191}}, {"id": 8226430, "name": "Dongji", "country": "CN", "coord": {"lon": 122.680702, "lat": 30.1959}}, {"id": 8226876, "name": "Longqiu", "country": "CN", "coord": {"lon": 119.512741, "lat": 32.829189}}, {"id": 8226906, "name": "Situ", "country": "CN", "coord": {"lon": 119.637779, "lat": 32.888531}}, {"id": 8227002, "name": "Jiulonghu", "country": "CN", "coord": {"lon": 121.560364, "lat": 30.04281}}, {"id": 8235911, "name": "Xinshao", "country": "CN", "coord": {"lon": 113.606911, "lat": 24.808929}}, {"id": 8246755, "name": "Yangshan", "country": "CN", "coord": {"lon": 122.076851, "lat": 30.59416}}, {"id": 2845540, "name": "Rohrsen", "country": "DE", "coord": {"lon": 9.23333, "lat": 52.716671}}, {"id": 2853085, "name": "Pobershau", "country": "DE", "coord": {"lon": 13.21667, "lat": 50.650002}}, {"id": 2939195, "name": "Damm", "country": "DE", "coord": {"lon": 11.75, "lat": 53.433331}}, {"id": 2517498, "name": "Fuentes de Leon", "country": "ES", "coord": {"lon": -6.53884, "lat": 38.068661}}, {"id": 3114078, "name": "Pedrosa del Rey", "country": "ES", "coord": {"lon": -5.20466, "lat": 41.556171}}, {"id": 3129051, "name": "Azuara", "country": "ES", "coord": {"lon": -0.87078, "lat": 41.258221}}, {"id": 8223953, "name": "Santiago de Alcantara", "country": "ES", "coord": {"lon": -7.24402, "lat": 39.606609}}, {"id": 2977274, "name": "Saint-Quentin-la-Poterie", "country": "FR", "coord": {"lon": 4.44432, "lat": 44.043919}}, {"id": 2993928, "name": "Migennes", "country": "FR", "coord": {"lon": 3.51787, "lat": 47.965481}}, {"id": 2993936, "name": "Mieussy", "country": "FR", "coord": {"lon": 6.52416, "lat": 46.13369}}, {"id": 2993947, "name": "Mielan", "country": "FR", "coord": {"lon": 0.30794, "lat": 43.430538}}, {"id": 2993999, "name": "Mezy-sur-Seine", "country": "FR", "coord": {"lon": 1.88333, "lat": 49}}, {"id": 2994008, "name": "Mezieres-sur-Seine", "country": "FR", "coord": {"lon": 1.79245, "lat": 48.961281}}, {"id": 2994018, "name": "Mezieres-en-Drouais", "country": "FR", "coord": {"lon": 1.4244, "lat": 48.724129}}, {"id": 2994019, "name": "Mezieres-en-Brenne", "country": "FR", "coord": {"lon": 1.21123, "lat": 46.819801}}, {"id": 2994033, "name": "Mezeriat", "country": "FR", "coord": {"lon": 5.04806, "lat": 46.23431}}, {"id": 2994036, "name": "Mezeray", "country": "FR", "coord": {"lon": -0.0177, "lat": 47.82682}}, {"id": 2994049, "name": "Meythet", "country": "FR", "coord": {"lon": 6.09422, "lat": 45.918362}}, {"id": 2994052, "name": "Meysse", "country": "FR", "coord": {"lon": 4.72306, "lat": 44.610279}}, {"id": 2994054, "name": "Meyssac", "country": "FR", "coord": {"lon": 1.67386, "lat": 45.05571}}, {"id": 2994078, "name": "Meynes", "country": "FR", "coord": {"lon": 4.55958, "lat": 43.879742}}, {"id": 2994085, "name": "Meymac", "country": "FR", "coord": {"lon": 2.14502, "lat": 45.53487}}, {"id": 2994091, "name": "Meyenheim", "country": "FR", "coord": {"lon": 7.3556, "lat": 47.913639}}, {"id": 2994093, "name": "Mexy", "country": "FR", "coord": {"lon": 5.7807, "lat": 49.501499}}, {"id": 2994094, "name": "Meximieux", "country": "FR", "coord": {"lon": 5.19527, "lat": 45.908409}}, {"id": 2994113, "name": "Meursault", "country": "FR", "coord": {"lon": 4.76952, "lat": 46.978222}}, {"id": 2994116, "name": "Meursac", "country": "FR", "coord": {"lon": -0.80801, "lat": 45.648899}}, {"id": 2994121, "name": "Meurchin", "country": "FR", "coord": {"lon": 2.89318, "lat": 50.49831}}, {"id": 2994126, "name": "Meung-sur-Loire", "country": "FR", "coord": {"lon": 1.69582, "lat": 47.831242}}, {"id": 2994139, "name": "Meulan-en-Yvelines", "country": "FR", "coord": {"lon": 1.90602, "lat": 49.007679}}, {"id": 2994146, "name": "Meucon", "country": "FR", "coord": {"lon": -2.7617, "lat": 47.71648}}, {"id": 2994155, "name": "Metzervisse", "country": "FR", "coord": {"lon": 6.28552, "lat": 49.31501}}, {"id": 2994157, "name": "Metzeral", "country": "FR", "coord": {"lon": 7.07088, "lat": 48.010441}}, {"id": 2994161, "name": "Mettray", "country": "FR", "coord": {"lon": 0.64939, "lat": 47.452511}}, {"id": 2994168, "name": "Meteren", "country": "FR", "coord": {"lon": 2.7, "lat": 50.73333}}, {"id": 2994184, "name": "Messimy", "country": "FR", "coord": {"lon": 4.67291, "lat": 45.697411}}, {"id": 2994185, "name": "Messigny-et-Vantoux", "country": "FR", "coord": {"lon": 5.01715, "lat": 47.406658}}, {"id": 2994189, "name": "Messery", "country": "FR", "coord": {"lon": 6.2959, "lat": 46.350342}}, {"id": 2994194, "name": "Messein", "country": "FR", "coord": {"lon": 6.14073, "lat": 48.61129}}, {"id": 2994201, "name": "Messac", "country": "FR", "coord": {"lon": -1.81085, "lat": 47.82399}}, {"id": 2994203, "name": "Mesquer", "country": "FR", "coord": {"lon": -2.45986, "lat": 47.399189}}, {"id": 2994246, "name": "Mesnieres-en-Bray", "country": "FR", "coord": {"lon": 1.38187, "lat": 49.761719}}, {"id": 2994263, "name": "Meslay-du-Maine", "country": "FR", "coord": {"lon": -0.55428, "lat": 47.95116}}, {"id": 2994268, "name": "Meslan", "country": "FR", "coord": {"lon": -3.43285, "lat": 47.995022}}, {"id": 2994274, "name": "Meschers-sur-Gironde", "country": "FR", "coord": {"lon": -0.9547, "lat": 45.560371}}, {"id": 2994280, "name": "Mesanger", "country": "FR", "coord": {"lon": -1.22798, "lat": 47.431309}}, {"id": 2994282, "name": "Mery-sur-Seine", "country": "FR", "coord": {"lon": 3.89129, "lat": 48.509369}}, {"id": 2994283, "name": "Mery-sur-Oise", "country": "FR", "coord": {"lon": 2.19113, "lat": 49.058762}}, {"id": 2994290, "name": "Mery", "country": "FR", "coord": {"lon": 5.93782, "lat": 45.64325}}, {"id": 2994291, "name": "Merxheim", "country": "FR", "coord": {"lon": 7.29492, "lat": 47.911282}}, {"id": 2994297, "name": "Merville", "country": "FR", "coord": {"lon": 2.64125, "lat": 50.643291}}, {"id": 2994298, "name": "Merville", "country": "FR", "coord": {"lon": 1.29656, "lat": 43.723541}}, {"id": 2994301, "name": "Mervent", "country": "FR", "coord": {"lon": -0.75654, "lat": 46.522388}}, {"id": 2994303, "name": "Mervans", "country": "FR", "coord": {"lon": 5.1843, "lat": 46.799229}}, {"id": 2994306, "name": "Meru", "country": "FR", "coord": {"lon": 2.13333, "lat": 49.23333}}, {"id": 2994307, "name": "Mertzwiller", "country": "FR", "coord": {"lon": 7.6831, "lat": 48.868462}}, {"id": 2994310, "name": "Merten", "country": "FR", "coord": {"lon": 6.66632, "lat": 49.2491}}, {"id": 2994313, "name": "Mers-les-Bains", "country": "FR", "coord": {"lon": 1.3881, "lat": 50.06538}}, {"id": 2994349, "name": "Merlimont", "country": "FR", "coord": {"lon": 1.61315, "lat": 50.455898}}, {"id": 2994351, "name": "Merlevenez", "country": "FR", "coord": {"lon": -3.23047, "lat": 47.73563}}, {"id": 2994379, "name": "Merindol", "country": "FR", "coord": {"lon": 5.20357, "lat": 43.755161}}, {"id": 2994385, "name": "Merignies", "country": "FR", "coord": {"lon": 3.11043, "lat": 50.506088}}, {"id": 2994396, "name": "Meriel", "country": "FR", "coord": {"lon": 2.21054, "lat": 49.076141}}, {"id": 2994401, "name": "Mericourt", "country": "FR", "coord": {"lon": 2.86246, "lat": 50.401161}}, {"id": 2994404, "name": "Meribel", "country": "FR", "coord": {"lon": 6.565, "lat": 45.41497}}, {"id": 2994415, "name": "Mereville", "country": "FR", "coord": {"lon": 6.15086, "lat": 48.591381}}, {"id": 2994416, "name": "Mereville", "country": "FR", "coord": {"lon": 2.08609, "lat": 48.314758}}, {"id": 2994426, "name": "Mereau", "country": "FR", "coord": {"lon": 2.05086, "lat": 47.16296}}, {"id": 2994428, "name": "Mere", "country": "FR", "coord": {"lon": 1.81247, "lat": 48.784451}}, {"id": 2994431, "name": "Merdrignac", "country": "FR", "coord": {"lon": -2.41533, "lat": 48.193722}}, {"id": 2994443, "name": "Mercy-le-Bas", "country": "FR", "coord": {"lon": 5.75044, "lat": 49.383018}}, {"id": 2994446, "name": "Mercus-Garrabet", "country": "FR", "coord": {"lon": 1.629, "lat": 42.877899}}, {"id": 2994447, "name": "Mercury", "country": "FR", "coord": {"lon": 6.33688, "lat": 45.674519}}, {"id": 2994449, "name": "Mercurol", "country": "FR", "coord": {"lon": 4.89279, "lat": 45.074371}}, {"id": 2994486, "name": "Meounes-les-Montrieux", "country": "FR", "coord": {"lon": 5.97012, "lat": 43.279659}}, {"id": 2994494, "name": "Menucourt", "country": "FR", "coord": {"lon": 1.98046, "lat": 49.028412}}, {"id": 2994500, "name": "Menthon-Saint-Bernard", "country": "FR", "coord": {"lon": 6.19552, "lat": 45.859951}}, {"id": 2994511, "name": "Mens", "country": "FR", "coord": {"lon": 5.75137, "lat": 44.817532}}, {"id": 2994529, "name": "Menneval", "country": "FR", "coord": {"lon": 0.61667, "lat": 49.099998}}, {"id": 2994534, "name": "Mennecy", "country": "FR", "coord": {"lon": 2.44384, "lat": 48.569031}}, {"id": 2994542, "name": "Menilles", "country": "FR", "coord": {"lon": 1.36667, "lat": 49.033329}}, {"id": 2994585, "name": "Menetou-Salon", "country": "FR", "coord": {"lon": 2.48715, "lat": 47.23172}}, {"id": 2994591, "name": "Menestreau-en-Villette", "country": "FR", "coord": {"lon": 2.02333, "lat": 47.699619}}, {"id": 2994603, "name": "Menerbes", "country": "FR", "coord": {"lon": 5.20597, "lat": 43.83242}}, {"id": 2994608, "name": "Meneac", "country": "FR", "coord": {"lon": -2.46134, "lat": 48.139721}}, {"id": 2994617, "name": "Mende", "country": "FR", "coord": {"lon": 3.5, "lat": 44.51667}}, {"id": 2994653, "name": "Melrand", "country": "FR", "coord": {"lon": -3.10941, "lat": 47.980019}}, {"id": 2994675, "name": "Melle", "country": "FR", "coord": {"lon": -0.14216, "lat": 46.222851}}, {"id": 2994676, "name": "Mellac", "country": "FR", "coord": {"lon": -3.57675, "lat": 47.90345}}, {"id": 2994680, "name": "Melisey", "country": "FR", "coord": {"lon": 6.58014, "lat": 47.752281}}, {"id": 2994692, "name": "Melgven", "country": "FR", "coord": {"lon": -3.83518, "lat": 47.906261}}, {"id": 2994697, "name": "Melesse", "country": "FR", "coord": {"lon": -1.69496, "lat": 48.217709}}, {"id": 2994707, "name": "Melay", "country": "FR", "coord": {"lon": -0.69429, "lat": 47.183331}}, {"id": 2994727, "name": "Meistratzheim", "country": "FR", "coord": {"lon": 7.5453, "lat": 48.448078}}, {"id": 2994733, "name": "Meillonnas", "country": "FR", "coord": {"lon": 5.34929, "lat": 46.24342}}, {"id": 2994743, "name": "Meillac", "country": "FR", "coord": {"lon": -1.81378, "lat": 48.411739}}, {"id": 2994747, "name": "Meilhan", "country": "FR", "coord": {"lon": -0.70587, "lat": 43.864361}}, {"id": 2994756, "name": "Mehun-sur-Yevre", "country": "FR", "coord": {"lon": 2.21105, "lat": 47.137821}}, {"id": 2994768, "name": "Megeve", "country": "FR", "coord": {"lon": 6.61286, "lat": 45.852329}}, {"id": 2994773, "name": "Medreac", "country": "FR", "coord": {"lon": -2.06618, "lat": 48.267029}}, {"id": 2994778, "name": "Medis", "country": "FR", "coord": {"lon": -0.96298, "lat": 45.643372}}, {"id": 2994785, "name": "Medan", "country": "FR", "coord": {"lon": 1.99494, "lat": 48.955391}}, {"id": 2994790, "name": "Mecleuves", "country": "FR", "coord": {"lon": 6.27168, "lat": 49.0424}}, {"id": 2994803, "name": "Meaulte", "country": "FR", "coord": {"lon": 2.66121, "lat": 49.98167}}, {"id": 2994806, "name": "Meaudre", "country": "FR", "coord": {"lon": 5.52707, "lat": 45.126949}}, {"id": 2994837, "name": "Mazingarbe", "country": "FR", "coord": {"lon": 2.71544, "lat": 50.4711}}, {"id": 2994842, "name": "Mazieres-en-Mauges", "country": "FR", "coord": {"lon": -0.81702, "lat": 47.045361}}, {"id": 2994870, "name": "Mazeres", "country": "FR", "coord": {"lon": 1.67728, "lat": 43.250549}}, {"id": 2994891, "name": "Maze", "country": "FR", "coord": {"lon": -0.27106, "lat": 47.456322}}, {"id": 2994901, "name": "Mazan", "country": "FR", "coord": {"lon": 5.12747, "lat": 44.056801}}, {"id": 2994902, "name": "Mazamet", "country": "FR", "coord": {"lon": 2.37304, "lat": 43.490009}}, {"id": 2994906, "name": "May-sur-Orne", "country": "FR", "coord": {"lon": -0.37471, "lat": 49.10107}}, {"id": 2994928, "name": "Mayet", "country": "FR", "coord": {"lon": 0.27468, "lat": 47.759682}}, {"id": 2994948, "name": "Maxilly-sur-Leman", "country": "FR", "coord": {"lon": 6.64617, "lat": 46.400269}}, {"id": 2994951, "name": "Maxeville", "country": "FR", "coord": {"lon": 6.1696, "lat": 48.70816}}, {"id": 2994952, "name": "Maxent", "country": "FR", "coord": {"lon": -2.03333, "lat": 47.98333}}, {"id": 2994958, "name": "Mauze-Thouarsais", "country": "FR", "coord": {"lon": -0.27846, "lat": 46.976109}}, {"id": 2994959, "name": "Mauze-sur-le-Mignon", "country": "FR", "coord": {"lon": -0.67032, "lat": 46.19516}}, {"id": 2994981, "name": "Mauves-sur-Loire", "country": "FR", "coord": {"lon": -1.38763, "lat": 47.297379}}, {"id": 2994983, "name": "Mauves", "country": "FR", "coord": {"lon": 4.83, "lat": 45.035252}}, {"id": 2994992, "name": "Maussane-les-Alpilles", "country": "FR", "coord": {"lon": 4.80497, "lat": 43.722359}}, {"id": 2995003, "name": "Maurs", "country": "FR", "coord": {"lon": 2.19832, "lat": 44.71117}}, {"id": 2995009, "name": "Mauron", "country": "FR", "coord": {"lon": -2.28477, "lat": 48.082569}}, {"id": 2995024, "name": "Mauriac", "country": "FR", "coord": {"lon": 2.33333, "lat": 45.216671}}, {"id": 2995054, "name": "Maureillas-las-Illas", "country": "FR", "coord": {"lon": 2.80752, "lat": 42.490139}}, {"id": 2995055, "name": "Maureilhan", "country": "FR", "coord": {"lon": 3.11667, "lat": 43.349998}}, {"id": 2995058, "name": "Maure-de-Bretagne", "country": "FR", "coord": {"lon": -1.99104, "lat": 47.892391}}, {"id": 2995059, "name": "Maurecourt", "country": "FR", "coord": {"lon": 2.06154, "lat": 48.99614}}, {"id": 2995104, "name": "Maulevrier", "country": "FR", "coord": {"lon": -0.74239, "lat": 47.009289}}, {"id": 2995107, "name": "Mauleon-Licharre", "country": "FR", "coord": {"lon": -0.88038, "lat": 43.226841}}, {"id": 2995110, "name": "Maule", "country": "FR", "coord": {"lon": 1.85264, "lat": 48.910561}}, {"id": 2995146, "name": "Maubourguet", "country": "FR", "coord": {"lon": 0.03578, "lat": 43.468239}}, {"id": 2995154, "name": "Maubec", "country": "FR", "coord": {"lon": 5.26434, "lat": 45.56749}}, {"id": 2995155, "name": "Maubec", "country": "FR", "coord": {"lon": 5.14027, "lat": 43.845928}}, {"id": 2995157, "name": "Matzenheim", "country": "FR", "coord": {"lon": 7.62185, "lat": 48.394501}}, {"id": 2995171, "name": "Matour", "country": "FR", "coord": {"lon": 4.48178, "lat": 46.306541}}, {"id": 2995175, "name": "Matignon", "country": "FR", "coord": {"lon": -2.29125, "lat": 48.596272}}, {"id": 2995189, "name": "Mathay", "country": "FR", "coord": {"lon": 6.78487, "lat": 47.439041}}, {"id": 2995212, "name": "Massongy", "country": "FR", "coord": {"lon": 6.33503, "lat": 46.31601}}, {"id": 2995226, "name": "Massieux", "country": "FR", "coord": {"lon": 4.83321, "lat": 45.909691}}, {"id": 2995229, "name": "Massiac", "country": "FR", "coord": {"lon": 3.19759, "lat": 45.255508}}, {"id": 2995248, "name": "Massay", "country": "FR", "coord": {"lon": 1.99334, "lat": 47.15324}}, {"id": 2995269, "name": "Masny", "country": "FR", "coord": {"lon": 3.20165, "lat": 50.347969}}, {"id": 2995270, "name": "Masnieres", "country": "FR", "coord": {"lon": 3.20889, "lat": 50.114891}}, {"id": 2995281, "name": "Masevaux", "country": "FR", "coord": {"lon": 6.99683, "lat": 47.776711}}, {"id": 2995324, "name": "Marzy", "country": "FR", "coord": {"lon": 3.09352, "lat": 46.981239}}, {"id": 2995329, "name": "Marzan", "country": "FR", "coord": {"lon": -2.32466, "lat": 47.540691}}, {"id": 2995330, "name": "Mary-sur-Marne", "country": "FR", "coord": {"lon": 3.02788, "lat": 49.015911}}, {"id": 2995351, "name": "Martres-Tolosane", "country": "FR", "coord": {"lon": 1.01056, "lat": 43.199291}}, {"id": 2995360, "name": "Martizay", "country": "FR", "coord": {"lon": 1.04324, "lat": 46.807671}}, {"id": 2995371, "name": "Martin-Eglise", "country": "FR", "coord": {"lon": 1.1412, "lat": 49.901741}}, {"id": 2995385, "name": "Martillac", "country": "FR", "coord": {"lon": -0.53747, "lat": 44.710999}}, {"id": 2995398, "name": "Martigne-Ferchaud", "country": "FR", "coord": {"lon": -1.31911, "lat": 47.829342}}, {"id": 2995399, "name": "Martigne-Briand", "country": "FR", "coord": {"lon": -0.42933, "lat": 47.233582}}, {"id": 2995401, "name": "Martigne-sur-Mayenne", "country": "FR", "coord": {"lon": -0.66667, "lat": 48.200001}}, {"id": 2995402, "name": "Martignat", "country": "FR", "coord": {"lon": 5.61049, "lat": 46.209721}}, {"id": 2995413, "name": "Marthod", "country": "FR", "coord": {"lon": 6.41298, "lat": 45.728401}}, {"id": 2995438, "name": "Marssac-sur-Tarn", "country": "FR", "coord": {"lon": 2.02921, "lat": 43.917679}}, {"id": 2995454, "name": "Marsilly", "country": "FR", "coord": {"lon": -1.1384, "lat": 46.23027}}, {"id": 2995456, "name": "Marsillargues", "country": "FR", "coord": {"lon": 4.17448, "lat": 43.664242}}, {"id": 2995471, "name": "Marseillan", "country": "FR", "coord": {"lon": 3.52795, "lat": 43.356178}}, {"id": 2995487, "name": "Marsanne", "country": "FR", "coord": {"lon": 4.87394, "lat": 44.643749}}, {"id": 2995489, "name": "Marsannay-la-Cote", "country": "FR", "coord": {"lon": 4.98895, "lat": 47.27095}}, {"id": 2995507, "name": "Marsac-sur-Don", "country": "FR", "coord": {"lon": -1.67952, "lat": 47.596481}}, {"id": 2995532, "name": "Marquise", "country": "FR", "coord": {"lon": 1.70786, "lat": 50.812939}}, {"id": 2995533, "name": "Marquion", "country": "FR", "coord": {"lon": 3.08719, "lat": 50.211262}}, {"id": 2995534, "name": "Marquillies", "country": "FR", "coord": {"lon": 2.87067, "lat": 50.555771}}, {"id": 2995536, "name": "Marquette-lez-Lille", "country": "FR", "coord": {"lon": 3.06613, "lat": 50.676281}}, {"id": 2995543, "name": "Marquefave", "country": "FR", "coord": {"lon": 1.24661, "lat": 43.317661}}, {"id": 2995550, "name": "Marpent", "country": "FR", "coord": {"lon": 4.07936, "lat": 50.292519}}, {"id": 2995563, "name": "Maromme", "country": "FR", "coord": {"lon": 1.02375, "lat": 49.479252}}, {"id": 2995565, "name": "Marolles-sur-Seine", "country": "FR", "coord": {"lon": 3.03562, "lat": 48.38662}}, {"id": 2995569, "name": "Marolles-les-Braults", "country": "FR", "coord": {"lon": 0.31631, "lat": 48.252708}}, {"id": 2995571, "name": "Marolles-en-Hurepoix", "country": "FR", "coord": {"lon": 2.29885, "lat": 48.562321}}, {"id": 2995585, "name": "Maroilles", "country": "FR", "coord": {"lon": 3.76132, "lat": 50.135078}}, {"id": 2995586, "name": "Maroeuil", "country": "FR", "coord": {"lon": 2.70504, "lat": 50.325191}}, {"id": 2995597, "name": "Marnes-la-Coquette", "country": "FR", "coord": {"lon": 2.17151, "lat": 48.82732}}, {"id": 2995606, "name": "Marnaz", "country": "FR", "coord": {"lon": 6.52692, "lat": 46.062012}}, {"id": 2995610, "name": "Marnay", "country": "FR", "coord": {"lon": 5.77277, "lat": 47.290878}}, {"id": 2995622, "name": "Marmoutier", "country": "FR", "coord": {"lon": 7.38195, "lat": 48.690048}}, {"id": 2995647, "name": "Marmagne", "country": "FR", "coord": {"lon": 2.28333, "lat": 47.099998}}, {"id": 2995648, "name": "Marmagne", "country": "FR", "coord": {"lon": 4.35892, "lat": 46.836658}}, {"id": 2995653, "name": "Marly-la-Ville", "country": "FR", "coord": {"lon": 2.50348, "lat": 49.08202}}, {"id": 2995656, "name": "Marly", "country": "FR", "coord": {"lon": 3.54959, "lat": 50.345558}}, {"id": 2995667, "name": "Marlhes", "country": "FR", "coord": {"lon": 4.39752, "lat": 45.283211}}, {"id": 2995669, "name": "Marles-les-Mines", "country": "FR", "coord": {"lon": 2.50882, "lat": 50.50478}}, {"id": 2995670, "name": "Marles-en-Brie", "country": "FR", "coord": {"lon": 2.88003, "lat": 48.72784}}, {"id": 2995673, "name": "Marlenheim", "country": "FR", "coord": {"lon": 7.49096, "lat": 48.621342}}, {"id": 2995675, "name": "Marle", "country": "FR", "coord": {"lon": 3.7706, "lat": 49.740059}}, {"id": 2995702, "name": "Marines", "country": "FR", "coord": {"lon": 1.98226, "lat": 49.144852}}, {"id": 2995713, "name": "Marin", "country": "FR", "coord": {"lon": 6.53022, "lat": 46.374722}}, {"id": 2995722, "name": "Marigny-les-Usages", "country": "FR", "coord": {"lon": 2.01462, "lat": 47.957981}}, {"id": 2995726, "name": "Marigny-le-Chatel", "country": "FR", "coord": {"lon": 3.73588, "lat": 48.402908}}, {"id": 2995731, "name": "Marigny-Brizay", "country": "FR", "coord": {"lon": 0.37626, "lat": 46.74622}}, {"id": 2995734, "name": "Marigny", "country": "FR", "coord": {"lon": -1.24179, "lat": 49.099522}}, {"id": 2995744, "name": "Marignier", "country": "FR", "coord": {"lon": 6.50004, "lat": 46.090141}}, {"id": 2995747, "name": "Marigne-Laille", "country": "FR", "coord": {"lon": 0.3405, "lat": 47.81765}}, {"id": 2995782, "name": "Marguerittes", "country": "FR", "coord": {"lon": 4.44517, "lat": 43.8596}}, {"id": 2995787, "name": "Margon", "country": "FR", "coord": {"lon": 0.83454, "lat": 48.335678}}, {"id": 2995790, "name": "Margny-les-Compiegne", "country": "FR", "coord": {"lon": 2.81806, "lat": 49.425591}}, {"id": 2995806, "name": "Margency", "country": "FR", "coord": {"lon": 2.3, "lat": 49}}, {"id": 2995807, "name": "Margencel", "country": "FR", "coord": {"lon": 6.43305, "lat": 46.337002}}, {"id": 2995822, "name": "Mareuil-sur-Ourcq", "country": "FR", "coord": {"lon": 3.07822, "lat": 49.13752}}, {"id": 2995823, "name": "Mareuil-sur-Lay-Dissais", "country": "FR", "coord": {"lon": -1.23333, "lat": 46.533329}}, {"id": 2995824, "name": "Mareuil-sur-Cher", "country": "FR", "coord": {"lon": 1.32897, "lat": 47.29314}}, {"id": 2995826, "name": "Mareuil-sur-Ay", "country": "FR", "coord": {"lon": 4.03587, "lat": 49.045811}}, {"id": 2995828, "name": "Mareuil-les-Meaux", "country": "FR", "coord": {"lon": 2.86134, "lat": 48.926479}}, {"id": 2995829, "name": "Mareuil-le-Port", "country": "FR", "coord": {"lon": 3.76011, "lat": 49.081791}}, {"id": 2995840, "name": "Maretz", "country": "FR", "coord": {"lon": 3.41808, "lat": 50.0453}}, {"id": 2995854, "name": "Marennes", "country": "FR", "coord": {"lon": -1.10546, "lat": 45.8228}}, {"id": 2995855, "name": "Marennes", "country": "FR", "coord": {"lon": 4.91551, "lat": 45.620541}}, {"id": 2995859, "name": "Mareil-sur-Mauldre", "country": "FR", "coord": {"lon": 1.8687, "lat": 48.89521}}, {"id": 2995861, "name": "Mareil-Marly", "country": "FR", "coord": {"lon": 2.07351, "lat": 48.882141}}, {"id": 2995875, "name": "Mareau-aux-Pres", "country": "FR", "coord": {"lon": 1.78333, "lat": 47.866669}}, {"id": 2995887, "name": "Mardie", "country": "FR", "coord": {"lon": 2.05745, "lat": 47.886169}}, {"id": 2995888, "name": "Mardeuil", "country": "FR", "coord": {"lon": 3.93, "lat": 49.053928}}, {"id": 2995916, "name": "Marcoussis", "country": "FR", "coord": {"lon": 2.23858, "lat": 48.640259}}, {"id": 2995922, "name": "Marcorignan", "country": "FR", "coord": {"lon": 2.92281, "lat": 43.226341}}, {"id": 2995924, "name": "Marconnelle", "country": "FR", "coord": {"lon": 2.01108, "lat": 50.375881}}, {"id": 2995926, "name": "Marconne", "country": "FR", "coord": {"lon": 2.04669, "lat": 50.371429}}, {"id": 2995927, "name": "Marcon", "country": "FR", "coord": {"lon": 0.51101, "lat": 47.71059}}, {"id": 2995933, "name": "Marcoing", "country": "FR", "coord": {"lon": 3.17321, "lat": 50.121101}}, {"id": 2995936, "name": "Marckolsheim", "country": "FR", "coord": {"lon": 7.544, "lat": 48.164711}}, {"id": 2995938, "name": "Marck", "country": "FR", "coord": {"lon": 1.94328, "lat": 50.948959}}, {"id": 2995943, "name": "Marcilly-sur-Eure", "country": "FR", "coord": {"lon": 1.34741, "lat": 48.82568}}, {"id": 2995950, "name": "Marcilly-en-Villette", "country": "FR", "coord": {"lon": 2.02266, "lat": 47.765049}}, {"id": 2995971, "name": "Marcillac-Vallon", "country": "FR", "coord": {"lon": 2.46454, "lat": 44.47464}}, {"id": 2995983, "name": "Marcigny", "country": "FR", "coord": {"lon": 4.03957, "lat": 46.276272}}, {"id": 2995990, "name": "Marciac", "country": "FR", "coord": {"lon": 0.16091, "lat": 43.523209}}, {"id": 2995991, "name": "Marchiennes", "country": "FR", "coord": {"lon": 3.28333, "lat": 50.400002}}, {"id": 2996054, "name": "Marcellaz-Albanais", "country": "FR", "coord": {"lon": 6.00162, "lat": 45.875259}}, {"id": 2996074, "name": "Marboz", "country": "FR", "coord": {"lon": 5.25978, "lat": 46.343369}}, {"id": 2996075, "name": "Marboue", "country": "FR", "coord": {"lon": 1.3321, "lat": 48.113762}}, {"id": 2996081, "name": "Marbache", "country": "FR", "coord": {"lon": 6.09752, "lat": 48.795719}}, {"id": 2996089, "name": "Maraussan", "country": "FR", "coord": {"lon": 3.15642, "lat": 43.36895}}, {"id": 2996103, "name": "Marans", "country": "FR", "coord": {"lon": -0.9945, "lat": 46.308109}}, {"id": 2996106, "name": "Marange-Silvange", "country": "FR", "coord": {"lon": 6.10228, "lat": 49.207481}}, {"id": 2996126, "name": "Manziat", "country": "FR", "coord": {"lon": 4.90662, "lat": 46.359402}}, {"id": 2996141, "name": "Manthelan", "country": "FR", "coord": {"lon": 0.79319, "lat": 47.136318}}, {"id": 2996162, "name": "Mansle", "country": "FR", "coord": {"lon": 0.17914, "lat": 45.875259}}, {"id": 2996163, "name": "Mansigne", "country": "FR", "coord": {"lon": 0.13311, "lat": 47.748341}}, {"id": 2996173, "name": "Mansac", "country": "FR", "coord": {"lon": 1.38341, "lat": 45.168701}}, {"id": 2996186, "name": "Manom", "country": "FR", "coord": {"lon": 6.18556, "lat": 49.36985}}, {"id": 2996193, "name": "Manneville-sur-Risle", "country": "FR", "coord": {"lon": 0.54526, "lat": 49.35173}}, {"id": 2996232, "name": "Maneglise", "country": "FR", "coord": {"lon": 0.25572, "lat": 49.565781}}, {"id": 2996234, "name": "Mane", "country": "FR", "coord": {"lon": 5.76677, "lat": 43.937469}}, {"id": 2996236, "name": "Manduel", "country": "FR", "coord": {"lon": 4.47247, "lat": 43.81855}}, {"id": 2996241, "name": "Mandres-les-Roses", "country": "FR", "coord": {"lon": 2.54662, "lat": 48.701981}}, {"id": 2996264, "name": "Mancieulles", "country": "FR", "coord": {"lon": 5.8971, "lat": 49.28553}}, {"id": 2996286, "name": "Mamirolle", "country": "FR", "coord": {"lon": 6.15924, "lat": 47.19857}}, {"id": 2996288, "name": "Mametz", "country": "FR", "coord": {"lon": 2.32478, "lat": 50.63485}}, {"id": 2996298, "name": "Malzeville", "country": "FR", "coord": {"lon": 6.18176, "lat": 48.711811}}, {"id": 2996306, "name": "Malville", "country": "FR", "coord": {"lon": -1.86226, "lat": 47.359051}}, {"id": 2996397, "name": "Mallemort", "country": "FR", "coord": {"lon": 5.17945, "lat": 43.73172}}, {"id": 2996398, "name": "Mallemoisson", "country": "FR", "coord": {"lon": 6.12459, "lat": 44.04813}}, {"id": 2996408, "name": "Malissard", "country": "FR", "coord": {"lon": 4.95915, "lat": 44.902012}}, {"id": 2996413, "name": "Malijai", "country": "FR", "coord": {"lon": 6.03195, "lat": 44.046059}}, {"id": 2996420, "name": "Malicorne-sur-Sarthe", "country": "FR", "coord": {"lon": -0.08152, "lat": 47.813171}}, {"id": 2996427, "name": "Malguenac", "country": "FR", "coord": {"lon": -3.05248, "lat": 48.080078}}, {"id": 2996440, "name": "Malestroit", "country": "FR", "coord": {"lon": -2.38457, "lat": 47.809341}}, {"id": 2996448, "name": "Malemort-sur-Correze", "country": "FR", "coord": {"lon": 1.56193, "lat": 45.17009}}, {"id": 2996449, "name": "Malemort-du-Comtat", "country": "FR", "coord": {"lon": 5.15991, "lat": 44.020699}}, {"id": 2996477, "name": "Malay-le-Grand", "country": "FR", "coord": {"lon": 3.34189, "lat": 48.175892}}, {"id": 2996492, "name": "Malaunay", "country": "FR", "coord": {"lon": 1.04292, "lat": 49.5271}}, {"id": 2996495, "name": "Malaucene", "country": "FR", "coord": {"lon": 5.13294, "lat": 44.172401}}, {"id": 2996498, "name": "Malataverne", "country": "FR", "coord": {"lon": 4.75208, "lat": 44.48727}}, {"id": 2996505, "name": "Malansac", "country": "FR", "coord": {"lon": -2.29543, "lat": 47.677238}}, {"id": 2996538, "name": "Maizieres-les-Metz", "country": "FR", "coord": {"lon": 6.16052, "lat": 49.207539}}, {"id": 2996540, "name": "Maizieres-la-Grande-Paroisse", "country": "FR", "coord": {"lon": 3.78573, "lat": 48.51012}}, {"id": 2996559, "name": "Maisse", "country": "FR", "coord": {"lon": 2.37902, "lat": 48.395241}}, {"id": 2996621, "name": "Maisnil-les-Ruitz", "country": "FR", "coord": {"lon": 2.58992, "lat": 50.453419}}, {"id": 2996628, "name": "Maisdon-sur-Sevre", "country": "FR", "coord": {"lon": -1.38, "lat": 47.097141}}, {"id": 2996645, "name": "Mainvilliers", "country": "FR", "coord": {"lon": 1.45607, "lat": 48.450039}}, {"id": 2996653, "name": "Maintenon", "country": "FR", "coord": {"lon": 1.57847, "lat": 48.58704}}, {"id": 2996660, "name": "Maing", "country": "FR", "coord": {"lon": 3.48446, "lat": 50.307911}}, {"id": 2996674, "name": "Maincy", "country": "FR", "coord": {"lon": 2.70017, "lat": 48.54977}}, {"id": 2996687, "name": "Mailly-le-Camp", "country": "FR", "coord": {"lon": 4.21303, "lat": 48.66526}}, {"id": 2996693, "name": "Maillot", "country": "FR", "coord": {"lon": 3.30784, "lat": 48.175571}}, {"id": 2996696, "name": "Maillezais", "country": "FR", "coord": {"lon": -0.73963, "lat": 46.372669}}, {"id": 2996711, "name": "Maillane", "country": "FR", "coord": {"lon": 4.78152, "lat": 43.831139}}, {"id": 2996722, "name": "Maignelay-Montigny", "country": "FR", "coord": {"lon": 2.51667, "lat": 49.549999}}, {"id": 2996726, "name": "Maidieres", "country": "FR", "coord": {"lon": 6.03988, "lat": 48.900291}}, {"id": 2996727, "name": "Maiche", "country": "FR", "coord": {"lon": 6.80308, "lat": 47.251598}}, {"id": 2996746, "name": "Magny-Vernois", "country": "FR", "coord": {"lon": 6.47545, "lat": 47.669971}}, {"id": 2996752, "name": "Magny-les-Hameaux", "country": "FR", "coord": {"lon": 2.06154, "lat": 48.74345}}, {"id": 2996755, "name": "Magny-le-Hongre", "country": "FR", "coord": {"lon": 2.81546, "lat": 48.863251}}, {"id": 2996766, "name": "Magny-Cours", "country": "FR", "coord": {"lon": 3.15, "lat": 46.883331}}, {"id": 2996798, "name": "Magne", "country": "FR", "coord": {"lon": -0.54575, "lat": 46.315479}}, {"id": 2996802, "name": "Magnanville", "country": "FR", "coord": {"lon": 1.67842, "lat": 48.967979}},