[{"id": 3357804, "name": "Eenhana", "country": "NA", "coord": {"lon": 16.33333, "lat": -17.466669}}, {"id": 3358416, "name": "Bethanie", "country": "NA", "coord": {"lon": 17.15, "lat": -26.48333}}, {"id": 3358666, "name": "Aranos", "country": "NA", "coord": {"lon": 19.116671, "lat": -24.133329}}, {"id": 3358670, "name": "Arandis", "country": "NA", "coord": {"lon": 14.96667, "lat": -22.41667}}, {"id": 2137644, "name": "Yate-Barrage", "country": "NC", "coord": {"lon": 166.883331, "lat": -22.15}}, {"id": 2137690, "name": "We", "country": "NC", "coord": {"lon": 167.264603, "lat": -20.91687}}, {"id": 2137748, "name": "Voh", "country": "NC", "coord": {"lon": 164.699997, "lat": -20.966669}}, {"id": 2137773, "name": "Vao", "country": "NC", "coord": {"lon": 167.483337, "lat": -22.66667}}, {"id": 2138285, "name": "Tadine", "country": "NC", "coord": {"lon": 167.883331, "lat": -21.549999}}, {"id": 2138555, "name": "Poum", "country": "NC", "coord": {"lon": 164.016663, "lat": -20.23333}}, {"id": 2138607, "name": "Pouebo", "country": "NC", "coord": {"lon": 164.566666, "lat": -20.4}}, {"id": 2138717, "name": "Poindimie", "country": "NC", "coord": {"lon": 165.333328, "lat": -20.933331}}, {"id": 2138981, "name": "Paita", "country": "NC", "coord": {"lon": 166.366669, "lat": -22.133329}}, {"id": 2139259, "name": "Ouegoa", "country": "NC", "coord": {"lon": 164.433334, "lat": -20.35}}, {"id": 2140466, "name": "La Foa", "country": "NC", "coord": {"lon": 165.827637, "lat": -21.710791}}, {"id": 2141050, "name": "Hienghene", "country": "NC", "coord": {"lon": 164.933334, "lat": -20.683331}}, {"id": 2141305, "name": "Fayaoue", "country": "NC", "coord": {"lon": 166.533325, "lat": -20.65}}, {"id": 2141658, "name": "Canala", "country": "NC", "coord": {"lon": 165.949997, "lat": -21.533331}}, {"id": 2141714, "name": "Bourail", "country": "NC", "coord": {"lon": 165.483337, "lat": -21.566669}}, {"id": 2438974, "name": "Tchin Tabaraden", "country": "NE", "coord": {"lon": 5.7985, "lat": 15.8969}}, {"id": 2439812, "name": "Say", "country": "NE", "coord": {"lon": 2.3689, "lat": 13.1007}}, {"id": 2440371, "name": "Ouallam", "country": "NE", "coord": {"lon": 2.0866, "lat": 14.3188}}, {"id": 2441447, "name": "Maine-Soroa", "country": "NE", "coord": {"lon": 12.0241, "lat": 13.21139}}, {"id": 2441526, "name": "Madarounfa", "country": "NE", "coord": {"lon": 7.15602, "lat": 13.30867}}, {"id": 2442248, "name": "Kollo", "country": "NE", "coord": {"lon": 2.339, "lat": 13.3043}}, {"id": 2442478, "name": "Keita", "country": "NE", "coord": {"lon": 5.7749, "lat": 14.7551}}, {"id": 2444219, "name": "Goure", "country": "NE", "coord": {"lon": 10.27035, "lat": 13.9835}}, {"id": 2444995, "name": "Filingue", "country": "NE", "coord": {"lon": 3.3168, "lat": 14.3521}}, {"id": 2446466, "name": "Bouza", "country": "NE", "coord": {"lon": 6.04278, "lat": 14.42293}}, {"id": 2448024, "name": "Aguie", "country": "NE", "coord": {"lon": 7.77863, "lat": 13.50601}}, {"id": 2448245, "name": "Abalak", "country": "NE", "coord": {"lon": 6.2793, "lat": 15.4509}}, {"id": 2317818, "name": "Zango", "country": "NG", "coord": {"lon": 8.48765, "lat": 13.05151}}, {"id": 2317887, "name": "Zalanga", "country": "NG", "coord": {"lon": 10.17647, "lat": 10.61432}}, {"id": 2317899, "name": "Zaki Biam", "country": "NG", "coord": {"lon": 9.61667, "lat": 7.51667}}, {"id": 2317936, "name": "Zadawa", "country": "NG", "coord": {"lon": 10.3672, "lat": 11.4496}}, {"id": 2317982, "name": "Yuli", "country": "NG", "coord": {"lon": 10.27444, "lat": 9.69889}}, {"id": 2318166, "name": "Yelwa", "country": "NG", "coord": {"lon": 9.63333, "lat": 8.83333}}, {"id": 2318238, "name": "Yashikera", "country": "NG", "coord": {"lon": 3.4, "lat": 9.76667}}, {"id": 2318374, "name": "Yandev", "country": "NG", "coord": {"lon": 9.05, "lat": 7.36667}}, {"id": 2318383, "name": "Yanda Bayo", "country": "NG", "coord": {"lon": 10.7459, "lat": 11.5071}}, {"id": 2318399, "name": "Yamrat", "country": "NG", "coord": {"lon": 9.82604, "lat": 10.11161}}, {"id": 2318480, "name": "Yajiwa", "country": "NG", "coord": {"lon": 12.7236, "lat": 11.38385}}, {"id": 2318534, "name": "Wuyo", "country": "NG", "coord": {"lon": 11.69678, "lat": 10.38522}}, {"id": 2318858, "name": "Wurno", "country": "NG", "coord": {"lon": 5.42326, "lat": 13.28777}}, {"id": 2319078, "name": "Wawa", "country": "NG", "coord": {"lon": 4.41917, "lat": 9.90222}}, {"id": 2319123, "name": "Wasagu", "country": "NG", "coord": {"lon": 5.79536, "lat": 11.3764}}, {"id": 2319345, "name": "Wagini", "country": "NG", "coord": {"lon": 7.19579, "lat": 12.68781}}, {"id": 2319407, "name": "Vom", "country": "NG", "coord": {"lon": 8.78333, "lat": 9.73333}}, {"id": 2319480, "name": "Uyo", "country": "NG", "coord": {"lon": 7.92657, "lat": 5.03333}}, {"id": 2319642, "name": "Uruobo-Okija", "country": "NG", "coord": {"lon": 6.84312, "lat": 5.90016}}, {"id": 2320417, "name": "Umunede", "country": "NG", "coord": {"lon": 6.31161, "lat": 6.26374}}, {"id": 2320746, "name": "Ukata", "country": "NG", "coord": {"lon": 5.82494, "lat": 10.83122}}, {"id": 2320966, "name": "Udi", "country": "NG", "coord": {"lon": 7.4258, "lat": 6.3144}}, {"id": 2321057, "name": "Uba", "country": "NG", "coord": {"lon": 13.22139, "lat": 10.45306}}, {"id": 2321926, "name": "Toungo", "country": "NG", "coord": {"lon": 12.05, "lat": 8.11667}}, {"id": 2322021, "name": "Tokombere", "country": "NG", "coord": {"lon": 13.48581, "lat": 11.22713}}, {"id": 2322592, "name": "Takai", "country": "NG", "coord": {"lon": 9.11667, "lat": 11.58333}}, {"id": 2322722, "name": "Suya", "country": "NG", "coord": {"lon": 3.18333, "lat": 9.46667}}, {"id": 2323011, "name": "Siluko", "country": "NG", "coord": {"lon": 5.1609, "lat": 6.53858}}, {"id": 2323146, "name": "Shinkafe", "country": "NG", "coord": {"lon": 6.51046, "lat": 13.07534}}, {"id": 2323344, "name": "Shani", "country": "NG", "coord": {"lon": 12.06198, "lat": 10.21617}}, {"id": 2323349, "name": "Shanga", "country": "NG", "coord": {"lon": 4.57878, "lat": 11.21062}}, {"id": 2323418, "name": "Shaffa", "country": "NG", "coord": {"lon": 12.33315, "lat": 10.50673}}, {"id": 2323579, "name": "Sauri", "country": "NG", "coord": {"lon": 6.78374, "lat": 11.72655}}, {"id": 2323858, "name": "Samamiya", "country": "NG", "coord": {"lon": 9.63989, "lat": 11.34873}}, {"id": 2324024, "name": "Sade", "country": "NG", "coord": {"lon": 10.6732, "lat": 11.3595}}, {"id": 2324281, "name": "Runka", "country": "NG", "coord": {"lon": 7.30918, "lat": 12.44788}}, {"id": 2324325, "name": "Ruma", "country": "NG", "coord": {"lon": 7.23469, "lat": 12.8626}}, {"id": 2324439, "name": "Riti", "country": "NG", "coord": {"lon": 9.61667, "lat": 7.91667}}, {"id": 2324460, "name": "Ringim", "country": "NG", "coord": {"lon": 9.16192, "lat": 12.15482}}, {"id": 2324623, "name": "Rahama", "country": "NG", "coord": {"lon": 8.68279, "lat": 10.41403}}, {"id": 2324706, "name": "Rabah", "country": "NG", "coord": {"lon": 5.50741, "lat": 13.12133}}, {"id": 2324962, "name": "Patani", "country": "NG", "coord": {"lon": 6.19238, "lat": 5.22724}}, {"id": 2325032, "name": "Panyam", "country": "NG", "coord": {"lon": 9.21667, "lat": 9.41667}}, {"id": 2325307, "name": "Owode", "country": "NG", "coord": {"lon": 3.50511, "lat": 6.94864}}, {"id": 2325713, "name": "Orodo", "country": "NG", "coord": {"lon": 7.03333, "lat": 5.61667}}, {"id": 2325725, "name": "Orlu", "country": "NG", "coord": {"lon": 7.03495, "lat": 5.79464}}, {"id": 2325803, "name": "Orerokpe", "country": "NG", "coord": {"lon": 5.88956, "lat": 5.63506}}, {"id": 2325821, "name": "Ore", "country": "NG", "coord": {"lon": 4.87748, "lat": 6.74569}}, {"id": 2325902, "name": "Opi", "country": "NG", "coord": {"lon": 7.4365, "lat": 6.7814}}, {"id": 2326188, "name": "Omuo-Ekiti", "country": "NG", "coord": {"lon": 5.72227, "lat": 7.75833}}, {"id": 2326200, "name": "Omu Aran", "country": "NG", "coord": {"lon": 5.1, "lat": 8.13333}}, {"id": 2326221, "name": "Omoku", "country": "NG", "coord": {"lon": 6.65321, "lat": 5.3435}}, {"id": 2327236, "name": "Oke Iho", "country": "NG", "coord": {"lon": 3.35, "lat": 8.03333}}, {"id": 2327523, "name": "Ogurugu", "country": "NG", "coord": {"lon": 6.95053, "lat": 6.78558}}, {"id": 2328113, "name": "Ochobo", "country": "NG", "coord": {"lon": 7.9769, "lat": 7.183}}, {"id": 2328153, "name": "Obubra", "country": "NG", "coord": {"lon": 8.32904, "lat": 6.07525}}, {"id": 2328192, "name": "Obolo-Eke (1)", "country": "NG", "coord": {"lon": 7.63333, "lat": 6.88333}}, {"id": 2328276, "name": "Obiaruku Quarters", "country": "NG", "coord": {"lon": 6.15257, "lat": 5.84671}}, {"id": 2328960, "name": "Ngurore", "country": "NG", "coord": {"lon": 12.23333, "lat": 9.28333}}, {"id": 2329087, "name": "Ngala", "country": "NG", "coord": {"lon": 14.18052, "lat": 12.33772}}, {"id": 2329114, "name": "New Shagunnu", "country": "NG", "coord": {"lon": 4.4688, "lat": 10.33957}}, {"id": 2329639, "name": "Mutum Biyu", "country": "NG", "coord": {"lon": 10.76667, "lat": 8.63333}}, {"id": 2329664, "name": "Musawa", "country": "NG", "coord": {"lon": 7.6698, "lat": 12.12717}}, {"id": 2330082, "name": "Misau", "country": "NG", "coord": {"lon": 10.4703, "lat": 11.3163}}, {"id": 2330087, "name": "Miringa", "country": "NG", "coord": {"lon": 12.14626, "lat": 10.73115}}, {"id": 2330241, "name": "Mekkaw", "country": "NG", "coord": {"lon": 2.85, "lat": 7.45}}, {"id": 2330543, "name": "Mayo Belwa", "country": "NG", "coord": {"lon": 12.05, "lat": 9.05}}, {"id": 2330589, "name": "Matsena", "country": "NG", "coord": {"lon": 10.04924, "lat": 13.13639}}, {"id": 2330664, "name": "Mashi", "country": "NG", "coord": {"lon": 7.95293, "lat": 12.97844}}, {"id": 2330717, "name": "Maru", "country": "NG", "coord": {"lon": 6.40569, "lat": 12.33417}}, {"id": 2330937, "name": "Mando", "country": "NG", "coord": {"lon": 6.56667, "lat": 10.71667}}, {"id": 2331037, "name": "Malummaduri", "country": "NG", "coord": {"lon": 9.95729, "lat": 12.565}}, {"id": 2331267, "name": "Maiyema", "country": "NG", "coord": {"lon": 4.36766, "lat": 12.08411}}, {"id": 2331493, "name": "Mahuta", "country": "NG", "coord": {"lon": 4.98436, "lat": 11.55254}}, {"id": 2331686, "name": "Madara", "country": "NG", "coord": {"lon": 10.4479, "lat": 11.7798}}, {"id": 2331694, "name": "Madala", "country": "NG", "coord": {"lon": 7.21333, "lat": 9.10444}}, {"id": 2331715, "name": "Madagali", "country": "NG", "coord": {"lon": 13.63121, "lat": 10.89018}}, {"id": 2332080, "name": "Lere", "country": "NG", "coord": {"lon": 9.33833, "lat": 9.70889}}, {"id": 2332197, "name": "Lau", "country": "NG", "coord": {"lon": 11.28333, "lat": 9.21667}}, {"id": 2332280, "name": "Langtang", "country": "NG", "coord": {"lon": 9.78333, "lat": 9.13333}}, {"id": 2332337, "name": "Lame", "country": "NG", "coord": {"lon": 9.23955, "lat": 10.44154}}, {"id": 2332662, "name": "Kwolla", "country": "NG", "coord": {"lon": 9.28333, "lat": 8.93333}}, {"id": 2332733, "name": "Kwatarkwashi", "country": "NG", "coord": {"lon": 6.82196, "lat": 12.14082}}, {"id": 2332865, "name": "Kwali", "country": "NG", "coord": {"lon": 7.005, "lat": 8.86722}}, {"id": 2333064, "name": "Kuta", "country": "NG", "coord": {"lon": 6.71667, "lat": 9.86667}}, {"id": 2333096, "name": "Kusheriki", "country": "NG", "coord": {"lon": 6.44222, "lat": 10.53283}}, {"id": 2333312, "name": "Kura", "country": "NG", "coord": {"lon": 8.43033, "lat": 11.76969}}, {"id": 2333606, "name": "Kujama", "country": "NG", "coord": {"lon": 7.63678, "lat": 10.45418}}, {"id": 2333884, "name": "Koton Karifi", "country": "NG", "coord": {"lon": 6.8, "lat": 8.1}}, {"id": 2334018, "name": "Konkwesso", "country": "NG", "coord": {"lon": 4.09835, "lat": 10.84686}}, {"id": 2334044, "name": "Konduga", "country": "NG", "coord": {"lon": 13.42133, "lat": 11.65583}}, {"id": 2334502, "name": "Kibiya", "country": "NG", "coord": {"lon": 8.66227, "lat": 11.52629}}, {"id": 2334592, "name": "Kende", "country": "NG", "coord": {"lon": 4.2603, "lat": 11.51966}}, {"id": 2334649, "name": "Keffin Hausa", "country": "NG", "coord": {"lon": 9.90798, "lat": 12.23753}}, {"id": 2334674, "name": "Kazaure", "country": "NG", "coord": {"lon": 8.41615, "lat": 12.65131}}, {"id": 2334861, "name": "Katagum", "country": "NG", "coord": {"lon": 10.3527, "lat": 12.2867}}, {"id": 2335219, "name": "Kankara", "country": "NG", "coord": {"lon": 7.41267, "lat": 11.93016}}, {"id": 2335369, "name": "Kaltungo", "country": "NG", "coord": {"lon": 11.30889, "lat": 9.81417}}, {"id": 2335500, "name": "Kajuru", "country": "NG", "coord": {"lon": 7.68924, "lat": 10.31921}}, {"id": 2335568, "name": "Kaingiwa", "country": "NG", "coord": {"lon": 3.81867, "lat": 12.55208}}, {"id": 2335709, "name": "Kafarati", "country": "NG", "coord": {"lon": 11.09567, "lat": 10.38304}}, {"id": 2336092, "name": "Jikamshi", "country": "NG", "coord": {"lon": 7.77424, "lat": 12.17328}}, {"id": 2336137, "name": "Jibiya", "country": "NG", "coord": {"lon": 7.2225, "lat": 13.09778}}, {"id": 2336624, "name": "Jajere", "country": "NG", "coord": {"lon": 11.44426, "lat": 11.97969}}, {"id": 2337227, "name": "Isara", "country": "NG", "coord": {"lon": 3.68185, "lat": 6.99281}}, {"id": 2337666, "name": "Illushi", "country": "NG", "coord": {"lon": 6.63076, "lat": 6.6667}}, {"id": 2337762, "name": "Ilare", "country": "NG", "coord": {"lon": 5.11333, "lat": 7.35067}}, {"id": 2338305, "name": "Ikem", "country": "NG", "coord": {"lon": 7.71685, "lat": 6.77903}}, {"id": 2338313, "name": "Ikeja", "country": "NG", "coord": {"lon": 3.33748, "lat": 6.59422}}, {"id": 2338334, "name": "Ikang", "country": "NG", "coord": {"lon": 8.5316, "lat": 4.78978}}, {"id": 2338404, "name": "Ijebu-Ife", "country": "NG", "coord": {"lon": 4.03386, "lat": 6.77837}}, {"id": 2338469, "name": "Ihuo", "country": "NG", "coord": {"lon": 7.1, "lat": 5.56667}}, {"id": 2338840, "name": "Igarra", "country": "NG", "coord": {"lon": 6.0878, "lat": 7.2827}}, {"id": 2338863, "name": "Igabi", "country": "NG", "coord": {"lon": 7.77493, "lat": 10.78887}}, {"id": 2338873, "name": "Ifon", "country": "NG", "coord": {"lon": 5.77603, "lat": 6.92412}}, {"id": 2338908, "name": "Ifaki", "country": "NG", "coord": {"lon": 5.24852, "lat": 7.78942}}, {"id": 2339065, "name": "Idi Iroko", "country": "NG", "coord": {"lon": 2.73333, "lat": 6.63333}}, {"id": 2339170, "name": "Icheu", "country": "NG", "coord": {"lon": 6.7718, "lat": 7.7067}}, {"id": 2339403, "name": "Hunkuyi", "country": "NG", "coord": {"lon": 7.65118, "lat": 11.26676}}, {"id": 2339468, "name": "Holma", "country": "NG", "coord": {"lon": 13.05667, "lat": 9.90083}}, {"id": 2339483, "name": "Hinna", "country": "NG", "coord": {"lon": 11.49905, "lat": 10.30426}}, {"id": 2339706, "name": "Gwio Kura", "country": "NG", "coord": {"lon": 11.0682, "lat": 12.6753}}, {"id": 2339753, "name": "Gwasero", "country": "NG", "coord": {"lon": 3.5, "lat": 9.48333}}, {"id": 2339789, "name": "Gwaram", "country": "NG", "coord": {"lon": 10.28572, "lat": 10.23295}}, {"id": 2339811, "name": "Gwandu", "country": "NG", "coord": {"lon": 4.64227, "lat": 12.49382}}, {"id": 2340132, "name": "Gulma", "country": "NG", "coord": {"lon": 4.35545, "lat": 12.64231}}, {"id": 2340170, "name": "Gujba", "country": "NG", "coord": {"lon": 11.9367, "lat": 11.5032}}, {"id": 2340323, "name": "Goronyo", "country": "NG", "coord": {"lon": 5.67632, "lat": 13.44232}}, {"id": 2340350, "name": "Gorgoram", "country": "NG", "coord": {"lon": 10.7039, "lat": 12.6398}}, {"id": 2340389, "name": "Gora", "country": "NG", "coord": {"lon": 7.6653, "lat": 11.91294}}, {"id": 2340404, "name": "Goniri", "country": "NG", "coord": {"lon": 12.31444, "lat": 11.48333}}, {"id": 2341641, "name": "Gassol", "country": "NG", "coord": {"lon": 10.46667, "lat": 8.53333}}, {"id": 2342125, "name": "Gandi", "country": "NG", "coord": {"lon": 5.74337, "lat": 12.96358}}, {"id": 2342199, "name": "Gamawa", "country": "NG", "coord": {"lon": 10.5396, "lat": 12.1343}}, {"id": 2342291, "name": "Gakem", "country": "NG", "coord": {"lon": 8.98813, "lat": 6.76578}}, {"id": 2342340, "name": "Gagarawa", "country": "NG", "coord": {"lon": 9.5277, "lat": 12.40741}}, {"id": 2342439, "name": "Gabarin", "country": "NG", "coord": {"lon": 10.4441, "lat": 11.1093}}, {"id": 2343057, "name": "Etinan", "country": "NG", "coord": {"lon": 7.85252, "lat": 4.84262}}, {"id": 2343073, "name": "Ete", "country": "NG", "coord": {"lon": 7.45, "lat": 7.05}}, {"id": 2343776, "name": "Ejirin", "country": "NG", "coord": {"lon": 3.90019, "lat": 6.61423}}, {"id": 2344217, "name": "Dutsin Ma", "country": "NG", "coord": {"lon": 7.49805, "lat": 12.45167}}, {"id": 2344415, "name": "Duku", "country": "NG", "coord": {"lon": 4.90727, "lat": 11.2361}}, {"id": 2344760, "name": "Disina", "country": "NG", "coord": {"lon": 9.91903, "lat": 11.48135}}, {"id": 2344804, "name": "Dindima", "country": "NG", "coord": {"lon": 10.15132, "lat": 10.22629}}, {"id": 2344941, "name": "Dengi", "country": "NG", "coord": {"lon": 9.95, "lat": 9.36667}}, {"id": 2344981, "name": "Dekina", "country": "NG", "coord": {"lon": 7.02218, "lat": 7.69475}}, {"id": 2345172, "name": "Dapchi", "country": "NG", "coord": {"lon": 11.4944, "lat": 12.4904}}, {"id": 2345213, "name": "Dan Sadau", "country": "NG", "coord": {"lon": 6.4952, "lat": 11.29621}}, {"id": 2345282, "name": "Dankama", "country": "NG", "coord": {"lon": 7.79492, "lat": 13.29782}}, {"id": 2345283, "name": "Dankalwa", "country": "NG", "coord": {"lon": 12.1867, "lat": 11.7443}}, {"id": 2345306, "name": "Danja", "country": "NG", "coord": {"lon": 7.56249, "lat": 11.37643}}, {"id": 2345336, "name": "Dan Gora", "country": "NG", "coord": {"lon": 8.15224, "lat": 11.53485}}, {"id": 2345349, "name": "Dange", "country": "NG", "coord": {"lon": 5.34705, "lat": 12.85128}}, {"id": 2345505, "name": "Dambarta", "country": "NG", "coord": {"lon": 8.51541, "lat": 12.43303}}, {"id": 2345526, "name": "Damasak", "country": "NG", "coord": {"lon": 12.4952, "lat": 13.09771}}, {"id": 2345643, "name": "Dakingari", "country": "NG", "coord": {"lon": 4.06046, "lat": 11.64511}}, {"id": 2345785, "name": "Dadiya", "country": "NG", "coord": {"lon": 11.43333, "lat": 9.61667}}, {"id": 2345872, "name": "Dabai", "country": "NG", "coord": {"lon": 5.20625, "lat": 11.47652}}, {"id": 2346199, "name": "Chafe", "country": "NG", "coord": {"lon": 6.92232, "lat": 11.95527}}, {"id": 2346322, "name": "Burumburum", "country": "NG", "coord": {"lon": 8.72341, "lat": 11.39106}}, {"id": 2346396, "name": "Bunza", "country": "NG", "coord": {"lon": 4.02111, "lat": 12.08444}}, {"id": 2346399, "name": "Bununu Kasa", "country": "NG", "coord": {"lon": 9.66278, "lat": 9.86806}}, {"id": 2346401, "name": "Bununu Dass", "country": "NG", "coord": {"lon": 9.51667, "lat": 10}}, {"id": 2346632, "name": "Buga", "country": "NG", "coord": {"lon": 7.34139, "lat": 8.49056}}, {"id": 2346734, "name": "Brass", "country": "NG", "coord": {"lon": 6.24176, "lat": 4.31506}}, {"id": 2346788, "name": "Bornu Yassu", "country": "NG", "coord": {"lon": 12.5552, "lat": 12.2774}}, {"id": 2346800, "name": "Bori", "country": "NG", "coord": {"lon": 7.36201, "lat": 4.67366}}, {"id": 2346805, "name": "Bopo", "country": "NG", "coord": {"lon": 7.8664, "lat": 7.6565}}, {"id": 2346843, "name": "Bomadi", "country": "NG", "coord": {"lon": 5.92516, "lat": 5.15931}}, {"id": 2346887, "name": "Bokkos", "country": "NG", "coord": {"lon": 9, "lat": 9.3}}, {"id": 2346893, "name": "Bokani", "country": "NG", "coord": {"lon": 5.2, "lat": 9.43333}}, {"id": 2346896, "name": "Boju", "country": "NG", "coord": {"lon": 7.91119, "lat": 7.37834}}, {"id": 2346906, "name": "Boi", "country": "NG", "coord": {"lon": 9.49528, "lat": 9.56833}}, {"id": 2347041, "name": "Birniwa", "country": "NG", "coord": {"lon": 10.2348, "lat": 12.7903}}, {"id": 2347109, "name": "Bin Yauri", "country": "NG", "coord": {"lon": 4.81135, "lat": 10.7823}}, {"id": 2347116, "name": "Binji", "country": "NG", "coord": {"lon": 4.90955, "lat": 13.22277}}, {"id": 2347279, "name": "Benisheik", "country": "NG", "coord": {"lon": 12.4909, "lat": 11.8072}}, {"id": 2347304, "name": "Bena", "country": "NG", "coord": {"lon": 5.93472, "lat": 11.28444}}, {"id": 2347383, "name": "Bebeji", "country": "NG", "coord": {"lon": 8.26217, "lat": 11.66726}}, {"id": 2347483, "name": "Batsari", "country": "NG", "coord": {"lon": 7.24472, "lat": 12.75147}}, {"id": 2347758, "name": "Bara", "country": "NG", "coord": {"lon": 10.72884, "lat": 10.37444}}, {"id": 2348118, "name": "Bakori", "country": "NG", "coord": {"lon": 7.42425, "lat": 11.55445}}, {"id": 2348228, "name": "Baissa", "country": "NG", "coord": {"lon": 10.63333, "lat": 7.23333}}, {"id": 2348259, "name": "Bagudo", "country": "NG", "coord": {"lon": 4.22958, "lat": 11.40329}}, {"id": 2348298, "name": "Bugana", "country": "NG", "coord": {"lon": 7.58361, "lat": 7.99917}}, {"id": 2348365, "name": "Badeggi", "country": "NG", "coord": {"lon": 6.15, "lat": 9.05}}, {"id": 2348419, "name": "Babura", "country": "NG", "coord": {"lon": 9.01583, "lat": 12.77305}}, {"id": 2348874, "name": "Auna", "country": "NG", "coord": {"lon": 4.72318, "lat": 10.18805}}, {"id": 2349360, "name": "Arochukwu", "country": "NG", "coord": {"lon": 7.91404, "lat": 5.38979}}, {"id": 2349788, "name": "Ankpa", "country": "NG", "coord": {"lon": 7.6253, "lat": 7.37058}}, {"id": 2349797, "name": "Anka", "country": "NG", "coord": {"lon": 5.92427, "lat": 12.11381}}, {"id": 2350027, "name": "Amper", "country": "NG", "coord": {"lon": 9.7, "lat": 9.35}}, {"id": 2350172, "name": "Amassoma", "country": "NG", "coord": {"lon": 6.10972, "lat": 4.96917}}, {"id": 2350259, "name": "Amagunze", "country": "NG", "coord": {"lon": 7.6539, "lat": 6.3267}}, {"id": 2350436, "name": "Aliade", "country": "NG", "coord": {"lon": 8.487, "lat": 7.2964}}, {"id": 2350592, "name": "Alapa", "country": "NG", "coord": {"lon": 4.38333, "lat": 8.61667}}, {"id": 2351027, "name": "Akko", "country": "NG", "coord": {"lon": 10.9732, "lat": 10.28899}}, {"id": 2351156, "name": "Ake-Eze", "country": "NG", "coord": {"lon": 7.67615, "lat": 5.91677}}, {"id": 2351209, "name": "Akankpa", "country": "NG", "coord": {"lon": 8.1898, "lat": 5.1264}}, {"id": 2351461, "name": "Ajasse Ipo", "country": "NG", "coord": {"lon": 4.81667, "lat": 8.23333}}, {"id": 2351657, "name": "Ahoada", "country": "NG", "coord": {"lon": 6.65353, "lat": 5.07395}}, {"id": 2351850, "name": "Ago Are", "country": "NG", "coord": {"lon": 3.41667, "lat": 8.5}}, {"id": 2351927, "name": "Agenebode", "country": "NG", "coord": {"lon": 6.6966, "lat": 7.106}}, {"id": 2352110, "name": "Agbabu", "country": "NG", "coord": {"lon": 4.8343, "lat": 6.58862}}, {"id": 2352175, "name": "Agaie", "country": "NG", "coord": {"lon": 6.31667, "lat": 9.01667}}, {"id": 2352352, "name": "Adoru", "country": "NG", "coord": {"lon": 7.16268, "lat": 6.97661}}, {"id": 2352589, "name": "Adani", "country": "NG", "coord": {"lon": 7.01117, "lat": 6.73971}}, {"id": 2352804, "name": "Abraka", "country": "NG", "coord": {"lon": 6.10473, "lat": 5.79023}}, {"id": 2352857, "name": "Abocho", "country": "NG", "coord": {"lon": 6.9863, "lat": 7.5677}}, {"id": 2353100, "name": "Abak", "country": "NG", "coord": {"lon": 7.79171, "lat": 4.9797}}, {"id": 3615669, "name": "Yalaguina", "country": "NI", "coord": {"lon": -86.492973, "lat": 13.48375}}, {"id": 3615683, "name": "Wiwili", "country": "NI", "coord": {"lon": -85.825401, "lat": 13.62679}}, {"id": 3615730, "name": "Waspam", "country": "NI", "coord": {"lon": -83.971703, "lat": 14.74189}}, {"id": 3615745, "name": "Waslala", "country": "NI", "coord": {"lon": -85.383331, "lat": 13.23333}}, {"id": 3615813, "name": "Villa Sandino", "country": "NI", "coord": {"lon": -84.993622, "lat": 12.0483}}, {"id": 3615865, "name": "Valle San Francisco", "country": "NI", "coord": {"lon": -86.283333, "lat": 12.51667}}, {"id": 3615998, "name": "Totogalpa", "country": "NI", "coord": {"lon": -86.492393, "lat": 13.56269}}, {"id": 3616019, "name": "Tola", "country": "NI", "coord": {"lon": -85.938911, "lat": 11.43927}}, {"id": 3616028, "name": "Tisma", "country": "NI", "coord": {"lon": -86.017387, "lat": 12.08194}}, {"id": 3616070, "name": "Teustepe", "country": "NI", "coord": {"lon": -85.79966, "lat": 12.42002}}, {"id": 3616076, "name": "Terrabona", "country": "NI", "coord": {"lon": -85.964737, "lat": 12.73028}}, {"id": 3616088, "name": "Telpaneca", "country": "NI", "coord": {"lon": -86.287102, "lat": 13.53166}}, {"id": 3616092, "name": "Telica", "country": "NI", "coord": {"lon": -86.859383, "lat": 12.522}}, {"id": 3616349, "name": "Santo Tomas", "country": "NI", "coord": {"lon": -85.090591, "lat": 12.06938}}, {"id": 3616356, "name": "Santo Domingo", "country": "NI", "coord": {"lon": -85.08078, "lat": 12.26356}}, {"id": 3616381, "name": "Santa Teresa", "country": "NI", "coord": {"lon": -86.214127, "lat": 11.74321}}, {"id": 3616387, "name": "Santa Rosa del Penon", "country": "NI", "coord": {"lon": -86.369942, "lat": 12.80116}}, {"id": 3616572, "name": "San Sebastian de Yali", "country": "NI", "coord": {"lon": -86.186409, "lat": 13.3051}}, {"id": 3616584, "name": "San Ramon", "country": "NI", "coord": {"lon": -85.838982, "lat": 12.92344}}, {"id": 3616659, "name": "San Miguelito", "country": "NI", "coord": {"lon": -84.89991, "lat": 11.40255}}, {"id": 3616708, "name": "San Lorenzo", "country": "NI", "coord": {"lon": -85.667412, "lat": 12.37781}}, {"id": 3616721, "name": "San Juan de Rio Coco", "country": "NI", "coord": {"lon": -86.165062, "lat": 13.54483}}, {"id": 3616723, "name": "San Juan de Oriente", "country": "NI", "coord": {"lon": -86.073433, "lat": 11.90624}}, {"id": 3616732, "name": "San Juan de Limay", "country": "NI", "coord": {"lon": -86.612343, "lat": 13.17603}}, {"id": 3616753, "name": "San Jose de los Remates", "country": "NI", "coord": {"lon": -85.761703, "lat": 12.59725}}, {"id": 3616757, "name": "San Jose de Cusmapa", "country": "NI", "coord": {"lon": -86.655403, "lat": 13.28841}}, {"id": 3616759, "name": "San Jose de Bocay", "country": "NI", "coord": {"lon": -85.539421, "lat": 13.54204}}, {"id": 3616794, "name": "San Jorge", "country": "NI", "coord": {"lon": -85.803078, "lat": 11.45584}}, {"id": 3616871, "name": "San Fernando", "country": "NI", "coord": {"lon": -86.3153, "lat": 13.6772}}, {"id": 3616888, "name": "San Dionisio", "country": "NI", "coord": {"lon": -85.850182, "lat": 12.76022}}, {"id": 3616911, "name": "San Carlos", "country": "NI", "coord": {"lon": -84.777946, "lat": 11.1236}}, {"id": 3617115, "name": "Quezalguaque", "country": "NI", "coord": {"lon": -86.902924, "lat": 12.50683}}, {"id": 3617146, "name": "Puerto Morazan", "country": "NI", "coord": {"lon": -87.171669, "lat": 12.85042}}, {"id": 3617162, "name": "Pueblo Nuevo", "country": "NI", "coord": {"lon": -86.480751, "lat": 13.37984}}, {"id": 3617187, "name": "Potosi", "country": "NI", "coord": {"lon": -85.856796, "lat": 11.49416}}, {"id": 3617191, "name": "Posoltega", "country": "NI", "coord": {"lon": -86.979919, "lat": 12.54481}}, {"id": 3617388, "name": "Palacaguina", "country": "NI", "coord": {"lon": -86.406219, "lat": 13.45566}}, {"id": 3617457, "name": "Nuevo Amanecer", "country": "NI", "coord": {"lon": -84.196289, "lat": 12.82247}}, {"id": 3617510, "name": "Nandasmo", "country": "NI", "coord": {"lon": -86.12072, "lat": 11.92411}}, {"id": 3617532, "name": "Muy Muy", "country": "NI", "coord": {"lon": -85.62915, "lat": 12.76224}}, {"id": 3617543, "name": "Murra", "country": "NI", "coord": {"lon": -86.018433, "lat": 13.7585}}, {"id": 3617562, "name": "Muelle de los Bueyes", "country": "NI", "coord": {"lon": -84.535027, "lat": 12.06999}}, {"id": 3617569, "name": "Moyogalpa", "country": "NI", "coord": {"lon": -85.697952, "lat": 11.54006}}, {"id": 3617575, "name": "Morrito", "country": "NI", "coord": {"lon": -85.080521, "lat": 11.62118}}, {"id": 3617694, "name": "Matiguas", "country": "NI", "coord": {"lon": -85.462181, "lat": 12.83734}}, {"id": 3617730, "name": "Masachapa", "country": "NI", "coord": {"lon": -86.51416, "lat": 11.78687}}, {"id": 3618124, "name": "Las Sabanas", "country": "NI", "coord": {"lon": -86.621841, "lat": 13.34302}}, {"id": 3618410, "name": "La Paz de Oriente", "country": "NI", "coord": {"lon": -86.127563, "lat": 11.82331}}, {"id": 3618482, "name": "La Libertad", "country": "NI", "coord": {"lon": -85.165947, "lat": 12.21635}}, {"id": 3618522, "name": "Laguna de Perlas", "country": "NI", "coord": {"lon": -83.671227, "lat": 12.34294}}, {"id": 3618618, "name": "La Cruz de Rio Grande", "country": "NI", "coord": {"lon": -84.185883, "lat": 13.1129}}, {"id": 3618637, "name": "La Concordia", "country": "NI", "coord": {"lon": -86.16674, "lat": 13.19528}}, {"id": 3618648, "name": "La Concepcion", "country": "NI", "coord": {"lon": -86.189758, "lat": 11.93711}}, {"id": 3618924, "name": "Jiquilillo", "country": "NI", "coord": {"lon": -87.451599, "lat": 12.74593}}, {"id": 3619382, "name": "El Sauce", "country": "NI", "coord": {"lon": -86.539032, "lat": 12.88687}}, {"id": 3619420, "name": "El Rosario", "country": "NI", "coord": {"lon": -86.373741, "lat": 11.77756}}, {"id": 3619695, "name": "La Jicaral", "country": "NI", "coord": {"lon": -86.380577, "lat": 12.72676}}, {"id": 3620084, "name": "El Ayote", "country": "NI", "coord": {"lon": -85.287369, "lat": 12.19046}}, {"id": 3620106, "name": "El Almendro", "country": "NI", "coord": {"lon": -84.70269, "lat": 11.67859}}, {"id": 3620163, "name": "Dolores", "country": "NI", "coord": {"lon": -86.215752, "lat": 11.85621}}, {"id": 3620168, "name": "Diriomo", "country": "NI", "coord": {"lon": -86.051842, "lat": 11.87612}}, {"id": 3620172, "name": "Diria", "country": "NI", "coord": {"lon": -86.055077, "lat": 11.8842}}, {"id": 3620243, "name": "Cuapa", "country": "NI", "coord": {"lon": -85.381958, "lat": 12.26756}}, {"id": 3620266, "name": "Corn Island", "country": "NI", "coord": {"lon": -83.041763, "lat": 12.16943}}, {"id": 3620318, "name": "Comalapa", "country": "NI", "coord": {"lon": -85.510811, "lat": 12.28345}}, {"id": 3620353, "name": "Ciudad Antigua", "country": "NI", "coord": {"lon": -86.308151, "lat": 13.6406}}, {"id": 3620441, "name": "Catarina", "country": "NI", "coord": {"lon": -86.07383, "lat": 11.91197}}, {"id": 3620473, "name": "Carlos Fonseca Amador", "country": "NI", "coord": {"lon": -86.505707, "lat": 11.98009}}, {"id": 3620603, "name": "Buenos Aires", "country": "NI", "coord": {"lon": -85.816612, "lat": 11.46916}}, {"id": 3620645, "name": "Bonanza", "country": "NI", "coord": {"lon": -84.591026, "lat": 14.02885}}, {"id": 3620661, "name": "Bocana de Paiwas", "country": "NI", "coord": {"lon": -85.122688, "lat": 12.78571}}, {"id": 3620734, "name": "Belen", "country": "NI", "coord": {"lon": -85.889343, "lat": 11.50299}}, {"id": 3620930, "name": "Altagracia", "country": "NI", "coord": {"lon": -85.5784, "lat": 11.56615}}, {"id": 3620978, "name": "Acoyapa", "country": "NI", "coord": {"lon": -85.171127, "lat": 11.97028}}, {"id": 3620982, "name": "Achuapa", "country": "NI", "coord": {"lon": -86.590042, "lat": 13.0537}}, {"id": 7668030, "name": "La Paz Centro", "country": "NI", "coord": {"lon": -86.676079, "lat": 12.33953}}, {"id": 2743561, "name": "Zwartebroek", "country": "NL", "coord": {"lon": 5.50417, "lat": 52.179169}}, {"id": 2743590, "name": "De Westereen", "country": "NL", "coord": {"lon": 6.0363, "lat": 53.257309}}, {"id": 2743680, "name": "Zuidlaren", "country": "NL", "coord": {"lon": 6.68194, "lat": 53.09417}}, {"id": 2743694, "name": "Zuidhorn", "country": "NL", "coord": {"lon": 6.40278, "lat": 53.24667}}, {"id": 2743877, "name": "Zijtaart", "country": "NL", "coord": {"lon": 5.54167, "lat": 51.592499}}, {"id": 2743952, "name": "Zetten", "country": "NL", "coord": {"lon": 5.71389, "lat": 51.928329}}, {"id": 2743963, "name": "Zelhem", "country": "NL", "coord": {"lon": 6.34861, "lat": 52.006672}}, {"id": 2744014, "name": "Zeeland", "country": "NL", "coord": {"lon": 5.67639, "lat": 51.697498}}, {"id": 2744122, "name": "Zaamslag", "country": "NL", "coord": {"lon": 3.9125, "lat": 51.3125}}, {"id": 2744129, "name": "Yerseke", "country": "NL", "coord": {"lon": 4.05, "lat": 51.4925}}, {"id": 2744147, "name": "Walterswald", "country": "NL", "coord": {"lon": 6.03333, "lat": 53.299999}}, {"id": 2744153, "name": "Woudsend", "country": "NL", "coord": {"lon": 5.62843, "lat": 52.943569}}, {"id": 2744156, "name": "Woudrichem", "country": "NL", "coord": {"lon": 5.00139, "lat": 51.814999}}, {"id": 2744163, "name": "Woudenberg", "country": "NL", "coord": {"lon": 5.41667, "lat": 52.08083}}, {"id": 2744179, "name": "Workum", "country": "NL", "coord": {"lon": 5.4471, "lat": 52.979691}}, {"id": 2744191, "name": "Wommels", "country": "NL", "coord": {"lon": 5.58749, "lat": 53.108829}}, {"id": 2744219, "name": "Wolfheze", "country": "NL", "coord": {"lon": 5.79028, "lat": 52.00333}}, {"id": 2744327, "name": "Wirdum", "country": "NL", "coord": {"lon": 5.80387, "lat": 53.14893}}, {"id": 2744337, "name": "Winsum", "country": "NL", "coord": {"lon": 6.52083, "lat": 53.330002}}, {"id": 2744338, "name": "Winsum", "country": "NL", "coord": {"lon": 5.63359, "lat": 53.151901}}, {"id": 2744373, "name": "Wilp", "country": "NL", "coord": {"lon": 6.15, "lat": 52.21833}}, {"id": 2744388, "name": "Willemstad", "country": "NL", "coord": {"lon": 4.43889, "lat": 51.691669}}, {"id": 2744489, "name": "Wijhe", "country": "NL", "coord": {"lon": 6.13472, "lat": 52.386669}}, {"id": 2744608, "name": "West-Terschelling", "country": "NL", "coord": {"lon": 5.21482, "lat": 53.359112}}, {"id": 2744741, "name": "Westerhaar-Vriezenveensewijk", "country": "NL", "coord": {"lon": 6.62361, "lat": 52.45583}}, {"id": 2744800, "name": "Westdorpe", "country": "NL", "coord": {"lon": 3.82639, "lat": 51.232498}}, {"id": 2744859, "name": "Wellerlooi", "country": "NL", "coord": {"lon": 6.13611, "lat": 51.534168}}, {"id": 2744869, "name": "Welberg", "country": "NL", "coord": {"lon": 4.33056, "lat": 51.576672}}, {"id": 2744871, "name": "Wekerom", "country": "NL", "coord": {"lon": 5.71389, "lat": 52.112499}}, {"id": 2744994, "name": "Waspik", "country": "NL", "coord": {"lon": 4.94444, "lat": 51.686668}}, {"id": 2744998, "name": "Warten", "country": "NL", "coord": {"lon": 5.9, "lat": 53.150002}}, {"id": 2745003, "name": "Warnsveld", "country": "NL", "coord": {"lon": 6.23056, "lat": 52.137501}}, {"id": 2745018, "name": "Wergea", "country": "NL", "coord": {"lon": 5.84404, "lat": 53.151451}}, {"id": 2745048, "name": "Wanneperveen", "country": "NL", "coord": {"lon": 6.12222, "lat": 52.705002}}, {"id": 2745169, "name": "Vroomshoop", "country": "NL", "coord": {"lon": 6.56528, "lat": 52.460831}}, {"id": 2745182, "name": "Vriezenveen", "country": "NL", "coord": {"lon": 6.62222, "lat": 52.408329}}, {"id": 2745189, "name": "Vries", "country": "NL", "coord": {"lon": 6.57778, "lat": 53.074169}}, {"id": 2745196, "name": "Vreeland", "country": "NL", "coord": {"lon": 5.03194, "lat": 52.23}}, {"id": 2745271, "name": "Voorthuizen", "country": "NL", "coord": {"lon": 5.60556, "lat": 52.186668}}, {"id": 2745333, "name": "Vollenhove", "country": "NL", "coord": {"lon": 5.95417, "lat": 52.680828}}, {"id": 2745338, "name": "Volkel", "country": "NL", "coord": {"lon": 5.65417, "lat": 51.642502}}, {"id": 2745369, "name": "Voerendaal", "country": "NL", "coord": {"lon": 5.92978, "lat": 50.88327}}, {"id": 2745382, "name": "Vlodrop", "country": "NL", "coord": {"lon": 6.07639, "lat": 51.133331}}, {"id": 2745388, "name": "Vlist", "country": "NL", "coord": {"lon": 4.81944, "lat": 51.98}}, {"id": 2745743, "name": "Feanwalden", "country": "NL", "coord": {"lon": 5.98832, "lat": 53.23558}}, {"id": 2745800, "name": "Varsseveld", "country": "NL", "coord": {"lon": 6.45833, "lat": 51.943329}}, {"id": 2745874, "name": "Valkenburg", "country": "NL", "coord": {"lon": 5.83056, "lat": 50.86417}}, {"id": 2745885, "name": "Valburg", "country": "NL", "coord": {"lon": 5.79028, "lat": 51.911671}}, {"id": 2745892, "name": "Vaassen", "country": "NL", "coord": {"lon": 5.96667, "lat": 52.285831}}, {"id": 2745926, "name": "Urmond", "country": "NL", "coord": {"lon": 5.77222, "lat": 50.990829}}, {"id": 2745944, "name": "Ulrum", "country": "NL", "coord": {"lon": 6.33333, "lat": 53.359169}}, {"id": 2745978, "name": "Uitgeest", "country": "NL", "coord": {"lon": 4.70972, "lat": 52.529171}}, {"id": 2746009, "name": "Uddel", "country": "NL", "coord": {"lon": 5.78056, "lat": 52.259171}}, {"id": 2746014, "name": "Ubachsberg", "country": "NL", "coord": {"lon": 5.94861, "lat": 50.853329}}, {"id": 2746023, "name": "Tzummarum", "country": "NL", "coord": {"lon": 5.54612, "lat": 53.237331}}, {"id": 2746024, "name": "Tzum", "country": "NL", "coord": {"lon": 5.56277, "lat": 53.158989}}, {"id": 2746038, "name": "Tynaarlo", "country": "NL", "coord": {"lon": 6.61667, "lat": 53.077499}}, {"id": 2746051, "name": "Twijzelerheide", "country": "NL", "coord": {"lon": 6.04591, "lat": 53.24015}}, {"id": 2746052, "name": "Twijzel", "country": "NL", "coord": {"lon": 6.08952, "lat": 53.231522}}, {"id": 2746060, "name": "Twello", "country": "NL", "coord": {"lon": 6.10278, "lat": 52.236671}}, {"id": 2746120, "name": "Tuk", "country": "NL", "coord": {"lon": 6.09444, "lat": 52.796669}}, {"id": 2746304, "name": "Tijnje", "country": "NL", "coord": {"lon": 5.99193, "lat": 53.030579}}, {"id": 2746311, "name": "Tytsjerk", "country": "NL", "coord": {"lon": 5.90961, "lat": 53.213428}}, {"id": 2746354, "name": "t Hofke", "country": "NL", "coord": {"lon": 5.51926, "lat": 51.449429}}, {"id": 2746407, "name": "Terschuur", "country": "NL", "coord": {"lon": 5.51667, "lat": 52.165001}}, {"id": 2746424, "name": "Ternaard", "country": "NL", "coord": {"lon": 5.96523, "lat": 53.38203}}, {"id": 2746557, "name": "Surhuizum", "country": "NL", "coord": {"lon": 6.17981, "lat": 53.20475}}, {"id": 2746558, "name": "Surhuisterveen", "country": "NL", "coord": {"lon": 6.17031, "lat": 53.184769}}, {"id": 2746565, "name": "Sumar", "country": "NL", "coord": {"lon": 6, "lat": 53.183331}}, {"id": 2746596, "name": "Stroe", "country": "NL", "coord": {"lon": 5.69167, "lat": 52.185829}}, {"id": 2746705, "name": "Stiens", "country": "NL", "coord": {"lon": 5.75769, "lat": 53.262341}}, {"id": 2746748, "name": "Stein", "country": "NL", "coord": {"lon": 5.76667, "lat": 50.96917}}, {"id": 2746752, "name": "Steggerda", "country": "NL", "coord": {"lon": 6.07548, "lat": 52.857342}}, {"id": 2746761, "name": "Steenwijkerwold", "country": "NL", "coord": {"lon": 6.06389, "lat": 52.804169}}, {"id": 2746974, "name": "Spankeren", "country": "NL", "coord": {"lon": 6.1125, "lat": 52.058331}}, {"id": 2746981, "name": "Spakenburg", "country": "NL", "coord": {"lon": 5.36667, "lat": 52.25}}, {"id": 2747010, "name": "Son", "country": "NL", "coord": {"lon": 5.49282, "lat": 51.51136}}, {"id": 2747109, "name": "Sluiskil", "country": "NL", "coord": {"lon": 3.83611, "lat": 51.278332}}, {"id": 2747143, "name": "Slochteren", "country": "NL", "coord": {"lon": 6.80547, "lat": 53.220779}}, {"id": 2747229, "name": "Sint Odilienberg", "country": "NL", "coord": {"lon": 6, "lat": 51.14333}}, {"id": 2747231, "name": "Sint Nicolaasga", "country": "NL", "coord": {"lon": 5.74242, "lat": 52.922932}}, {"id": 2747234, "name": "Sint-Michielsgestel", "country": "NL", "coord": {"lon": 5.35278, "lat": 51.64167}}, {"id": 2747262, "name": "Sint Jansklooster", "country": "NL", "coord": {"lon": 6.00556, "lat": 52.677502}}, {"id": 2747270, "name": "Sint Jacobiparochie", "country": "NL", "coord": {"lon": 5.60354, "lat": 53.272911}}, {"id": 2747290, "name": "Sint Anthonis", "country": "NL", "coord": {"lon": 5.88194, "lat": 51.626671}}, {"id": 2747297, "name": "Sint Annaparochie", "country": "NL", "coord": {"lon": 5.65727, "lat": 53.276199}}, {"id": 2747348, "name": "Sibbe", "country": "NL", "coord": {"lon": 5.82639, "lat": 50.84417}}, {"id": 2747357, "name": "s-Heerenberg", "country": "NL", "coord": {"lon": 6.25877, "lat": 51.876701}}, {"id": 2747371, "name": "s Gravenmoer", "country": "NL", "coord": {"lon": 4.94076, "lat": 51.655941}}, {"id": 2747380, "name": "Sexbierum", "country": "NL", "coord": {"lon": 5.48402, "lat": 53.218231}}, {"id": 2747506, "name": "Schoonhoven", "country": "NL", "coord": {"lon": 4.84861, "lat": 51.947498}}, {"id": 2747515, "name": "Schoonebeek", "country": "NL", "coord": {"lon": 6.88472, "lat": 52.662498}}, {"id": 2747550, "name": "Schinveld", "country": "NL", "coord": {"lon": 5.97917, "lat": 50.96917}}, {"id": 2747551, "name": "Schin op Geul", "country": "NL", "coord": {"lon": 5.86944, "lat": 50.854172}}, {"id": 2747553, "name": "Schinnen", "country": "NL", "coord": {"lon": 5.88889, "lat": 50.943329}}, {"id": 2747671, "name": "Scharnegoutum", "country": "NL", "coord": {"lon": 5.67822, "lat": 53.060509}}, {"id": 2747680, "name": "Scharendijke", "country": "NL", "coord": {"lon": 3.84306, "lat": 51.735828}}, {"id": 2747704, "name": "Schalkhaar", "country": "NL", "coord": {"lon": 6.19444, "lat": 52.26833}}, {"id": 2747713, "name": "Schaijk", "country": "NL", "coord": {"lon": 5.63194, "lat": 51.745831}}, {"id": 2747749, "name": "Sas van Gent", "country": "NL", "coord": {"lon": 3.79861, "lat": 51.227501}}, {"id": 2747751, "name": "Sassenheim", "country": "NL", "coord": {"lon": 4.52222, "lat": 52.224998}}, {"id": 2747758, "name": "Sappemeer", "country": "NL", "coord": {"lon": 6.79028, "lat": 53.164169}}, {"id": 2747835, "name": "Ruinen", "country": "NL", "coord": {"lon": 6.35417, "lat": 52.762501}}, {"id": 2747865, "name": "Rozendaal", "country": "NL", "coord": {"lon": 5.9625, "lat": 52.005829}}, {"id": 2747886, "name": "Rottevalle", "country": "NL", "coord": {"lon": 6.10411, "lat": 53.145229}}, {"id": 2747938, "name": "Reduzum", "country": "NL", "coord": {"lon": 5.78765, "lat": 53.117748}}, {"id": 2748051, "name": "Rinsumageast", "country": "NL", "coord": {"lon": 5.94931, "lat": 53.296951}}, {"id": 2748104, "name": "Rijnsburg", "country": "NL", "coord": {"lon": 4.44167, "lat": 52.189999}}, {"id": 2748201, "name": "Rheden", "country": "NL", "coord": {"lon": 6.02917, "lat": 52.005001}}, {"id": 2748208, "name": "Reuver", "country": "NL", "coord": {"lon": 6.07778, "lat": 51.284168}}, {"id": 2748236, "name": "Renkum", "country": "NL", "coord": {"lon": 5.73333, "lat": 51.976669}}, {"id": 2748240, "name": "Renesse", "country": "NL", "coord": {"lon": 3.775, "lat": 51.732498}}, {"id": 2748280, "name": "Reeuwijk", "country": "NL", "coord": {"lon": 4.725, "lat": 52.046669}}, {"id": 2748286, "name": "Reek", "country": "NL", "coord": {"lon": 5.68194, "lat": 51.745831}}, {"id": 2748329, "name": "Randwijk", "country": "NL", "coord": {"lon": 5.70833, "lat": 51.953331}}, {"id": 2748403, "name": "Puth", "country": "NL", "coord": {"lon": 5.87361, "lat": 50.95417}}, {"id": 2748481, "name": "Posterholt", "country": "NL", "coord": {"lon": 6.03472, "lat": 51.123329}}, {"id": 2748864, "name": "Overberg", "country": "NL", "coord": {"lon": 5.49444, "lat": 52.040001}}, {"id": 2748926, "name": "Oud-Loosdrecht", "country": "NL", "coord": {"lon": 5.08056, "lat": 52.206669}}, {"id": 2748968, "name": "Oude Wetering", "country": "NL", "coord": {"lon": 4.64444, "lat": 52.214169}}, {"id": 2748979, "name": "Oudewater", "country": "NL", "coord": {"lon": 4.86806, "lat": 52.025002}}, {"id": 2749007, "name": "Oudeschoot", "country": "NL", "coord": {"lon": 5.95579, "lat": 52.93343}}, {"id": 2749017, "name": "Ouderkerk aan de Amstel", "country": "NL", "coord": {"lon": 4.90746, "lat": 52.29504}}, {"id": 2749034, "name": "Oude Pekela", "country": "NL", "coord": {"lon": 7.00972, "lat": 53.104172}}, {"id": 2749061, "name": "Oudemirdum", "country": "NL", "coord": {"lon": 5.53544, "lat": 52.850189}}, {"id": 2749120, "name": "Oudehaske", "country": "NL", "coord": {"lon": 5.87095, "lat": 52.957088}}, {"id": 2749136, "name": "Oudega", "country": "NL", "coord": {"lon": 5.99888, "lat": 53.125038}}, {"id": 2749203, "name": "Otterlo", "country": "NL", "coord": {"lon": 5.77222, "lat": 52.099998}}, {"id": 2749281, "name": "Opperdoes", "country": "NL", "coord": {"lon": 5.07534, "lat": 52.759151}}, {"id": 2749284, "name": "Oppenhuizen", "country": "NL", "coord": {"lon": 5.69495, "lat": 53.01194}}, {"id": 2749286, "name": "Opmeer", "country": "NL", "coord": {"lon": 4.94444, "lat": 52.706669}}, {"id": 2749304, "name": "Opeinde", "country": "NL", "coord": {"lon": 6.05656, "lat": 53.134102}}, {"id": 2749334, "name": "Oost-Vlieland", "country": "NL", "coord": {"lon": 5.07431, "lat": 53.297031}}, {"id": 2749423, "name": "Oosterpark", "country": "NL", "coord": {"lon": 6.5853, "lat": 53.223701}}, {"id": 2749430, "name": "Eastermar", "country": "NL", "coord": {"lon": 6.05999, "lat": 53.17466}}, {"id": 2749449, "name": "Oosterhout", "country": "NL", "coord": {"lon": 5.82639, "lat": 51.880001}}, {"id": 2749503, "name": "Oosterbeek", "country": "NL", "coord": {"lon": 5.84583, "lat": 51.985828}}, {"id": 2749513, "name": "Oostelbeers", "country": "NL", "coord": {"lon": 5.26897, "lat": 51.47171}}, {"id": 2749626, "name": "Olst", "country": "NL", "coord": {"lon": 6.10972, "lat": 52.337502}}, {"id": 2749653, "name": "Oldemarkt", "country": "NL", "coord": {"lon": 5.975, "lat": 52.820831}}, {"id": 2749660, "name": "Oldehove", "country": "NL", "coord": {"lon": 6.39583, "lat": 53.303329}}, {"id": 2749669, "name": "Aldeboarn", "country": "NL", "coord": {"lon": 5.9, "lat": 53.049999}}, {"id": 2749683, "name": "Oirschot", "country": "NL", "coord": {"lon": 5.31389, "lat": 51.505001}}, {"id": 2749685, "name": "Oirsbeek", "country": "NL", "coord": {"lon": 5.90833, "lat": 50.950829}}, {"id": 2749696, "name": "Offenbeek", "country": "NL", "coord": {"lon": 6.095, "lat": 51.282249}}, {"id": 2749703, "name": "Oerle", "country": "NL", "coord": {"lon": 5.37163, "lat": 51.42255}}, {"id": 2749708, "name": "Oentsjerk", "country": "NL", "coord": {"lon": 5.9, "lat": 53.25}}, {"id": 2749712, "name": "Oene", "country": "NL", "coord": {"lon": 6.04861, "lat": 52.34417}}, {"id": 2749807, "name": "Noordwolde", "country": "NL", "coord": {"lon": 6.14153, "lat": 52.889641}}, {"id": 2749875, "name": "Noordhorn", "country": "NL", "coord": {"lon": 6.39583, "lat": 53.261669}}, {"id": 2749992, "name": "Noardburgum", "country": "NL", "coord": {"lon": 6.00523, "lat": 53.221352}}, {"id": 2750117, "name": "Nieuw-Vossemeer", "country": "NL", "coord": {"lon": 4.21806, "lat": 51.59}}, {"id": 2750157, "name": "Nieuw-Lotbroek", "country": "NL", "coord": {"lon": 5.92798, "lat": 50.91283}}, {"id": 2750158, "name": "Nieuw-Loosdrecht", "country": "NL", "coord": {"lon": 5.13889, "lat": 52.199169}}, {"id": 2750163, "name": "Nieuw-Lekkerland", "country": "NL", "coord": {"lon": 4.68653, "lat": 51.889149}}, {"id": 2750187, "name": "Nieuwkoop", "country": "NL", "coord": {"lon": 4.77639, "lat": 52.150829}}, {"id": 2750194, "name": "Nieuw-Helvoet", "country": "NL", "coord": {"lon": 4.12897, "lat": 51.838428}}, {"id": 2750280, "name": "Nieuwenhoorn", "country": "NL", "coord": {"lon": 4.14306, "lat": 51.854172}}, {"id": 2750310, "name": "Nieuwehorne", "country": "NL", "coord": {"lon": 6.06342, "lat": 52.95113}}, {"id": 2750417, "name": "Nes", "country": "NL", "coord": {"lon": 5.774, "lat": 53.445019}}, {"id": 2750420, "name": "Nes", "country": "NL", "coord": {"lon": 5.85223, "lat": 53.052071}}, {"id": 2750444, "name": "Neerijnen", "country": "NL", "coord": {"lon": 5.28194, "lat": 51.831669}}, {"id": 2750460, "name": "Neede", "country": "NL", "coord": {"lon": 6.61389, "lat": 52.134171}}, {"id": 2750479, "name": "Nederhemert-Noord", "country": "NL", "coord": {"lon": 5.17305, "lat": 51.763222}}, {"id": 2750480, "name": "Nederhemert", "country": "NL", "coord": {"lon": 5.16817, "lat": 51.765179}}, {"id": 2750626, "name": "Montfoort", "country": "NL", "coord": {"lon": 4.95278, "lat": 52.04583}}, {"id": 2750641, "name": "Monnickendam", "country": "NL", "coord": {"lon": 5.0375, "lat": 52.458328}}, {"id": 2750790, "name": "Minnertsga", "country": "NL", "coord": {"lon": 5.59513, "lat": 53.251041}}, {"id": 2750810, "name": "Mijnsheerenland", "country": "NL", "coord": {"lon": 4.4875, "lat": 51.796669}}, {"id": 2750821, "name": "Mierlo", "country": "NL", "coord": {"lon": 5.61944, "lat": 51.439999}}, {"id": 2750903, "name": "Middelbeers", "country": "NL", "coord": {"lon": 5.25, "lat": 51.466671}}, {"id": 2750938, "name": "Merkelbeek", "country": "NL", "coord": {"lon": 5.94069, "lat": 50.953892}}, {"id": 2750965, "name": "Menaam", "country": "NL", "coord": {"lon": 5.66124, "lat": 53.217972}}, {"id": 2750978, "name": "Melick", "country": "NL", "coord": {"lon": 6.01667, "lat": 51.159168}}, {"id": 2751122, "name": "Marsum", "country": "NL", "coord": {"lon": 5.72637, "lat": 53.210499}}, {"id": 2751129, "name": "Marrum", "country": "NL", "coord": {"lon": 5.80198, "lat": 53.322769}}, {"id": 2751161, "name": "Markelo", "country": "NL", "coord": {"lon": 6.49861, "lat": 52.235001}}, {"id": 2751180, "name": "Mariarade", "country": "NL", "coord": {"lon": 5.92738, "lat": 50.929062}}, {"id": 2751193, "name": "Mariaheide", "country": "NL", "coord": {"lon": 5.58056, "lat": 51.633331}}, {"id": 2751199, "name": "Margraten", "country": "NL", "coord": {"lon": 5.82083, "lat": 50.820831}}, {"id": 2751212, "name": "Mantgum", "country": "NL", "coord": {"lon": 5.71924, "lat": 53.128651}}, {"id": 2751253, "name": "Makkum", "country": "NL", "coord": {"lon": 5.67946, "lat": 53.095131}}, {"id": 2751254, "name": "Makkum", "country": "NL", "coord": {"lon": 5.40231, "lat": 53.054581}}, {"id": 2751264, "name": "Magele", "country": "NL", "coord": {"lon": 6.52083, "lat": 52.46917}}, {"id": 2751296, "name": "Maasdijk", "country": "NL", "coord": {"lon": 4.21389, "lat": 51.959171}}, {"id": 2751301, "name": "Maasbree", "country": "NL", "coord": {"lon": 6.04861, "lat": 51.357498}}, {"id": 2751303, "name": "Maasbracht", "country": "NL", "coord": {"lon": 5.88627, "lat": 51.13929}}, {"id": 2751318, "name": "Maarsbergen", "country": "NL", "coord": {"lon": 5.40556, "lat": 52.058331}}, {"id": 2751320, "name": "Maarn", "country": "NL", "coord": {"lon": 5.37083, "lat": 52.064171}}, {"id": 2751385, "name": "Lunteren", "country": "NL", "coord": {"lon": 5.62222, "lat": 52.084999}}, {"id": 2751436, "name": "Lopik", "country": "NL", "coord": {"lon": 4.94861, "lat": 51.9725}}, {"id": 2751449, "name": "Loosbroek", "country": "NL", "coord": {"lon": 5.50694, "lat": 51.678329}}, {"id": 2751524, "name": "Loenen", "country": "NL", "coord": {"lon": 6.01944, "lat": 52.1175}}, {"id": 2751537, "name": "Lochem", "country": "NL", "coord": {"lon": 6.41111, "lat": 52.159168}}, {"id": 2751599, "name": "Limbricht", "country": "NL", "coord": {"lon": 5.8375, "lat": 51.011669}}, {"id": 2751621, "name": "Liesveld", "country": "NL", "coord": {"lon": 4.83194, "lat": 51.932499}}, {"id": 2751641, "name": "Lienden", "country": "NL", "coord": {"lon": 5.51806, "lat": 51.94833}}, {"id": 2751709, "name": "Lepelstraat", "country": "NL", "coord": {"lon": 4.27639, "lat": 51.548328}}, {"id": 2751750, "name": "Leimuiden", "country": "NL", "coord": {"lon": 4.66944, "lat": 52.224171}}, {"id": 2751789, "name": "Leeuwen", "country": "NL", "coord": {"lon": 5.99862, "lat": 51.21032}}, {"id": 2751793, "name": "Leesten", "country": "NL", "coord": {"lon": 6.23217, "lat": 52.127899}}, {"id": 2751801, "name": "Leersum", "country": "NL", "coord": {"lon": 5.42778, "lat": 52.011669}}, {"id": 2751874, "name": "Laren", "country": "NL", "coord": {"lon": 5.22778, "lat": 52.256672}}, {"id": 2751875, "name": "Laren", "country": "NL", "coord": {"lon": 6.36528, "lat": 52.194172}}, {"id": 2751980, "name": "Landsmeer", "country": "NL", "coord": {"lon": 4.91528, "lat": 52.430828}}, {"id": 2752130, "name": "Kwintsheul", "country": "NL", "coord": {"lon": 4.25556, "lat": 52.013329}}, {"id": 2752151, "name": "Kunrade", "country": "NL", "coord": {"lon": 5.93107, "lat": 50.877689}}, {"id": 2752192, "name": "Kruisland", "country": "NL", "coord": {"lon": 4.40972, "lat": 51.569172}}, {"id": 2752367, "name": "Koudum", "country": "NL", "coord": {"lon": 5.44834, "lat": 52.915508}}, {"id": 2752409, "name": "Kortenhoef", "country": "NL", "coord": {"lon": 5.10694, "lat": 52.23917}}, {"id": 2752441, "name": "Kootwijkerbroek", "country": "NL", "coord": {"lon": 5.66944, "lat": 52.150829}}, {"id": 2752444, "name": "Kootstertille", "country": "NL", "coord": {"lon": 6.09209, "lat": 53.212608}}, {"id": 2752492, "name": "Koningsbosch", "country": "NL", "coord": {"lon": 5.95833, "lat": 51.05167}}, {"id": 2752520, "name": "Kollumerzwaag", "country": "NL", "coord": {"lon": 6.07544, "lat": 53.262241}}, {"id": 2752524, "name": "Kollum", "country": "NL", "coord": {"lon": 6.15293, "lat": 53.276951}}, {"id": 2752547, "name": "Koewacht", "country": "NL", "coord": {"lon": 3.97361, "lat": 51.228329}}, {"id": 2752600, "name": "Klundert", "country": "NL", "coord": {"lon": 4.53472, "lat": 51.665001}}, {"id": 2752646, "name": "Klimmen", "country": "NL", "coord": {"lon": 5.88056, "lat": 50.875832}}, {"id": 2752798, "name": "Klazienaveen", "country": "NL", "coord": {"lon": 6.99028, "lat": 52.724171}}, {"id": 2752950, "name": "Marken", "country": "NL", "coord": {"lon": 5.10278, "lat": 52.458328}}, {"id": 2752969, "name": "Keldonk", "country": "NL", "coord": {"lon": 5.58472, "lat": 51.58667}}, {"id": 2753197, "name": "Joure", "country": "NL", "coord": {"lon": 5.80301, "lat": 52.965698}}, {"id": 2753307, "name": "Jirnsum", "country": "NL", "coord": {"lon": 5.79254, "lat": 53.07753}}, {"id": 2753379, "name": "IJlst", "country": "NL", "coord": {"lon": 5.62312, "lat": 53.01009}}, {"id": 2753470, "name": "Huizum", "country": "NL", "coord": {"lon": 5.81119, "lat": 53.1917}}, {"id": 2753548, "name": "Houthem", "country": "NL", "coord": {"lon": 5.79306, "lat": 50.872501}}, {"id": 2753806, "name": "Honselersdijk", "country": "NL", "coord": {"lon": 4.22441, "lat": 52.006649}}, {"id": 2753852, "name": "Holwerd", "country": "NL", "coord": {"lon": 5.90073, "lat": 53.368149}}, {"id": 2753887, "name": "Hollum", "country": "NL", "coord": {"lon": 5.63805, "lat": 53.4394}}, {"id": 2754111, "name": "Heythuysen", "country": "NL", "coord": {"lon": 5.89861, "lat": 51.25}}, {"id": 2754287, "name": "Heteren", "country": "NL", "coord": {"lon": 5.75556, "lat": 51.956669}}, {"id": 2754322, "name": "Herveld", "country": "NL", "coord": {"lon": 5.75417, "lat": 51.90583}}, {"id": 2754352, "name": "Herkenbosch", "country": "NL", "coord": {"lon": 6.06389, "lat": 51.153332}}, {"id": 2754389, "name": "Hengevelde", "country": "NL", "coord": {"lon": 6.63611, "lat": 52.199169}}, {"id": 2754507, "name": "Heinenoord", "country": "NL", "coord": {"lon": 4.47659, "lat": 51.826019}}, {"id": 2754618, "name": "Heeze", "country": "NL", "coord": {"lon": 5.57145, "lat": 51.382801}}, {"id": 2754662, "name": "Heerewaarden", "country": "NL", "coord": {"lon": 5.393, "lat": 51.817692}}, {"id": 2754682, "name": "Heer", "country": "NL", "coord": {"lon": 5.72989, "lat": 50.83836}}, {"id": 2754703, "name": "Heelsum", "country": "NL", "coord": {"lon": 5.75833, "lat": 51.984169}}, {"id": 2754712, "name": "Heeg", "country": "NL", "coord": {"lon": 5.61075, "lat": 52.968601}}, {"id": 2754719, "name": "Hedel", "country": "NL", "coord": {"lon": 5.26134, "lat": 51.74802}}, {"id": 2754752, "name": "Havelte", "country": "NL", "coord": {"lon": 6.24015, "lat": 52.769409}}, {"id": 2754768, "name": "Hattem", "country": "NL", "coord": {"lon": 6.06389, "lat": 52.474998}}, {"id": 2754779, "name": "Hasselt", "country": "NL", "coord": {"lon": 6.09527, "lat": 52.59267}}, {"id": 2754804, "name": "Harskamp", "country": "NL", "coord": {"lon": 5.75278, "lat": 52.130001}}, {"id": 2754821, "name": "Harkema", "country": "NL", "coord": {"lon": 6.13333, "lat": 53.183331}}, {"id": 2754835, "name": "Harfsen", "country": "NL", "coord": {"lon": 6.29722, "lat": 52.2075}}, {"id": 2754864, "name": "Hurdegaryp", "country": "NL", "coord": {"lon": 5.94137, "lat": 53.213329}}, {"id": 2754922, "name": "Halsteren", "country": "NL", "coord": {"lon": 4.26785, "lat": 51.528339}}, {"id": 2754930, "name": "Hallum", "country": "NL", "coord": {"lon": 5.78379, "lat": 53.306568}}, {"id": 2754975, "name": "Haelen", "country": "NL", "coord": {"lon": 5.95694, "lat": 51.235828}}, {"id": 2754978, "name": "Haastrecht", "country": "NL", "coord": {"lon": 4.77639, "lat": 52.00074}}, {"id": 2755009, "name": "Haaren", "country": "NL", "coord": {"lon": 5.22222, "lat": 51.602501}}, {"id": 2755023, "name": "Haamstede", "country": "NL", "coord": {"lon": 3.74299, "lat": 51.696819}}, {"id": 2755052, "name": "Grou", "country": "NL", "coord": {"lon": 5.83333, "lat": 53.099998}}, {"id": 2755317, "name": "Grijpskerk", "country": "NL", "coord": {"lon": 6.30833, "lat": 53.262501}}, {"id": 2755399, "name": "Goutum", "country": "NL", "coord": {"lon": 5.8037, "lat": 53.177341}}, {"id": 2755428, "name": "Gorssel", "country": "NL", "coord": {"lon": 6.20139, "lat": 52.201672}}, {"id": 2755429, "name": "Gorredijk", "country": "NL", "coord": {"lon": 6.06402, "lat": 53.006592}}, {"id": 2755449, "name": "Goor", "country": "NL", "coord": {"lon": 6.58611, "lat": 52.23333}}, {"id": 2755517, "name": "Giethoorn", "country": "NL", "coord": {"lon": 6.07917, "lat": 52.740002}}, {"id": 2755533, "name": "Giessenburg", "country": "NL", "coord": {"lon": 4.89028, "lat": 51.85083}}, {"id": 2755542, "name": "Gytsjerk", "country": "NL", "coord": {"lon": 5.89502, "lat": 53.242931}}, {"id": 2755645, "name": "Geffen", "country": "NL", "coord": {"lon": 5.46389, "lat": 51.740002}}, {"id": 2755729, "name": "Garyp", "country": "NL", "coord": {"lon": 5.96667, "lat": 53.166672}}, {"id": 2755732, "name": "Garderen", "country": "NL", "coord": {"lon": 5.71389, "lat": 52.230831}}, {"id": 2755845, "name": "Franeker", "country": "NL", "coord": {"lon": 5.54123, "lat": 53.185459}}, {"id": 2755920, "name": "Ferwert", "country": "NL", "coord": {"lon": 5.82533, "lat": 53.337841}}, {"id": 2756035, "name": "Erp", "country": "NL", "coord": {"lon": 5.60694, "lat": 51.599998}}, {"id": 2756050, "name": "Epse", "country": "NL", "coord": {"lon": 6.2, "lat": 52.224998}}, {"id": 2756072, "name": "Ens", "country": "NL", "coord": {"lon": 5.82778, "lat": 52.636669}}, {"id": 2756114, "name": "Emst", "country": "NL", "coord": {"lon": 5.97361, "lat": 52.31583}}, {"id": 2756133, "name": "Emmer-Compascuum", "country": "NL", "coord": {"lon": 7.04722, "lat": 52.811668}}, {"id": 2756169, "name": "Elsloo", "country": "NL", "coord": {"lon": 5.77083, "lat": 50.949169}}, {"id": 2756200, "name": "Ellecom", "country": "NL", "coord": {"lon": 6.0875, "lat": 52.032501}}, {"id": 2756283, "name": "Eijsden", "country": "NL", "coord": {"lon": 5.7177, "lat": 50.779999}}, {"id": 2756301, "name": "Egmond aan Zee", "country": "NL", "coord": {"lon": 4.62705, "lat": 52.620399}}, {"id": 2756349, "name": "Eerde", "country": "NL", "coord": {"lon": 5.49861, "lat": 51.604172}}, {"id": 2756351, "name": "Eerbeek", "country": "NL", "coord": {"lon": 6.05833, "lat": 52.105}}, {"id": 2756418, "name": "Eefde", "country": "NL", "coord": {"lon": 6.225, "lat": 52.166672}}, {"id": 2756426, "name": "Ederveen", "country": "NL", "coord": {"lon": 5.57778, "lat": 52.063332}}, {"id": 2756431, "name": "Edam", "country": "NL", "coord": {"lon": 5.04805, "lat": 52.51215}}, {"id": 2756438, "name": "Echtenerbrug", "country": "NL", "coord": {"lon": 5.82147, "lat": 52.87141}}, {"id": 2756451, "name": "Dwingeloo", "country": "NL", "coord": {"lon": 6.36944, "lat": 52.834171}}, {"id": 2756504, "name": "Duivendrecht", "country": "NL", "coord": {"lon": 4.93964, "lat": 52.329411}}, {"id": 2756561, "name": "Dronryp", "country": "NL", "coord": {"lon": 5.65, "lat": 53.200001}}, {"id": 2756567, "name": "Drogeham", "country": "NL", "coord": {"lon": 6.11183, "lat": 53.202129}}, {"id": 2756591, "name": "Driel", "country": "NL", "coord": {"lon": 5.81389, "lat": 51.959171}}, {"id": 2756642, "name": "Drachtstercompagnie", "country": "NL", "coord": {"lon": 6.14153, "lat": 53.134621}}, {"id": 2756673, "name": "Doorwerth", "country": "NL", "coord": {"lon": 5.79722, "lat": 51.979172}}, {"id": 2756686, "name": "Doorn", "country": "NL", "coord": {"lon": 5.34571, "lat": 52.033428}}, {"id": 2756759, "name": "Dokkum", "country": "NL", "coord": {"lon": 5.99698, "lat": 53.322239}}, {"id": 2756772, "name": "Doesburg", "country": "NL", "coord": {"lon": 6.13889, "lat": 52.012501}}, {"id": 2756774, "name": "Doenrade", "country": "NL", "coord": {"lon": 5.90694, "lat": 50.967499}}, {"id": 2756787, "name": "Dirksland", "country": "NL", "coord": {"lon": 4.1, "lat": 51.749168}}, {"id": 2756800, "name": "Dinteloord", "country": "NL", "coord": {"lon": 4.36944, "lat": 51.634998}}, {"id": 2756878, "name": "Diepenheim", "country": "NL", "coord": {"lon": 6.55556, "lat": 52.200001}}, {"id": 2757041, "name": "De Steeg", "country": "NL", "coord": {"lon": 6.06111, "lat": 52.02}}, {"id": 2757194, "name": "Den Oever", "country": "NL", "coord": {"lon": 5.03079, "lat": 52.933529}}, {"id": 2757244, "name": "Den Burg", "country": "NL", "coord": {"lon": 4.79722, "lat": 53.054169}}, {"id": 2757336, "name": "De Lier", "country": "NL", "coord": {"lon": 4.24861, "lat": 51.974998}}, {"id": 2757370, "name": "Delden", "country": "NL", "coord": {"lon": 6.71111, "lat": 52.259998}}, {"id": 2757475, "name": "Deinum", "country": "NL", "coord": {"lon": 5.72431, "lat": 53.191818}}, {"id": 2757493, "name": "De Horst", "country": "NL", "coord": {"lon": 5.96806, "lat": 51.77417}}, {"id": 2757685, "name": "De Doornakkers", "country": "NL", "coord": {"lon": 5.50887, "lat": 51.438438}}, {"id": 2757838, "name": "Damwald", "country": "NL", "coord": {"lon": 5.99785, "lat": 53.290459}}, {"id": 2757937, "name": "Coevorden", "country": "NL", "coord": {"lon": 6.74046, "lat": 52.66103}}, {"id": 2758081, "name": "Burgh", "country": "NL", "coord": {"lon": 3.73333, "lat": 51.689171}}, {"id": 2758106, "name": "Bunnik", "country": "NL", "coord": {"lon": 5.19861, "lat": 52.066669}}, {"id": 2758131, "name": "Buitenpost", "country": "NL", "coord": {"lon": 6.14483, "lat": 53.251659}}, {"id": 2758186, "name": "Bruinisse", "country": "NL", "coord": {"lon": 4.09444, "lat": 51.661671}}, {"id": 2758239, "name": "Broeksterwald", "country": "NL", "coord": {"lon": 5.99648, "lat": 53.274658}}, {"id": 2758275, "name": "Broekhem", "country": "NL", "coord": {"lon": 5.82069, "lat": 50.871189}}, {"id": 2758309, "name": "Britsum", "country": "NL", "coord": {"lon": 5.78576, "lat": 53.25428}}, {"id": 2758333, "name": "Breukelen", "country": "NL", "coord": {"lon": 5.00139, "lat": 52.174171}}, {"id": 2758336, "name": "Breugel", "country": "NL", "coord": {"lon": 5.51111, "lat": 51.517502}}, {"id": 2758391, "name": "Bredeweg", "country": "NL", "coord": {"lon": 5.94189, "lat": 51.760189}}, {"id": 2758393, "name": "Bredevoort", "country": "NL", "coord": {"lon": 6.62083, "lat": 51.941669}}, {"id": 2758500, "name": "Boven-Hardinxveld", "country": "NL", "coord": {"lon": 4.88194, "lat": 51.82333}}, {"id": 2758549, "name": "Boskamp", "country": "NL", "coord": {"lon": 6.12778, "lat": 52.33083}}, {"id": 2758626, "name": "Borculo", "country": "NL", "coord": {"lon": 6.52222, "lat": 52.115829}}, {"id": 2758633, "name": "Boornbergum", "country": "NL", "coord": {"lon": 6.04578, "lat": 53.08284}}, {"id": 2758682, "name": "Bolsward", "country": "NL", "coord": {"lon": 5.53176, "lat": 53.06554}}, {"id": 2758748, "name": "Boelenslaan", "country": "NL", "coord": {"lon": 6.14479, "lat": 53.161701}}, {"id": 2758759, "name": "Boekel", "country": "NL", "coord": {"lon": 5.675, "lat": 51.603329}}, {"id": 2758777, "name": "Blokzijl", "country": "NL", "coord": {"lon": 5.96111, "lat": 52.726669}}, {"id": 2758803, "name": "Bloemendaal", "country": "NL", "coord": {"lon": 4.6944, "lat": 52.028782}}, {"id": 2758868, "name": "Blaricum", "country": "NL", "coord": {"lon": 5.24167, "lat": 52.272499}}, {"id": 2758895, "name": "Burdaard", "country": "NL", "coord": {"lon": 5.87897, "lat": 53.294209}}, {"id": 2758930, "name": "Bilgaard", "country": "NL", "coord": {"lon": 5.79574, "lat": 53.2155}}, {"id": 2758992, "name": "Biddinghuizen", "country": "NL", "coord": {"lon": 5.69306, "lat": 52.455002}}, {"id": 2759057, "name": "Berltsum", "country": "NL", "coord": {"lon": 5.65101, "lat": 53.243698}}, {"id": 2759103, "name": "Burgum", "country": "NL", "coord": {"lon": 5.99009, "lat": 53.192429}}, {"id": 2759126, "name": "Berghem", "country": "NL", "coord": {"lon": 5.56827, "lat": 51.769909}}, {"id": 2759129, "name": "Bergharen", "country": "NL", "coord": {"lon": 5.66944, "lat": 51.85083}}, {"id": 2759147, "name": "Berg en Dal", "country": "NL", "coord": {"lon": 5.91667, "lat": 51.821671}}, {"id": 2759163, "name": "Berg", "country": "NL", "coord": {"lon": 5.77083, "lat": 51.004169}}, {"id": 2759164, "name": "Berg", "country": "NL", "coord": {"lon": 5.78333, "lat": 50.861671}}, {"id": 2759197, "name": "Bennekom", "country": "NL", "coord": {"lon": 5.67639, "lat": 51.998329}}, {"id": 2759199, "name": "Bennebroek", "country": "NL", "coord": {"lon": 4.59861, "lat": 52.320831}}, {"id": 2759286, "name": "Beesel", "country": "NL", "coord": {"lon": 6.03889, "lat": 51.26833}}, {"id": 2759342, "name": "Beekbergen", "country": "NL", "coord": {"lon": 5.96389, "lat": 52.16}}, {"id": 2759356, "name": "Bedum", "country": "NL", "coord": {"lon": 6.60278, "lat": 53.300831}}, {"id": 2759429, "name": "Barchem", "country": "NL", "coord": {"lon": 6.44306, "lat": 52.124168}}, {"id": 2759472, "name": "Balk", "country": "NL", "coord": {"lon": 5.57964, "lat": 52.89756}}, {"id": 2759581, "name": "Baak", "country": "NL", "coord": {"lon": 6.22778, "lat": 52.077499}}, {"id": 2759594, "name": "Axel", "country": "NL", "coord": {"lon": 3.90833, "lat": 51.26667}}, {"id": 2759611, "name": "Augustinusga", "country": "NL", "coord": {"lon": 6.1617, "lat": 53.21785}}, {"id": 2759684, "name": "Arcen", "country": "NL", "coord": {"lon": 6.18056, "lat": 51.476669}}, {"id": 2759687, "name": "Appingedam", "country": "NL", "coord": {"lon": 6.85833, "lat": 53.321671}}, {"id": 2759757, "name": "Anjum", "country": "NL", "coord": {"lon": 6.12698, "lat": 53.374748}}, {"id": 2759781, "name": "Andelst", "country": "NL", "coord": {"lon": 5.72917, "lat": 51.908329}}, {"id": 2759796, "name": "Amstenrade", "country": "NL", "coord": {"lon": 5.92361, "lat": 50.939171}}, {"id": 2759828, "name": "Amerongen", "country": "NL", "coord": {"lon": 5.45972, "lat": 52.002499}}, {"id": 2759878, "name": "Almkerk", "country": "NL", "coord": {"lon": 4.95972, "lat": 51.770828}}, {"id": 2759884, "name": "Almen", "country": "NL", "coord": {"lon": 6.3, "lat": 52.158329}}, {"id": 2759922, "name": "Akkrum", "country": "NL", "coord": {"lon": 5.83087, "lat": 53.05024}}, {"id": 2759961, "name": "Aduard", "country": "NL", "coord": {"lon": 6.45972, "lat": 53.256672}}, {"id": 2760144, "name": "Aalburg", "country": "NL", "coord": {"lon": 5.13156, "lat": 51.754822}}, {"id": 6251994, "name": "Klundert", "country": "NL", "coord": {"lon": 4.53461, "lat": 51.662971}}, {"id": 6324403, "name": "Camminghaburen", "country": "NL", "coord": {"lon": 5.84318, "lat": 53.209728}}, {"id": 6692371, "name": "Jubbega", "country": "NL", "coord": {"lon": 6.12183, "lat": 53.00396}}, {"id": 6695503, "name": "Meerhoven", "country": "NL", "coord": {"lon": 5.41102, "lat": 51.442669}}, {"id": 6697854, "name": "De Knipe", "country": "NL", "coord": {"lon": 5.97116, "lat": 52.968288}}, {"id": 6698635, "name": "Lunetten", "country": "NL", "coord": {"lon": 5.13474, "lat": 52.061779}}, {"id": 6698718, "name": "Aarle-Rixtel", "country": "NL", "coord": {"lon": 5.63839, "lat": 51.509762}}, {"id": 6929953, "name": "Kelpen-Oler", "country": "NL", "coord": {"lon": 5.82602, "lat": 51.21817}}, {"id": 6929980, "name": "Muschberg en Geestenberg", "country": "NL", "coord": {"lon": 5.52329, "lat": 51.44384}}, {"id": 6929984, "name": "Villapark", "country": "NL", "coord": {"lon": 5.49385, "lat": 51.441441}}, {"id": 6929985, "name": "Lakerlopen", "country": "NL", "coord": {"lon": 5.50106, "lat": 51.437908}}, {"id": 6948945, "name": "Oranjewijk", "country": "NL", "coord": {"lon": 4.65374, "lat": 52.049221}}, {"id": 6948946, "name": "Vondelwijk", "country": "NL", "coord": {"lon": 4.65314, "lat": 52.05497}}, {"id": 6948947, "name": "Groenswaard", "country": "NL", "coord": {"lon": 4.64541, "lat": 52.05154}}, {"id": 6950811, "name": "Randenbroek", "country": "NL", "coord": {"lon": 5.4012, "lat": 52.148628}}, {"id": 7870365, "name": "Hoogkamp", "country": "NL", "coord": {"lon": 5.88026, "lat": 51.9963}}, {"id": 7870372, "name": "Gulden Bodem", "country": "NL", "coord": {"lon": 5.8908, "lat": 51.994282}}, {"id": 7870373, "name": "Sterrenberg", "country": "NL", "coord": {"lon": 5.88387, "lat": 51.9935}}, {"id": 7870374, "name": "Burgemeesterswijk", "country": "NL", "coord": {"lon": 5.89597, "lat": 51.989429}}, {"id": 777019, "name": "Vardo", "country": "NO", "coord": {"lon": 31.110661, "lat": 70.370483}}, {"id": 777032, "name": "Varangerbotn", "country": "NO", "coord": {"lon": 28.555981, "lat": 70.172783}}, {"id": 777073, "name": "Vadso", "country": "NO", "coord": {"lon": 29.74872, "lat": 70.074364}}, {"id": 777381, "name": "Storslett", "country": "NO", "coord": {"lon": 21.02466, "lat": 69.76783}}, {"id": 777682, "name": "Skjervoy", "country": "NO", "coord": {"lon": 20.971411, "lat": 70.031143}}, {"id": 778346, "name": "Olderdalen", "country": "NO", "coord": {"lon": 20.532721, "lat": 69.604073}}, {"id": 778362, "name": "Oksfjord", "country": "NO", "coord": {"lon": 22.34786, "lat": 70.239571}}, {"id": 778829, "name": "Lyngseidet", "country": "NO", "coord": {"lon": 20.21887, "lat": 69.576286}}, {"id": 779146, "name": "Kvalsund", "country": "NO", "coord": {"lon": 23.97974, "lat": 70.502708}}, {"id": 779261, "name": "Kjollefjord", "country": "NO", "coord": {"lon": 27.3465, "lat": 70.94574}}, {"id": 779554, "name": "Honningsvag", "country": "NO", "coord": {"lon": 25.970369, "lat": 70.982094}}, {"id": 779622, "name": "Havoysund", "country": "NO", "coord": {"lon": 24.66217, "lat": 70.996338}}, {"id": 780524, "name": "Burfjord", "country": "NO", "coord": {"lon": 22.05205, "lat": 69.938042}}, {"id": 780643, "name": "Bjornevatn", "country": "NO", "coord": {"lon": 29.98472, "lat": 69.667221}}, {"id": 780717, "name": "Batsfjord", "country": "NO", "coord": {"lon": 29.718479, "lat": 70.634453}}, {"id": 847633, "name": "Alta", "country": "NO", "coord": {"lon": 23.27165, "lat": 69.968872}}, {"id": 847634, "name": "Rypefjord", "country": "NO", "coord": {"lon": 23.66667, "lat": 70.633331}}, {"id": 3131178, "name": "Ytre Strai", "country": "NO", "coord": {"lon": 7.9, "lat": 58.200001}}, {"id": 3131246, "name": "Ytre Arna", "country": "NO", "coord": {"lon": 5.43333, "lat": 60.466671}}, {"id": 3131329, "name": "Vossevangen", "country": "NO", "coord": {"lon": 6.42286, "lat": 60.622959}}, {"id": 3131449, "name": "Volda", "country": "NO", "coord": {"lon": 6.07408, "lat": 62.147621}}, {"id": 3131538, "name": "Vinstra", "country": "NO", "coord": {"lon": 9.75232, "lat": 61.59515}}, {"id": 3131653, "name": "Vikoyri", "country": "NO", "coord": {"lon": 6.5797, "lat": 61.08794}}, {"id": 3131683, "name": "Vikesa", "country": "NO", "coord": {"lon": 6.09133, "lat": 58.637589}}, {"id": 3131684, "name": "Vikersund", "country": "NO", "coord": {"lon": 9.99501, "lat": 59.965919}}, {"id": 3131781, "name": "Vik", "country": "NO", "coord": {"lon": 12.16734, "lat": 65.312538}}, {"id": 3131824, "name": "Vigrestad", "country": "NO", "coord": {"lon": 5.7, "lat": 58.566669}}, {"id": 3131848, "name": "Vigeland", "country": "NO", "coord": {"lon": 7.30497, "lat": 58.08437}}, {"id": 3131901, "name": "Vevelstad", "country": "NO", "coord": {"lon": 12.43706, "lat": 65.6978}}, {"id": 3132051, "name": "Vestbygd", "country": "NO", "coord": {"lon": 6.58333, "lat": 58.099998}}, {"id": 3132058, "name": "Vestby", "country": "NO", "coord": {"lon": 10.74668, "lat": 59.602371}}, {"id": 3132176, "name": "Verdal", "country": "NO", "coord": {"lon": 11.4817, "lat": 63.79332}}, {"id": 3132428, "name": "Vatne", "country": "NO", "coord": {"lon": 6.65, "lat": 62.566669}}, {"id": 3132644, "name": "Varhaug", "country": "NO", "coord": {"lon": 5.64571, "lat": 58.614712}}, {"id": 3132720, "name": "Vanse", "country": "NO", "coord": {"lon": 6.7, "lat": 58.116669}}, {"id": 3132735, "name": "Vangsvika", "country": "NO", "coord": {"lon": 17.734159, "lat": 69.17057}}, {"id": 3132852, "name": "Valle", "country": "NO", "coord": {"lon": 7.53559, "lat": 59.212589}}, {"id": 3132864, "name": "Valldal", "country": "NO", "coord": {"lon": 7.26374, "lat": 62.297821}}, {"id": 3132893, "name": "Valer", "country": "NO", "coord": {"lon": 11.83314, "lat": 60.678452}}, {"id": 3133053, "name": "Vagamo", "country": "NO", "coord": {"lon": 9.09671, "lat": 61.87505}}, {"id": 3133145, "name": "Utsira", "country": "NO", "coord": {"lon": 4.8862, "lat": 59.305698}}, {"id": 3133314, "name": "Ulvik", "country": "NO", "coord": {"lon": 6.91701, "lat": 60.571171}}, {"id": 3133349, "name": "Ulsteinvik", "country": "NO", "coord": {"lon": 5.84869, "lat": 62.34317}}, {"id": 3133402, "name": "Ulefoss", "country": "NO", "coord": {"lon": 9.26459, "lat": 59.283821}}, {"id": 3133425, "name": "Uggdal", "country": "NO", "coord": {"lon": 5.52876, "lat": 60.004021}}, {"id": 3133448, "name": "Tysvaer", "country": "NO", "coord": {"lon": 5.5, "lat": 59.333328}}, {"id": 3133464, "name": "Tysse", "country": "NO", "coord": {"lon": 5.75952, "lat": 60.374039}}, {"id": 3133498, "name": "Tynset", "country": "NO", "coord": {"lon": 10.78241, "lat": 62.27594}}, {"id": 3133663, "name": "Tveit", "country": "NO", "coord": {"lon": 8.12199, "lat": 58.233662}}, {"id": 3133681, "name": "Tvedestrand", "country": "NO", "coord": {"lon": 8.93147, "lat": 58.622028}}, {"id": 3133819, "name": "Innbygda", "country": "NO", "coord": {"lon": 12.26374, "lat": 61.314838}}, {"id": 3133983, "name": "Trofors", "country": "NO", "coord": {"lon": 13.40631, "lat": 65.533348}}, {"id": 3134011, "name": "Treungen", "country": "NO", "coord": {"lon": 8.52375, "lat": 59.021542}}, {"id": 3134327, "name": "Tonstad", "country": "NO", "coord": {"lon": 6.71694, "lat": 58.662628}}, {"id": 3134349, "name": "Tomter", "country": "NO", "coord": {"lon": 11, "lat": 59.650002}}, {"id": 3134357, "name": "Tomra", "country": "NO", "coord": {"lon": 6.93333, "lat": 62.583328}}, {"id": 3134404, "name": "Tolga", "country": "NO", "coord": {"lon": 10.99883, "lat": 62.408981}}, {"id": 3134429, "name": "Tofte", "country": "NO", "coord": {"lon": 10.56138, "lat": 59.542751}}, {"id": 3134521, "name": "Tjome", "country": "NO", "coord": {"lon": 10.3933, "lat": 59.110901}}, {"id": 3134552, "name": "Tjeldsto", "country": "NO", "coord": {"lon": 4.84421, "lat": 60.59861}}, {"id": 3134599, "name": "Tingvatn", "country": "NO", "coord": {"lon": 7.2197, "lat": 58.375702}}, {"id": 3134658, "name": "Terrak", "country": "NO", "coord": {"lon": 12.37148, "lat": 65.086998}}, {"id": 3134776, "name": "Tau", "country": "NO", "coord": {"lon": 5.9, "lat": 59.066669}}, {"id": 3134827, "name": "Tangvall", "country": "NO", "coord": {"lon": 7.81455, "lat": 58.09692}}, {"id": 3134993, "name": "Syfteland", "country": "NO", "coord": {"lon": 5.44833, "lat": 60.237499}}, {"id": 3135020, "name": "Svolvaer", "country": "NO", "coord": {"lon": 14.56834, "lat": 68.234169}}, {"id": 3135124, "name": "Svelvik", "country": "NO", "coord": {"lon": 10.40872, "lat": 59.613701}}, {"id": 3135132, "name": "Svelgen", "country": "NO", "coord": {"lon": 5.29548, "lat": 61.76852}}, {"id": 3135137, "name": "Sveio", "country": "NO", "coord": {"lon": 5.35178, "lat": 59.541901}}, {"id": 3135377, "name": "Sunndalsora", "country": "NO", "coord": {"lon": 8.55153, "lat": 62.675449}}, {"id": 3135601, "name": "Stryn", "country": "NO", "coord": {"lon": 6.72264, "lat": 61.90448}}, {"id": 3135726, "name": "Straumen", "country": "NO", "coord": {"lon": 15.60493, "lat": 67.347687}}, {"id": 3135728, "name": "Straumen", "country": "NO", "coord": {"lon": 11.29989, "lat": 63.870861}}, {"id": 3135739, "name": "Straume", "country": "NO", "coord": {"lon": 14.47205, "lat": 68.688797}}, {"id": 3135813, "name": "Stranda", "country": "NO", "coord": {"lon": 6.93582, "lat": 62.309639}}, {"id": 3136023, "name": "Storsteinnes", "country": "NO", "coord": {"lon": 19.234369, "lat": 69.240807}}, {"id": 3136618, "name": "Storebo", "country": "NO", "coord": {"lon": 5.22705, "lat": 60.094849}}, {"id": 3136690, "name": "Stokmarknes", "country": "NO", "coord": {"lon": 14.91075, "lat": 68.564621}}, {"id": 3136725, "name": "Stokke", "country": "NO", "coord": {"lon": 10.30033, "lat": 59.223579}}, {"id": 3136903, "name": "Steinshamn", "country": "NO", "coord": {"lon": 6.46975, "lat": 62.783272}}, {"id": 3137091, "name": "Stavern", "country": "NO", "coord": {"lon": 10.03333, "lat": 59}}, {"id": 3137169, "name": "Stange", "country": "NO", "coord": {"lon": 11.19417, "lat": 60.718029}}, {"id": 3137245, "name": "Spydeberg", "country": "NO", "coord": {"lon": 11.08559, "lat": 59.617088}}, {"id": 3137304, "name": "Spetalen", "country": "NO", "coord": {"lon": 11.9, "lat": 60.183331}}, {"id": 3137390, "name": "Sorumsand", "country": "NO", "coord": {"lon": 11.23981, "lat": 59.985088}}, {"id": 3137405, "name": "Sortland", "country": "NO", "coord": {"lon": 15.41618, "lat": 68.694939}}, {"id": 3137469, "name": "Sorland", "country": "NO", "coord": {"lon": 12.69343, "lat": 67.666962}}, {"id": 3137971, "name": "Sogne", "country": "NO", "coord": {"lon": 7.81667, "lat": 58.083328}}, {"id": 3137973, "name": "Sogndalsfjora", "country": "NO", "coord": {"lon": 7.10178, "lat": 61.22575}}, {"id": 3138076, "name": "Snasa", "country": "NO", "coord": {"lon": 12.37779, "lat": 64.245697}}, {"id": 3138304, "name": "Slemmestad", "country": "NO", "coord": {"lon": 10.49883, "lat": 59.780361}}, {"id": 3138423, "name": "Skui", "country": "NO", "coord": {"lon": 10.4475, "lat": 59.92746}}, {"id": 3138429, "name": "Skudeneshavn", "country": "NO", "coord": {"lon": 5.25687, "lat": 59.14856}}, {"id": 3138479, "name": "Skreia", "country": "NO", "coord": {"lon": 10.93333, "lat": 60.650002}}, {"id": 3138532, "name": "Skotterud", "country": "NO", "coord": {"lon": 12.12825, "lat": 59.982811}}, {"id": 3138624, "name": "Skoppum", "country": "NO", "coord": {"lon": 10.41667, "lat": 59.383331}}, {"id": 3138701, "name": "Skogn", "country": "NO", "coord": {"lon": 11.2, "lat": 63.700001}}, {"id": 3138713, "name": "Skoger", "country": "NO", "coord": {"lon": 10.23333, "lat": 59.666672}}, {"id": 3138747, "name": "Skodje", "country": "NO", "coord": {"lon": 6.70343, "lat": 62.50206}}, {"id": 3138955, "name": "Skjeberg", "country": "NO", "coord": {"lon": 11.2, "lat": 59.23333}}, {"id": 3138976, "name": "Skjaerhalden", "country": "NO", "coord": {"lon": 11.03685, "lat": 59.025261}}, {"id": 3139081, "name": "Ski", "country": "NO", "coord": {"lon": 10.83576, "lat": 59.71949}}, {"id": 3139148, "name": "Skaun", "country": "NO", "coord": {"lon": 10.06667, "lat": 63.25}}, {"id": 3139244, "name": "Skarnes", "country": "NO", "coord": {"lon": 11.67974, "lat": 60.252838}}, {"id": 3139431, "name": "Skaland", "country": "NO", "coord": {"lon": 17.298321, "lat": 69.444557}}, {"id": 3139516, "name": "Sjovegan", "country": "NO", "coord": {"lon": 17.847441, "lat": 68.87262}}, {"id": 3139530, "name": "Skjonhaug", "country": "NO", "coord": {"lon": 11.31591, "lat": 59.64069}}, {"id": 3139557, "name": "Sjoholt", "country": "NO", "coord": {"lon": 6.81062, "lat": 62.483711}}, {"id": 3139597, "name": "Sistranda", "country": "NO", "coord": {"lon": 8.83402, "lat": 63.725552}}, {"id": 3139676, "name": "Siljan", "country": "NO", "coord": {"lon": 9.71, "lat": 59.288429}}, {"id": 3139765, "name": "Setermoen", "country": "NO", "coord": {"lon": 18.34857, "lat": 68.860992}}, {"id": 3139819, "name": "Sem", "country": "NO", "coord": {"lon": 10.33333, "lat": 59.283329}}, {"id": 3139826, "name": "Selvik", "country": "NO", "coord": {"lon": 10.25833, "lat": 59.56889}}, {"id": 3139894, "name": "Seljord", "country": "NO", "coord": {"lon": 8.63403, "lat": 59.489399}}, {"id": 3139914, "name": "Selje", "country": "NO", "coord": {"lon": 5.35096, "lat": 62.04591}}, {"id": 3140056, "name": "Sauda", "country": "NO", "coord": {"lon": 6.35415, "lat": 59.650589}}, {"id": 3140301, "name": "Sandnessjoen", "country": "NO", "coord": {"lon": 12.63158, "lat": 66.02166}}, {"id": 3140396, "name": "Sande", "country": "NO", "coord": {"lon": 5.79773, "lat": 61.325111}}, {"id": 3140398, "name": "Sande", "country": "NO", "coord": {"lon": 10.20809, "lat": 59.586788}}, {"id": 3140431, "name": "Sandane", "country": "NO", "coord": {"lon": 6.21496, "lat": 61.77277}}, {"id": 3140452, "name": "Sand", "country": "NO", "coord": {"lon": 11.5403, "lat": 60.3922}}, {"id": 3140573, "name": "Sagvag", "country": "NO", "coord": {"lon": 5.39611, "lat": 59.77861}}, {"id": 3140636, "name": "Saetre", "country": "NO", "coord": {"lon": 10.52472, "lat": 59.681671}}, {"id": 3140825, "name": "Rygge", "country": "NO", "coord": {"lon": 10.75142, "lat": 59.381729}}, {"id": 3141032, "name": "Rubbestadneset", "country": "NO", "coord": {"lon": 5.26806, "lat": 59.81472}}, {"id": 3141061, "name": "Royrvik", "country": "NO", "coord": {"lon": 13.56219, "lat": 64.887329}}, {"id": 3141107, "name": "Royken", "country": "NO", "coord": {"lon": 10.39361, "lat": 59.747501}}, {"id": 3141156, "name": "Rotnes", "country": "NO", "coord": {"lon": 10.86135, "lat": 60.057072}}, {"id": 3141292, "name": "Rosendal", "country": "NO", "coord": {"lon": 6.01348, "lat": 59.986691}}, {"id": 3141310, "name": "Rorvik", "country": "NO", "coord": {"lon": 11.23734, "lat": 64.862083}}, {"id": 3141332, "name": "Roros", "country": "NO", "coord": {"lon": 11.3842, "lat": 62.57468}}, {"id": 3141469, "name": "Rollag", "country": "NO", "coord": {"lon": 9.29644, "lat": 59.98431}}, {"id": 3141548, "name": "Rognan", "country": "NO", "coord": {"lon": 15.38778, "lat": 67.095284}}, {"id": 3141671, "name": "Roa", "country": "NO", "coord": {"lon": 10.61585, "lat": 60.290932}}, {"id": 3141682, "name": "Rjukan", "country": "NO", "coord": {"lon": 8.59411, "lat": 59.87891}}, {"id": 3141747, "name": "Risor", "country": "NO", "coord": {"lon": 9.23422, "lat": 58.72057}}, {"id": 3141850, "name": "Ringebu", "country": "NO", "coord": {"lon": 10.16667, "lat": 61.51667}}, {"id": 3141866, "name": "Rindal", "country": "NO", "coord": {"lon": 9.21239, "lat": 63.056499}}, {"id": 3141982, "name": "Rena", "country": "NO", "coord": {"lon": 11.36409, "lat": 61.134838}}, {"id": 3142060, "name": "Reinsvoll", "country": "NO", "coord": {"lon": 10.61667, "lat": 60.683331}}, {"id": 3142127, "name": "Reine", "country": "NO", "coord": {"lon": 13.08955, "lat": 67.932487}}, {"id": 3142228, "name": "Raufoss", "country": "NO", "coord": {"lon": 10.61718, "lat": 60.726379}}, {"id": 3142371, "name": "Ranemsletta", "country": "NO", "coord": {"lon": 11.94912, "lat": 64.494469}}, {"id": 3142396, "name": "Randaberg", "country": "NO", "coord": {"lon": 5.61871, "lat": 58.99955}}, {"id": 3142502, "name": "Ramberg", "country": "NO", "coord": {"lon": 13.23177, "lat": 68.08902}}, {"id": 3142520, "name": "Rakkestad", "country": "NO", "coord": {"lon": 11.34535, "lat": 59.425129}}, {"id": 3142539, "name": "Raholt", "country": "NO", "coord": {"lon": 11.18333, "lat": 60.26667}}, {"id": 3142623, "name": "Prestfoss", "country": "NO", "coord": {"lon": 9.63022, "lat": 60.042229}}, {"id": 3142626, "name": "Prestestranda", "country": "NO", "coord": {"lon": 9.05866, "lat": 59.097729}}, {"id": 3142754, "name": "Oystese", "country": "NO", "coord": {"lon": 6.19251, "lat": 60.388248}}, {"id": 3143034, "name": "Ovre Ardal", "country": "NO", "coord": {"lon": 7.8, "lat": 61.316669}}, {"id": 3143120, "name": "Otta", "country": "NO", "coord": {"lon": 9.53529, "lat": 61.771198}}, {"id": 3143237, "name": "Osoyro", "country": "NO", "coord": {"lon": 5.4638, "lat": 60.183849}}, {"id": 3143303, "name": "Os", "country": "NO", "coord": {"lon": 11.22326, "lat": 62.496471}}, {"id": 3143368, "name": "Ornes", "country": "NO", "coord": {"lon": 13.7078, "lat": 66.868896}}, {"id": 3143423, "name": "Orkanger", "country": "NO", "coord": {"lon": 9.85352, "lat": 63.312229}}, {"id": 3143427, "name": "Orje", "country": "NO", "coord": {"lon": 11.66016, "lat": 59.480228}}, {"id": 3143513, "name": "Oppdal", "country": "NO", "coord": {"lon": 9.6912, "lat": 62.594311}}, {"id": 3143628, "name": "Olen", "country": "NO", "coord": {"lon": 5.80799, "lat": 59.60437}}, {"id": 3143830, "name": "Odda", "country": "NO", "coord": {"lon": 6.54565, "lat": 60.069118}}, {"id": 3144075, "name": "Notodden", "country": "NO", "coord": {"lon": 9.25853, "lat": 59.559361}}, {"id": 3144110, "name": "Norheimsund", "country": "NO", "coord": {"lon": 6.14562, "lat": 60.370892}}, {"id": 3144113, "name": "Noresund", "country": "NO", "coord": {"lon": 9.62312, "lat": 60.180321}}, {"id": 3144369, "name": "Nordfjordeid", "country": "NO", "coord": {"lon": 5.99154, "lat": 61.906261}}, {"id": 3144534, "name": "Nodeland", "country": "NO", "coord": {"lon": 7.83576, "lat": 58.15517}}, {"id": 3144661, "name": "Nesna", "country": "NO", "coord": {"lon": 13.02133, "lat": 66.196716}}, {"id": 3144733, "name": "Nesbyen", "country": "NO", "coord": {"lon": 9.10274, "lat": 60.568089}}, {"id": 3144953, "name": "Naustdal", "country": "NO", "coord": {"lon": 5.71675, "lat": 61.508961}}, {"id": 3144987, "name": "Narvik", "country": "NO", "coord": {"lon": 17.4272, "lat": 68.438377}}, {"id": 3145021, "name": "Namsskogan", "country": "NO", "coord": {"lon": 13.15954, "lat": 64.928864}}, {"id": 3145023, "name": "Namsos", "country": "NO", "coord": {"lon": 11.49572, "lat": 64.46624}}, {"id": 3145094, "name": "Mysen", "country": "NO", "coord": {"lon": 11.32578, "lat": 59.553539}}, {"id": 3145148, "name": "Myre", "country": "NO", "coord": {"lon": 15.94917, "lat": 69.103607}}, {"id": 3145171, "name": "Myra", "country": "NO", "coord": {"lon": 8.86, "lat": 58.746658}}, {"id": 3145357, "name": "Mosterhamn", "country": "NO", "coord": {"lon": 5.38333, "lat": 59.700001}}, {"id": 3145386, "name": "Mosjoen", "country": "NO", "coord": {"lon": 13.19076, "lat": 65.835991}}, {"id": 3145573, "name": "Moldjord", "country": "NO", "coord": {"lon": 14.5743, "lat": 67.006012}}, {"id": 3145589, "name": "Moland", "country": "NO", "coord": {"lon": 8.0895, "lat": 59.186501}}, {"id": 3145617, "name": "Moi", "country": "NO", "coord": {"lon": 6.55184, "lat": 58.456741}}, {"id": 3145649, "name": "Moen", "country": "NO", "coord": {"lon": 18.612261, "lat": 69.130432}}, {"id": 3145689, "name": "Moelv", "country": "NO", "coord": {"lon": 10.7, "lat": 60.933331}}, {"id": 3145716, "name": "Mo", "country": "NO", "coord": {"lon": 5.80575, "lat": 60.81625}}, {"id": 3145922, "name": "Midsund", "country": "NO", "coord": {"lon": 6.67498, "lat": 62.672779}}, {"id": 3146023, "name": "Meraker", "country": "NO", "coord": {"lon": 11.74298, "lat": 63.414059}}, {"id": 3146049, "name": "Melsomvik", "country": "NO", "coord": {"lon": 10.34472, "lat": 59.223888}}, {"id": 3146125, "name": "Melhus", "country": "NO", "coord": {"lon": 10.27806, "lat": 63.285549}}, {"id": 3146160, "name": "Melbu", "country": "NO", "coord": {"lon": 14.82972, "lat": 68.50444}}, {"id": 3146270, "name": "Maura", "country": "NO", "coord": {"lon": 11.01667, "lat": 60.25}}, {"id": 3146315, "name": "Masfjorden", "country": "NO", "coord": {"lon": 5.30418, "lat": 60.79887}}, {"id": 3146451, "name": "Manger", "country": "NO", "coord": {"lon": 5.04136, "lat": 60.641449}}, {"id": 3146463, "name": "Mandal", "country": "NO", "coord": {"lon": 7.45342, "lat": 58.027401}}, {"id": 3146470, "name": "Malvik", "country": "NO", "coord": {"lon": 10.68333, "lat": 63.433331}}, {"id": 3146487, "name": "Maloy", "country": "NO", "coord": {"lon": 5.11362, "lat": 61.935349}}, {"id": 3146508, "name": "Malm", "country": "NO", "coord": {"lon": 11.21716, "lat": 64.072144}}, {"id": 3146631, "name": "Lysaker", "country": "NO", "coord": {"lon": 10.63545, "lat": 59.909939}}, {"id": 3146684, "name": "Lyngdal", "country": "NO", "coord": {"lon": 7.07002, "lat": 58.1376}}, {"id": 3146811, "name": "Lunde", "country": "NO", "coord": {"lon": 9.13333, "lat": 59.316669}}, {"id": 3146831, "name": "Lundamo", "country": "NO", "coord": {"lon": 10.3, "lat": 63.133331}}, {"id": 3146897, "name": "Loten", "country": "NO", "coord": {"lon": 11.33756, "lat": 60.81712}}, {"id": 3146942, "name": "Lopsmarka", "country": "NO", "coord": {"lon": 14.44934, "lat": 67.313431}}, {"id": 3146978, "name": "Lonevag", "country": "NO", "coord": {"lon": 5.49365, "lat": 60.526192}}, {"id": 3147026, "name": "Lom", "country": "NO", "coord": {"lon": 8.55, "lat": 61.833328}}, {"id": 3147102, "name": "Lodingen", "country": "NO", "coord": {"lon": 15.99512, "lat": 68.413986}}, {"id": 3147104, "name": "Loding", "country": "NO", "coord": {"lon": 14.75, "lat": 67.300003}}, {"id": 3147441, "name": "Lindas", "country": "NO", "coord": {"lon": 5.16, "lat": 60.73806}}, {"id": 3147465, "name": "Lillestrom", "country": "NO", "coord": {"lon": 11.04918, "lat": 59.955971}}, {"id": 3147467, "name": "Lillesand", "country": "NO", "coord": {"lon": 8.3778, "lat": 58.248791}}, {"id": 3147498, "name": "Liknes", "country": "NO", "coord": {"lon": 6.95837, "lat": 58.319191}}, {"id": 3147698, "name": "Levanger", "country": "NO", "coord": {"lon": 11.29963, "lat": 63.746441}}, {"id": 3147720, "name": "Lervik", "country": "NO", "coord": {"lon": 10.75, "lat": 59.26667}}, {"id": 3147747, "name": "Lensvik", "country": "NO", "coord": {"lon": 9.80611, "lat": 63.513889}}, {"id": 3147763, "name": "Lena", "country": "NO", "coord": {"lon": 10.81325, "lat": 60.674671}}, {"id": 3147769, "name": "Leland", "country": "NO", "coord": {"lon": 12.94584, "lat": 66.063812}}, {"id": 3147822, "name": "Leirvik", "country": "NO", "coord": {"lon": 5.50051, "lat": 59.77977}}, {"id": 3147854, "name": "Leirsund", "country": "NO", "coord": {"lon": 11.1, "lat": 60}}, {"id": 3148002, "name": "Lauvsnes", "country": "NO", "coord": {"lon": 10.89396, "lat": 64.50061}}, {"id": 3148133, "name": "Larsnes", "country": "NO", "coord": {"lon": 5.57729, "lat": 62.20282}}, {"id": 3148138, "name": "Larkollen", "country": "NO", "coord": {"lon": 10.66556, "lat": 59.333889}}, {"id": 3148346, "name": "Langevag", "country": "NO", "coord": {"lon": 6.18915, "lat": 62.43745}}, {"id": 3148354, "name": "Langesund", "country": "NO", "coord": {"lon": 9.74876, "lat": 59.00071}}, {"id": 3148569, "name": "Laerdalsoyri", "country": "NO", "coord": {"lon": 7.48158, "lat": 61.098049}}, {"id": 3148602, "name": "Kyrksaeterora", "country": "NO", "coord": {"lon": 9.08909, "lat": 63.290569}}, {"id": 3148726, "name": "Kviteseid", "country": "NO", "coord": {"lon": 8.49267, "lat": 59.402229}}, {"id": 3149239, "name": "Krokstadora", "country": "NO", "coord": {"lon": 9.50062, "lat": 63.40099}}, {"id": 3149412, "name": "Kragero", "country": "NO", "coord": {"lon": 9.41494, "lat": 58.869301}}, {"id": 3149492, "name": "Korgen", "country": "NO", "coord": {"lon": 13.81531, "lat": 66.077133}}, {"id": 3149510, "name": "Koppang", "country": "NO", "coord": {"lon": 11.05548, "lat": 61.570648}}, {"id": 3149512, "name": "Kopervik", "country": "NO", "coord": {"lon": 5.30669, "lat": 59.283539}}, {"id": 3149525, "name": "Konsmo", "country": "NO", "coord": {"lon": 7.35598, "lat": 58.28529}}, {"id": 3149533, "name": "Kongsvinger", "country": "NO", "coord": {"lon": 11.99772, "lat": 60.190491}}, {"id": 3149577, "name": "Kolvereid", "country": "NO", "coord": {"lon": 11.60465, "lat": 64.865494}}, {"id": 3149640, "name": "Kolbotn", "country": "NO", "coord": {"lon": 10.80389, "lat": 59.810558}}, {"id": 3149720, "name": "Knarrviki", "country": "NO", "coord": {"lon": 5.28833, "lat": 60.542221}}, {"id": 3149726, "name": "Knappstad", "country": "NO", "coord": {"lon": 11.05, "lat": 59.633331}}, {"id": 3149727, "name": "Knappskog", "country": "NO", "coord": {"lon": 5.05583, "lat": 60.381939}}, {"id": 3149813, "name": "Klofta", "country": "NO", "coord": {"lon": 11.15, "lat": 60.066669}}, {"id": 3149864, "name": "Kleppesto", "country": "NO", "coord": {"lon": 5.2276, "lat": 60.40844}}, {"id": 3150002, "name": "Kjopsvik", "country": "NO", "coord": {"lon": 16.374161, "lat": 68.096962}}, {"id": 3150261, "name": "Kirkenaer", "country": "NO", "coord": {"lon": 12.05821, "lat": 60.456429}}, {"id": 3150437, "name": "Karlshus", "country": "NO", "coord": {"lon": 10.87226, "lat": 59.351952}}, {"id": 3150639, "name": "Kabelvag", "country": "NO", "coord": {"lon": 14.48167, "lat": 68.211388}}, {"id": 3150699, "name": "Judaberg", "country": "NO", "coord": {"lon": 5.87315, "lat": 59.165852}}, {"id": 3150742, "name": "Jorpeland", "country": "NO", "coord": {"lon": 6.04078, "lat": 59.022511}}, {"id": 3150805, "name": "Jondal", "country": "NO", "coord": {"lon": 6.25229, "lat": 60.275612}}, {"id": 3150842, "name": "Jevnaker", "country": "NO", "coord": {"lon": 10.38503, "lat": 60.241428}}, {"id": 3150851, "name": "Jessheim", "country": "NO", "coord": {"lon": 11.17515, "lat": 60.14151}}, {"id": 3150911, "name": "Jaren", "country": "NO", "coord": {"lon": 10.56155, "lat": 60.392731}}, {"id": 3151001, "name": "Isdalssto", "country": "NO", "coord": {"lon": 5.26942, "lat": 60.555191}}, {"id": 3151056, "name": "Inndyr", "country": "NO", "coord": {"lon": 14.02757, "lat": 67.033798}}, {"id": 3151265, "name": "Hyllestad", "country": "NO", "coord": {"lon": 5.29603, "lat": 61.171089}}, {"id": 3151272, "name": "Hylkje", "country": "NO", "coord": {"lon": 5.35444, "lat": 60.510281}}, {"id": 3151288, "name": "Hvittingfoss", "country": "NO", "coord": {"lon": 10.01667, "lat": 59.48333}}, {"id": 3151452, "name": "Hundorp", "country": "NO", "coord": {"lon": 9.94069, "lat": 61.555229}}, {"id": 3151574, "name": "Hoyanger", "country": "NO", "coord": {"lon": 6.07494, "lat": 61.22036}}, {"id": 3151676, "name": "Hovden", "country": "NO", "coord": {"lon": 7.35676, "lat": 59.560268}}, {"id": 3151719, "name": "Hov", "country": "NO", "coord": {"lon": 10.35193, "lat": 60.6987}}, {"id": 3151882, "name": "Hopen", "country": "NO", "coord": {"lon": 8.0139, "lat": 63.46344}}, {"id": 3151917, "name": "Honefoss", "country": "NO", "coord": {"lon": 10.25647, "lat": 60.168041}}, {"id": 3151942, "name": "Hommelvik", "country": "NO", "coord": {"lon": 10.79424, "lat": 63.410831}}, {"id": 3152132, "name": "Holmestrand", "country": "NO", "coord": {"lon": 10.31761, "lat": 59.48761}}, {"id": 3152308, "name": "Hol", "country": "NO", "coord": {"lon": 16.392179, "lat": 68.549019}}, {"id": 3152327, "name": "Hokksund", "country": "NO", "coord": {"lon": 9.90987, "lat": 59.770771}}, {"id": 3152548, "name": "Hjelset", "country": "NO", "coord": {"lon": 7.48333, "lat": 62.783329}}, {"id": 3152565, "name": "Hjelmeland", "country": "NO", "coord": {"lon": 6.18333, "lat": 59.23333}}, {"id": 3152862, "name": "Herre", "country": "NO", "coord": {"lon": 9.56667, "lat": 59.099998}}, {"id": 3152884, "name": "Hermansverk", "country": "NO", "coord": {"lon": 6.85016, "lat": 61.184608}}, {"id": 3152989, "name": "Hemsedal", "country": "NO", "coord": {"lon": 8.55337, "lat": 60.86293}}, {"id": 3152995, "name": "Hemnesberget", "country": "NO", "coord": {"lon": 13.63333, "lat": 66.23333}}, {"id": 3153364, "name": "Heggenes", "country": "NO", "coord": {"lon": 9.06942, "lat": 61.143829}}, {"id": 3153517, "name": "Hauknes", "country": "NO", "coord": {"lon": 14.06667, "lat": 66.283333}}, {"id": 3153694, "name": "Hauge", "country": "NO", "coord": {"lon": 6.28121, "lat": 58.343609}}, {"id": 3153861, "name": "Hareid", "country": "NO", "coord": {"lon": 6.02634, "lat": 62.371361}}, {"id": 3153869, "name": "Hardbakke", "country": "NO", "coord": {"lon": 4.83716, "lat": 61.07111}}, {"id": 3153910, "name": "Hansnes", "country": "NO", "coord": {"lon": 19.61862, "lat": 69.962372}}, {"id": 3154000, "name": "Hamnvik", "country": "NO", "coord": {"lon": 17.17457, "lat": 68.778313}}, {"id": 3154321, "name": "Hagavik", "country": "NO", "coord": {"lon": 5.43333, "lat": 60.183331}}, {"id": 3154441, "name": "Gvarv", "country": "NO", "coord": {"lon": 9.1737, "lat": 59.387459}}, {"id": 3154539, "name": "Gullhaug", "country": "NO", "coord": {"lon": 10.25, "lat": 59.5}}, {"id": 3154639, "name": "Gryllefjord", "country": "NO", "coord": {"lon": 17.052839, "lat": 69.363037}}, {"id": 3154704, "name": "Grua", "country": "NO", "coord": {"lon": 10.66667, "lat": 60.26667}}, {"id": 3154907, "name": "Grong", "country": "NO", "coord": {"lon": 12.31491, "lat": 64.465431}}, {"id": 3155041, "name": "Grimstad", "country": "NO", "coord": {"lon": 8.59343, "lat": 58.3405}}, {"id": 3155152, "name": "Gravdal", "country": "NO", "coord": {"lon": 13.50306, "lat": 68.121391}}, {"id": 3155247, "name": "Granvin", "country": "NO", "coord": {"lon": 6.7194, "lat": 60.524078}}, {"id": 3155422, "name": "Gol", "country": "NO", "coord": {"lon": 8.94572, "lat": 60.701401}}, {"id": 3155487, "name": "Glomfjord", "country": "NO", "coord": {"lon": 13.96667, "lat": 66.816673}}, {"id": 3155536, "name": "Gladstad", "country": "NO", "coord": {"lon": 11.96137, "lat": 65.677322}}, {"id": 3155567, "name": "Justvik", "country": "NO", "coord": {"lon": 8.03333, "lat": 58.200001}}, {"id": 3155676, "name": "Gjerstad", "country": "NO", "coord": {"lon": 9.01861, "lat": 58.880829}}, {"id": 3155710, "name": "Gjerdrum", "country": "NO", "coord": {"lon": 11.1, "lat": 60.083328}}, {"id": 3155913, "name": "Geilo", "country": "NO", "coord": {"lon": 8.20765, "lat": 60.53331}}, {"id": 3156470, "name": "Frogner", "country": "NO", "coord": {"lon": 11.1, "lat": 60.01667}}, {"id": 3156521, "name": "Frekhaug", "country": "NO", "coord": {"lon": 5.24351, "lat": 60.51392}}, {"id": 3156642, "name": "Fossby", "country": "NO", "coord": {"lon": 11.69928, "lat": 59.222179}}, {"id": 3156680, "name": "Fosnavag", "country": "NO", "coord": {"lon": 5.63396, "lat": 62.341942}}, {"id": 3156804, "name": "Forde", "country": "NO", "coord": {"lon": 5.85717, "lat": 61.452171}}, {"id": 3156868, "name": "Folldal", "country": "NO", "coord": {"lon": 9.9968, "lat": 62.132462}}, {"id": 3157090, "name": "Flekkefjord", "country": "NO", "coord": {"lon": 6.66069, "lat": 58.29705}}, {"id": 3157162, "name": "Flateby", "country": "NO", "coord": {"lon": 11.16667, "lat": 59.833328}}, {"id": 3157238, "name": "Fla", "country": "NO", "coord": {"lon": 9.46197, "lat": 60.43021}}, {"id": 3157436, "name": "Fitjar", "country": "NO", "coord": {"lon": 5.3192, "lat": 59.918449}}, {"id": 3157549, "name": "Finnsnes", "country": "NO", "coord": {"lon": 17.98114, "lat": 69.229591}}, {"id": 3157656, "name": "Fillan", "country": "NO", "coord": {"lon": 8.96961, "lat": 63.60638}}, {"id": 3157679, "name": "Fevik", "country": "NO", "coord": {"lon": 8.67658, "lat": 58.379379}}, {"id": 3157686, "name": "Fetsund", "country": "NO", "coord": {"lon": 11.16247, "lat": 59.928982}}]