[{"id": 1808796, "name": "Haozigang", "country": "CN", "coord": {"lon": 112.056732, "lat": 29.27169}}, {"id": 1711876, "name": "Hapao", "country": "PH", "coord": {"lon": 121.016037, "lat": 16.87966}}, {"id": 605859, "name": "Haparanda", "country": "SE", "coord": {"lon": 24.136761, "lat": 65.835487}}, {"id": 605857, "name": "Haparanda Kommun", "country": "SE", "coord": {"lon": 24.1, "lat": 65.833328}}, {"id": 4199075, "name": "Hapeville", "country": "US", "coord": {"lon": -84.410202, "lat": 33.66011}}, {"id": 7669625, "name": "Happerswil", "country": "CH", "coord": {"lon": 9.22407, "lat": 47.579071}}, {"id": 2910724, "name": "Happertshausen", "country": "DE", "coord": {"lon": 10.46667, "lat": 50.166672}}, {"id": 6556885, "name": "Happurg", "country": "DE", "coord": {"lon": 11.4705, "lat": 49.494221}}, {"id": 2910720, "name": "Happurg", "country": "DE", "coord": {"lon": 11.47119, "lat": 49.493721}}, {"id": 5564730, "name": "Happy Camp", "country": "US", "coord": {"lon": -123.379501, "lat": 41.793179}}, {"id": 8122866, "name": "Happy Homes Park", "country": "US", "coord": {"lon": -99.976273, "lat": 37.7458}}, {"id": 4763029, "name": "Happy Valley", "country": "US", "coord": {"lon": -79.145302, "lat": 37.25848}}, {"id": 2070106, "name": "Happy Valley", "country": "AU", "coord": {"lon": 138.533325, "lat": -35.083328}}, {"id": 5730183, "name": "Happy Valley", "country": "US", "coord": {"lon": -122.530373, "lat": 45.446789}}, {"id": 5970458, "name": "Happy Valley-Goose Bay", "country": "CA", "coord": {"lon": -60.331532, "lat": 53.316849}}, {"id": 1270393, "name": "Hapur", "country": "IN", "coord": {"lon": 77.783333, "lat": 28.716669}}, {"id": 1244713, "name": "Haputale", "country": "LK", "coord": {"lon": 80.959541, "lat": 6.76812}}, {"id": 1513655, "name": "Haqqulobod", "country": "UZ", "coord": {"lon": 72.116669, "lat": 40.916672}}, {"id": 1538278, "name": "Haqqulobod Shahri", "country": "UZ", "coord": {"lon": 72.120583, "lat": 40.91634}}, {"id": 282582, "name": "Har Adar", "country": "IL", "coord": {"lon": 35.130932, "lat": 31.827539}}, {"id": 1515806, "name": "Har-Us", "country": "MN", "coord": {"lon": 92.033333, "lat": 49.033329}}, {"id": 1515807, "name": "Har-Us", "country": "MN", "coord": {"lon": 91.433327, "lat": 48.48333}}, {"id": 1863161, "name": "Hara", "country": "JP", "coord": {"lon": 138.550003, "lat": 35.966671}}, {"id": 2030996, "name": "Haraat", "country": "MN", "coord": {"lon": 107.650002, "lat": 46.416672}}, {"id": 75163, "name": "Harad", "country": "YE", "coord": {"lon": 43.05883, "lat": 16.409651}}, {"id": 628155, "name": "Haradok", "country": "BY", "coord": {"lon": 29.98164, "lat": 55.462429}}, {"id": 628175, "name": "Haradzishcha", "country": "BY", "coord": {"lon": 26, "lat": 53.316669}}, {"id": 628204, "name": "Haradzyechna", "country": "BY", "coord": {"lon": 24.299999, "lat": 52.433334}}, {"id": 628182, "name": "Haradzyeya", "country": "BY", "coord": {"lon": 26.533333, "lat": 53.316666}}, {"id": 4326916, "name": "Harahan", "country": "US", "coord": {"lon": -90.203133, "lat": 29.940479}}, {"id": 1270391, "name": "Haraiya", "country": "IN", "coord": {"lon": 82.466667, "lat": 26.799999}}, {"id": 2620780, "name": "Haraldsborg", "country": "DK", "coord": {"lon": 12.1, "lat": 55.650002}}, {"id": 3199415, "name": "Haramba\u0161i\u0107i", "country": "BA", "coord": {"lon": 17.54278, "lat": 44.131672}}, {"id": 6355283, "name": "Harana/Valle de Arana", "country": "ES", "coord": {"lon": -2.32204, "lat": 42.760479}}, {"id": 7589098, "name": "Harapankarya", "country": "ID", "coord": {"lon": 119.643799, "lat": -3.9893}}, {"id": 890299, "name": "Harare", "country": "ZW", "coord": {"lon": 31.05389, "lat": -17.82935}}, {"id": 1105844, "name": "Harare Province", "country": "ZW", "coord": {"lon": 31.033331, "lat": -17.816669}}, {"id": 771134, "name": "Harasiuki", "country": "PL", "coord": {"lon": 22.472879, "lat": 50.475151}}, {"id": 676314, "name": "Harau", "country": "RO", "coord": {"lon": 22.950001, "lat": 45.900002}}, {"id": 6553398, "name": "Harbach", "country": "DE", "coord": {"lon": 7.83333, "lat": 50.849998}}, {"id": 2910711, "name": "Harbach", "country": "DE", "coord": {"lon": 7.83333, "lat": 50.849998}}, {"id": 6552481, "name": "Harbarnsen", "country": "DE", "coord": {"lon": 9.96667, "lat": 51.983299}}, {"id": 2910709, "name": "Harbarnsen", "country": "DE", "coord": {"lon": 9.96667, "lat": 51.98333}}, {"id": 2910706, "name": "Harbecke", "country": "DE", "coord": {"lon": 8.23333, "lat": 51.150002}}, {"id": 5796700, "name": "Harbert", "country": "US", "coord": {"lon": -118.24218, "lat": 46.087921}}, {"id": 2037013, "name": "Harbin", "country": "CN", "coord": {"lon": 126.650002, "lat": 45.75}}, {"id": 5355318, "name": "Harbison Canyon", "country": "US", "coord": {"lon": -116.830017, "lat": 32.820332}}, {"id": 6549300, "name": "Harbke", "country": "DE", "coord": {"lon": 11.05, "lat": 52.1833}}, {"id": 2910694, "name": "Harbke", "country": "DE", "coord": {"lon": 11.04624, "lat": 52.18877}}, {"id": 3013955, "name": "Harbonnieres", "country": "FR", "coord": {"lon": 2.66812, "lat": 49.849579}}, {"id": 2620767, "name": "Harboore", "country": "DK", "coord": {"lon": 8.18069, "lat": 56.617519}}, {"id": 5730199, "name": "Harbor", "country": "US", "coord": {"lon": -124.267593, "lat": 42.053169}}, {"id": 4995269, "name": "Harbor Beach", "country": "US", "coord": {"lon": -82.651321, "lat": 43.844742}}, {"id": 4158032, "name": "Harbor Bluffs", "country": "US", "coord": {"lon": -82.827599, "lat": 27.90947}}, {"id": 4513703, "name": "Harbor Hills", "country": "US", "coord": {"lon": -82.43515, "lat": 39.936729}}, {"id": 5119981, "name": "Harbor Isle", "country": "US", "coord": {"lon": -73.664574, "lat": 40.603439}}, {"id": 4995285, "name": "Harbor Springs", "country": "US", "coord": {"lon": -84.991997, "lat": 45.431679}}, {"id": 7290585, "name": "Harborough District", "country": "GB", "coord": {"lon": -1.00808, "lat": 52.538181}}, {"id": 5970478, "name": "Harbour Breton", "country": "CA", "coord": {"lon": -55.798328, "lat": 47.48325}}, {"id": 4158060, "name": "Harbour Heights", "country": "US", "coord": {"lon": -82.002312, "lat": 26.990891}}, {"id": 5970551, "name": "Harbour Main", "country": "CA", "coord": {"lon": -53.16478, "lat": 47.433189}}, {"id": 3490136, "name": "Harbour View", "country": "JM", "coord": {"lon": -76.717102, "lat": 17.95336}}, {"id": 7870801, "name": "Harbourfront", "country": "CA", "coord": {"lon": -79.383003, "lat": 43.638779}}, {"id": 3208298, "name": "Harbrook", "country": "DE", "coord": {"lon": 9.83333, "lat": 53.700001}}, {"id": 2910685, "name": "Harburg", "country": "DE", "coord": {"lon": 9.98333, "lat": 53.466671}}, {"id": 2910686, "name": "Harburg", "country": "DE", "coord": {"lon": 10.68927, "lat": 48.786739}}, {"id": 2647502, "name": "Harbury", "country": "GB", "coord": {"lon": -1.45706, "lat": 52.235371}}, {"id": 3098039, "name": "Harbutowice", "country": "PL", "coord": {"lon": 19.780451, "lat": 49.812351}}, {"id": 2620765, "name": "Harby", "country": "DK", "coord": {"lon": 10.12262, "lat": 55.215019}}, {"id": 2163942, "name": "Harcourt", "country": "AU", "coord": {"lon": 144.25, "lat": -37}}, {"id": 5970650, "name": "Harcourt", "country": "CA", "coord": {"lon": -65.248772, "lat": 46.466831}}, {"id": 7873733, "name": "Hard", "country": "AT", "coord": {"lon": 9.68061, "lat": 47.494099}}, {"id": 2776874, "name": "Hard", "country": "AT", "coord": {"lon": 9.68306, "lat": 47.483059}}, {"id": 2910675, "name": "Hard", "country": "DE", "coord": {"lon": 11.11667, "lat": 48.816669}}, {"id": 6291046, "name": "Hard", "country": "CH", "coord": {"lon": 8.62013, "lat": 47.435829}}, {"id": 3572233, "name": "Hard Bargain", "country": "BS", "coord": {"lon": -77.566673, "lat": 26.316669}}, {"id": 1270375, "name": "Harda", "country": "IN", "coord": {"lon": 77.099998, "lat": 22.33333}}, {"id": 3371200, "name": "Hardap", "country": "NA", "coord": {"lon": 17.25, "lat": -24.5}}, {"id": 3153869, "name": "Hardbakke", "country": "NO", "coord": {"lon": 4.83716, "lat": 61.07111}}, {"id": 6552096, "name": "Hardebek", "country": "DE", "coord": {"lon": 9.86822, "lat": 53.988258}}, {"id": 2910667, "name": "Hardebek", "country": "DE", "coord": {"lon": 9.86813, "lat": 53.988499}}, {"id": 4581095, "name": "Hardeeville", "country": "US", "coord": {"lon": -81.080673, "lat": 32.28714}}, {"id": 7872884, "name": "Hardegg", "country": "AT", "coord": {"lon": 15.85407, "lat": 48.826328}}, {"id": 2776872, "name": "Hardegg", "country": "AT", "coord": {"lon": 15.85, "lat": 48.849998}}, {"id": 2910663, "name": "Hardegsen", "country": "DE", "coord": {"lon": 9.83333, "lat": 51.650002}}, {"id": 7301705, "name": "Harden", "country": "GB", "coord": {"lon": -1.87311, "lat": 53.842739}}, {"id": 7839728, "name": "Harden", "country": "AU", "coord": {"lon": 148.405716, "lat": -34.628738}}, {"id": 2754861, "name": "Hardenberg", "country": "NL", "coord": {"lon": 6.61944, "lat": 52.575829}}, {"id": 2910652, "name": "Hardenberg", "country": "DE", "coord": {"lon": 7.08333, "lat": 51.316669}}, {"id": 2910649, "name": "Hardenbostel", "country": "DE", "coord": {"lon": 8.91667, "lat": 52.75}}, {"id": 2910648, "name": "Hardenburg", "country": "DE", "coord": {"lon": 8.125, "lat": 49.462219}}, {"id": 2910639, "name": "Harderode", "country": "DE", "coord": {"lon": 9.54025, "lat": 52.046261}}, {"id": 6553831, "name": "Hardert", "country": "DE", "coord": {"lon": 7.51667, "lat": 50.516701}}, {"id": 2910638, "name": "Hardert", "country": "DE", "coord": {"lon": 7.51667, "lat": 50.51667}}, {"id": 2754848, "name": "Harderwijk", "country": "NL", "coord": {"lon": 5.62083, "lat": 52.341671}}, {"id": 6555643, "name": "Hardheim", "country": "DE", "coord": {"lon": 9.47655, "lat": 49.609051}}, {"id": 2910633, "name": "Hardheim", "country": "DE", "coord": {"lon": 9.47194, "lat": 49.611938}}, {"id": 4240209, "name": "Hardin", "country": "US", "coord": {"lon": -90.617897, "lat": 39.156712}}, {"id": 5656170, "name": "Hardin", "country": "US", "coord": {"lon": -107.61203, "lat": 45.732479}}, {"id": 4627625, "name": "Hardin County", "country": "US", "coord": {"lon": -88.166702, "lat": 35.183411}}, {"id": 4294031, "name": "Hardin County", "country": "US", "coord": {"lon": -85.966629, "lat": 37.700062}}, {"id": 4859771, "name": "Hardin County", "country": "US", "coord": {"lon": -93.250763, "lat": 42.38332}}, {"id": 997861, "name": "Harding", "country": "ZA", "coord": {"lon": 29.88401, "lat": -30.576429}}, {"id": 5765341, "name": "Harding County", "country": "US", "coord": {"lon": -103.501022, "lat": 45.583328}}, {"id": 3013935, "name": "Hardinghen", "country": "FR", "coord": {"lon": 1.82122, "lat": 50.804138}}, {"id": 2647497, "name": "Hardingstone", "country": "GB", "coord": {"lon": -0.88582, "lat": 52.213581}}, {"id": 4294044, "name": "Hardinsburg", "country": "US", "coord": {"lon": -86.460533, "lat": 37.78006}}, {"id": 6435435, "name": "Hardinvast", "country": "FR", "coord": {"lon": -1.65, "lat": 49.583328}}, {"id": 3013934, "name": "Hardinvast", "country": "FR", "coord": {"lon": -1.64865, "lat": 49.578201}}, {"id": 6550134, "name": "Hardisleben", "country": "DE", "coord": {"lon": 11.4167, "lat": 51.166698}}, {"id": 2910624, "name": "Hardisleben", "country": "DE", "coord": {"lon": 11.41667, "lat": 51.166672}}, {"id": 5970726, "name": "Hardisty", "country": "CA", "coord": {"lon": -111.301682, "lat": 52.66684}}, {"id": 1270370, "name": "Hardoi", "country": "IN", "coord": {"lon": 80.116669, "lat": 27.416668}}, {"id": 3013926, "name": "Hardricourt", "country": "FR", "coord": {"lon": 1.89389, "lat": 49.00779}}, {"id": 5970737, "name": "Hardrock", "country": "CA", "coord": {"lon": -86.883263, "lat": 49.716831}}, {"id": 2910552, "name": "Hardt", "country": "DE", "coord": {"lon": 6.95, "lat": 51.650002}}, {"id": 6555813, "name": "Hardt", "country": "DE", "coord": {"lon": 8.41667, "lat": 48.1833}}, {"id": 2910575, "name": "Hardt", "country": "DE", "coord": {"lon": 8.41667, "lat": 48.183331}}, {"id": 6554216, "name": "Hardt", "country": "DE", "coord": {"lon": 7.91667, "lat": 50.633301}}, {"id": 2910560, "name": "Hardt", "country": "DE", "coord": {"lon": 7.91667, "lat": 50.633331}}, {"id": 3209122, "name": "Hardtwald", "country": "DE", "coord": {"lon": 8.3, "lat": 49.116669}}, {"id": 1270364, "name": "Harduaganj", "country": "IN", "coord": {"lon": 78.166672, "lat": 27.950001}}, {"id": 2647492, "name": "Hardwick", "country": "GB", "coord": {"lon": 0.00815, "lat": 52.20882}}, {"id": 2647490, "name": "Hardwick", "country": "GB", "coord": {"lon": 1.26746, "lat": 52.46032}}, {"id": 4199185, "name": "Hardwick", "country": "US", "coord": {"lon": -83.223488, "lat": 33.068199}}, {"id": 4938862, "name": "Hardwick", "country": "US", "coord": {"lon": -72.199516, "lat": 42.35009}}, {"id": 5236818, "name": "Hardwick", "country": "US", "coord": {"lon": -72.368156, "lat": 44.50478}}, {"id": 5970873, "name": "Hare Bay", "country": "CA", "coord": {"lon": -54.014809, "lat": 48.849899}}, {"id": 2647488, "name": "Harecastle", "country": "GB", "coord": {"lon": -2.25, "lat": 53.066669}}, {"id": 2647487, "name": "Harefield", "country": "GB", "coord": {"lon": -0.48333, "lat": 51.599998}}, {"id": 3153861, "name": "Hareid", "country": "NO", "coord": {"lon": 6.02634, "lat": 62.371361}}, {"id": 2796543, "name": "Harelbeke", "country": "BE", "coord": {"lon": 3.31078, "lat": 50.864849}}, {"id": 2796542, "name": "Harelbeke", "country": "BE", "coord": {"lon": 3.30935, "lat": 50.853432}}, {"id": 1091102, "name": "Harembo", "country": "KM", "coord": {"lon": 44.498329, "lat": -12.14361}}, {"id": 2910514, "name": "Haren", "country": "DE", "coord": {"lon": 7.23333, "lat": 52.783329}}, {"id": 2754841, "name": "Haren", "country": "NL", "coord": {"lon": 6.63037, "lat": 53.17667}}, {"id": 2754837, "name": "Harenkarspel", "country": "NL", "coord": {"lon": 4.77682, "lat": 52.734161}}, {"id": 335035, "name": "Harer", "country": "ET", "coord": {"lon": 42.125832, "lat": 9.30944}}, {"id": 2190262, "name": "Harewood", "country": "NZ", "coord": {"lon": 172.583328, "lat": -43.48333}}, {"id": 6220398, "name": "Harewood", "country": "NZ", "coord": {"lon": 172.540131, "lat": -43.478321}}, {"id": 3013922, "name": "Harfleur", "country": "FR", "coord": {"lon": 0.19827, "lat": 49.506599}}, {"id": 4357407, "name": "Harford County", "country": "US", "coord": {"lon": -76.299683, "lat": 39.55011}}, {"id": 2754835, "name": "Harfsen", "country": "NL", "coord": {"lon": 6.29722, "lat": 52.2075}}, {"id": 6554548, "name": "Hargarten", "country": "DE", "coord": {"lon": 6.4, "lat": 50.099998}}, {"id": 2910493, "name": "Hargarten", "country": "DE", "coord": {"lon": 6.4, "lat": 50.099998}}, {"id": 3013921, "name": "Hargarten-aux-Mines", "country": "FR", "coord": {"lon": 6.60942, "lat": 49.224289}}, {"id": 6553493, "name": "Hargesheim", "country": "DE", "coord": {"lon": 7.83333, "lat": 49.866699}}, {"id": 2910488, "name": "Hargesheim", "country": "DE", "coord": {"lon": 7.83333, "lat": 49.866669}}, {"id": 57289, "name": "Hargeysa", "country": "SO", "coord": {"lon": 44.064999, "lat": 9.56}}, {"id": 676307, "name": "Harghita-B\u0103i", "country": "RO", "coord": {"lon": 25.63604, "lat": 46.38525}}, {"id": 2647478, "name": "Hargrave", "country": "GB", "coord": {"lon": -0.46667, "lat": 52.316669}}, {"id": 5970964, "name": "Hargrave", "country": "CA", "coord": {"lon": -101.07283, "lat": 49.917198}}, {"id": 2163916, "name": "Hargraves", "country": "AU", "coord": {"lon": 149.449997, "lat": -32.783329}}, {"id": 2910484, "name": "Harham", "country": "DE", "coord": {"lon": 11.96667, "lat": 48.366669}}, {"id": 2910483, "name": "Harheim", "country": "DE", "coord": {"lon": 8.69156, "lat": 50.183819}}, {"id": 1515838, "name": "Harhiraa", "country": "MN", "coord": {"lon": 91.904243, "lat": 49.778488}}, {"id": 2030927, "name": "Harhorin", "country": "MN", "coord": {"lon": 102.823792, "lat": 47.197529}}, {"id": 2516814, "name": "Haria", "country": "ES", "coord": {"lon": -13.49986, "lat": 29.145531}}, {"id": 7742769, "name": "Harian", "country": "ID", "coord": {"lon": 98.662498, "lat": 2.5561}}, {"id": 1270357, "name": "Hariana", "country": "IN", "coord": {"lon": 75.840828, "lat": 31.637779}}, {"id": 7780579, "name": "Hariang", "country": "ID", "coord": {"lon": 106.292801, "lat": -6.6301}}, {"id": 75133, "name": "Harib", "country": "YE", "coord": {"lon": 45.503559, "lat": 14.93156}}, {"id": 1270351, "name": "Haridwar", "country": "IN", "coord": {"lon": 78.166672, "lat": 29.966669}}, {"id": 1863140, "name": "Harigayach\u014d", "country": "JP", "coord": {"lon": 139.633331, "lat": 35.866669}}, {"id": 1270349, "name": "Harihar", "country": "IN", "coord": {"lon": 75.800003, "lat": 14.51667}}, {"id": 1270343, "name": "Harij", "country": "IN", "coord": {"lon": 71.900002, "lat": 23.700001}}, {"id": 169866, "name": "Harim", "country": "SY", "coord": {"lon": 36.52116, "lat": 36.209332}}, {"id": 1349090, "name": "Harindanga", "country": "IN", "coord": {"lon": 88.321388, "lat": 22.03833}}, {"id": 1270336, "name": "Haringhata", "country": "IN", "coord": {"lon": 88.566673, "lat": 22.950001}}, {"id": 7871734, "name": "Haringsee", "country": "AT", "coord": {"lon": 16.770451, "lat": 48.193562}}, {"id": 2776864, "name": "Haringsee", "country": "AT", "coord": {"lon": 16.787411, "lat": 48.192699}}, {"id": 1177107, "name": "Haripur", "country": "PK", "coord": {"lon": 72.93409, "lat": 33.999969}}, {"id": 1348581, "name": "Haripur", "country": "IN", "coord": {"lon": 88.231941, "lat": 22.93611}}, {"id": 283735, "name": "Haris", "country": "PS", "coord": {"lon": 35.141918, "lat": 32.114239}}, {"id": 1863130, "name": "Harisakich\u014d", "country": "JP", "coord": {"lon": 137.149994, "lat": 34.916672}}, {"id": 8059806, "name": "Harjamukti", "country": "ID", "coord": {"lon": 108.514, "lat": -7.2198}}, {"id": 658922, "name": "Harjavalta", "country": "FI", "coord": {"lon": 22.16667, "lat": 61.333328}}, {"id": 658921, "name": "Harjavalta", "country": "FI", "coord": {"lon": 22.133329, "lat": 61.316669}}, {"id": 592170, "name": "Harjumaa", "country": "EE", "coord": {"lon": 24.75, "lat": 59.416672}}, {"id": 3051718, "name": "Harkany", "country": "HU", "coord": {"lon": 18.236679, "lat": 45.850021}}, {"id": 2163915, "name": "Harkaway", "country": "AU", "coord": {"lon": 145.350006, "lat": -38}}, {"id": 2910469, "name": "Harkebr\u00fcgge", "country": "DE", "coord": {"lon": 7.81667, "lat": 53.116669}}, {"id": 2754821, "name": "Harkema", "country": "NL", "coord": {"lon": 6.13333, "lat": 53.183331}}, {"id": 4696202, "name": "Harker Heights", "country": "US", "coord": {"lon": -97.659737, "lat": 31.083509}}, {"id": 2910463, "name": "Harkerode", "country": "DE", "coord": {"lon": 11.4, "lat": 51.683331}}, {"id": 4469955, "name": "Harkers Island", "country": "US", "coord": {"lon": -76.559372, "lat": 34.69516}}, {"id": 5470711, "name": "Harkey Crossing", "country": "US", "coord": {"lon": -104.197441, "lat": 32.236511}}, {"id": 2910456, "name": "Harkotten", "country": "DE", "coord": {"lon": 8.03333, "lat": 52.049999}}, {"id": 592168, "name": "Harku", "country": "EE", "coord": {"lon": 24.371111, "lat": 59.1325}}, {"id": 7522275, "name": "Harku vald", "country": "EE", "coord": {"lon": 24.462061, "lat": 59.391571}}, {"id": 720174, "name": "Hark\u00e1nyid\u0171l\u0151", "country": "HU", "coord": {"lon": 20.133329, "lat": 47.083328}}, {"id": 2910451, "name": "Harlachen", "country": "DE", "coord": {"lon": 11.87287, "lat": 48.230728}}, {"id": 4294072, "name": "Harlan", "country": "US", "coord": {"lon": -83.321854, "lat": 36.84314}}, {"id": 4859802, "name": "Harlan", "country": "US", "coord": {"lon": -95.325546, "lat": 41.653042}}, {"id": 4921161, "name": "Harlan", "country": "US", "coord": {"lon": -84.919693, "lat": 41.196159}}, {"id": 2960491, "name": "Harlange", "country": "LU", "coord": {"lon": 5.79, "lat": 49.931389}}, {"id": 4921162, "name": "Harlansburg", "country": "US", "coord": {"lon": -85.564423, "lat": 40.814491}}, {"id": 676176, "name": "Harlau", "country": "RO", "coord": {"lon": 26.9, "lat": 47.433331}}, {"id": 2163914, "name": "Harlaxton", "country": "AU", "coord": {"lon": 151.966675, "lat": -27.533331}}, {"id": 5192657, "name": "Harleigh", "country": "US", "coord": {"lon": -75.971313, "lat": 40.98064}}, {"id": 4158091, "name": "Harlem", "country": "US", "coord": {"lon": -80.950897, "lat": 26.73757}}, {"id": 4199219, "name": "Harlem", "country": "US", "coord": {"lon": -82.312622, "lat": 33.414581}}, {"id": 4158094, "name": "Harlem Heights", "country": "US", "coord": {"lon": -81.927872, "lat": 26.51619}}, {"id": 2647467, "name": "Harleston", "country": "GB", "coord": {"lon": 1.29815, "lat": 52.401211}}, {"id": 2620751, "name": "Harlev", "country": "DK", "coord": {"lon": 12.23382, "lat": 55.349361}}, {"id": 2647465, "name": "Harley", "country": "GB", "coord": {"lon": -2.6, "lat": 52.599998}}, {"id": 5192662, "name": "Harleysville", "country": "US", "coord": {"lon": -75.387123, "lat": 40.279549}}, {"id": 2163911, "name": "Harlin", "country": "AU", "coord": {"lon": 152.350006, "lat": -26.98333}}, {"id": 4696233, "name": "Harlingen", "country": "US", "coord": {"lon": -97.696098, "lat": 26.19063}}, {"id": 2754817, "name": "Harlingen", "country": "NL", "coord": {"lon": 5.42244, "lat": 53.17477}}, {"id": 2647464, "name": "Harlington", "country": "GB", "coord": {"lon": -0.49241, "lat": 51.962879}}, {"id": 2963807, "name": "Harlinstown", "country": "IE", "coord": {"lon": -6.5775, "lat": 53.717781}}, {"id": 4832672, "name": "Harlis", "country": "US", "coord": {"lon": -92.312691, "lat": 46.412159}}, {"id": 2647461, "name": "Harlow", "country": "GB", "coord": {"lon": 0.11158, "lat": 51.77655}}, {"id": 7290544, "name": "Harlow District", "country": "GB", "coord": {"lon": 0.11266, "lat": 51.765469}}, {"id": 5656214, "name": "Harlowton", "country": "US", "coord": {"lon": -109.834351, "lat": 46.435509}}, {"id": 3013911, "name": "Harly", "country": "FR", "coord": {"lon": 3.31001, "lat": 49.837662}}, {"id": 2910419, "name": "Harm", "country": "DE", "coord": {"lon": 11.10606, "lat": 49.31432}}, {"id": 2163910, "name": "Harman", "country": "AU", "coord": {"lon": 149.199997, "lat": -35.349998}}, {"id": 676304, "name": "Harman", "country": "RO", "coord": {"lon": 25.683331, "lat": 45.716671}}, {"id": 676302, "name": "Harmaneasa", "country": "RO", "coord": {"lon": 26.866671, "lat": 47.200001}}, {"id": 7871788, "name": "Harmannsdorf", "country": "AT", "coord": {"lon": 16.38047, "lat": 48.413719}}, {"id": 2776855, "name": "Harmannsdorf", "country": "AT", "coord": {"lon": 16.366671, "lat": 48.383331}}, {"id": 2910410, "name": "Harmenhausen", "country": "DE", "coord": {"lon": 8.53333, "lat": 53.150002}}, {"id": 2910407, "name": "Harmering", "country": "DE", "coord": {"lon": 13.3, "lat": 48.716671}}, {"id": 2910403, "name": "Harmerz", "country": "DE", "coord": {"lon": 9.65166, "lat": 50.514408}}, {"id": 1515832, "name": "Harmod", "country": "MN", "coord": {"lon": 91.606407, "lat": 50.341301}}, {"id": 4538320, "name": "Harmon", "country": "US", "coord": {"lon": -99.560387, "lat": 36.14476}}, {"id": 3461707, "name": "Harmonia", "country": "BR", "coord": {"lon": -51.42556, "lat": -29.547779}}, {"id": 5971066, "name": "Harmony", "country": "CA", "coord": {"lon": -64.048737, "lat": 46.516842}}, {"id": 5029374, "name": "Harmony", "country": "US", "coord": {"lon": -92.010162, "lat": 43.555241}}, {"id": 5355463, "name": "Harmony Acres", "country": "US", "coord": {"lon": -116.109451, "lat": 34.143608}}, {"id": 6551450, "name": "Harmsdorf", "country": "DE", "coord": {"lon": 10.7167, "lat": 53.700001}}, {"id": 2910391, "name": "Harmsdorf", "country": "DE", "coord": {"lon": 10.71667, "lat": 53.700001}}, {"id": 6551651, "name": "Harmsdorf", "country": "DE", "coord": {"lon": 10.8333, "lat": 54.25}}, {"id": 2910390, "name": "Harmsdorf", "country": "DE", "coord": {"lon": 10.83333, "lat": 54.25}}, {"id": 2910385, "name": "Harmstorf", "country": "DE", "coord": {"lon": 10.75598, "lat": 53.214298}}, {"id": 6552635, "name": "Harmstorf", "country": "DE", "coord": {"lon": 9.98333, "lat": 53.349998}}, {"id": 2910384, "name": "Harmstorf", "country": "DE", "coord": {"lon": 9.98333, "lat": 53.349998}}, {"id": 2910381, "name": "Harmuthsachsen", "country": "DE", "coord": {"lon": 9.85, "lat": 51.150002}}, {"id": 1270304, "name": "Harnai", "country": "IN", "coord": {"lon": 73.099998, "lat": 17.799999}}, {"id": 1177098, "name": "Harnai", "country": "PK", "coord": {"lon": 67.937408, "lat": 30.10047}}, {"id": 3013908, "name": "Harnes", "country": "FR", "coord": {"lon": 2.90481, "lat": 50.44643}}, {"id": 4470002, "name": "Harnett County", "country": "US", "coord": {"lon": -78.849739, "lat": 35.383492}}, {"id": 1177089, "name": "Harnoli", "country": "PK", "coord": {"lon": 71.553886, "lat": 32.279171}}, {"id": 2796520, "name": "Harnoncourt", "country": "BE", "coord": {"lon": 5.49877, "lat": 49.536179}}, {"id": 2707684, "name": "Harnosand", "country": "SE", "coord": {"lon": 17.937941, "lat": 62.632278}}, {"id": 6359061, "name": "Haro", "country": "ES", "coord": {"lon": -2.85585, "lat": 42.5877}}, {"id": 3120874, "name": "Haro", "country": "ES", "coord": {"lon": -2.8476, "lat": 42.57634}}, {"id": 6690868, "name": "Harold Wood", "country": "GB", "coord": {"lon": 0.23294, "lat": 51.59462}}, {"id": 1270291, "name": "Harpalpur", "country": "IN", "coord": {"lon": 79.334702, "lat": 25.288401}}, {"id": 1270287, "name": "Harpanahalli", "country": "IN", "coord": {"lon": 75.98333, "lat": 14.8}}, {"id": 2647451, "name": "Harpenden", "country": "GB", "coord": {"lon": -0.35706, "lat": 51.816841}}, {"id": 2910363, "name": "Harpenerweg", "country": "DE", "coord": {"lon": 7.31667, "lat": 51.5}}, {"id": 2276492, "name": "Harper", "country": "LR", "coord": {"lon": -7.71694, "lat": 4.375}}, {"id": 4272660, "name": "Harper", "country": "US", "coord": {"lon": -98.025887, "lat": 37.28669}}, {"id": 4696310, "name": "Harper", "country": "US", "coord": {"lon": -99.244209, "lat": 30.299919}}, {"id": 4272662, "name": "Harper County", "country": "US", "coord": {"lon": -98.083672, "lat": 37.20002}}, {"id": 4995368, "name": "Harper Woods", "country": "US", "coord": {"lon": -82.92408, "lat": 42.43309}}, {"id": 4066335, "name": "Harpersville", "country": "US", "coord": {"lon": -86.438042, "lat": 33.344002}}, {"id": 2707664, "name": "Harplinge", "country": "SE", "coord": {"lon": 12.71667, "lat": 56.75}}, {"id": 2910344, "name": "Harpstedt", "country": "DE", "coord": {"lon": 8.58333, "lat": 52.900002}}, {"id": 4966554, "name": "Harpswell Center", "country": "US", "coord": {"lon": -69.984207, "lat": 43.80175}}, {"id": 5971207, "name": "Harptree", "country": "CA", "coord": {"lon": -105.417801, "lat": 49.316761}}, {"id": 2470483, "name": "Harqalah", "country": "TN", "coord": {"lon": 10.50904, "lat": 36.03027}}, {"id": 6550445, "name": "Harra", "country": "DE", "coord": {"lon": 11.6833, "lat": 50.416698}}, {"id": 2910342, "name": "Harra", "country": "DE", "coord": {"lon": 11.68333, "lat": 50.416672}}, {"id": 3075952, "name": "Harrachov", "country": "CZ", "coord": {"lon": 14.45457, "lat": 51.018509}}, {"id": 3075953, "name": "Harrachov", "country": "CZ", "coord": {"lon": 15.43141, "lat": 50.772091}}, {"id": 4538346, "name": "Harrah", "country": "US", "coord": {"lon": -97.163643, "lat": 35.48951}}, {"id": 1270286, "name": "Harrai", "country": "IN", "coord": {"lon": 79.216667, "lat": 22.616671}}, {"id": 312531, "name": "Harran", "country": "TR", "coord": {"lon": 39.031391, "lat": 36.860001}}, {"id": 169843, "name": "Harran al Awamid", "country": "SY", "coord": {"lon": 36.55764, "lat": 33.448841}}, {"id": 2910324, "name": "Harrenst\u00e4tte", "country": "DE", "coord": {"lon": 7.61667, "lat": 52.866669}}, {"id": 2754808, "name": "Harreveld", "country": "NL", "coord": {"lon": 6.51667, "lat": 51.977501}}, {"id": 2910310, "name": "Harriehausen", "country": "DE", "coord": {"lon": 10.1, "lat": 51.849998}}, {"id": 2647437, "name": "Harrietsham", "country": "GB", "coord": {"lon": 0.6706, "lat": 51.242519}}, {"id": 2163897, "name": "Harrietville", "country": "AU", "coord": {"lon": 147.066666, "lat": -36.916672}}, {"id": 4627863, "name": "Harriman", "country": "US", "coord": {"lon": -84.552437, "lat": 35.93396}}, {"id": 5120062, "name": "Harriman", "country": "US", "coord": {"lon": -74.144592, "lat": 41.30843}}, {"id": 2163895, "name": "Harrington", "country": "AU", "coord": {"lon": 152.699997, "lat": -31.866671}}, {"id": 4142841, "name": "Harrington", "country": "US", "coord": {"lon": -75.577698, "lat": 38.923721}}, {"id": 5098842, "name": "Harrington Park", "country": "US", "coord": {"lon": -73.979858, "lat": 40.983711}}, {"id": 5297410, "name": "Harrington Place", "country": "US", "coord": {"lon": -110.546738, "lat": 32.04258}}, {"id": 4859875, "name": "Harris", "country": "US", "coord": {"lon": -95.434174, "lat": 43.44524}}, {"id": 5029405, "name": "Harris", "country": "US", "coord": {"lon": -92.974663, "lat": 45.586349}}, {"id": 4696376, "name": "Harris County", "country": "US", "coord": {"lon": -95.400223, "lat": 29.833561}}, {"id": 5120074, "name": "Harris Hill", "country": "US", "coord": {"lon": -78.677528, "lat": 42.964779}}, {"id": 5424440, "name": "Harris Park", "country": "US", "coord": {"lon": -105.491112, "lat": 39.511662}}, {"id": 4066409, "name": "Harris Station", "country": "US", "coord": {"lon": -86.970291, "lat": 34.658699}}, {"id": 5192726, "name": "Harrisburg", "country": "US", "coord": {"lon": -76.884422, "lat": 40.273701}}, {"id": 4113951, "name": "Harrisburg", "country": "US", "coord": {"lon": -90.716782, "lat": 35.564251}}, {"id": 4240284, "name": "Harrisburg", "country": "US", "coord": {"lon": -88.540611, "lat": 37.73838}}, {"id": 4470109, "name": "Harrisburg", "country": "US", "coord": {"lon": -80.655899, "lat": 35.32375}}, {"id": 5228340, "name": "Harrisburg", "country": "US", "coord": {"lon": -96.697273, "lat": 43.43137}}, {"id": 5695970, "name": "Harrisburg", "country": "US", "coord": {"lon": -103.738564, "lat": 41.556358}}, {"id": 5730389, "name": "Harrisburg", "country": "US", "coord": {"lon": -123.170647, "lat": 44.27401}}, {"id": 2910302, "name": "Harrislee", "country": "DE", "coord": {"lon": 9.38333, "lat": 54.799999}}, {"id": 6552023, "name": "Harrislee", "country": "DE", "coord": {"lon": 9.38333, "lat": 54.799999}}, {"id": 997751, "name": "Harrismith", "country": "ZA", "coord": {"lon": 29.129459, "lat": -28.27276}}, {"id": 2070042, "name": "Harrismith", "country": "AU", "coord": {"lon": 117.866669, "lat": -32.933331}}, {"id": 5120095, "name": "Harrison", "country": "US", "coord": {"lon": -73.712631, "lat": 40.96899}}, {"id": 1711864, "name": "Harrison", "country": "PH", "coord": {"lon": 120.433327, "lat": 13.45}}, {"id": 4113956, "name": "Harrison", "country": "US", "coord": {"lon": -93.107681, "lat": 36.22979}}, {"id": 4513805, "name": "Harrison", "country": "US", "coord": {"lon": -84.819946, "lat": 39.262001}}, {"id": 4627983, "name": "Harrison", "country": "US", "coord": {"lon": -85.138008, "lat": 35.113682}}, {"id": 4966598, "name": "Harrison", "country": "US", "coord": {"lon": -70.67923, "lat": 44.110352}}, {"id": 4995403, "name": "Harrison", "country": "US", "coord": {"lon": -84.799469, "lat": 44.019192}}, {"id": 5098863, "name": "Harrison", "country": "US", "coord": {"lon": -74.156258, "lat": 40.74649}}, {"id": 5695974, "name": "Harrison", "country": "US", "coord": {"lon": -103.882713, "lat": 42.687191}}, {"id": 7731837, "name": "Harrison Brook", "country": "CA", "coord": {"lon": -67.928467, "lat": 47.213039}}, {"id": 4808274, "name": "Harrison County", "country": "US", "coord": {"lon": -80.383148, "lat": 39.283421}}, {"id": 4696450, "name": "Harrison County", "country": "US", "coord": {"lon": -94.366859, "lat": 32.550152}}, {"id": 4429197, "name": "Harrison County", "country": "US", "coord": {"lon": -89.043648, "lat": 30.40909}}, {"id": 4763231, "name": "Harrisonburg", "country": "US", "coord": {"lon": -78.868919, "lat": 38.44957}}, {"id": 4327024, "name": "Harrisonburg", "country": "US", "coord": {"lon": -91.821518, "lat": 31.77211}}, {"id": 4389658, "name": "Harrisonville", "country": "US", "coord": {"lon": -94.348839, "lat": 38.653339}}, {"id": 5971448, "name": "Harriston", "country": "CA", "coord": {"lon": -80.883018, "lat": 43.900089}}, {"id": 2163881, "name": "Harristown", "country": "AU", "coord": {"lon": 151.933334, "lat": -27.58333}}, {"id": 3301942, "name": "Harristown", "country": "IE", "coord": {"lon": -6.64028, "lat": 52.352219}}, {"id": 4240306, "name": "Harristown", "country": "US", "coord": {"lon": -89.083969, "lat": 39.853931}}, {"id": 2163880, "name": "Harrisville", "country": "AU", "coord": {"lon": 152.683334, "lat": -27.799999}}, {"id": 4808281, "name": "Harrisville", "country": "US", "coord": {"lon": -81.051781, "lat": 39.209518}}, {"id": 4995424, "name": "Harrisville", "country": "US", "coord": {"lon": -83.294693, "lat": 44.656399}}, {"id": 5087227, "name": "Harrisville", "country": "US", "coord": {"lon": -72.096474, "lat": 42.94508}}, {"id": 5222569, "name": "Harrisville", "country": "US", "coord": {"lon": -71.674507, "lat": 41.965649}}, {"id": 5775615, "name": "Harrisville", "country": "US", "coord": {"lon": -111.988281, "lat": 41.28133}}, {"id": 4294180, "name": "Harrodsburg", "country": "US", "coord": {"lon": -84.843292, "lat": 37.762299}}, {"id": 2647428, "name": "Harrogate", "country": "GB", "coord": {"lon": -1.5373, "lat": 53.99078}}, {"id": 4628044, "name": "Harrogate", "country": "US", "coord": {"lon": -83.65686, "lat": 36.582298}}, {"id": 7290608, "name": "Harrogate District", "country": "GB", "coord": {"lon": -1.58821, "lat": 54.076321}}, {"id": 2647427, "name": "Harrold", "country": "GB", "coord": {"lon": -0.61038, "lat": 52.201271}}, {"id": 3333151, "name": "Harrow", "country": "GB", "coord": {"lon": -0.33333, "lat": 51.566669}}, {"id": 5971462, "name": "Harrow", "country": "CA", "coord": {"lon": -82.916542, "lat": 42.03339}}, {"id": 2647425, "name": "Harrow", "country": "GB", "coord": {"lon": -0.33208, "lat": 51.57835}}, {"id": 2647420, "name": "Harrow Weald", "country": "GB", "coord": {"lon": -0.3374, "lat": 51.610661}}, {"id": 2647421, "name": "Harrow on the Hill", "country": "GB", "coord": {"lon": -0.33371, "lat": 51.571419}}, {"id": 4004930, "name": "Harry Manzo", "country": "MX", "coord": {"lon": -117.066673, "lat": 32.416672}}, {"id": 720149, "name": "Harsany", "country": "HU", "coord": {"lon": 20.75, "lat": 47.966671}}, {"id": 6553832, "name": "Harschbach", "country": "DE", "coord": {"lon": 7.6, "lat": 50.583302}}, {"id": 2910292, "name": "Harschbach", "country": "DE", "coord": {"lon": 7.6, "lat": 50.583328}}, {"id": 6553306, "name": "Harscheid", "country": "DE", "coord": {"lon": 6.9, "lat": 50.466702}}, {"id": 2910289, "name": "Harscheid", "country": "DE", "coord": {"lon": 6.89203, "lat": 50.459801}}, {"id": 2910282, "name": "Harsdorf", "country": "DE", "coord": {"lon": 12.03333, "lat": 51.549999}}, {"id": 6556816, "name": "Harsdorf", "country": "DE", "coord": {"lon": 11.5667, "lat": 50.033298}}, {"id": 2910283, "name": "Harsdorf", "country": "DE", "coord": {"lon": 11.56667, "lat": 50.033329}}, {"id": 2910280, "name": "Harsefeld", "country": "DE", "coord": {"lon": 9.5, "lat": 53.450001}}, {"id": 676169, "name": "Harseni", "country": "RO", "coord": {"lon": 25.01667, "lat": 45.75}}, {"id": 676167, "name": "Harsesti", "country": "RO", "coord": {"lon": 24.783331, "lat": 44.533329}}, {"id": 2910278, "name": "Harsewinkel", "country": "DE", "coord": {"lon": 8.23333, "lat": 51.966671}}, {"id": 131962, "name": "Harsin", "country": "IR", "coord": {"lon": 47.586102, "lat": 34.272099}}, {"id": 2754804, "name": "Harskamp", "country": "NL", "coord": {"lon": 5.75278, "lat": 52.130001}}, {"id": 6549325, "name": "Harsleben", "country": "DE", "coord": {"lon": 11.1, "lat": 51.866699}}, {"id": 2910275, "name": "Harsleben", "country": "DE", "coord": {"lon": 11.1, "lat": 51.866669}}, {"id": 676163, "name": "Harsova", "country": "RO", "coord": {"lon": 27.933331, "lat": 44.683331}}, {"id": 6554549, "name": "Harspelt", "country": "DE", "coord": {"lon": 6.16667, "lat": 50.133301}}, {"id": 2910273, "name": "Harspelt", "country": "DE", "coord": {"lon": 6.16667, "lat": 50.133331}}, {"id": 6453319, "name": "Harstad", "country": "NO", "coord": {"lon": 16.529301, "lat": 68.798958}}, {"id": 3153823, "name": "Harstad", "country": "NO", "coord": {"lon": 16.541651, "lat": 68.798332}}, {"id": 2910271, "name": "Harste", "country": "DE", "coord": {"lon": 9.86667, "lat": 51.599998}}, {"id": 2163864, "name": "Harston", "country": "AU", "coord": {"lon": 145.149994, "lat": -36.466671}}, {"id": 2647419, "name": "Harston", "country": "GB", "coord": {"lon": 0.07999, "lat": 52.136909}}, {"id": 1270271, "name": "Harsud", "country": "IN", "coord": {"lon": 76.73333, "lat": 22.1}}, {"id": 6552482, "name": "Harsum", "country": "DE", "coord": {"lon": 9.96667, "lat": 52.216702}}, {"id": 2910269, "name": "Harsum", "country": "DE", "coord": {"lon": 9.96486, "lat": 52.210449}}, {"id": 2930593, "name": "Harsweg", "country": "DE", "coord": {"lon": 7.21667, "lat": 53.400002}}, {"id": 2910231, "name": "Hart", "country": "DE", "coord": {"lon": 12.15, "lat": 48.116669}}, {"id": 2776824, "name": "Hart", "country": "AT", "coord": {"lon": 16.200001, "lat": 47.666672}}, {"id": 2776831, "name": "Hart", "country": "AT", "coord": {"lon": 15.4, "lat": 47.033329}}, {"id": 4995436, "name": "Hart", "country": "US", "coord": {"lon": -86.363968, "lat": 43.698341}}, {"id": 5522876, "name": "Hart", "country": "US", "coord": {"lon": -102.115738, "lat": 34.385071}}, {"id": 7290558, "name": "Hart District", "country": "GB", "coord": {"lon": -0.8811, "lat": 51.275639}}, {"id": 7872332, "name": "Hart bei Graz", "country": "AT", "coord": {"lon": 15.52512, "lat": 47.059341}}, {"id": 6619861, "name": "Hart bei Graz", "country": "AT", "coord": {"lon": 15.51527, "lat": 47.04311}}, {"id": 7873706, "name": "Hart im Zillertal", "country": "AT", "coord": {"lon": 11.9165, "lat": 47.340191}}, {"id": 2776791, "name": "Hart im Zillertal", "country": "AT", "coord": {"lon": 11.87201, "lat": 47.352322}}, {"id": 3051657, "name": "Harta", "country": "HU", "coord": {"lon": 19.030531, "lat": 46.69846}}, {"id": 7873427, "name": "Hartberg", "country": "AT", "coord": {"lon": 15.98511, "lat": 47.279491}}, {"id": 2776801, "name": "Hartberg", "country": "AT", "coord": {"lon": 15.96667, "lat": 47.283329}}, {"id": 2776802, "name": "Hartberg", "country": "AT", "coord": {"lon": 16.183331, "lat": 47.033329}}, {"id": 2647416, "name": "Hartburn", "country": "GB", "coord": {"lon": -1.85, "lat": 55.166672}}, {"id": 6554136, "name": "Hartenfels", "country": "DE", "coord": {"lon": 7.78333, "lat": 50.583302}}, {"id": 2910181, "name": "Hartenfels", "country": "DE", "coord": {"lon": 7.78333, "lat": 50.583328}}, {"id": 6552097, "name": "Hartenholm", "country": "DE", "coord": {"lon": 10.0833, "lat": 53.900002}}, {"id": 2910178, "name": "Hartenholm", "country": "DE", "coord": {"lon": 10.08333, "lat": 53.900002}}, {"id": 2910172, "name": "Hartenrod", "country": "DE", "coord": {"lon": 8.835, "lat": 49.585831}}, {"id": 2910171, "name": "Hartenrod", "country": "DE", "coord": {"lon": 8.46145, "lat": 50.758121}}, {"id": 2910167, "name": "Hartenstein", "country": "DE", "coord": {"lon": 12.68333, "lat": 50.666672}}, {"id": 6556886, "name": "Hartenstein", "country": "DE", "coord": {"lon": 11.5167, "lat": 49.599998}}, {"id": 2910168, "name": "Hartenstein", "country": "DE", "coord": {"lon": 11.51667, "lat": 49.599998}}, {"id": 4835797, "name": "Hartford", "country": "US", "coord": {"lon": -72.685089, "lat": 41.76371}}, {"id": 2647409, "name": "Hartford", "country": "GB", "coord": {"lon": -2.55, "lat": 53.23333}}, {"id": 4066437, "name": "Hartford", "country": "US", "coord": {"lon": -85.696877, "lat": 31.1024}}, {"id": 4240319, "name": "Hartford", "country": "US", "coord": {"lon": -90.09594, "lat": 38.833382}}, {"id": 4294195, "name": "Hartford", "country": "US", "coord": {"lon": -86.909157, "lat": 37.45116}}, {"id": 4966616, "name": "Hartford", "country": "US", "coord": {"lon": -70.346733, "lat": 44.372841}}, {"id": 4995468, "name": "Hartford", "country": "US", "coord": {"lon": -86.166687, "lat": 42.206711}}, {"id": 5228353, "name": "Hartford", "country": "US", "coord": {"lon": -96.942558, "lat": 43.623032}}, {"id": 5255628, "name": "Hartford", "country": "US", "coord": {"lon": -88.37899, "lat": 43.31778}}, {"id": 4921229, "name": "Hartford City", "country": "US", "coord": {"lon": -85.369972, "lat": 40.451149}}, {"id": 4835806, "name": "Hartford County", "country": "US", "coord": {"lon": -72.766212, "lat": 41.766769}}, {"id": 2910146, "name": "Harth", "country": "DE", "coord": {"lon": 7.47233, "lat": 50.838902}}, {"id": 2910140, "name": "Hartha", "country": "DE", "coord": {"lon": 12.96667, "lat": 51.099998}}, {"id": 2910135, "name": "Harthau", "country": "DE", "coord": {"lon": 12.91667, "lat": 50.783329}}, {"id": 6555242, "name": "Harthausen", "country": "DE", "coord": {"lon": 8.345, "lat": 49.294201}}, {"id": 2910121, "name": "Harthausen", "country": "DE", "coord": {"lon": 8.345, "lat": 49.29417}}, {"id": 6555745, "name": "Hartheim", "country": "DE", "coord": {"lon": 7.6264, "lat": 47.937279}}, {"id": 2910108, "name": "Hartheim", "country": "DE", "coord": {"lon": 7.63333, "lat": 47.933331}}, {"id": 2647406, "name": "Harthill", "country": "GB", "coord": {"lon": -3.75, "lat": 55.866669}}, {"id": 2647407, "name": "Harthill", "country": "GB", "coord": {"lon": -1.26667, "lat": 53.316669}}, {"id": 2647408, "name": "Harthill", "country": "GB", "coord": {"lon": -2.75, "lat": 53.083328}}, {"id": 2910099, "name": "Harthof", "country": "DE", "coord": {"lon": 10.71667, "lat": 48.783329}}, {"id": 676155, "name": "Hartiesti", "country": "RO", "coord": {"lon": 25.1, "lat": 45.116669}}, {"id": 5069753, "name": "Hartington", "country": "US", "coord": {"lon": -97.264503, "lat": 42.622501}}, {"id": 7871990, "name": "Hartkirchen", "country": "AT", "coord": {"lon": 14.00534, "lat": 48.362751}}, {"id": 2776787, "name": "Hartkirchen", "country": "AT", "coord": {"lon": 14.00422, "lat": 48.363491}}, {"id": 7873428, "name": "Hartl", "country": "AT", "coord": {"lon": 15.89937, "lat": 47.193951}}, {"id": 2776783, "name": "Hartl", "country": "AT", "coord": {"lon": 15.91667, "lat": 47.183331}}, {"id": 7303784, "name": "Hartland", "country": "CA", "coord": {"lon": -67.516693, "lat": 46.299858}}, {"id": 5255640, "name": "Hartland", "country": "US", "coord": {"lon": -88.342041, "lat": 43.105011}}, {"id": 2647400, "name": "Hartlepool", "country": "GB", "coord": {"lon": -1.2125, "lat": 54.686111}}, {"id": 2070019, "name": "Hartley", "country": "AU", "coord": {"lon": 139, "lat": -35.200001}}, {"id": 2163861, "name": "Hartley", "country": "AU", "coord": {"lon": 150.166672, "lat": -33.549999}}, {"id": 4859950, "name": "Hartley", "country": "US", "coord": {"lon": -95.476952, "lat": 43.17997}}, {"id": 5355612, "name": "Hartley", "country": "US", "coord": {"lon": -121.946907, "lat": 38.41713}}, {"id": 2910068, "name": "Hartlingen", "country": "DE", "coord": {"lon": 7.9, "lat": 50.533329}}, {"id": 3075949, "name": "Hartmanice", "country": "CZ", "coord": {"lon": 13.45455, "lat": 49.169479}}, {"id": 2910055, "name": "Hartmannsberg", "country": "DE", "coord": {"lon": 10.38333, "lat": 47.849998}}, {"id": 6548564, "name": "Hartmannsdorf", "country": "DE", "coord": {"lon": 12.8, "lat": 50.900002}}, {"id": 2910048, "name": "Hartmannsdorf", "country": "DE", "coord": {"lon": 12.8, "lat": 50.900002}}, {"id": 2910046, "name": "Hartmannsdorf", "country": "DE", "coord": {"lon": 12.45, "lat": 51.116669}}, {"id": 6550368, "name": "Hartmannsdorf", "country": "DE", "coord": {"lon": 11.9833, "lat": 50.966702}}, {"id": 2910047, "name": "Hartmannsdorf", "country": "DE", "coord": {"lon": 11.98333, "lat": 50.966671}}, {"id": 6550495, "name": "Hartmannsdorf", "country": "DE", "coord": {"lon": 12, "lat": 50.900002}}, {"id": 2910049, "name": "Hartmannsdorf", "country": "DE", "coord": {"lon": 12, "lat": 50.900002}}, {"id": 2910051, "name": "Hartmannsdorf", "country": "DE", "coord": {"lon": 12.43333, "lat": 50.76667}}, {"id": 2910037, "name": "Hartmannsgr\u00fcn", "country": "DE", "coord": {"lon": 12.21667, "lat": 50.433331}}, {"id": 5971631, "name": "Hartney", "country": "CA", "coord": {"lon": -100.523399, "lat": 49.480801}}, {"id": 658759, "name": "Hartola", "country": "FI", "coord": {"lon": 26.08333, "lat": 61.583328}}, {"id": 658757, "name": "Hartola", "country": "FI", "coord": {"lon": 26.01667, "lat": 61.583328}}, {"id": 2647393, "name": "Hartpury", "country": "GB", "coord": {"lon": -2.29314, "lat": 51.924191}}, {"id": 5120141, "name": "Hartsdale", "country": "US", "coord": {"lon": -73.798187, "lat": 41.01899}}, {"id": 4066449, "name": "Hartselle", "country": "US", "coord": {"lon": -86.93528, "lat": 34.443432}}, {"id": 2647391, "name": "Hartshill", "country": "GB", "coord": {"lon": -1.52006, "lat": 52.54203}}, {"id": 4538400, "name": "Hartshorne", "country": "US", "coord": {"lon": -95.55748, "lat": 34.8451}}, {"id": 3315332, "name": "Hartstown", "country": "IE", "coord": {"lon": -6.42694, "lat": 53.393059}}, {"id": 4581261, "name": "Hartsville", "country": "US", "coord": {"lon": -80.073402, "lat": 34.374039}}, {"id": 4628109, "name": "Hartsville", "country": "US", "coord": {"lon": -86.167213, "lat": 36.390881}}, {"id": 294857, "name": "Hartuv", "country": "IL", "coord": {"lon": 34.999699, "lat": 31.76428}}, {"id": 4389731, "name": "Hartville", "country": "US", "coord": {"lon": -92.510437, "lat": 37.250881}}, {"id": 5157064, "name": "Hartville", "country": "US", "coord": {"lon": -81.331223, "lat": 40.963669}}, {"id": 2647388, "name": "Hartwell", "country": "GB", "coord": {"lon": -0.85376, "lat": 52.14616}}, {"id": 4199572, "name": "Hartwell", "country": "US", "coord": {"lon": -82.932091, "lat": 34.352879}}, {"id": 5971679, "name": "Harty", "country": "CA", "coord": {"lon": -82.68309, "lat": 49.48354}}, {"id": 1177073, "name": "Haru Zbad", "country": "PK", "coord": {"lon": 73.138893, "lat": 29.613331}}, {"id": 7921580, "name": "Haruman", "country": "ID", "coord": {"lon": 107.926498, "lat": -7.072}}, {"id": 312523, "name": "Haruniye", "country": "TR", "coord": {"lon": 36.454842, "lat": 37.242161}}, {"id": 1270265, "name": "Harur", "country": "IN", "coord": {"lon": 78.5, "lat": 12.06667}}, {"id": 4895282, "name": "Harvard", "country": "US", "coord": {"lon": -88.613708, "lat": 42.422241}}, {"id": 4938957, "name": "Harvard", "country": "US", "coord": {"lon": -71.58284, "lat": 42.500092}}, {"id": 5069773, "name": "Harvard", "country": "US", "coord": {"lon": -98.097267, "lat": 40.6189}}, {"id": 2909973, "name": "Harvesse", "country": "DE", "coord": {"lon": 10.38852, "lat": 52.34425}}, {"id": 4066463, "name": "Harvest", "country": "US", "coord": {"lon": -86.750832, "lat": 34.85564}}, {"id": 7839514, "name": "Harvey", "country": "AU", "coord": {"lon": 115.933762, "lat": -33.149761}}, {"id": 2070009, "name": "Harvey", "country": "AU", "coord": {"lon": 115.900002, "lat": -33.083328}}, {"id": 5971697, "name": "Harvey", "country": "CA", "coord": {"lon": -67.006378, "lat": 45.729019}}, {"id": 4327047, "name": "Harvey", "country": "US", "coord": {"lon": -90.077293, "lat": 29.90354}}, {"id": 4895298, "name": "Harvey", "country": "US", "coord": {"lon": -87.646713, "lat": 41.610031}}, {"id": 4995489, "name": "Harvey", "country": "US", "coord": {"lon": -87.354309, "lat": 46.494659}}, {"id": 5059576, "name": "Harvey", "country": "US", "coord": {"lon": -99.935402, "lat": 47.769718}}, {"id": 4272705, "name": "Harvey County", "country": "US", "coord": {"lon": -97.433647, "lat": 38.050011}}, {"id": 5192840, "name": "Harveys Lake", "country": "US", "coord": {"lon": -76.024651, "lat": 41.383411}}, {"id": 2647386, "name": "Harvington", "country": "GB", "coord": {"lon": -1.91667, "lat": 52.133331}}, {"id": 2647385, "name": "Harwell", "country": "GB", "coord": {"lon": -1.29175, "lat": 51.599468}}, {"id": 2647383, "name": "Harwich", "country": "GB", "coord": {"lon": 1.28437, "lat": 51.94194}}, {"id": 4939004, "name": "Harwich", "country": "US", "coord": {"lon": -70.075851, "lat": 41.686218}}, {"id": 7257575, "name": "Harwich Center", "country": "US", "coord": {"lon": -70.069382, "lat": 41.692348}}, {"id": 4939008, "name": "Harwich Port", "country": "US", "coord": {"lon": -70.078629, "lat": 41.666779}}, {"id": 5971776, "name": "Harwood", "country": "CA", "coord": {"lon": -78.182823, "lat": 44.133419}}, {"id": 4895308, "name": "Harwood Heights", "country": "US", "coord": {"lon": -87.807564, "lat": 41.967251}}, {"id": 2163842, "name": "Harwood Island", "country": "AU", "coord": {"lon": 153.233337, "lat": -29.41667}}, {"id": 2909969, "name": "Harxheim", "country": "DE", "coord": {"lon": 8.13389, "lat": 49.64278}}, {"id": 6555276, "name": "Harxheim", "country": "DE", "coord": {"lon": 8.26417, "lat": 49.9053}}, {"id": 2909968, "name": "Harxheim", "country": "DE", "coord": {"lon": 8.26417, "lat": 49.905281}}, {"id": 2909944, "name": "Harzgerode", "country": "DE", "coord": {"lon": 11.15, "lat": 51.633331}}, {"id": 2909941, "name": "Harzheim", "country": "DE", "coord": {"lon": 6.68333, "lat": 50.549999}}, {"id": 6549840, "name": "Harzungen", "country": "DE", "coord": {"lon": 10.8, "lat": 51.549999}}, {"id": 2909926, "name": "Harzungen", "country": "DE", "coord": {"lon": 10.8, "lat": 51.549999}}, {"id": 6360180, "name": "Har\u00eda", "country": "ES", "coord": {"lon": -13.46238, "lat": 29.164949}}, {"id": 2112802, "name": "Hasaki", "country": "JP", "coord": {"lon": 140.833328, "lat": 35.73333}}, {"id": 1177064, "name": "Hasan Abdal", "country": "PK", "coord": {"lon": 72.699997, "lat": 30.433331}}, {"id": 407036, "name": "Hasan Bini Sad", "country": "YE", "coord": {"lon": 44.47728, "lat": 16.27293}}, {"id": 312504, "name": "Hasanbeyli", "country": "TR", "coord": {"lon": 36.55933, "lat": 37.13718}}, {"id": 312479, "name": "Hasankeyf", "country": "TR", "coord": {"lon": 41.414589, "lat": 37.713081}}, {"id": 1270251, "name": "Hasanpur", "country": "IN", "coord": {"lon": 78.283333, "lat": 28.716669}}, {"id": 1270252, "name": "Hasanpur", "country": "IN", "coord": {"lon": 77.5, "lat": 27.966669}}, {"id": 274313, "name": "Hasbaiya", "country": "LB", "coord": {"lon": 35.685001, "lat": 33.397781}}, {"id": 2909916, "name": "Hasberg", "country": "DE", "coord": {"lon": 10.42242, "lat": 48.183029}}, {"id": 6552987, "name": "Hasbergen", "country": "DE", "coord": {"lon": 7.93333, "lat": 52.233299}}, {"id": 2909915, "name": "Hasbergen", "country": "DE", "coord": {"lon": 7.93333, "lat": 52.23333}}, {"id": 6554327, "name": "Hasborn", "country": "DE", "coord": {"lon": 6.91667, "lat": 50.049999}}, {"id": 2909912, "name": "Hasborn", "country": "DE", "coord": {"lon": 6.91667, "lat": 50.049999}}, {"id": 5098878, "name": "Hasbrouck Heights", "country": "US", "coord": {"lon": -74.080704, "lat": 40.858158}}, {"id": 6555100, "name": "Haschbach am Remigiusberg", "country": "DE", "coord": {"lon": 7.43333, "lat": 49.533298}}, {"id": 2909908, "name": "Haschbach am Remigiusberg", "country": "DE", "coord": {"lon": 7.43333, "lat": 49.533329}}, {"id": 6555882, "name": "Hasel", "country": "DE", "coord": {"lon": 7.9, "lat": 47.650002}}, {"id": 2909892, "name": "Hasel", "country": "DE", "coord": {"lon": 7.8972, "lat": 47.653419}}, {"id": 6551683, "name": "Haselau", "country": "DE", "coord": {"lon": 9.61667, "lat": 53.666698}}, {"id": 2909886, "name": "Haselau", "country": "DE", "coord": {"lon": 9.6201, "lat": 53.661812}}, {"id": 2909880, "name": "Haselbach", "country": "DE", "coord": {"lon": 13.01667, "lat": 48.383331}}, {"id": 2909884, "name": "Haselbach", "country": "DE", "coord": {"lon": 11.97956, "lat": 48.08691}}, {"id": 6550541, "name": "Haselbach", "country": "DE", "coord": {"lon": 12.4366, "lat": 51.07}}, {"id": 2909865, "name": "Haselbach", "country": "DE", "coord": {"lon": 12.43333, "lat": 51.066669}}, {"id": 6556579, "name": "Haselbach", "country": "DE", "coord": {"lon": 12.69243, "lat": 49.003559}}, {"id": 2909873, "name": "Haselbach", "country": "DE", "coord": {"lon": 12.69183, "lat": 49.003529}}, {"id": 2909877, "name": "Haselbach", "country": "DE", "coord": {"lon": 13.4, "lat": 48.650002}}, {"id": 7302786, "name": "Haselbachtal", "country": "DE", "coord": {"lon": 14.02576, "lat": 51.235699}}, {"id": 6551684, "name": "Haseldorf", "country": "DE", "coord": {"lon": 9.6, "lat": 53.616699}}, {"id": 2909821, "name": "Haseldorf", "country": "DE", "coord": {"lon": 9.6, "lat": 53.616669}}, {"id": 2776748, "name": "Haselgehr", "country": "AT", "coord": {"lon": 10.5, "lat": 47.316669}}, {"id": 2909781, "name": "Haselrain", "country": "DE", "coord": {"lon": 12.08754, "lat": 50.350658}}, {"id": 2909764, "name": "Haselstein", "country": "DE", "coord": {"lon": 9.85, "lat": 50.683331}}, {"id": 6551551, "name": "Haselund", "country": "DE", "coord": {"lon": 9.18333, "lat": 54.599998}}, {"id": 2909762, "name": "Haselund", "country": "DE", "coord": {"lon": 9.18333, "lat": 54.599998}}, {"id": 2909761, "name": "Haselunne", "country": "DE", "coord": {"lon": 7.48333, "lat": 52.666672}}, {"id": 2909755, "name": "Hasenbach", "country": "DE", "coord": {"lon": 7.65, "lat": 50.900002}}, {"id": 2909696, "name": "Hasenberg", "country": "DE", "coord": {"lon": 7.98333, "lat": 50.23333}}, {"id": 2909695, "name": "Hasenberg", "country": "DE", "coord": {"lon": 9.66667, "lat": 50.666672}}, {"id": 2909636, "name": "Hasenkamp", "country": "DE", "coord": {"lon": 8.96667, "lat": 52.299999}}, {"id": 3433580, "name": "Hasenkamp", "country": "AR", "coord": {"lon": -59.835449, "lat": -31.51226}}, {"id": 6552098, "name": "Hasenkrug", "country": "DE", "coord": {"lon": 9.85, "lat": 53.983299}}, {"id": 2909623, "name": "Hasenkrug", "country": "DE", "coord": {"lon": 9.85, "lat": 53.98333}}, {"id": 2909618, "name": "Hasenmahd", "country": "DE", "coord": {"lon": 10.5, "lat": 47.700001}}, {"id": 6552099, "name": "Hasenmoor", "country": "DE", "coord": {"lon": 9.98333, "lat": 53.900002}}, {"id": 2909615, "name": "Hasenmoor", "country": "DE", "coord": {"lon": 9.98333, "lat": 53.900002}}, {"id": 2909601, "name": "Hasenthal", "country": "DE", "coord": {"lon": 11.23333, "lat": 50.466671}}, {"id": 6553690, "name": "Haserich", "country": "DE", "coord": {"lon": 7.33333, "lat": 50.033298}}, {"id": 2909587, "name": "Haserich", "country": "DE", "coord": {"lon": 7.33333, "lat": 50.033329}}, {"id": 2647367, "name": "Hasfield", "country": "GB", "coord": {"lon": -2.25431, "lat": 51.944019}}, {"id": 2030890, "name": "Hashaat", "country": "MN", "coord": {"lon": 104.805107, "lat": 45.243229}}, {"id": 248816, "name": "Hashemite Kingdom of Jordan", "country": "JO", "coord": {"lon": 36, "lat": 31}}, {"id": 2130135, "name": "Hashimoto", "country": "JP", "coord": {"lon": 140.75, "lat": 40.816669}}, {"id": 1863082, "name": "Hashimoto", "country": "JP", "coord": {"lon": 135.616669, "lat": 34.316669}}, {"id": 1863077, "name": "Hashio", "country": "JP", "coord": {"lon": 135.75, "lat": 34.566669}}, {"id": 8199382, "name": "Hashmonaim", "country": "IL", "coord": {"lon": 35.0215, "lat": 31.929729}}, {"id": 113343, "name": "Hashtpar", "country": "IR", "coord": {"lon": 48.903702, "lat": 37.8008}}, {"id": 142554, "name": "Hashtrud", "country": "IR", "coord": {"lon": 47.0508, "lat": 37.477901}}, {"id": 1177042, "name": "Hasilpur", "country": "PK", "coord": {"lon": 72.555283, "lat": 29.712219}}, {"id": 1270245, "name": "Hasimara", "country": "IN", "coord": {"lon": 89.351891, "lat": 26.74704}}, {"id": 4114047, "name": "Haskell", "country": "US", "coord": {"lon": -92.636551, "lat": 34.50148}}, {"id": 4538428, "name": "Haskell", "country": "US", "coord": {"lon": -95.674149, "lat": 35.820381}}, {"id": 4696593, "name": "Haskell", "country": "US", "coord": {"lon": -99.733704, "lat": 33.1576}}, {"id": 4538431, "name": "Haskell County", "country": "US", "coord": {"lon": -95.133568, "lat": 35.216759}}, {"id": 5157096, "name": "Haskins", "country": "US", "coord": {"lon": -83.706047, "lat": 41.464771}}, {"id": 312416, "name": "Haskoy", "country": "TR", "coord": {"lon": 41.689442, "lat": 38.683331}}, {"id": 2909544, "name": "Haslach", "country": "DE", "coord": {"lon": 8.05658, "lat": 48.565311}}, {"id": 3153801, "name": "Hasle", "country": "NO", "coord": {"lon": 10.7, "lat": 59.783329}}, {"id": 2660410, "name": "Hasle", "country": "CH", "coord": {"lon": 8.05326, "lat": 46.977859}}, {"id": 2660409, "name": "Hasle", "country": "CH", "coord": {"lon": 7.65112, "lat": 47.014359}}, {"id": 7286032, "name": "Hasle (LU)", "country": "CH", "coord": {"lon": 8.07635, "lat": 46.950409}}, {"id": 7286031, "name": "Hasle bei Burgdorf", "country": "CH", "coord": {"lon": 7.64314, "lat": 46.998291}}, {"id": 2647365, "name": "Haslemere", "country": "GB", "coord": {"lon": -0.70785, "lat": 51.090149}}, {"id": 7286033, "name": "Haslen", "country": "CH", "coord": {"lon": 9.0639, "lat": 46.966301}}, {"id": 2660408, "name": "Haslen", "country": "CH", "coord": {"lon": 9.36752, "lat": 47.369308}}, {"id": 4696605, "name": "Haslet", "country": "US", "coord": {"lon": -97.347801, "lat": 32.97485}}, {"id": 4995514, "name": "Haslett", "country": "US", "coord": {"lon": -84.401077, "lat": 42.746979}}, {"id": 2620712, "name": "Haslev", "country": "DK", "coord": {"lon": 11.96389, "lat": 55.32346}}, {"id": 2660407, "name": "Hasli", "country": "CH", "coord": {"lon": 7.65166, "lat": 46.670979}}, {"id": 7669629, "name": "Hasli", "country": "CH", "coord": {"lon": 9.01373, "lat": 47.590771}}, {"id": 6291627, "name": "Hasliberg", "country": "CH", "coord": {"lon": 8.51039, "lat": 47.46854}}, {"id": 2647363, "name": "Haslingden", "country": "GB", "coord": {"lon": -2.32382, "lat": 53.703259}}, {"id": 2647362, "name": "Haslingfield", "country": "GB", "coord": {"lon": 0.05579, "lat": 52.150162}}, {"id": 6557039, "name": "Hasloch", "country": "DE", "coord": {"lon": 9.49361, "lat": 49.791901}}, {"id": 2909491, "name": "Hasloch", "country": "DE", "coord": {"lon": 9.49361, "lat": 49.791939}}, {"id": 6551685, "name": "Hasloh", "country": "DE", "coord": {"lon": 9.9, "lat": 53.6833}}, {"id": 2909489, "name": "Hasloh", "country": "DE", "coord": {"lon": 9.9, "lat": 53.683331}}, {"id": 3013878, "name": "Hasnon", "country": "FR", "coord": {"lon": 3.38657, "lat": 50.424721}}, {"id": 6440409, "name": "Hasparren", "country": "FR", "coord": {"lon": -1.3, "lat": 43.383331}}, {"id": 3013877, "name": "Hasparren", "country": "FR", "coord": {"lon": -1.30499, "lat": 43.38377}}, {"id": 2754788, "name": "Haspel", "country": "NL", "coord": {"lon": 5.51944, "lat": 52.03167}}, {"id": 3013875, "name": "Haspres", "country": "FR", "coord": {"lon": 3.41695, "lat": 50.258289}}, {"id": 312405, "name": "Hassa", "country": "TR", "coord": {"lon": 36.51778, "lat": 36.799438}}, {"id": 1270239, "name": "Hassan", "country": "IN", "coord": {"lon": 76.099442, "lat": 13.00056}}, {"id": 2909460, "name": "Hassbergen", "country": "DE", "coord": {"lon": 9.23333, "lat": 52.73333}}, {"id": 2909437, "name": "Hassel", "country": "DE", "coord": {"lon": 7.05, "lat": 51.599998}}, {"id": 2960488, "name": "Hassel", "country": "LU", "coord": {"lon": 6.20917, "lat": 49.548611}}, {"id": 2909444, "name": "Hassel", "country": "DE", "coord": {"lon": 8.83198, "lat": 52.69688}}, {"id": 6549492, "name": "Hassel", "country": "DE", "coord": {"lon": 11.9333, "lat": 52.633301}}, {"id": 2909445, "name": "Hassel", "country": "DE", "coord": {"lon": 11.92635, "lat": 52.639519}}, {"id": 7707966, "name": "Hassel's Trailer Park", "country": "US", "coord": {"lon": -90.06028, "lat": 29.8528}}, {"id": 6553399, "name": "Hasselbach", "country": "DE", "coord": {"lon": 7.51667, "lat": 50.716702}}, {"id": 2909430, "name": "Hasselbach", "country": "DE", "coord": {"lon": 7.51667, "lat": 50.716671}}, {"id": 6553900, "name": "Hasselbach", "country": "DE", "coord": {"lon": 7.45, "lat": 50.033298}}, {"id": 2909433, "name": "Hasselbach", "country": "DE", "coord": {"lon": 7.45, "lat": 50.033329}}, {"id": 6552024, "name": "Hasselberg", "country": "DE", "coord": {"lon": 9.98333, "lat": 54.716702}}, {"id": 2909418, "name": "Hasselberg", "country": "DE", "coord": {"lon": 9.98333, "lat": 54.716671}}, {"id": 2909402, "name": "Hasselborn", "country": "DE", "coord": {"lon": 8.49192, "lat": 50.405891}}, {"id": 3208427, "name": "Hasselbrock", "country": "DE", "coord": {"lon": 7.18333, "lat": 52.916672}}, {"id": 2909386, "name": "Hasselfelde", "country": "DE", "coord": {"lon": 10.85, "lat": 51.683331}}, {"id": 2909364, "name": "Hasselsweiler", "country": "DE", "coord": {"lon": 6.38333, "lat": 50.98333}}, {"id": 2796492, "name": "Hasselt", "country": "BE", "coord": {"lon": 5.33266, "lat": 50.93182}}, {"id": 2796491, "name": "Hasselt", "country": "BE", "coord": {"lon": 5.33781, "lat": 50.931061}}, {"id": 2754779, "name": "Hasselt", "country": "NL", "coord": {"lon": 6.09527, "lat": 52.59267}}, {"id": 2909356, "name": "Hassenbach", "country": "DE", "coord": {"lon": 9.95, "lat": 50.216671}}, {"id": 6552729, "name": "Hassendorf", "country": "DE", "coord": {"lon": 9.26667, "lat": 53.116699}}, {"id": 2909350, "name": "Hassendorf", "country": "DE", "coord": {"lon": 9.26667, "lat": 53.116669}}, {"id": 2909347, "name": "Hassenhausen", "country": "DE", "coord": {"lon": 8.73333, "lat": 50.700001}}, {"id": 2909344, "name": "Hassenroth", "country": "DE", "coord": {"lon": 8.935, "lat": 49.789169}}, {"id": 2909335, "name": "Hassfurt", "country": "DE", "coord": {"lon": 10.5, "lat": 50.033329}}, {"id": 2494073, "name": "Hassi Bahbah", "country": "DZ", "coord": {"lon": 3.0299, "lat": 35.071091}}, {"id": 2547782, "name": "Hassi Berkane", "country": "MA", "coord": {"lon": -2.86699, "lat": 34.838982}}, {"id": 2494037, "name": "Hassi Maameche", "country": "DZ", "coord": {"lon": 0.07329, "lat": 35.860489}}, {"id": 2494029, "name": "Hassi Messaoud", "country": "DZ", "coord": {"lon": 6.07286, "lat": 31.68041}}, {"id": 2909325, "name": "Hassleben", "country": "DE", "coord": {"lon": 11, "lat": 51.116669}}, {"id": 2707399, "name": "Hassleholm", "country": "SE", "coord": {"lon": 13.76638, "lat": 56.15905}}, {"id": 2707366, "name": "Hasslo", "country": "SE", "coord": {"lon": 15.48333, "lat": 56.116669}}, {"id": 2909313, "name": "Hassloch", "country": "DE", "coord": {"lon": 8.25806, "lat": 49.362782}}, {"id": 2707363, "name": "Hassl\u00f6sa", "country": "SE", "coord": {"lon": 13.26667, "lat": 58.416672}}, {"id": 2909308, "name": "Hassmersheim", "country": "DE", "coord": {"lon": 9.15, "lat": 49.299999}}, {"id": 2909304, "name": "Hassmoor", "country": "DE", "coord": {"lon": 9.81667, "lat": 54.299999}}, {"id": 2647359, "name": "Hassocks", "country": "GB", "coord": {"lon": -0.16617, "lat": 50.928139}}, {"id": 5192861, "name": "Hasson Heights", "country": "US", "coord": {"lon": -79.677002, "lat": 41.448952}}, {"id": 6547423, "name": "Haste", "country": "DE", "coord": {"lon": 9.3874, "lat": 52.377102}}, {"id": 2909296, "name": "Haste", "country": "DE", "coord": {"lon": 9.3928, "lat": 52.38105}}, {"id": 2796482, "name": "Hastiere-Lavaux", "country": "BE", "coord": {"lon": 4.82446, "lat": 50.218491}}, {"id": 1270237, "name": "Hastinapur", "country": "IN", "coord": {"lon": 78.01667, "lat": 29.16667}}, {"id": 2190224, "name": "Hastings", "country": "NZ", "coord": {"lon": 176.849182, "lat": -39.6381}}, {"id": 5069802, "name": "Hastings", "country": "US", "coord": {"lon": -98.38839, "lat": 40.586121}}, {"id": 4860019, "name": "Hastings", "country": "US", "coord": {"lon": -95.499161, "lat": 41.022781}}, {"id": 2163837, "name": "Hastings", "country": "AU", "coord": {"lon": 145.183334, "lat": -38.299999}}, {"id": 5971840, "name": "Hastings", "country": "CA", "coord": {"lon": -77.949509, "lat": 44.300129}}, {"id": 2647356, "name": "Hastings", "country": "GB", "coord": {"lon": 0.57292, "lat": 50.85519}}, {"id": 5029500, "name": "Hastings", "country": "US", "coord": {"lon": -92.852432, "lat": 44.743301}}, {"id": 2408582, "name": "Hastings", "country": "SL", "coord": {"lon": -13.13861, "lat": 8.37972}}, {"id": 4995520, "name": "Hastings", "country": "US", "coord": {"lon": -85.29084, "lat": 42.64587}}, {"id": 5192858, "name": "Hastings", "country": "US", "coord": {"lon": -78.71225, "lat": 40.66507}}, {"id": 7290687, "name": "Hastings District", "country": "GB", "coord": {"lon": 0.58145, "lat": 50.867279}}, {"id": 2190223, "name": "Hastings District", "country": "NZ", "coord": {"lon": 176.850006, "lat": -39.633331}}, {"id": 6332116, "name": "Hastings Mobile Home Terrace", "country": "US", "coord": {"lon": -92.847221, "lat": 44.720558}}, {"id": 5120197, "name": "Hastings-on-Hudson", "country": "US", "coord": {"lon": -73.878754, "lat": 40.994541}}, {"id": 6433835, "name": "Hastingues", "country": "FR", "coord": {"lon": -1.15, "lat": 43.533329}}, {"id": 3013874, "name": "Hastingues", "country": "FR", "coord": {"lon": -1.14951, "lat": 43.533329}}, {"id": 2796483, "name": "Hasti\u00e8re", "country": "BE", "coord": {"lon": 4.81667, "lat": 50.216671}}, {"id": 2796480, "name": "Hasti\u00e8re-par-del\u00e0", "country": "BE", "coord": {"lon": 4.82948, "lat": 50.214951}}, {"id": 2909281, "name": "Hastrungsfeld-Burla", "country": "DE", "coord": {"lon": 10.48333, "lat": 50.966671}}, {"id": 2909280, "name": "Hastrup", "country": "DE", "coord": {"lon": 7.96667, "lat": 52.549999}}, {"id": 2707217, "name": "Hastveda", "country": "SE", "coord": {"lon": 13.93333, "lat": 56.26667}}, {"id": 1907123, "name": "Hasuda", "country": "JP", "coord": {"lon": 139.650833, "lat": 35.975559}}, {"id": 779641, "name": "Hasvik", "country": "NO", "coord": {"lon": 22.302719, "lat": 70.591637}}, {"id": 779642, "name": "Hasvik", "country": "NO", "coord": {"lon": 22.15904, "lat": 70.486801}}, {"id": 75034, "name": "Haswayn", "country": "YE", "coord": {"lon": 52.102219, "lat": 15.59194}}, {"id": 2647354, "name": "Haswell", "country": "GB", "coord": {"lon": -1.41667, "lat": 54.783329}}, {"id": 3075930, "name": "Hat", "country": "CZ", "coord": {"lon": 18.239309, "lat": 49.946442}}, {"id": 2163825, "name": "Hat Head", "country": "AU", "coord": {"lon": 153.050003, "lat": -31.049999}}, {"id": 7603495, "name": "Hat Samran", "country": "TH", "coord": {"lon": 99.57621, "lat": 7.24034}}, {"id": 1610780, "name": "Hat Yai", "country": "TH", "coord": {"lon": 100.476677, "lat": 7.00836}}, {"id": 1270232, "name": "Hata", "country": "IN", "coord": {"lon": 83.74028, "lat": 26.746111}}, {"id": 1863051, "name": "Hatabu", "country": "JP", "coord": {"lon": 130.933334, "lat": 33.98333}}, {"id": 6244802, "name": "Hataitai", "country": "NZ", "coord": {"lon": 174.790192, "lat": -41.298279}}, {"id": 2030851, "name": "Hatansuudal", "country": "MN", "coord": {"lon": 100.827881, "lat": 44.545952}}, {"id": 628511, "name": "Hatava", "country": "BY", "coord": {"lon": 27.640699, "lat": 53.782902}}, {"id": 2030849, "name": "Hatavch", "country": "MN", "coord": {"lon": 112.949997, "lat": 46.166672}}, {"id": 312394, "name": "Hatay", "country": "TR", "coord": {"lon": 36.25, "lat": 36.5}}, {"id": 5192863, "name": "Hatboro", "country": "US", "coord": {"lon": -75.106842, "lat": 40.174278}}, {"id": 5470850, "name": "Hatch", "country": "US", "coord": {"lon": -107.153069, "lat": 32.665359}}, {"id": 676277, "name": "Hateg", "country": "RO", "coord": {"lon": 22.950001, "lat": 45.616669}}, {"id": 2163829, "name": "Hatfield", "country": "AU", "coord": {"lon": 143.75, "lat": -33.866669}}, {"id": 2647349, "name": "Hatfield", "country": "GB", "coord": {"lon": -0.22419, "lat": 51.763378}}, {"id": 2647347, "name": "Hatfield", "country": "GB", "coord": {"lon": -0.99924, "lat": 53.577881}}, {"id": 4939048, "name": "Hatfield", "country": "US", "coord": {"lon": -72.598137, "lat": 42.370918}}, {"id": 5192878, "name": "Hatfield", "country": "US", "coord": {"lon": -75.299339, "lat": 40.279831}}, {"id": 2647345, "name": "Hatfield Heath", "country": "GB", "coord": {"lon": 0.21243, "lat": 51.812328}}, {"id": 2647343, "name": "Hatfield Peverel", "country": "GB", "coord": {"lon": 0.59489, "lat": 51.775909}}, {"id": 2030847, "name": "Hatgal", "country": "MN", "coord": {"lon": 100.166939, "lat": 50.451939}}, {"id": 2647340, "name": "Hathern", "country": "GB", "coord": {"lon": -1.25644, "lat": 52.795479}}, {"id": 2647338, "name": "Hathersage", "country": "GB", "coord": {"lon": -1.65398, "lat": 53.330299}}, {"id": 1270216, "name": "Hathras", "country": "IN", "coord": {"lon": 78.050003, "lat": 27.6}}, {"id": 3504815, "name": "Hatico", "country": "DO", "coord": {"lon": -71.074661, "lat": 19.567341}}, {"id": 4565346, "name": "Hatillo", "country": "PR", "coord": {"lon": -66.825447, "lat": 18.48633}}, {"id": 4565348, "name": "Hatillo Municipio", "country": "PR", "coord": {"lon": -66.793228, "lat": 18.40773}}, {"id": 3504793, "name": "Hatillo Palma", "country": "DO", "coord": {"lon": -71.194061, "lat": 19.66256}}, {"id": 3681029, "name": "Hatillo de Loba", "country": "CO", "coord": {"lon": -74.078201, "lat": 8.95635}}, {"id": 249184, "name": "Hatim", "country": "JO", "coord": {"lon": 35.777222, "lat": 32.645191}}, {"id": 1270210, "name": "Hati\u0101", "country": "IN", "coord": {"lon": 85.300003, "lat": 23.299999}}, {"id": 2776696, "name": "Hatlerdorf", "country": "AT", "coord": {"lon": 9.73306, "lat": 47.399719}}, {"id": 3681025, "name": "Hato", "country": "CO", "coord": {"lon": -73.308258, "lat": 6.54302}}, {"id": 4565353, "name": "Hato Candal", "country": "PR", "coord": {"lon": -65.787109, "lat": 18.37439}}, {"id": 3639640, "name": "Hato Casa Blanca", "country": "VE", "coord": {"lon": -61.566666, "lat": 7.133333}}, {"id": 3504765, "name": "Hato Mayor del Rey", "country": "DO", "coord": {"lon": -69.256813, "lat": 18.762779}}, {"id": 1270192, "name": "Hatod", "country": "IN", "coord": {"lon": 75.73333, "lat": 22.799999}}, {"id": 1863023, "name": "Hatogaya", "country": "JP", "coord": {"lon": 139.736389, "lat": 35.834171}}, {"id": 174972, "name": "Hatsavan", "country": "AM", "coord": {"lon": 45.97047, "lat": 39.46405}}, {"id": 1863018, "name": "Hatsukaichi", "country": "JP", "coord": {"lon": 132.333328, "lat": 34.349998}}, {"id": 1270185, "name": "Hatta", "country": "IN", "coord": {"lon": 79.599998, "lat": 24.116671}}, {"id": 3723968, "name": "Hatte Borel", "country": "HT", "coord": {"lon": -72.466667, "lat": 19.049999}}, {"id": 2754768, "name": "Hattem", "country": "NL", "coord": {"lon": 6.06389, "lat": 52.474998}}, {"id": 6552968, "name": "Hatten", "country": "DE", "coord": {"lon": 8.35, "lat": 53.016701}}, {"id": 2909268, "name": "Hatten", "country": "DE", "coord": {"lon": 8.38333, "lat": 53.049999}}, {"id": 7626405, "name": "Hatteng", "country": "NO", "coord": {"lon": 19.95944, "lat": 69.270721}}, {"id": 2909258, "name": "Hattenheim", "country": "DE", "coord": {"lon": 8.05, "lat": 50.01667}}, {"id": 2909256, "name": "Hattenhof", "country": "DE", "coord": {"lon": 9.67466, "lat": 50.467609}}, {"id": 6555461, "name": "Hattenhofen", "country": "DE", "coord": {"lon": 9.57476, "lat": 48.666359}}, {"id": 2909252, "name": "Hattenhofen", "country": "DE", "coord": {"lon": 9.57456, "lat": 48.666481}}, {"id": 6556222, "name": "Hattenhofen", "country": "DE", "coord": {"lon": 11.1167, "lat": 48.216702}}, {"id": 2909253, "name": "Hattenhofen", "country": "DE", "coord": {"lon": 11.11667, "lat": 48.216671}}, {"id": 2909242, "name": "Hatterscheid", "country": "DE", "coord": {"lon": 7.39856, "lat": 50.81448}}, {"id": 2909240, "name": "Hattersheim", "country": "DE", "coord": {"lon": 8.46667, "lat": 50.066669}}, {"id": 6554217, "name": "Hattert", "country": "DE", "coord": {"lon": 7.76667, "lat": 50.666698}}, {"id": 3207732, "name": "Hattert", "country": "DE", "coord": {"lon": 7.76667, "lat": 50.666672}}, {"id": 7626393, "name": "Hattfjelldal", "country": "NO", "coord": {"lon": 13.98422, "lat": 65.597954}}, {"id": 6553595, "name": "Hattgenstein", "country": "DE", "coord": {"lon": 7.15, "lat": 49.700001}}, {"id": 2909235, "name": "Hattgenstein", "country": "DE", "coord": {"lon": 7.15, "lat": 49.700001}}, {"id": 4429295, "name": "Hattiesburg", "country": "US", "coord": {"lon": -89.290337, "lat": 31.32712}}, {"id": 7872535, "name": "Hatting", "country": "AT", "coord": {"lon": 11.15918, "lat": 47.265491}}, {"id": 2776693, "name": "Hatting", "country": "AT", "coord": {"lon": 11.16667, "lat": 47.283329}}, {"id": 2909230, "name": "Hattingen", "country": "DE", "coord": {"lon": 7.16667, "lat": 51.400002}}, {"id": 997324, "name": "Hattingspruit", "country": "ZA", "coord": {"lon": 30.1252, "lat": -28.07905}}, {"id": 1244596, "name": "Hatton", "country": "LK", "coord": {"lon": 80.595497, "lat": 6.8916}}, {"id": 2163821, "name": "Hatton Vale", "country": "AU", "coord": {"lon": 152.466675, "lat": -27.566669}}, {"id": 2909226, "name": "Hattorf", "country": "DE", "coord": {"lon": 10.23681, "lat": 51.650349}}, {"id": 6552385, "name": "Hattorf am Harz", "country": "DE", "coord": {"lon": 10.2386, "lat": 51.648201}}, {"id": 6551552, "name": "Hattstedt", "country": "DE", "coord": {"lon": 9.03333, "lat": 54.533298}}, {"id": 2909222, "name": "Hattstedt", "country": "DE", "coord": {"lon": 9.03333, "lat": 54.533329}}, {"id": 6551553, "name": "Hattstedtermarsch", "country": "DE", "coord": {"lon": 9, "lat": 54.549999}}, {"id": 2909220, "name": "Hattstedtermarsch", "country": "DE", "coord": {"lon": 9, "lat": 54.549999}}, {"id": 3051621, "name": "Hatvan", "country": "HU", "coord": {"lon": 19.683331, "lat": 47.666672}}, {"id": 2909204, "name": "Hatzenbuhl", "country": "DE", "coord": {"lon": 8.24528, "lat": 49.111111}}, {"id": 6555007, "name": "Hatzenb\u00fchl", "country": "DE", "coord": {"lon": 8.2448, "lat": 49.115601}}, {"id": 7872291, "name": "Hatzendorf", "country": "AT", "coord": {"lon": 15.99862, "lat": 46.98909}}, {"id": 2776690, "name": "Hatzendorf", "country": "AT", "coord": {"lon": 15.99556, "lat": 46.98111}}, {"id": 6553798, "name": "Hatzenport", "country": "DE", "coord": {"lon": 7.41667, "lat": 50.233299}}, {"id": 2909201, "name": "Hatzenport", "country": "DE", "coord": {"lon": 7.41667, "lat": 50.23333}}, {"id": 2909194, "name": "Hatzfeld", "country": "DE", "coord": {"lon": 8.55, "lat": 51}}, {"id": 676287, "name": "Hatzmas", "country": "RO", "coord": {"lon": 22.08333, "lat": 46.5}}, {"id": 2909190, "name": "Hatzte", "country": "DE", "coord": {"lon": 9.38333, "lat": 53.23333}}, {"id": 2044149, "name": "Hau-ri", "country": "KP", "coord": {"lon": 129.470276, "lat": 41.200562}}, {"id": 2909156, "name": "Haubinda", "country": "DE", "coord": {"lon": 10.63333, "lat": 50.333328}}, {"id": 6454410, "name": "Haubourdin", "country": "FR", "coord": {"lon": 2.98333, "lat": 50.599998}}, {"id": 3013862, "name": "Haubourdin", "country": "FR", "coord": {"lon": 2.99143, "lat": 50.608261}}, {"id": 4258664, "name": "Haubstadt", "country": "US", "coord": {"lon": -87.574188, "lat": 38.20504}}, {"id": 3013855, "name": "Haucourt-Moulaine", "country": "FR", "coord": {"lon": 5.80284, "lat": 49.490219}}, {"id": 6555324, "name": "Hauenstein", "country": "DE", "coord": {"lon": 7.85437, "lat": 49.192051}}, {"id": 2909129, "name": "Hauenstein", "country": "DE", "coord": {"lon": 7.85492, "lat": 49.192108}}, {"id": 3461705, "name": "Hauer", "country": "BR", "coord": {"lon": -50.333328, "lat": -23.366671}}, {"id": 3153694, "name": "Hauge", "country": "NO", "coord": {"lon": 6.28121, "lat": 58.343609}}, {"id": 6453374, "name": "Haugesund", "country": "NO", "coord": {"lon": 5.27551, "lat": 59.410149}}, {"id": 3153623, "name": "Haugesund", "country": "NO", "coord": {"lon": 5.268, "lat": 59.41378}}, {"id": 4327084, "name": "Haughton", "country": "US", "coord": {"lon": -93.504059, "lat": 32.53265}}, {"id": 6691255, "name": "Haughton Green", "country": "GB", "coord": {"lon": -2.09827, "lat": 53.441181}}, {"id": 7872876, "name": "Haugschlag", "country": "AT", "coord": {"lon": 15.04408, "lat": 48.99699}}, {"id": 2776682, "name": "Haugschlag", "country": "AT", "coord": {"lon": 15.05, "lat": 48.98333}}, {"id": 7871764, "name": "Haugsdorf", "country": "AT", "coord": {"lon": 16.074209, "lat": 48.710621}}, {"id": 2776681, "name": "Haugsdorf", "country": "AT", "coord": {"lon": 16.066669, "lat": 48.700001}}, {"id": 658670, "name": "Hauho", "country": "FI", "coord": {"lon": 24.56303, "lat": 61.17255}}, {"id": 658629, "name": "Haukipudas", "country": "FI", "coord": {"lon": 25.352329, "lat": 65.176537}}, {"id": 658630, "name": "Haukipudas", "country": "FI", "coord": {"lon": 25.5, "lat": 65.166672}}, {"id": 658617, "name": "Haukivuori", "country": "FI", "coord": {"lon": 27.216669, "lat": 62.01667}}, {"id": 3153517, "name": "Hauknes", "country": "NO", "coord": {"lon": 14.06667, "lat": 66.283333}}, {"id": 3013845, "name": "Haulchin", "country": "FR", "coord": {"lon": 3.43599, "lat": 50.3172}}, {"id": 2909097, "name": "Haun", "country": "DE", "coord": {"lon": 12.3276, "lat": 48.232849}}, {"id": 6556930, "name": "Haundorf", "country": "DE", "coord": {"lon": 10.7667, "lat": 49.1833}}, {"id": 2909087, "name": "Haundorf", "country": "DE", "coord": {"lon": 10.77124, "lat": 49.17598}}, {"id": 2909073, "name": "Haunkenzell", "country": "DE", "coord": {"lon": 12.63333, "lat": 49.033329}}, {"id": 7873013, "name": "Haunoldstein", "country": "AT", "coord": {"lon": 15.45307, "lat": 48.19696}}, {"id": 2776676, "name": "Haunoldstein", "country": "AT", "coord": {"lon": 15.45, "lat": 48.200001}}, {"id": 6557160, "name": "Haunsheim", "country": "DE", "coord": {"lon": 10.37418, "lat": 48.599709}}, {"id": 2909057, "name": "Haunsheim", "country": "DE", "coord": {"lon": 10.37401, "lat": 48.59977}}, {"id": 2909053, "name": "Haunstetten", "country": "DE", "coord": {"lon": 10.9005, "lat": 48.312199}}, {"id": 2909048, "name": "Haunswies", "country": "DE", "coord": {"lon": 11, "lat": 48.450001}}, {"id": 2909046, "name": "Haunwang", "country": "DE", "coord": {"lon": 12.05, "lat": 48.466671}}, {"id": 2909043, "name": "Haupeltshofen", "country": "DE", "coord": {"lon": 10.38333, "lat": 48.183331}}, {"id": 5120228, "name": "Hauppauge", "country": "US", "coord": {"lon": -73.202606, "lat": 40.825649}}, {"id": 2909033, "name": "Hauptenberg", "country": "DE", "coord": {"lon": 12.55, "lat": 49.01667}}, {"id": 2909005, "name": "Hauptmannsgr\u00fcn", "country": "DE", "coord": {"lon": 12.4, "lat": 50.633331}}, {"id": 6555035, "name": "Hauptstuhl", "country": "DE", "coord": {"lon": 7.48333, "lat": 49.400002}}, {"id": 2908999, "name": "Hauptstuhl", "country": "DE", "coord": {"lon": 7.48333, "lat": 49.400002}}, {"id": 2660402, "name": "Hauptwil", "country": "CH", "coord": {"lon": 9.28333, "lat": 47.466671}}, {"id": 7910042, "name": "Hauraki District", "country": "NZ", "coord": {"lon": 175.580215, "lat": -37.294151}}, {"id": 2796467, "name": "Haureux", "country": "BE", "coord": {"lon": 3.21667, "lat": 50.73333}}, {"id": 1643379, "name": "Haurkuning", "country": "ID", "coord": {"lon": 108.431, "lat": -7.0187}}, {"id": 6553691, "name": "Hauroth", "country": "DE", "coord": {"lon": 7.1, "lat": 50.25}}, {"id": 2908992, "name": "Hauroth", "country": "DE", "coord": {"lon": 7.1, "lat": 50.25}}, {"id": 7920853, "name": "Haurpanggung", "country": "ID", "coord": {"lon": 107.904701, "lat": -7.2056}}, {"id": 7872440, "name": "Haus", "country": "AT", "coord": {"lon": 13.76369, "lat": 47.419369}}, {"id": 2776670, "name": "Haus", "country": "AT", "coord": {"lon": 13.76724, "lat": 47.409969}}, {"id": 2908974, "name": "Hausach", "country": "DE", "coord": {"lon": 8.16667, "lat": 48.283329}}, {"id": 6553901, "name": "Hausbay", "country": "DE", "coord": {"lon": 7.55, "lat": 50.099998}}, {"id": 2908967, "name": "Hausbay", "country": "DE", "coord": {"lon": 7.55, "lat": 50.099998}}, {"id": 2908942, "name": "Hausbruch", "country": "DE", "coord": {"lon": 9.9, "lat": 53.466671}}, {"id": 7872960, "name": "Hausbrunn", "country": "AT", "coord": {"lon": 16.837959, "lat": 48.633701}}, {"id": 2776660, "name": "Hausbrunn", "country": "AT", "coord": {"lon": 16.816669, "lat": 48.616669}}, {"id": 2908933, "name": "Hausdorf", "country": "DE", "coord": {"lon": 13.1, "lat": 50.883331}}, {"id": 2908871, "name": "Hausen", "country": "DE", "coord": {"lon": 6.5, "lat": 50.650002}}, {"id": 2908877, "name": "Hausen", "country": "DE", "coord": {"lon": 7.96667, "lat": 50.349998}}, {"id": 2908873, "name": "Hausen", "country": "DE", "coord": {"lon": 7.41667, "lat": 50.549999}}, {"id": 2908890, "name": "Hausen", "country": "DE", "coord": {"lon": 8.13861, "lat": 49.459721}}, {"id": 2908874, "name": "Hausen", "country": "DE", "coord": {"lon": 8.1, "lat": 50.51667}}, {"id": 6956026, "name": "Hausen", "country": "CH", "coord": {"lon": 8.20988, "lat": 47.463959}}, {"id": 6549780, "name": "Hausen", "country": "DE", "coord": {"lon": 10.3667, "lat": 51.383301}}, {"id": 2908863, "name": "Hausen", "country": "DE", "coord": {"lon": 10.36667, "lat": 51.383331}}, {"id": 6556975, "name": "Hausen", "country": "DE", "coord": {"lon": 10.125, "lat": 50.5056}}, {"id": 2908875, "name": "Hausen", "country": "DE", "coord": {"lon": 10.11667, "lat": 50.5}}, {"id": 6557024, "name": "Hausen", "country": "DE", "coord": {"lon": 9.21028, "lat": 49.869701}}, {"id": 2908886, "name": "Hausen", "country": "DE", "coord": {"lon": 9.21028, "lat": 49.86972}}, {"id": 6553596, "name": "Hausen", "country": "DE", "coord": {"lon": 7.36667, "lat": 49.866699}}, {"id": 2908887, "name": "Hausen", "country": "DE", "coord": {"lon": 7.36667, "lat": 49.866669}}, {"id": 6556782, "name": "Hausen", "country": "DE", "coord": {"lon": 11.0333, "lat": 49.6833}}, {"id": 2908888, "name": "Hausen", "country": "DE", "coord": {"lon": 11.03333, "lat": 49.683331}}, {"id": 6556491, "name": "Hausen", "country": "DE", "coord": {"lon": 12, "lat": 48.849998}}, {"id": 2908896, "name": "Hausen", "country": "DE", "coord": {"lon": 12, "lat": 48.849998}}, {"id": 2908913, "name": "Hausen", "country": "DE", "coord": {"lon": 7.83986, "lat": 47.681278}}, {"id": 7286037, "name": "Hausen (AG)", "country": "CH", "coord": {"lon": 8.20726, "lat": 47.461449}}, {"id": 6290400, "name": "Hausen / Heisch", "country": "CH", "coord": {"lon": 8.53023, "lat": 47.250149}}, {"id": 7286038, "name": "Hausen am Albis", "country": "CH", "coord": {"lon": 8.53664, "lat": 47.24435}}, {"id": 2660400, "name": "Hausen am Albis / Hausen (Dorf)", "country": "CH", "coord": {"lon": 8.53299, "lat": 47.244961}}, {"id": 6555975, "name": "Hausen am Bussen", "country": "DE", "coord": {"lon": 9.63333, "lat": 48.216702}}, {"id": 2908859, "name": "Hausen am Bussen", "country": "DE", "coord": {"lon": 9.62514, "lat": 48.211922}}, {"id": 6555951, "name": "Hausen am Tann", "country": "DE", "coord": {"lon": 8.8364, "lat": 48.19836}}, {"id": 2908858, "name": "Hausen am Tann", "country": "DE", "coord": {"lon": 8.83631, "lat": 48.19833}}, {"id": 6555843, "name": "Hausen ob Verena", "country": "DE", "coord": {"lon": 8.71667, "lat": 48.049999}}, {"id": 2908835, "name": "Hausen ob Verena", "country": "DE", "coord": {"lon": 8.71667, "lat": 48.049999}}, {"id": 2908832, "name": "Hausen vor der H\u00f6he", "country": "DE", "coord": {"lon": 8.05, "lat": 50.083328}}, {"id": 2908816, "name": "Hauserd\u00f6rfl", "country": "DE", "coord": {"lon": 11.7, "lat": 47.76667}}, {"id": 2908796, "name": "Hausern", "country": "DE", "coord": {"lon": 8.16667, "lat": 47.75}}, {"id": 6556277, "name": "Hausham", "country": "DE", "coord": {"lon": 11.8284, "lat": 47.759701}}, {"id": 2908783, "name": "Hausham", "country": "DE", "coord": {"lon": 11.84069, "lat": 47.746601}}, {"id": 658581, "name": "Hausjarvi", "country": "FI", "coord": {"lon": 24.933331, "lat": 60.783329}}, {"id": 658582, "name": "Hausj\u00e4rvi", "country": "FI", "coord": {"lon": 25, "lat": 60.75}}, {"id": 7872864, "name": "Hauskirchen", "country": "AT", "coord": {"lon": 16.73414, "lat": 48.602879}}, {"id": 2776648, "name": "Hauskirchen", "country": "AT", "coord": {"lon": 16.76667, "lat": 48.599998}}, {"id": 7871789, "name": "Hausleiten", "country": "AT", "coord": {"lon": 16.100269, "lat": 48.39286}}, {"id": 2776641, "name": "Hausleiten", "country": "AT", "coord": {"lon": 16.1, "lat": 48.383331}}, {"id": 3206408, "name": "Hauslingen", "country": "DE", "coord": {"lon": 9.39228, "lat": 52.809921}}, {"id": 2776632, "name": "Hausmannstatten", "country": "AT", "coord": {"lon": 15.51139, "lat": 46.991112}}, {"id": 7873403, "name": "Hausmannst\u00e4tten", "country": "AT", "coord": {"lon": 15.52118, "lat": 46.991268}}, {"id": 2908733, "name": "Hausmehring", "country": "DE", "coord": {"lon": 12.15, "lat": 48.26667}}, {"id": 2908726, "name": "Hausneindorf", "country": "DE", "coord": {"lon": 11.27227, "lat": 51.840099}}, {"id": 2908696, "name": "Haussommern", "country": "DE", "coord": {"lon": 10.81667, "lat": 51.183331}}, {"id": 2908693, "name": "Hausstette", "country": "DE", "coord": {"lon": 8.11667, "lat": 52.73333}}, {"id": 3013830, "name": "Haussy", "country": "FR", "coord": {"lon": 3.47683, "lat": 50.2183}}, {"id": 6549918, "name": "Hauss\u00f6mmern", "country": "DE", "coord": {"lon": 10.8167, "lat": 51.1833}}, {"id": 6553753, "name": "Hausten", "country": "DE", "coord": {"lon": 7.11667, "lat": 50.400002}}, {"id": 2908688, "name": "Hausten", "country": "DE", "coord": {"lon": 7.11667, "lat": 50.400002}}, {"id": 2908678, "name": "Hauswalde", "country": "DE", "coord": {"lon": 14.1, "lat": 51.150002}}, {"id": 6555101, "name": "Hausweiler", "country": "DE", "coord": {"lon": 7.56667, "lat": 49.650002}}, {"id": 2908676, "name": "Hausweiler", "country": "DE", "coord": {"lon": 7.56667, "lat": 49.650002}}, {"id": 2908675, "name": "Hausweiler", "country": "DE", "coord": {"lon": 6.81667, "lat": 50.716671}}, {"id": 2908671, "name": "Hauswurz", "country": "DE", "coord": {"lon": 9.47519, "lat": 50.462688}}, {"id": 7286043, "name": "Haut-Intyamon", "country": "CH", "coord": {"lon": 7.03408, "lat": 46.498692}}, {"id": 6433837, "name": "Haut-Mauco", "country": "FR", "coord": {"lon": -0.55, "lat": 43.833328}}, {"id": 3013685, "name": "Haut-Mauco", "country": "FR", "coord": {"lon": -0.55557, "lat": 43.827061}}, {"id": 6440410, "name": "Haut-de-Bosdarros", "country": "FR", "coord": {"lon": -0.3313, "lat": 43.1712}}, {"id": 3013807, "name": "Haut-de-Bosdarros", "country": "FR", "coord": {"lon": -0.31667, "lat": 43.183331}}, {"id": 4995553, "name": "Hautala Corner", "country": "US", "coord": {"lon": -90.155731, "lat": 46.520779}}, {"id": 2960486, "name": "Hautbellain", "country": "LU", "coord": {"lon": 5.97861, "lat": 50.15667}}, {"id": 2960485, "name": "Hautcharage", "country": "LU", "coord": {"lon": 5.91083, "lat": 49.577499}}, {"id": 3013798, "name": "Haute Brenne", "country": "FR", "coord": {"lon": 3.23114, "lat": 46.403721}}, {"id": 7670905, "name": "Haute Matsiatra", "country": "MG", "coord": {"lon": 46.5, "lat": -21.370001}}, {"id": 6692544, "name": "Haute Nendaz", "country": "CH", "coord": {"lon": 7.2975, "lat": 46.187199}}, {"id": 7286039, "name": "Haute-Ajoie", "country": "CH", "coord": {"lon": 6.96395, "lat": 47.381908}}, {"id": 3013766, "name": "Haute-Goulaine", "country": "FR", "coord": {"lon": -1.42941, "lat": 47.199051}}, {"id": 3013741, "name": "Haute-Rivoire", "country": "FR", "coord": {"lon": 4.39662, "lat": 45.71526}}, {"id": 6434963, "name": "Hautefage-la-Tour", "country": "FR", "coord": {"lon": 0.8, "lat": 44.316669}}, {"id": 3013781, "name": "Hautefage-la-Tour", "country": "FR", "coord": {"lon": 0.78433, "lat": 44.323189}}, {"id": 6429400, "name": "Hautefaye", "country": "FR", "coord": {"lon": 0.48333, "lat": 45.533329}}, {"id": 3013779, "name": "Hautefaye", "country": "FR", "coord": {"lon": 0.4935, "lat": 45.537189}}, {"id": 6429401, "name": "Hautefort", "country": "FR", "coord": {"lon": 1.1483, "lat": 45.260101}}, {"id": 3013769, "name": "Hautefort", "country": "FR", "coord": {"lon": 1.14879, "lat": 45.259529}}, {"id": 3013748, "name": "Hauterive", "country": "FR", "coord": {"lon": 3.44593, "lat": 46.09005}}, {"id": 3013742, "name": "Hauterives", "country": "FR", "coord": {"lon": 5.02572, "lat": 45.256199}}, {"id": 6549967, "name": "Hauteroda", "country": "DE", "coord": {"lon": 11.2833, "lat": 51.266701}}, {"id": 2908669, "name": "Hauteroda", "country": "DE", "coord": {"lon": 11.28333, "lat": 51.26667}}, {"id": 6434964, "name": "Hautesvignes", "country": "FR", "coord": {"lon": 0.35, "lat": 44.466671}}, {"id": 3013723, "name": "Hautesvignes", "country": "FR", "coord": {"lon": 0.35288, "lat": 44.459148}}, {"id": 7286042, "name": "Hauteville", "country": "CH", "coord": {"lon": 7.13425, "lat": 46.668621}}, {"id": 2660397, "name": "Hauteville", "country": "CH", "coord": {"lon": 7.10774, "lat": 46.670219}}, {"id": 3013705, "name": "Hauteville-Lompnes", "country": "FR", "coord": {"lon": 5.60114, "lat": 45.97794}}, {"id": 6435437, "name": "Hauteville-la-Guichard", "country": "FR", "coord": {"lon": -1.3, "lat": 49.133331}}, {"id": 3013707, "name": "Hauteville-la-Guichard", "country": "FR", "coord": {"lon": -1.30345, "lat": 49.126308}}, {"id": 3013706, "name": "Hauteville-les-Dijon", "country": "FR", "coord": {"lon": 4.99375, "lat": 47.36602}}, {"id": 3013681, "name": "Hautmont", "country": "FR", "coord": {"lon": 3.92143, "lat": 50.250771}}, {"id": 6438281, "name": "Hautmont", "country": "FR", "coord": {"lon": 3.92272, "lat": 50.251099}}, {"id": 3042360, "name": "Hautnez", "country": "GG", "coord": {"lon": -2.6, "lat": 49.433331}}, {"id": 3013673, "name": "Hautot-sur-Mer", "country": "FR", "coord": {"lon": 1.02884, "lat": 49.897888}}, {"id": 6930710, "name": "Hauts-Bassins", "country": "BF", "coord": {"lon": -4.29634, "lat": 11.20804}}, {"id": 5855741, "name": "Hauula", "country": "US", "coord": {"lon": -157.910828, "lat": 21.610559}}, {"id": 3013644, "name": "Hauville", "country": "FR", "coord": {"lon": 0.77232, "lat": 49.39645}}, {"id": 6613384, "name": "Haux", "country": "FR", "coord": {"lon": -0.85, "lat": 43.083328}}, {"id": 3013642, "name": "Haux", "country": "FR", "coord": {"lon": -0.84908, "lat": 43.078018}}, {"id": 2908661, "name": "Hauzenberg", "country": "DE", "coord": {"lon": 13.63333, "lat": 48.650002}}, {"id": 3553478, "name": "Havana", "country": "CU", "coord": {"lon": -82.383041, "lat": 23.13302}}, {"id": 4066566, "name": "Havana", "country": "US", "coord": {"lon": -87.620293, "lat": 32.89513}}, {"id": 4158224, "name": "Havana", "country": "US", "coord": {"lon": -84.414627, "lat": 30.62381}}, {"id": 4895336, "name": "Havana", "country": "US", "coord": {"lon": -90.060951, "lat": 40.300041}}, {"id": 2647317, "name": "Havant", "country": "GB", "coord": {"lon": -0.98559, "lat": 50.856701}}, {"id": 7290559, "name": "Havant District", "country": "GB", "coord": {"lon": -0.9892, "lat": 50.83987}}, {"id": 676268, "name": "Havarna", "country": "RO", "coord": {"lon": 26.65, "lat": 48.066669}}, {"id": 2620664, "name": "Havdrup", "country": "DK", "coord": {"lon": 12.12392, "lat": 55.544811}}, {"id": 6551451, "name": "Havekost", "country": "DE", "coord": {"lon": 10.4667, "lat": 53.549999}}, {"id": 2908649, "name": "Havekost", "country": "DE", "coord": {"lon": 10.46667, "lat": 53.549999}}, {"id": 2796370, "name": "Havelange", "country": "BE", "coord": {"lon": 5.23333, "lat": 50.383331}}, {"id": 2796369, "name": "Havelange", "country": "BE", "coord": {"lon": 5.23816, "lat": 50.389309}}, {"id": 2908644, "name": "Havelberg", "country": "DE", "coord": {"lon": 12.07552, "lat": 52.830879}}, {"id": 1176997, "name": "Haveli", "country": "PK", "coord": {"lon": 73.698883, "lat": 30.450159}}, {"id": 1176995, "name": "Havelian", "country": "PK", "coord": {"lon": 73.16571, "lat": 34.0536}}, {"id": 5972152, "name": "Havelock", "country": "CA", "coord": {"lon": -77.882812, "lat": 44.433418}}, {"id": 5972146, "name": "Havelock", "country": "CA", "coord": {"lon": -65.315514, "lat": 46.000149}}, {"id": 2190172, "name": "Havelock", "country": "NZ", "coord": {"lon": 173.766663, "lat": -41.283329}}, {"id": 4470244, "name": "Havelock", "country": "US", "coord": {"lon": -76.901329, "lat": 34.879051}}, {"id": 2190169, "name": "Havelock North", "country": "NZ", "coord": {"lon": 176.883331, "lat": -39.666672}}, {"id": 2754752, "name": "Havelte", "country": "NL", "coord": {"lon": 6.24015, "lat": 52.769409}}, {"id": 4032623, "name": "Havelu", "country": "TO", "coord": {"lon": -175.216675, "lat": -21.15}}, {"id": 3013637, "name": "Haveluy", "country": "FR", "coord": {"lon": 3.40389, "lat": 50.35289}}, {"id": 4272727, "name": "Haven", "country": "US", "coord": {"lon": -97.782829, "lat": 37.898899}}, {"id": 7191607, "name": "Haven on Lake Harris Mobile Home Park", "country": "US", "coord": {"lon": -81.784798, "lat": 28.8207}}, {"id": 5595277, "name": "Havens", "country": "US", "coord": {"lon": -112.59082, "lat": 43.27047}}, {"id": 7238147, "name": "Havenview Mobile Home Court", "country": "US", "coord": {"lon": -85.505829, "lat": 43.734718}}, {"id": 2707138, "name": "Haverdal", "country": "SE", "coord": {"lon": 12.67194, "lat": 56.722221}}, {"id": 2647311, "name": "Haverfordwest", "country": "GB", "coord": {"lon": -4.96914, "lat": 51.801689}}, {"id": 2647310, "name": "Haverhill", "country": "GB", "coord": {"lon": 0.43891, "lat": 52.08226}}, {"id": 4939085, "name": "Haverhill", "country": "US", "coord": {"lon": -71.077278, "lat": 42.776199}}, {"id": 4158239, "name": "Haverhill", "country": "US", "coord": {"lon": -80.120041, "lat": 26.691179}}, {"id": 5087270, "name": "Haverhill", "country": "US", "coord": {"lon": -72.06398, "lat": 44.034512}}, {"id": 1270171, "name": "Haveri", "country": "IN", "coord": {"lon": 75.400002, "lat": 14.8}}, {"id": 3333153, "name": "Havering", "country": "GB", "coord": {"lon": 0.21667, "lat": 51.549999}}, {"id": 2908614, "name": "Haverlah", "country": "DE", "coord": {"lon": 10.16667, "lat": 52.066669}}, {"id": 2908613, "name": "Haverland", "country": "DE", "coord": {"lon": 11.91667, "lat": 52.900002}}, {"id": 3013635, "name": "Haverskerque", "country": "FR", "coord": {"lon": 2.54162, "lat": 50.640888}}, {"id": 5120238, "name": "Haverstraw", "country": "US", "coord": {"lon": -73.964577, "lat": 41.19759}}, {"id": 3205577, "name": "Havert", "country": "DE", "coord": {"lon": 5.90779, "lat": 51.03812}}, {"id": 6551963, "name": "Havetoft", "country": "DE", "coord": {"lon": 9.51667, "lat": 54.650002}}, {"id": 2908604, "name": "Havetoft", "country": "DE", "coord": {"lon": 9.51667, "lat": 54.650002}}, {"id": 6551964, "name": "Havetoftloit", "country": "DE", "coord": {"lon": 9.56667, "lat": 54.666698}}, {"id": 2908602, "name": "Havetoftloit", "country": "DE", "coord": {"lon": 9.56667, "lat": 54.666672}}, {"id": 5120241, "name": "Haviland", "country": "US", "coord": {"lon": -73.90152, "lat": 41.766762}}, {"id": 2030841, "name": "Havirga", "country": "MN", "coord": {"lon": 113.083328, "lat": 45.666672}}, {"id": 3075921, "name": "Havirov", "country": "CZ", "coord": {"lon": 18.43688, "lat": 49.779839}}, {"id": 6553095, "name": "Havixbeck", "country": "DE", "coord": {"lon": 7.41667, "lat": 51.983299}}, {"id": 2908597, "name": "Havixbeck", "country": "DE", "coord": {"lon": 7.41667, "lat": 51.98333}}, {"id": 3075919, "name": "Havlickuv Brod", "country": "CZ", "coord": {"lon": 15.58069, "lat": 49.607849}}, {"id": 779622, "name": "Havoysund", "country": "NO", "coord": {"lon": 24.66217, "lat": 70.996338}}, {"id": 312355, "name": "Havran", "country": "TR", "coord": {"lon": 27.09833, "lat": 39.558331}}, {"id": 5656497, "name": "Havre", "country": "US", "coord": {"lon": -109.68409, "lat": 48.549999}}, {"id": 4357617, "name": "Havre de Grace", "country": "US", "coord": {"lon": -76.091621, "lat": 39.549278}}, {"id": 5972291, "name": "Havre-Saint-Pierre", "country": "CA", "coord": {"lon": -63.598621, "lat": 50.23344}}, {"id": 6618388, "name": "Havrincourt", "country": "FR", "coord": {"lon": 3.0869, "lat": 50.111099}}, {"id": 3013630, "name": "Havrincourt", "country": "FR", "coord": {"lon": 3.08644, "lat": 50.111629}}, {"id": 745719, "name": "Havsa", "country": "TR", "coord": {"lon": 26.822069, "lat": 41.548981}}, {"id": 1515787, "name": "Havtsal", "country": "MN", "coord": {"lon": 91.666672, "lat": 50.099998}}, {"id": 745714, "name": "Havza", "country": "TR", "coord": {"lon": 35.66222, "lat": 40.970558}}, {"id": 4470274, "name": "Haw River", "country": "US", "coord": {"lon": -79.364189, "lat": 36.09153}}, {"id": 5855797, "name": "Hawaii", "country": "US", "coord": {"lon": -156.500275, "lat": 20.75028}}, {"id": 5855765, "name": "Hawaii County", "country": "US", "coord": {"lon": -155.500565, "lat": 19.500561}}, {"id": 5855803, "name": "Hawaiian Acres", "country": "US", "coord": {"lon": -155.052216, "lat": 19.538059}}, {"id": 5855802, "name": "Hawaiian Beaches", "country": "US", "coord": {"lon": -154.915833, "lat": 19.54306}}, {"id": 5355782, "name": "Hawaiian Gardens", "country": "US", "coord": {"lon": -118.072838, "lat": 33.831402}}, {"id": 5855815, "name": "Hawaiian Ocean View", "country": "US", "coord": {"lon": -155.764999, "lat": 19.068609}}, {"id": 5855809, "name": "Hawaiian Paradise Park", "country": "US", "coord": {"lon": -154.973053, "lat": 19.59333}}, {"id": 5855818, "name": "Hawaiian Paradise Park", "country": "US", "coord": {"lon": -154.970566, "lat": 19.50139}}, {"id": 6557245, "name": "Hawangen", "country": "DE", "coord": {"lon": 10.2667, "lat": 47.966702}}, {"id": 2908595, "name": "Hawangen", "country": "DE", "coord": {"lon": 10.26667, "lat": 47.966671}}, {"id": 5972299, "name": "Hawarden", "country": "CA", "coord": {"lon": -106.60125, "lat": 51.416771}}, {"id": 7301168, "name": "Hawarden", "country": "GB", "coord": {"lon": -3.03642, "lat": 53.188309}}, {"id": 2647303, "name": "Hawarden", "country": "GB", "coord": {"lon": -3.02578, "lat": 53.18478}}, {"id": 4860066, "name": "Hawarden", "country": "US", "coord": {"lon": -96.485313, "lat": 42.995819}}, {"id": 343137, "name": "Hawassa", "country": "ET", "coord": {"lon": 38.466671, "lat": 7.05}}, {"id": 2206359, "name": "Hawera", "country": "NZ", "coord": {"lon": 174.283325, "lat": -39.591671}}, {"id": 4294267, "name": "Hawesville", "country": "US", "coord": {"lon": -86.75499, "lat": 37.900059}}, {"id": 75000, "name": "Hawf", "country": "YE", "coord": {"lon": 53.033329, "lat": 16.633329}}, {"id": 5855841, "name": "Hawi", "country": "US", "coord": {"lon": -155.832779, "lat": 20.24139}}, {"id": 2647297, "name": "Hawick", "country": "GB", "coord": {"lon": -2.78666, "lat": 55.422729}}, {"id": 5972431, "name": "Hawk Junction", "country": "CA", "coord": {"lon": -84.566528, "lat": 48.083382}}, {"id": 5972433, "name": "Hawk Lake", "country": "CA", "coord": {"lon": -93.983704, "lat": 49.800018}}, {"id": 2190146, "name": "Hawke's Bay", "country": "NZ", "coord": {"lon": 176.5, "lat": -39.666672}}, {"id": 2069974, "name": "Hawker", "country": "AU", "coord": {"lon": 138.416672, "lat": -31.883329}}, {"id": 7839729, "name": "Hawkesbury", "country": "AU", "coord": {"lon": 150.783005, "lat": -33.340778}}, {"id": 5972360, "name": "Hawkesbury", "country": "CA", "coord": {"lon": -74.615952, "lat": 45.60009}}, {"id": 2163797, "name": "Hawkesdale", "country": "AU", "coord": {"lon": 142.316666, "lat": -38.116669}}, {"id": 5972374, "name": "Hawkestone", "country": "CA", "coord": {"lon": -79.466331, "lat": 44.500111}}, {"id": 2647291, "name": "Hawkhurst", "country": "GB", "coord": {"lon": 0.51095, "lat": 51.047901}}, {"id": 2647289, "name": "Hawkinge", "country": "GB", "coord": {"lon": 1.16176, "lat": 51.112759}}, {"id": 2190142, "name": "Hawkins", "country": "NZ", "coord": {"lon": 172.033325, "lat": -43.48333}}, {"id": 4696686, "name": "Hawkins", "country": "US", "coord": {"lon": -95.204109, "lat": 32.58847}}, {"id": 4199694, "name": "Hawkinsville", "country": "US", "coord": {"lon": -83.472122, "lat": 32.283772}}, {"id": 2163788, "name": "Hawks Nest", "country": "AU", "coord": {"lon": 152.166672, "lat": -32.666672}}, {"id": 2647282, "name": "Hawkwell", "country": "GB", "coord": {"lon": 0.67347, "lat": 51.591949}}, {"id": 5029570, "name": "Hawley", "country": "US", "coord": {"lon": -96.316727, "lat": 46.880791}}, {"id": 2647281, "name": "Hawley", "country": "GB", "coord": {"lon": -0.76681, "lat": 51.317848}}, {"id": 5192925, "name": "Hawley", "country": "US", "coord": {"lon": -75.182121, "lat": 41.475922}}, {"id": 2647278, "name": "Haworth", "country": "GB", "coord": {"lon": -1.94827, "lat": 53.829048}}, {"id": 5098904, "name": "Haworth", "country": "US", "coord": {"lon": -73.990143, "lat": 40.96093}},