[{"id": 4733544, "name": "Spicewood", "country": "US", "coord": {"lon": -98.15641, "lat": 30.47547}}, {"id": 4146810, "name": "Bay County", "country": "US", "coord": {"lon": -85.624367, "lat": 30.20853}}, {"id": 4147546, "name": "Betts", "country": "US", "coord": {"lon": -85.393257, "lat": 30.537689}}, {"id": 4677558, "name": "Burleson County", "country": "US", "coord": {"lon": -96.61692, "lat": 30.51687}}, {"id": 4680367, "name": "Chances Store", "country": "US", "coord": {"lon": -96.3908, "lat": 30.521311}}, {"id": 4705179, "name": "Lampasas County", "country": "US", "coord": {"lon": -98.233643, "lat": 31.216829}}, {"id": 4733487, "name": "Sparks Crossing", "country": "US", "coord": {"lon": -98.135307, "lat": 31.071011}}, {"id": 4338356, "name": "Rapides Parish", "country": "US", "coord": {"lon": -92.483467, "lat": 31.166849}}, {"id": 4332064, "name": "Loyd", "country": "US", "coord": {"lon": -92.358467, "lat": 31.04463}}, {"id": 4829764, "name": "Alabama", "country": "US", "coord": {"lon": -86.750259, "lat": 32.750408}}, {"id": 4690103, "name": "Falls County", "country": "US", "coord": {"lon": -96.933601, "lat": 31.26684}}, {"id": 4679930, "name": "Cego", "country": "US", "coord": {"lon": -97.162498, "lat": 31.24518}}, {"id": 4197000, "name": "Georgia", "country": "US", "coord": {"lon": -83.500183, "lat": 32.75042}}, {"id": 4197388, "name": "Glynn County", "country": "US", "coord": {"lon": -81.533157, "lat": 31.233561}}, {"id": 5551752, "name": "Arizona", "country": "US", "coord": {"lon": -111.500977, "lat": 34.500301}}, {"id": 4014336, "name": "Estado de Chihuahua", "country": "MX", "coord": {"lon": -106, "lat": 28.5}}, {"id": 4717434, "name": "Panola County", "country": "US", "coord": {"lon": -94.300201, "lat": 32.166828}}, {"id": 4681806, "name": "Clayton", "country": "US", "coord": {"lon": -94.474922, "lat": 32.098221}}, {"id": 4191654, "name": "Dodge County", "country": "US", "coord": {"lon": -83.166542, "lat": 32.18351}}, {"id": 4187473, "name": "Chauncey", "country": "US", "coord": {"lon": -83.06459, "lat": 32.104622}}, {"id": 4332258, "name": "Madison Parish", "country": "US", "coord": {"lon": -91.251503, "lat": 32.36681}}, {"id": 5481136, "name": "New Mexico", "country": "US", "coord": {"lon": -106.000847, "lat": 34.50034}}, {"id": 5482932, "name": "Otero County", "country": "US", "coord": {"lon": -105.767197, "lat": 32.533428}}, {"id": 4701348, "name": "Johnson County", "country": "US", "coord": {"lon": -97.366959, "lat": 32.38348}}, {"id": 4707535, "name": "Lone Willow", "country": "US", "coord": {"lon": -97.474739, "lat": 32.268761}}, {"id": 3982846, "name": "Estado de Sonora", "country": "MX", "coord": {"lon": -110.666672, "lat": 29.33333}}, {"id": 3971762, "name": "Ejido Reforma Agraria", "country": "MX", "coord": {"lon": -114.421944, "lat": 32.361111}}, {"id": 3971760, "name": "Ignacio Zaragoza", "country": "MX", "coord": {"lon": -114.183609, "lat": 32.296669}}, {"id": 4074246, "name": "Macon County", "country": "US", "coord": {"lon": -85.81662, "lat": 32.400139}}, {"id": 4057493, "name": "Creek Stand", "country": "US", "coord": {"lon": -85.477448, "lat": 32.29459}}, {"id": 4670957, "name": "Antioch", "country": "US", "coord": {"lon": -97.198067, "lat": 32.31292}}, {"id": 4713849, "name": "Navarro County", "country": "US", "coord": {"lon": -96.466927, "lat": 32.050152}}, {"id": 4738810, "name": "Valley Farms", "country": "US", "coord": {"lon": -96.40554, "lat": 32.307919}}, {"id": 4047434, "name": "Russell County", "country": "US", "coord": {"lon": -85.199944, "lat": 32.350151}}, {"id": 4068770, "name": "Hyram", "country": "US", "coord": {"lon": -85.248001, "lat": 32.352921}}, {"id": 3971761, "name": "Aquiles Serd\u00e1n", "country": "MX", "coord": {"lon": -114.317497, "lat": 32.33778}}, {"id": 4017700, "name": "Estado de Baja California", "country": "MX", "coord": {"lon": -115, "lat": 30}}, {"id": 3994978, "name": "Nej\u00ed", "country": "MX", "coord": {"lon": -116.26667, "lat": 32.383331}}, {"id": 4193042, "name": "Effingham County", "country": "US", "coord": {"lon": -81.333168, "lat": 32.366859}}, {"id": 4182260, "name": "Bethel", "country": "US", "coord": {"lon": -81.354828, "lat": 32.413799}}, {"id": 4688864, "name": "Ellis County", "country": "US", "coord": {"lon": -96.80027, "lat": 32.35014}}, {"id": 4684202, "name": "Crisp", "country": "US", "coord": {"lon": -96.5811, "lat": 32.397919}}, {"id": 4004930, "name": "Harry Manzo", "country": "MX", "coord": {"lon": -117.066673, "lat": 32.416672}}, {"id": 4434666, "name": "Madison County", "country": "US", "coord": {"lon": -90.064529, "lat": 32.56514}}, {"id": 4433944, "name": "Livingston", "country": "US", "coord": {"lon": -90.216202, "lat": 32.552921}}, {"id": 5484708, "name": "Point of Sands", "country": "US", "coord": {"lon": -106.195831, "lat": 32.747028}}, {"id": 5495380, "name": "Tularosa", "country": "US", "coord": {"lon": -106.0186, "lat": 33.073971}}, {"id": 4679435, "name": "Cass County", "country": "US", "coord": {"lon": -94.350189, "lat": 33.066799}}, {"id": 4684396, "name": "Crossroads Community Centery", "country": "US", "coord": {"lon": -94.581871, "lat": 33.072899}}, {"id": 5165418, "name": "Ohio", "country": "US", "coord": {"lon": -83.000183, "lat": 40.25034}}, {"id": 5161272, "name": "Lorain County", "country": "US", "coord": {"lon": -82.149872, "lat": 41.333382}}, {"id": 7235893, "name": "Erie West Mobile Home Park", "country": "US", "coord": {"lon": -82.241943, "lat": 41.439171}}, {"id": 6251999, "name": "Canada", "country": "CA", "coord": {"lon": -113.642578, "lat": 60.108669}}, {"id": 6093943, "name": "Ontario", "country": "CA", "coord": {"lon": -84.499832, "lat": 49.250141}}, {"id": 6051123, "name": "Leamington", "country": "CA", "coord": {"lon": -82.606201, "lat": 42.054901}}, {"id": 6944506, "name": "Point Pelee", "country": "CA", "coord": {"lon": -82.534958, "lat": 41.99395}}, {"id": 6115933, "name": "Raglan", "country": "CA", "coord": {"lon": -81.916473, "lat": 42.300091}}, {"id": 6179873, "name": "Wheatley", "country": "CA", "coord": {"lon": -82.449799, "lat": 42.10009}}, {"id": 6254927, "name": "Pennsylvania", "country": "US", "coord": {"lon": -76.90567, "lat": 40.272449}}, {"id": 5188847, "name": "Erie County", "country": "US", "coord": {"lon": -79.875053, "lat": 42.125332}}, {"id": 5201874, "name": "Moorheadville", "country": "US", "coord": {"lon": -79.910049, "lat": 42.192001}}, {"id": 5920450, "name": "Chatham-Kent", "country": "CA", "coord": {"lon": -82.183098, "lat": 42.400089}}, {"id": 6163631, "name": "The Cottages", "country": "CA", "coord": {"lon": -80.312958, "lat": 42.595901}}, {"id": 6109229, "name": "Pond Mills", "country": "CA", "coord": {"lon": -81.19532, "lat": 42.949139}}, {"id": 6165800, "name": "Three Bridges", "country": "CA", "coord": {"lon": -81.054733, "lat": 43.04179}}, {"id": 5116642, "name": "Erie County", "country": "US", "coord": {"lon": -78.66642, "lat": 42.766731}}, {"id": 5137842, "name": "Sheenwater", "country": "US", "coord": {"lon": -79.015877, "lat": 42.995331}}, {"id": 6165719, "name": "Thorold", "country": "CA", "coord": {"lon": -79.199577, "lat": 43.116821}}, {"id": 6112052, "name": "Port Weller", "country": "CA", "coord": {"lon": -79.23288, "lat": 43.216808}}, {"id": 5964960, "name": "Granton", "country": "CA", "coord": {"lon": -81.299751, "lat": 43.216789}}, {"id": 5991949, "name": "Killean", "country": "CA", "coord": {"lon": -80.232971, "lat": 43.416801}}, {"id": 6176823, "name": "Waterloo", "country": "CA", "coord": {"lon": -80.516388, "lat": 43.466801}}, {"id": 5143455, "name": "Wayne County", "country": "US", "coord": {"lon": -77.033028, "lat": 43.150059}}, {"id": 5121009, "name": "Holland Cove", "country": "US", "coord": {"lon": -77.143593, "lat": 43.28701}}, {"id": 5129995, "name": "Orleans County", "country": "US", "coord": {"lon": -78.233078, "lat": 43.25061}}, {"id": 5125065, "name": "Lomond Shore", "country": "US", "coord": {"lon": -78.080299, "lat": 43.372559}}, {"id": 5948045, "name": "Elmira", "country": "CA", "coord": {"lon": -80.549698, "lat": 43.60009}}, {"id": 6178999, "name": "West Hill", "country": "CA", "coord": {"lon": -79.208252, "lat": 43.767559}}, {"id": 8125784, "name": "Bloomfield", "country": "CA", "coord": {"lon": -77.185822, "lat": 43.994301}}, {"id": 5888377, "name": "Aurora", "country": "CA", "coord": {"lon": -79.466316, "lat": 44.000111}}, {"id": 5945707, "name": "East Gwillimbury", "country": "CA", "coord": {"lon": -79.416313, "lat": 44.133411}}, {"id": 5991370, "name": "Keswick", "country": "CA", "coord": {"lon": -79.466316, "lat": 44.250111}}, {"id": 6061643, "name": "Low Landing", "country": "CA", "coord": {"lon": -65.148804, "lat": 44.266861}}, {"id": 6160073, "name": "Sutton", "country": "CA", "coord": {"lon": -79.36631, "lat": 44.30011}}, {"id": 6100532, "name": "Pefferlaw", "country": "CA", "coord": {"lon": -79.1996, "lat": 44.316811}}, {"id": 5914033, "name": "Campbellford", "country": "CA", "coord": {"lon": -77.799492, "lat": 44.308418}}, {"id": 6054350, "name": "Lindsay", "country": "CA", "coord": {"lon": -78.732857, "lat": 44.350121}}, {"id": 7910366, "name": "Lansdowne", "country": "CA", "coord": {"lon": -76.083328, "lat": 44.450001}}, {"id": 6694819, "name": "Arran-Elderslie", "country": "CA", "coord": {"lon": -81.124809, "lat": 44.401428}}, {"id": 5983251, "name": "Ingramport", "country": "CA", "coord": {"lon": -63.948719, "lat": 44.666851}}, {"id": 6150174, "name": "Smiths Falls", "country": "CA", "coord": {"lon": -76.016068, "lat": 44.900108}}, {"id": 5978933, "name": "Hutchins Corners", "country": "CA", "coord": {"lon": -75.699348, "lat": 44.923698}}, {"id": 6137276, "name": "Sahanatien", "country": "CA", "coord": {"lon": -79.749649, "lat": 44.983398}}, {"id": 6182823, "name": "Winchester", "country": "CA", "coord": {"lon": -75.349327, "lat": 45.083401}}, {"id": 5921795, "name": "Christian Island", "country": "CA", "coord": {"lon": -80.182991, "lat": 44.816799}}, {"id": 5112977, "name": "Clinton County", "country": "US", "coord": {"lon": -73.682922, "lat": 44.733372}}, {"id": 5130986, "name": "Perry Mills", "country": "US", "coord": {"lon": -73.506248, "lat": 45.00032}}, {"id": 6148264, "name": "Sinclair Shore", "country": "CA", "coord": {"lon": -76.172981, "lat": 45.060909}}, {"id": 6115047, "name": "Qu\u00e9bec", "country": "CA", "coord": {"lon": -71.999069, "lat": 52.000172}}, {"id": 6137705, "name": "Sainte-Agn\u00e8s", "country": "CA", "coord": {"lon": -74.399246, "lat": 45.016788}}, {"id": 5242283, "name": "Vermont", "country": "US", "coord": {"lon": -72.749832, "lat": 44.00034}}, {"id": 6035592, "name": "Lacolle", "country": "CA", "coord": {"lon": -73.365852, "lat": 45.083382}}, {"id": 5973740, "name": "Hemmingford", "country": "CA", "coord": {"lon": -73.582481, "lat": 45.083382}}, {"id": 6155094, "name": "Stanbridge Station", "country": "CA", "coord": {"lon": -73.03244, "lat": 45.116779}}, {"id": 5915627, "name": "Cape Chin North", "country": "CA", "coord": {"lon": -81.319153, "lat": 45.124271}}, {"id": 5961963, "name": "Glen Gordon", "country": "CA", "coord": {"lon": -74.527557, "lat": 45.178692}}, {"id": 5949621, "name": "Estrie", "country": "CA", "coord": {"lon": -71.665771, "lat": 45.483379}}, {"id": 5974029, "name": "Henryville", "country": "CA", "coord": {"lon": -73.182449, "lat": 45.133381}}, {"id": 6137758, "name": "Sainte-Barbe", "country": "CA", "coord": {"lon": -74.199242, "lat": 45.16679}}, {"id": 6123156, "name": "Rivi\u00e8re-Beaudette", "country": "CA", "coord": {"lon": -74.33255, "lat": 45.233391}}, {"id": 6138856, "name": "Saint-Patrice-de-Sherrington", "country": "CA", "coord": {"lon": -73.515869, "lat": 45.166779}}, {"id": 5964337, "name": "Grande-Ligne", "country": "CA", "coord": {"lon": -73.301064, "lat": 45.22068}}, {"id": 8125781, "name": "Almonte", "country": "CA", "coord": {"lon": -76.195847, "lat": 45.229931}}, {"id": 6144515, "name": "Seven Mile Narrows", "country": "CA", "coord": {"lon": -80.116371, "lat": 45.2668}}, {"id": 5924200, "name": "Cloverdale", "country": "CA", "coord": {"lon": -63.21537, "lat": 45.183449}}, {"id": 6138708, "name": "Saint-Malo", "country": "CA", "coord": {"lon": -71.499062, "lat": 45.200089}}, {"id": 5905331, "name": "Bolton-Ouest", "country": "CA", "coord": {"lon": -72.449112, "lat": 45.233379}}, {"id": 5948972, "name": "Enniskerry", "country": "CA", "coord": {"lon": -75.568237, "lat": 45.202301}}, {"id": 5909464, "name": "Brookfield", "country": "CA", "coord": {"lon": -63.281979, "lat": 45.250149}}, {"id": 6138790, "name": "Saint-Michel", "country": "CA", "coord": {"lon": -73.56588, "lat": 45.233379}}, {"id": 6138095, "name": "Sainte-Sabine", "country": "CA", "coord": {"lon": -73.015839, "lat": 45.233379}}, {"id": 6087430, "name": "New Brunswick", "country": "CA", "coord": {"lon": -65.998779, "lat": 46.500099}}, {"id": 6114323, "name": "Purdys Corner", "country": "CA", "coord": {"lon": -66.115547, "lat": 45.250149}}, {"id": 6138419, "name": "Saint-Jacques-le-Mineur", "country": "CA", "coord": {"lon": -73.415871, "lat": 45.283379}}, {"id": 5928337, "name": "Coteau-du-Lac", "country": "CA", "coord": {"lon": -74.182533, "lat": 45.300079}}, {"id": 5968472, "name": "Gunters", "country": "CA", "coord": {"lon": -78.06562, "lat": 45.384331}}, {"id": 5962075, "name": "Glen Robertson", "country": "CA", "coord": {"lon": -74.499252, "lat": 45.35009}}, {"id": 6138495, "name": "Saint-Jean-sur-Richelieu", "country": "CA", "coord": {"lon": -73.265862, "lat": 45.31678}}, {"id": 6137618, "name": "Saint-Clet", "country": "CA", "coord": {"lon": -74.215927, "lat": 45.35009}}, {"id": 6122037, "name": "Richelieu", "country": "CA", "coord": {"lon": -73.246017, "lat": 45.443359}}, {"id": 6062326, "name": "Lynn", "country": "CA", "coord": {"lon": -64.098747, "lat": 45.466862}}, {"id": 6184098, "name": "Woodfield", "country": "CA", "coord": {"lon": -62.381908, "lat": 45.51685}}, {"id": 6145443, "name": "Shawanaga", "country": "CA", "coord": {"lon": -80.282982, "lat": 45.5168}}, {"id": 6168788, "name": "Tr\u00e8s-Saint-R\u00e9dempteur", "country": "CA", "coord": {"lon": -74.382538, "lat": 45.433392}}, {"id": 6138752, "name": "Saint-Mathias-sur-Richelieu", "country": "CA", "coord": {"lon": -73.265862, "lat": 45.466782}}, {"id": 5923101, "name": "Clarence-Rockland", "country": "CA", "coord": {"lon": -75.291008, "lat": 45.550098}}, {"id": 6095306, "name": "Outaouais", "country": "CA", "coord": {"lon": -76.316063, "lat": 46.266811}}, {"id": 6942645, "name": "Buckingham", "country": "CA", "coord": {"lon": -75.420799, "lat": 45.585629}}, {"id": 5961066, "name": "Gilbert Mountain", "country": "CA", "coord": {"lon": -64.215446, "lat": 45.51685}}, {"id": 6168242, "name": "Tracadie Road", "country": "CA", "coord": {"lon": -61.515251, "lat": 45.46685}}, {"id": 6137655, "name": "Saint-Damase", "country": "CA", "coord": {"lon": -72.999138, "lat": 45.533409}}, {"id": 6050541, "name": "Laurentides", "country": "CA", "coord": {"lon": -74.982567, "lat": 46.433399}}, {"id": 6138573, "name": "Saint-Joseph-du-Lac", "country": "CA", "coord": {"lon": -73.999199, "lat": 45.533379}}, {"id": 6098471, "name": "Parker Landing", "country": "CA", "coord": {"lon": -81.349762, "lat": 45.950069}}, {"id": 6138374, "name": "Saint-Hyacinthe", "country": "CA", "coord": {"lon": -72.949142, "lat": 45.616779}}, {"id": 6137745, "name": "Sainte-Anne-des-Lacs", "country": "CA", "coord": {"lon": -74.132507, "lat": 45.850079}}, {"id": 6049141, "name": "Lanaudi\u00e8re", "country": "CA", "coord": {"lon": -73.832481, "lat": 46.766781}}, {"id": 6137543, "name": "Saint-Calixte", "country": "CA", "coord": {"lon": -73.84919, "lat": 45.950081}}, {"id": 6138923, "name": "Saint-Pierre", "country": "CA", "coord": {"lon": -73.465858, "lat": 46.016769}}, {"id": 6137702, "name": "Sainte-Agathe-des-Monts", "country": "CA", "coord": {"lon": -74.282516, "lat": 46.050091}}, {"id": 6076211, "name": "Moncton", "country": "CA", "coord": {"lon": -64.801857, "lat": 46.11594}}, {"id": 6068167, "name": "Mauricie", "country": "CA", "coord": {"lon": -73.415833, "lat": 47.550091}}, {"id": 6050742, "name": "La Visitation-de-Yamaska", "country": "CA", "coord": {"lon": -72.599121, "lat": 46.133362}}, {"id": 6691322, "name": "Chaudi\u00e8re-Appalaches", "country": "CA", "coord": {"lon": -70.830803, "lat": 46.555}}, {"id": 6620953, "name": "Saint-Georges-de-Beauce", "country": "CA", "coord": {"lon": -70.66526, "lat": 46.113529}}, {"id": 6137631, "name": "Saint-Come--Liniere", "country": "CA", "coord": {"lon": -70.515732, "lat": 46.066769}}, {"id": 5955693, "name": "Forks Stream", "country": "CA", "coord": {"lon": -65.565529, "lat": 46.11684}}, {"id": 5906269, "name": "Bouchette", "country": "CA", "coord": {"lon": -75.966049, "lat": 46.216808}}, {"id": 6113358, "name": "Prince Edward Island", "country": "CA", "coord": {"lon": -62.99868, "lat": 46.500111}}, {"id": 6071329, "name": "Meadow Bank", "country": "CA", "coord": {"lon": -63.231991, "lat": 46.200119}}, {"id": 5992573, "name": "Kinlock", "country": "CA", "coord": {"lon": -63.088982, "lat": 46.204319}}, {"id": 6139198, "name": "Saint-Wenceslas", "country": "CA", "coord": {"lon": -72.332397, "lat": 46.166759}}, {"id": 6091391, "name": "Notre-Dame-de-Pontmain", "country": "CA", "coord": {"lon": -75.632622, "lat": 46.283409}}, {"id": 5959266, "name": "Gambles Corner", "country": "CA", "coord": {"lon": -63.515411, "lat": 46.26683}}, {"id": 6945991, "name": "Plessisville", "country": "CA", "coord": {"lon": -71.762009, "lat": 46.218559}}, {"id": 5948507, "name": "Emerald", "country": "CA", "coord": {"lon": -61.031799, "lat": 46.316841}}, {"id": 5962104, "name": "Glen Valley", "country": "CA", "coord": {"lon": -63.448711, "lat": 46.350128}}, {"id": 5897209, "name": "Becancour", "country": "CA", "coord": {"lon": -72.432411, "lat": 46.333359}}, {"id": 7910263, "name": "Indian Brook", "country": "CA", "coord": {"lon": -60.532742, "lat": 46.384491}}, {"id": 6136747, "name": "Rutherglen", "country": "CA", "coord": {"lon": -79.049591, "lat": 46.266811}}, {"id": 6945989, "name": "Sainte-Marie", "country": "CA", "coord": {"lon": -71.011681, "lat": 46.43401}}, {"id": 5946385, "name": "Echo Bay", "country": "CA", "coord": {"lon": -84.066628, "lat": 46.48336}}, {"id": 7534563, "name": "Sainte-H\u00e9l\u00e8ne-de-Breakeyville", "country": "CA", "coord": {"lon": -71.23381, "lat": 46.665459}}, {"id": 6691319, "name": "Capitale-Nationale", "country": "CA", "coord": {"lon": -71.123367, "lat": 47.375999}}, {"id": 7535681, "name": "Saint-Augustin-de-Desmaures", "country": "CA", "coord": {"lon": -71.451309, "lat": 46.740639}}, {"id": 5920447, "name": "Chatham", "country": "CA", "coord": {"lon": -65.432037, "lat": 47.033409}}, {"id": 6142906, "name": "Seacow Pond", "country": "CA", "coord": {"lon": -63.998718, "lat": 47.03344}}, {"id": 6942801, "name": "Grand-Sault", "country": "CA", "coord": {"lon": -67.728477, "lat": 47.033401}}, {"id": 6077271, "name": "Montreal River", "country": "CA", "coord": {"lon": -84.649918, "lat": 47.233372}}, {"id": 7290234, "name": "Saint-Ferreol-les-Neiges", "country": "CA", "coord": {"lon": -70.86731, "lat": 47.115471}}, {"id": 6354959, "name": "Newfoundland and Labrador", "country": "CA", "coord": {"lon": -56, "lat": 52}}, {"id": 7535692, "name": "La Pocatiere", "country": "CA", "coord": {"lon": -70.061859, "lat": 47.348358}}, {"id": 6004200, "name": "Lac-Chat", "country": "CA", "coord": {"lon": -72.649109, "lat": 47.166759}}, {"id": 5881941, "name": "Abitibi-T\u00e9miscamingue", "country": "CA", "coord": {"lon": -77.782799, "lat": 48.100182}}, {"id": 5958663, "name": "Fug\u00e8reville", "country": "CA", "coord": {"lon": -79.199654, "lat": 47.40015}}, {"id": 5967682, "name": "Guigues", "country": "CA", "coord": {"lon": -79.43856, "lat": 47.46455}}, {"id": 6944107, "name": "Sully", "country": "CA", "coord": {"lon": -69.155067, "lat": 47.455891}}, {"id": 7302644, "name": "Tracadie-Sheila", "country": "CA", "coord": {"lon": -64.91806, "lat": 47.514439}}, {"id": 6065403, "name": "Manouane", "country": "CA", "coord": {"lon": -74.393921, "lat": 47.212109}}, {"id": 6640171, "name": "Beresford", "country": "CA", "coord": {"lon": -65.698929, "lat": 47.69128}}, {"id": 6098933, "name": "Pascalis", "country": "CA", "coord": {"lon": -77.482773, "lat": 48.150181}}, {"id": 5934896, "name": "Dane", "country": "CA", "coord": {"lon": -80.016411, "lat": 48.083469}}, {"id": 5928473, "name": "C\u00f4te-Nord", "country": "CA", "coord": {"lon": -65.815407, "lat": 50.866829}}, {"id": 6944111, "name": "Sacr\u00e9-Coeur", "country": "CA", "coord": {"lon": -69.800613, "lat": 48.229698}}, {"id": 5001836, "name": "Michigan", "country": "US", "coord": {"lon": -85.500328, "lat": 44.25029}}, {"id": 4998067, "name": "Keweenaw County", "country": "US", "coord": {"lon": -88.200111, "lat": 47.366581}}, {"id": 5007426, "name": "Rock Harbor Lodge", "country": "US", "coord": {"lon": -88.483681, "lat": 48.14571}}, {"id": 6137271, "name": "Saguenay/Lac-Saint-Jean", "country": "CA", "coord": {"lon": -71.749008, "lat": 49.86681}}, {"id": 6621036, "name": "La Baie", "country": "CA", "coord": {"lon": -70.889282, "lat": 48.339821}}, {"id": 6137270, "name": "Saguenay", "country": "CA", "coord": {"lon": -71.065727, "lat": 48.416752}}, {"id": 6086590, "name": "Neebing", "country": "CA", "coord": {"lon": -89.416832, "lat": 48.166801}}, {"id": 6147786, "name": "Silver Islet", "country": "CA", "coord": {"lon": -88.81678, "lat": 48.333401}}, {"id": 6354895, "name": "Rimouski", "country": "CA", "coord": {"lon": -68.523956, "lat": 48.448792}}, {"id": 6166142, "name": "Thunder Bay", "country": "CA", "coord": {"lon": -89.316833, "lat": 48.400101}}, {"id": 6050073, "name": "Larouche", "country": "CA", "coord": {"lon": -71.515793, "lat": 48.450089}}, {"id": 6943831, "name": "Lac-au-Saumon", "country": "CA", "coord": {"lon": -67.347557, "lat": 48.421001}}, {"id": 6171931, "name": "Uniacke", "country": "CA", "coord": {"lon": -77.516182, "lat": 48.416889}}, {"id": 5974227, "name": "Heron Bay", "country": "CA", "coord": {"lon": -86.283211, "lat": 48.666801}}, {"id": 5944299, "name": "Duparquet", "country": "CA", "coord": {"lon": -79.232941, "lat": 48.500179}}, {"id": 5989860, "name": "Kawene", "country": "CA", "coord": {"lon": -91.216873, "lat": 48.749828}}, {"id": 6943594, "name": "Shuniah Township", "country": "CA", "coord": {"lon": -89.1147, "lat": 48.5242}}, {"id": 6137916, "name": "Sainte-Hedwidge", "country": "CA", "coord": {"lon": -72.349152, "lat": 48.483398}}, {"id": 5909050, "name": "British Columbia", "country": "CA", "coord": {"lon": -125.003197, "lat": 53.999828}}, {"id": 5919137, "name": "Central Saanich", "country": "CA", "coord": {"lon": -123.419319, "lat": 48.566341}}, {"id": 6138360, "name": "Saint-Honor\u00e9", "country": "CA", "coord": {"lon": -71.082359, "lat": 48.533379}}, {"id": 6155806, "name": "Steady Brook", "country": "CA", "coord": {"lon": -57.81509, "lat": 48.950008}}, {"id": 6136542, "name": "Rushy Pond", "country": "CA", "coord": {"lon": -55.798222, "lat": 48.94994}}, {"id": 6945401, "name": "Salt Spring Island", "country": "CA", "coord": {"lon": -123.510017, "lat": 48.817261}}, {"id": 6111636, "name": "Port Albion", "country": "CA", "coord": {"lon": -125.552834, "lat": 48.949612}}, {"id": 5805553, "name": "Okanogan County", "country": "US", "coord": {"lon": -119.734512, "lat": 48.54987}}, {"id": 5803757, "name": "Molson", "country": "US", "coord": {"lon": -119.2006, "lat": 48.981022}}, {"id": 5037779, "name": "Minnesota", "country": "US", "coord": {"lon": -94.250549, "lat": 46.25024}}, {"id": 5033353, "name": "Kittson County", "country": "US", "coord": {"lon": -96.783661, "lat": 48.766651}}, {"id": 5049156, "name": "Sultan", "country": "US", "coord": {"lon": -97.177841, "lat": 48.990822}}, {"id": 5815675, "name": "Whatcom County", "country": "US", "coord": {"lon": -121.784592, "lat": 48.916512}}, {"id": 5792201, "name": "Delta", "country": "US", "coord": {"lon": -122.524887, "lat": 48.980949}}, {"id": 5690763, "name": "North Dakota", "country": "US", "coord": {"lon": -100.000679, "lat": 47.500271}}, {"id": 5060890, "name": "Pembina County", "country": "US", "coord": {"lon": -97.517029, "lat": 48.766659}}, {"id": 5059771, "name": "Huron City (historical)", "country": "US", "coord": {"lon": -97.233673, "lat": 48.997211}}, {"id": 7626786, "name": "Tsawwassen", "country": "CA", "coord": {"lon": -123.081718, "lat": 49.018002}}, {"id": 5667009, "name": "Montana", "country": "US", "coord": {"lon": -109.751022, "lat": 47.000252}}, {"id": 5654267, "name": "Glacier County", "country": "US", "coord": {"lon": -112.967583, "lat": 48.649979}}, {"id": 5661134, "name": "Korner (historical)", "country": "US", "coord": {"lon": -112.320343, "lat": 48.911098}}, {"id": 6141242, "name": "Saskatchewan", "country": "CA", "coord": {"lon": -106.000992, "lat": 54.000099}}, {"id": 5945998, "name": "East Poplar", "country": "CA", "coord": {"lon": -105.384392, "lat": 49.06675}}, {"id": 5596512, "name": "Idaho", "country": "US", "coord": {"lon": -114.251183, "lat": 44.500198}}, {"id": 5586641, "name": "Boundary County", "country": "US", "coord": {"lon": -117.00135, "lat": 48.95826}}, {"id": 5592170, "name": "Eastport", "country": "US", "coord": {"lon": -116.181313, "lat": 48.999401}}, {"id": 5671269, "name": "Phillips County", "country": "US", "coord": {"lon": -107.934013, "lat": 48.200001}}, {"id": 5655445, "name": "Greve (historical)", "country": "US", "coord": {"lon": -107.420082, "lat": 48.970299}}, {"id": 5883102, "name": "Alberta", "country": "CA", "coord": {"lon": -117.469002, "lat": 52.283329}}, {"id": 5882351, "name": "Aden", "country": "CA", "coord": {"lon": -111.318336, "lat": 49.033291}}, {"id": 5930953, "name": "Coutts", "country": "CA", "coord": {"lon": -111.963043, "lat": 49.00201}}, {"id": 6181891, "name": "Wild Horse", "country": "CA", "coord": {"lon": -110.218239, "lat": 49.000011}}, {"id": 6691321, "name": "Gasp\u00e9sie-\u00celes-de-la-Madeleine", "country": "CA", "coord": {"lon": -65.407097, "lat": 48.875549}}, {"id": 6944115, "name": "Ste-Anne-Des-Monts", "country": "CA", "coord": {"lon": -66.492302, "lat": 49.122139}}, {"id": 5897201, "name": "Beazer", "country": "CA", "coord": {"lon": -113.485199, "lat": 49.116661}}, {"id": 6088485, "name": "Nipigon", "country": "CA", "coord": {"lon": -88.266731, "lat": 49.016811}}, {"id": 5928098, "name": "Coronach", "country": "CA", "coord": {"lon": -105.517807, "lat": 49.11676}}, {"id": 7669010, "name": "Yarrow", "country": "CA", "coord": {"lon": -122.050339, "lat": 49.082069}}, {"id": 5924204, "name": "Cloverdale", "country": "CA", "coord": {"lon": -122.7276, "lat": 49.107971}}, {"id": 5992044, "name": "Kimball", "country": "CA", "coord": {"lon": -113.201889, "lat": 49.083279}}, {"id": 5961009, "name": "Gifford", "country": "CA", "coord": {"lon": -122.335876, "lat": 49.09967}}, {"id": 6065171, "name": "Manitoba", "country": "CA", "coord": {"lon": -97.000488, "lat": 55.000191}}, {"id": 6065191, "name": "Manitou", "country": "CA", "coord": {"lon": -98.537491, "lat": 49.240601}}, {"id": 5961889, "name": "Glencross", "country": "CA", "coord": {"lon": -98.015152, "lat": 49.117199}}, {"id": 5787895, "name": "Boundary", "country": "US", "coord": {"lon": -121.605423, "lat": 48.998459}}, {"id": 5964370, "name": "Grande-Vall\u00e9e", "country": "CA", "coord": {"lon": -65.132011, "lat": 49.216801}}, {"id": 6094777, "name": "Othello", "country": "CA", "coord": {"lon": -121.352531, "lat": 49.382999}}, {"id": 5939211, "name": "Didyme", "country": "CA", "coord": {"lon": -72.665627, "lat": 48.900028}}, {"id": 6111949, "name": "Port Mann", "country": "CA", "coord": {"lon": -122.819321, "lat": 49.199669}}, {"id": 6122085, "name": "Richmond", "country": "CA", "coord": {"lon": -123.136833, "lat": 49.170029}}, {"id": 5891492, "name": "Baie-Trinit\u00e9", "country": "CA", "coord": {"lon": -67.298866, "lat": 49.41679}}, {"id": 6085772, "name": "Nanaimo", "country": "CA", "coord": {"lon": -123.936012, "lat": 49.16634}}, {"id": 6173331, "name": "Vancouver", "country": "CA", "coord": {"lon": -123.119339, "lat": 49.24966}}, {"id": 5911606, "name": "Burnaby", "country": "CA", "coord": {"lon": -122.952629, "lat": 49.266361}}, {"id": 6070884, "name": "McNab", "country": "CA", "coord": {"lon": -112.285103, "lat": 49.349998}}, {"id": 6098642, "name": "Parksville", "country": "CA", "coord": {"lon": -124.31945, "lat": 49.31633}}, {"id": 6127182, "name": "Roland", "country": "CA", "coord": {"lon": -97.94075, "lat": 49.366402}}, {"id": 7646978, "name": "Deep Cove", "country": "CA", "coord": {"lon": -122.948601, "lat": 49.326908}}, {"id": 6116167, "name": "Raley", "country": "CA", "coord": {"lon": -113.185188, "lat": 49.283279}}, {"id": 5944680, "name": "Eagle Bluff", "country": "CA", "coord": {"lon": -119.505188, "lat": 49.26366}}, {"id": 5927900, "name": "Cormack", "country": "CA", "coord": {"lon": -57.381618, "lat": 49.300011}}, {"id": 5896992, "name": "Beaver Mines", "country": "CA", "coord": {"lon": -114.201958, "lat": 49.450001}}, {"id": 6087002, "name": "Nemiskam", "country": "CA", "coord": {"lon": -111.268387, "lat": 49.483341}}, {"id": 5962132, "name": "Glenwood", "country": "CA", "coord": {"lon": -113.518608, "lat": 49.366669}}, {"id": 6125877, "name": "Robsart", "country": "CA", "coord": {"lon": -109.284767, "lat": 49.383339}}, {"id": 6078727, "name": "Morris", "country": "CA", "coord": {"lon": -97.365669, "lat": 49.354988}}, {"id": 6087523, "name": "New Dayton", "country": "CA", "coord": {"lon": -112.385117, "lat": 49.416691}}, {"id": 6072816, "name": "Midale", "country": "CA", "coord": {"lon": -103.401001, "lat": 49.400059}}, {"id": 6062670, "name": "Macdiarmid", "country": "CA", "coord": {"lon": -88.133324, "lat": 49.433411}}, {"id": 6182389, "name": "Willow Bunch", "country": "CA", "coord": {"lon": -105.634422, "lat": 49.383362}}, {"id": 5927764, "name": "Corbin", "country": "CA", "coord": {"lon": -114.652, "lat": 49.516708}}, {"id": 5927537, "name": "Coppell", "country": "CA", "coord": {"lon": -83.833153, "lat": 49.533508}}, {"id": 5967581, "name": "Grund", "country": "CA", "coord": {"lon": -99.268311, "lat": 49.459221}}, {"id": 6054578, "name": "Lions Bay", "country": "CA", "coord": {"lon": -123.235962, "lat": 49.449661}}, {"id": 5988183, "name": "Judson", "country": "CA", "coord": {"lon": -112.351807, "lat": 49.53331}}, {"id": 5926902, "name": "Conrad", "country": "CA", "coord": {"lon": -111.968468, "lat": 49.516731}}, {"id": 6691320, "name": "Nord-du-Qu\u00e9bec", "country": "CA", "coord": {"lon": -74.896103, "lat": 51.962002}}, {"id": 5919850, "name": "Chapais", "country": "CA", "coord": {"lon": -74.84919, "lat": 49.78344}}, {"id": 5944610, "name": "Dyment", "country": "CA", "coord": {"lon": -92.314987, "lat": 49.615639}}, {"id": 6065954, "name": "Marchand", "country": "CA", "coord": {"lon": -96.386681, "lat": 49.444382}}, {"id": 6094883, "name": "Otterburne", "country": "CA", "coord": {"lon": -97.052338, "lat": 49.497189}}, {"id": 5897622, "name": "Belanger", "country": "CA", "coord": {"lon": -109.318176, "lat": 49.56675}}, {"id": 5944684, "name": "Eagle Butte", "country": "CA", "coord": {"lon": -110.434898, "lat": 49.600052}}, {"id": 7290228, "name": "Garibaldi Highlands", "country": "CA", "coord": {"lon": -123.134079, "lat": 49.733971}}, {"id": 5942911, "name": "Dryden", "country": "CA", "coord": {"lon": -92.833633, "lat": 49.77504}}, {"id": 7281936, "name": "West Kelowna", "country": "CA", "coord": {"lon": -119.583328, "lat": 49.862499}}, {"id": 6184125, "name": "Woodhouse", "country": "CA", "coord": {"lon": -113.535248, "lat": 49.95002}}, {"id": 6063836, "name": "Macson", "country": "CA", "coord": {"lon": -110.601631, "lat": 49.966759}}, {"id": 6149014, "name": "Skookumchuck", "country": "CA", "coord": {"lon": -122.402641, "lat": 49.932991}}, {"id": 6945997, "name": "Maliotenam", "country": "CA", "coord": {"lon": -66.181641, "lat": 50.211189}}, {"id": 6121576, "name": "Retlaw", "country": "CA", "coord": {"lon": -112.268517, "lat": 50.066769}}, {"id": 6166916, "name": "Tin Town", "country": "CA", "coord": {"lon": -98.194618, "lat": 50.167221}}, {"id": 5965620, "name": "Gray", "country": "CA", "coord": {"lon": -104.434402, "lat": 50.166771}}, {"id": 5989089, "name": "Kanaka Bar", "country": "CA", "coord": {"lon": -121.569283, "lat": 50.116428}}, {"id": 5925058, "name": "Coldstream", "country": "CA", "coord": {"lon": -119.202347, "lat": 50.216492}}, {"id": 6111913, "name": "Portland Creek", "country": "CA", "coord": {"lon": -57.617451, "lat": 50.158482}}, {"id": 6104820, "name": "Pinawa", "country": "CA", "coord": {"lon": -95.881149, "lat": 50.148899}}, {"id": 6144054, "name": "Selkirk", "country": "CA", "coord": {"lon": -96.884521, "lat": 50.1436}}, {"id": 6159315, "name": "Summit Lake", "country": "CA", "coord": {"lon": -117.668938, "lat": 50.166561}}, {"id": 5917287, "name": "Carmangay", "country": "CA", "coord": {"lon": -113.118584, "lat": 50.133331}}, {"id": 6159851, "name": "Surprise", "country": "CA", "coord": {"lon": -109.968292, "lat": 50.266811}}, {"id": 5964764, "name": "Granite Bay", "country": "CA", "coord": {"lon": -125.302902, "lat": 50.232948}}, {"id": 6053316, "name": "Levuka", "country": "CA", "coord": {"lon": -105.401131, "lat": 50.183361}}, {"id": 6061958, "name": "Lumby", "country": "CA", "coord": {"lon": -118.96904, "lat": 50.24979}}, {"id": 6181212, "name": "Whitewood", "country": "CA", "coord": {"lon": -102.267693, "lat": 50.333321}}, {"id": 5947696, "name": "Elk Bay", "country": "CA", "coord": {"lon": -125.436218, "lat": 50.28294}}, {"id": 6101267, "name": "Percival", "country": "CA", "coord": {"lon": -102.417686, "lat": 50.36673}}, {"id": 5994252, "name": "Kronau", "country": "CA", "coord": {"lon": -104.301079, "lat": 50.300079}}, {"id": 6141822, "name": "Sayward", "country": "CA", "coord": {"lon": -125.969688, "lat": 50.382931}}, {"id": 6142281, "name": "Schuler", "country": "CA", "coord": {"lon": -110.101608, "lat": 50.333408}}, {"id": 5883335, "name": "Alderson", "country": "CA", "coord": {"lon": -111.335037, "lat": 50.283401}}, {"id": 5899268, "name": "Beulah", "country": "CA", "coord": {"lon": -101.037613, "lat": 50.260601}}, {"id": 6029517, "name": "Lac Le Jeune", "country": "CA", "coord": {"lon": -120.502502, "lat": 50.48307}}, {"id": 6141035, "name": "Sans Souci", "country": "CA", "coord": {"lon": -96.948738, "lat": 50.427219}}, {"id": 5944935, "name": "Ear Falls", "country": "CA", "coord": {"lon": -93.23526, "lat": 50.639549}}, {"id": 5898671, "name": "Beresford", "country": "CA", "coord": {"lon": -120.252487, "lat": 50.583069}}, {"id": 5887048, "name": "Armstrong", "country": "CA", "coord": {"lon": -119.202347, "lat": 50.449791}}, {"id": 6154310, "name": "Spring Well", "country": "CA", "coord": {"lon": -96.26088, "lat": 50.321098}}, {"id": 5884107, "name": "Almdals Cove", "country": "CA", "coord": {"lon": -96.57621, "lat": 50.47031}}, {"id": 5918056, "name": "Cassils", "country": "CA", "coord": {"lon": -112.035103, "lat": 50.583408}}, {"id": 5987236, "name": "Johnsborough", "country": "CA", "coord": {"lon": -109.384811, "lat": 50.600101}}, {"id": 6159811, "name": "Suquash", "country": "CA", "coord": {"lon": -127.253128, "lat": 50.632931}}, {"id": 5961980, "name": "Glen Kerr", "country": "CA", "coord": {"lon": -107.017967, "lat": 50.60006}}, {"id": 6090172, "name": "North Kamloops", "country": "CA", "coord": {"lon": -120.369202, "lat": 50.69978}}, {"id": 6085699, "name": "Namaka", "country": "CA", "coord": {"lon": -113.285233, "lat": 50.950111}}, {"id": 6143723, "name": "Seebe", "country": "CA", "coord": {"lon": -115.064957, "lat": 51.09576}}, {"id": 6174187, "name": "Vidir", "country": "CA", "coord": {"lon": -97.296272, "lat": 51.015308}}, {"id": 6077007, "name": "Montgomery", "country": "CA", "coord": {"lon": -114.16449, "lat": 51.075111}}, {"id": 6075521, "name": "Mistusinne", "country": "CA", "coord": {"lon": -106.534554, "lat": 51.066761}}, {"id": 6109021, "name": "Pollockville", "country": "CA", "coord": {"lon": -111.585068, "lat": 51.100109}}, {"id": 6060152, "name": "Loon Lake", "country": "CA", "coord": {"lon": -121.30262, "lat": 51.083092}}, {"id": 6168685, "name": "Trefoil", "country": "CA", "coord": {"lon": -112.185127, "lat": 51.200111}}, {"id": 7871396, "name": "Canmore", "country": "CA", "coord": {"lon": -115.346153, "lat": 51.08757}}, {"id": 5990301, "name": "Keith", "country": "CA", "coord": {"lon": -114.251999, "lat": 51.100109}}, {"id": 5962556, "name": "Gold Bridge", "country": "CA", "coord": {"lon": -122.836098, "lat": 50.849758}}, {"id": 6176253, "name": "Warner Bay", "country": "CA", "coord": {"lon": -127.103142, "lat": 51.049641}}, {"id": 6051128, "name": "Leanchoil", "country": "CA", "coord": {"lon": -116.618858, "lat": 51.21666}}, {"id": 6078372, "name": "Moosonee", "country": "CA", "coord": {"lon": -80.634499, "lat": 51.279308}}, {"id": 5882033, "name": "Acadia Valley", "country": "CA", "coord": {"lon": -110.218323, "lat": 51.150131}}, {"id": 6064382, "name": "Main Brook", "country": "CA", "coord": {"lon": -56.014759, "lat": 51.18338}}, {"id": 5941855, "name": "Dorothy", "country": "CA", "coord": {"lon": -112.318542, "lat": 51.300121}}, {"id": 5947456, "name": "Eldon", "country": "CA", "coord": {"lon": -116.035461, "lat": 51.3167}}, {"id": 6117406, "name": "Rat Rapids", "country": "CA", "coord": {"lon": -90.233452, "lat": 51.183411}}, {"id": 6183426, "name": "Wiseton", "country": "CA", "coord": {"lon": -107.651329, "lat": 51.316792}}, {"id": 6174926, "name": "Wadhams", "country": "CA", "coord": {"lon": -127.50322, "lat": 51.51635}}, {"id": 5884208, "name": "Alsask", "country": "CA", "coord": {"lon": -109.984901, "lat": 51.350128}}, {"id": 6073966, "name": "Millerfield", "country": "CA", "coord": {"lon": -112.418541, "lat": 51.350128}}, {"id": 6086977, "name": "Nemaiah Valley", "country": "CA", "coord": {"lon": -123.886292, "lat": 51.483051}}, {"id": 6176890, "name": "Watertown", "country": "CA", "coord": {"lon": -105.26786, "lat": 51.383369}}, {"id": 6145347, "name": "Sharples", "country": "CA", "coord": {"lon": -113.068611, "lat": 51.466831}}, {"id": 5933070, "name": "Crossfield", "country": "CA", "coord": {"lon": -114.035278, "lat": 51.433411}}, {"id": 5940837, "name": "Dogpound", "country": "CA", "coord": {"lon": -114.402008, "lat": 51.466801}}, {"id": 5994493, "name": "Kutawa", "country": "CA", "coord": {"lon": -104.217781, "lat": 51.416771}}, {"id": 5949585, "name": "Esther", "country": "CA", "coord": {"lon": -110.268311, "lat": 51.700119}}, {"id": 6166067, "name": "Throne", "country": "CA", "coord": {"lon": -111.285027, "lat": 52.050129}}, {"id": 5904450, "name": "Blue River", "country": "CA", "coord": {"lon": -119.310493, "lat": 52.110088}}, {"id": 5904987, "name": "Bodo", "country": "CA", "coord": {"lon": -110.084869, "lat": 52.150131}}, {"id": 6118748, "name": "Redstone", "country": "CA", "coord": {"lon": -123.702957, "lat": 52.133099}}, {"id": 6053575, "name": "Lidstone", "country": "CA", "coord": {"lon": -101.165283, "lat": 52.027802}}, {"id": 6145615, "name": "Shearwater", "country": "CA", "coord": {"lon": -128.093613, "lat": 52.146839}}, {"id": 6092351, "name": "Ocean Falls", "country": "CA", "coord": {"lon": -127.7033, "lat": 52.349651}}, {"id": 5955850, "name": "Fort Hope", "country": "CA", "coord": {"lon": -87.959976, "lat": 51.555729}}, {"id": 5902447, "name": "Black Creek", "country": "CA", "coord": {"lon": -121.102669, "lat": 52.299881}}, {"id": 5897730, "name": "Bella Bella", "country": "CA", "coord": {"lon": -128.147705, "lat": 52.163528}}, {"id": 5958908, "name": "Gadsby", "country": "CA", "coord": {"lon": -112.35186, "lat": 52.300129}}, {"id": 5887666, "name": "Asinkaanumevatt", "country": "CA", "coord": {"lon": -96.852524, "lat": 52.25811}}, {"id": 5950589, "name": "Evergreen", "country": "CA", "coord": {"lon": -114.535316, "lat": 52.23341}}, {"id": 5972712, "name": "Haynes", "country": "CA", "coord": {"lon": -113.401947, "lat": 52.316811}}, {"id": 5986080, "name": "Jedway", "country": "CA", "coord": {"lon": -131.220001, "lat": 52.299591}}, {"id": 5908163, "name": "Brazeau", "country": "CA", "coord": {"lon": -116.08551, "lat": 52.466782}}, {"id": 5898664, "name": "Berens River", "country": "CA", "coord": {"lon": -97.029831, "lat": 52.365311}}, {"id": 6046401, "name": "Lac Vert", "country": "CA", "coord": {"lon": -104.484306, "lat": 52.500019}}, {"id": 5898078, "name": "Bellshill", "country": "CA", "coord": {"lon": -111.518402, "lat": 52.566841}}, {"id": 6184998, "name": "Wynd", "country": "CA", "coord": {"lon": -118.135674, "lat": 52.866718}}, {"id": 6181273, "name": "Whitmore", "country": "CA", "coord": {"lon": -101.118683, "lat": 52.71505}}, {"id": 5979035, "name": "Hybord", "country": "CA", "coord": {"lon": -99.290154, "lat": 53.16972}}, {"id": 6184110, "name": "Woodglen", "country": "CA", "coord": {"lon": -112.235138, "lat": 53.016842}}, {"id": 5989777, "name": "Kavanagh", "country": "CA", "coord": {"lon": -113.5187, "lat": 53.183418}}, {"id": 5988699, "name": "Kaisun", "country": "CA", "coord": {"lon": -132.45343, "lat": 53.032768}}, {"id": 5887013, "name": "Armley", "country": "CA", "coord": {"lon": -104.034241, "lat": 53.11676}}, {"id": 6181909, "name": "Wildmere", "country": "CA", "coord": {"lon": -110.751633, "lat": 53.13345}}, {"id": 6089078, "name": "Norbury", "country": "CA", "coord": {"lon": -107.417908, "lat": 53.266819}}, {"id": 6156596, "name": "St. Francis", "country": "CA", "coord": {"lon": -114.335381, "lat": 53.283428}}, {"id": 5978233, "name": "Huggett", "country": "CA", "coord": {"lon": -114.135361, "lat": 53.31683}}, {"id": 6060002, "name": "Looma", "country": "CA", "coord": {"lon": -113.251999, "lat": 53.366829}}, {"id": 5983310, "name": "Inland", "country": "CA", "coord": {"lon": -112.185127, "lat": 53.41684}}, {"id": 5946820, "name": "Edson", "country": "CA", "coord": {"lon": -116.435593, "lat": 53.58345}}, {"id": 6158026, "name": "Strathnaver", "country": "CA", "coord": {"lon": -122.551529, "lat": 53.347092}}, {"id": 6074471, "name": "Minburn", "country": "CA", "coord": {"lon": -111.368423, "lat": 53.316849}}, {"id": 6054016, "name": "Lily Lake", "country": "CA", "coord": {"lon": -124.553162, "lat": 53.91655}}, {"id": 6943726, "name": "Cartwright", "country": "CA", "coord": {"lon": -57.01741, "lat": 53.719471}}, {"id": 5956895, "name": "Foxford", "country": "CA", "coord": {"lon": -105.117661, "lat": 53.466789}}, {"id": 5946768, "name": "Edmonton", "country": "CA", "coord": {"lon": -113.468712, "lat": 53.55014}}, {"id": 5978985, "name": "Hutton", "country": "CA", "coord": {"lon": -121.619598, "lat": 53.983238}}, {"id": 964420, "name": "Port Elizabeth", "country": "ZA", "coord": {"lon": 25.57007, "lat": -33.917992}}, {"id": 942071, "name": "Walmer", "country": "ZA", "coord": {"lon": 25.583549, "lat": -33.97789}}, {"id": 3469745, "name": "Boa Vista", "country": "BR", "coord": {"lon": -41.099998, "lat": -22.033331}}, {"id": 3453639, "name": "Pirassununga", "country": "BR", "coord": {"lon": -47.425831, "lat": -21.996111}}, {"id": 3470450, "name": "Barriero", "country": "BR", "coord": {"lon": -47.183331, "lat": -21.58333}}, {"id": 3461712, "name": "Hamond", "country": "BR", "coord": {"lon": -48.25, "lat": -21.41667}}, {"id": 933186, "name": "Orapa", "country": "BW", "coord": {"lon": 25.366671, "lat": -21.283331}}, {"id": 3457153, "name": "Estado de Minas Gerais", "country": "BR", "coord": {"lon": -44, "lat": -18}}, {"id": 3464759, "name": "Desterro do Melo", "country": "BR", "coord": {"lon": -43.51778, "lat": -21.147221}}, {"id": 4032283, "name": "Kingdom of Tonga", "country": "TO", "coord": {"lon": -175, "lat": -20}}, {"id": 7839682, "name": "Barkly", "country": "AU", "coord": {"lon": 134.823639, "lat": -19.54154}}, {"id": 2060436, "name": "Tennant Creek", "country": "AU", "coord": {"lon": 134.199997, "lat": -19.65}}, {"id": 3371208, "name": "Oshikoto", "country": "NA", "coord": {"lon": 17.08333, "lat": -18.5}}, {"id": 3352593, "name": "Tsumeb", "country": "NA", "coord": {"lon": 17.716669, "lat": -19.23333}}, {"id": 7839399, "name": "Townsville", "country": "AU", "coord": {"lon": 146.632233, "lat": -19.351999}}, {"id": 2151197, "name": "Rollingstone", "country": "AU", "coord": {"lon": 146.383331, "lat": -19.049999}}, {"id": 887358, "name": "Manicaland Province", "country": "ZW", "coord": {"lon": 32.5, "lat": -19}}, {"id": 882100, "name": "Rusape", "country": "ZW", "coord": {"lon": 32.128429, "lat": -18.527849}}, {"id": 890242, "name": "Headlands", "country": "ZW", "coord": {"lon": 32.051498, "lat": -18.27733}}, {"id": 3462372, "name": "Estado de Goi\u00e1s", "country": "BR", "coord": {"lon": -49.63623, "lat": -15.58071}}, {"id": 3452584, "name": "Posses", "country": "BR", "coord": {"lon": -49, "lat": -18.283331}}, {"id": 933230, "name": "North West District", "country": "BW", "coord": {"lon": 22.5, "lat": -20}}, {"id": 7732983, "name": "Lesoma", "country": "BW", "coord": {"lon": 25.2374, "lat": -17.9058}}, {"id": 886119, "name": "Midlands Province", "country": "ZW", "coord": {"lon": 30, "lat": -19}}, {"id": 894015, "name": "Chief Sai", "country": "ZW", "coord": {"lon": 28.38097, "lat": -18.148081}}, {"id": 2205218, "name": "Republic of Fiji", "country": "FJ", "coord": {"lon": 178, "lat": -18}}, {"id": 3351879, "name": "Republic of Angola", "country": "AO", "coord": {"lon": 18.5, "lat": -12.5}}, {"id": 895949, "name": "Republic of Zambia", "country": "ZM", "coord": {"lon": 30, "lat": -15}}, {"id": 1036973, "name": "Republic of Mozambique", "country": "MZ", "coord": {"lon": 35, "lat": -18.25}}, {"id": 927384, "name": "Republic of Malawi", "country": "MW", "coord": {"lon": 34, "lat": -13.5}}, {"id": 900601, "name": "Northern Province", "country": "ZM", "coord": {"lon": 31, "lat": -11}}, {"id": 924591, "name": "Northern Region", "country": "MW", "coord": {"lon": 34, "lat": -11}}, {"id": 925496, "name": "Mzimba District", "country": "MW", "coord": {"lon": 33.60778, "lat": -11.85428}}, {"id": 925812, "name": "Mugumbani Chipeta", "country": "MW", "coord": {"lon": 33.363049, "lat": -11.53875}}, {"id": 901298, "name": "Ndumbakahehu", "country": "ZM", "coord": {"lon": 24.216669, "lat": -11.33333}}, {"id": 3474575, "name": "Estado de Tocantins", "country": "BR", "coord": {"lon": -48, "lat": -10.5}}, {"id": 3479308, "name": "Paind do Araguaia", "country": "BR", "coord": {"lon": -50.314171, "lat": -11.44028}}, {"id": 909845, "name": "Luapula Province", "country": "ZM", "coord": {"lon": 29, "lat": -11}}, {"id": 921061, "name": "Chaba", "country": "ZM", "coord": {"lon": 29.357861, "lat": -11.26445}}, {"id": 3699674, "name": "Departamento de Ancash", "country": "PE", "coord": {"lon": -77.75, "lat": -9.5}}, {"id": 6664186, "name": "Ereza", "country": "PE", "coord": {"lon": -77.488129, "lat": -10.40653}}, {"id": 145701, "name": "Prov\u00edncia da Lunda Sul", "country": "AO", "coord": {"lon": 20.624889, "lat": -10.25918}}, {"id": 876212, "name": "Locoquicha", "country": "AO", "coord": {"lon": 22.16667, "lat": -10.4}}, {"id": 899151, "name": "Sande", "country": "ZM", "coord": {"lon": 32.416672, "lat": -10.05}}, {"id": 176947, "name": "Kambwali", "country": "ZM", "coord": {"lon": 28.737801, "lat": -9.41681}}, {"id": 149590, "name": "United Republic of Tanzania", "country": "TZ", "coord": {"lon": 35, "lat": -6}}, {"id": 203312, "name": "Democratic Republic of the Congo", "country": "CD", "coord": {"lon": 25, "lat": 0}}, {"id": 155334, "name": "Magole", "country": "TZ", "coord": {"lon": 37.366669, "lat": -6.36667}}, {"id": 3665430, "name": "\u00c1guia", "country": "BR", "coord": {"lon": -69.433327, "lat": -6.5}}, {"id": 6606791, "name": "Sembang Ilon", "country": "ID", "coord": {"lon": 107.399437, "lat": -6.32139}}, {"id": 1990171, "name": "Nagreg", "country": "ID", "coord": {"lon": 106.335564, "lat": -6.17889}}, {"id": 1950702, "name": "Ketos Dua", "country": "ID", "coord": {"lon": 106.540001, "lat": -6.14694}}, {"id": 1959853, "name": "Pagedangan", "country": "ID", "coord": {"lon": 106.500282, "lat": -6.09111}}, {"id": 1959801, "name": "Kosambi Dalam", "country": "ID", "coord": {"lon": 106.402496, "lat": -6.085}}, {"id": 2243266, "name": "Prov\u00edncia de Cabinda", "country": "AO", "coord": {"lon": 12.40532, "lat": -4.93423}}, {"id": 2240354, "name": "Lucola", "country": "AO", "coord": {"lon": 12.25, "lat": -5.53333}}, {"id": 2310882, "name": "Yanga", "country": "CD", "coord": {"lon": 13.36667, "lat": -5.35}}, {"id": 1621900, "name": "Wasindoli", "country": "ID", "coord": {"lon": 122.366669, "lat": -5.3}}, {"id": 1638535, "name": "Provinsi Lampung", "country": "ID", "coord": {"lon": 105, "lat": -5}}, {"id": 7666931, "name": "Talangrebo", "country": "ID", "coord": {"lon": 105.095627, "lat": -5.16626}}, {"id": 3664502, "name": "Conc\u00f3rdia", "country": "BR", "coord": {"lon": -66.623611, "lat": -4.59611}}, {"id": 2314129, "name": "Kiteke", "country": "CD", "coord": {"lon": 17.049999, "lat": -4.55}}, {"id": 149595, "name": "Tanga Region", "country": "TZ", "coord": {"lon": 38.25, "lat": -5}}, {"id": 157695, "name": "Kigunga", "country": "TZ", "coord": {"lon": 38.200001, "lat": -4.51667}}, {"id": 2260494, "name": "Republic of the Congo", "country": "CG", "coord": {"lon": 15, "lat": -1}}, {"id": 192950, "name": "Republic of Kenya", "country": "KE", "coord": {"lon": 38, "lat": 1}}, {"id": 3656594, "name": "Hacienda Milagro", "country": "EC", "coord": {"lon": -79.533333, "lat": -2.06667}}, {"id": 3397843, "name": "Rio Iva\u00ed", "country": "BR", "coord": {"lon": -52.166672, "lat": -1.36667}}, {"id": 3650445, "name": "Provincia del Tungurahua", "country": "EC", "coord": {"lon": -78.5, "lat": -1.25}}, {"id": 3655400, "name": "Juivi", "country": "EC", "coord": {"lon": -78.400002, "lat": -1.38333}}, {"id": 3653392, "name": "Provincia del Pastaza", "country": "EC", "coord": {"lon": -77, "lat": -1.91667}}, {"id": 3650709, "name": "Teniente Hugo Ortiz", "country": "EC", "coord": {"lon": -77.949997, "lat": -1.4}}, {"id": 400742, "name": "Central Province", "country": "KE", "coord": {"lon": 37, "lat": -0.75}}, {"id": 197392, "name": "Gicheru", "country": "KE", "coord": {"lon": 36.54393, "lat": -1.19621}}, {"id": 1627629, "name": "Sepan", "country": "ID", "coord": {"lon": 116.599998, "lat": -1.16667}}, {"id": 226074, "name": "Republic of Uganda", "country": "UG", "coord": {"lon": 33, "lat": 2}}, {"id": 196740, "name": "Homa Lime Kowuor", "country": "KE", "coord": {"lon": 34.474751, "lat": -0.43091}}, {"id": 3651843, "name": "San Isidro", "country": "EC", "coord": {"lon": -80.183327, "lat": -0.36667}}, {"id": 194565, "name": "Kamweti", "country": "KE", "coord": {"lon": 37.316669, "lat": -0.33011}}, {"id": 3830305, "name": "Provincia de Sucumb\u00edos", "country": "EC", "coord": {"lon": -76.866669, "lat": 0.1}}, {"id": 3651588, "name": "San Pablo de Kantesiya", "country": "EC", "coord": {"lon": -76.433327, "lat": -0.25}}, {"id": 3650574, "name": "Toni Loma", "country": "EC", "coord": {"lon": -78.150002, "lat": -0.05}}, {"id": 448224, "name": "Wakiso District", "country": "UG", "coord": {"lon": 32.478359, "lat": 0.23763}}, {"id": 234882, "name": "Balabala", "country": "UG", "coord": {"lon": 32.283329, "lat": 0.03333}}, {"id": 3763372, "name": "San Jacinto", "country": "EC", "coord": {"lon": -76.557503, "lat": 0.05694}}, {"id": 179204, "name": "Timau", "country": "KE", "coord": {"lon": 37.241371, "lat": 0.08904}}, {"id": 215597, "name": "Kabasinze", "country": "CD", "coord": {"lon": 29.15, "lat": 0.08333}}, {"id": 188011, "name": "Malanga", "country": "KE", "coord": {"lon": 34.43528, "lat": 0.12194}}, {"id": 3655635, "name": "Provincia de Imbabura", "country": "EC", "coord": {"lon": -78.416672, "lat": 0.36667}}, {"id": 3655828, "name": "Hacienda Zuleta", "country": "EC", "coord": {"lon": -78.083328, "lat": 0.2}}, {"id": 219344, "name": "Batikayafi", "country": "CD", "coord": {"lon": 25.116671, "lat": 0.31667}}, {"id": 3662952, "name": "Parnaiuicava", "country": "BR", "coord": {"lon": -69.083328, "lat": 0.35}}, {"id": 443337, "name": "Kabarole District", "country": "UG", "coord": {"lon": 30.28816, "lat": 0.65454}}, {"id": 231163, "name": "Kiraboha", "country": "UG", "coord": {"lon": 30.183331, "lat": 0.41667}}, {"id": 3671178, "name": "Departamento del Putumayo", "country": "CO", "coord": {"lon": -76, "lat": 0.5}}, {"id": 6974754, "name": "El Mecaya", "country": "CO", "coord": {"lon": -75.186111, "lat": 0.47361}}, {"id": 3657986, "name": "Provincia de Esmeraldas", "country": "EC", "coord": {"lon": -79.25, "lat": 0.83333}}, {"id": 3652168, "name": "Sade", "country": "EC", "coord": {"lon": -79.366669, "lat": 0.51667}}, {"id": 1641897, "name": "Provinsi Kalimantan Timur", "country": "ID", "coord": {"lon": 116.5, "lat": 1.5}}, {"id": 3659718, "name": "Provincia del Carchi", "country": "EC", "coord": {"lon": -78.083328, "lat": 0.75}}, {"id": 3653210, "name": "Piedra del Medio", "country": "EC", "coord": {"lon": -78.5, "lat": 1.15}}, {"id": 3382998, "name": "Republic of Suriname", "country": "SR", "coord": {"lon": -56, "lat": 4}}, {"id": 8145527, "name": "Noabo", "country": "CD", "coord": {"lon": 27.39897, "lat": 2.45988}}, {"id": 1638054, "name": "Lembekayan", "country": "ID", "coord": {"lon": 117.099998, "lat": 2.68333}}, {"id": 1733043, "name": "Negeri Sembilan", "country": "MY", "coord": {"lon": 102.166672, "lat": 2.75}}, {"id": 1904214, "name": "Pelabuhan Kelang Utara", "country": "MY", "coord": {"lon": 101.42083, "lat": 3.07361}}, {"id": 2233387, "name": "Republic of Cameroon", "country": "CM", "coord": {"lon": 12, "lat": 6}}, {"id": 3769975, "name": "Puerto Chig\u00fciro", "country": "CO", "coord": {"lon": -73.343163, "lat": 4.03772}}, {"id": 239880, "name": "Central African Republic", "country": "CF", "coord": {"lon": 21, "lat": 7}}, {"id": 51537, "name": "Somalia", "country": "SO", "coord": {"lon": 48, "lat": 6}}, {"id": 2300660, "name": "Republic of Ghana", "country": "GH", "coord": {"lon": -2, "lat": 8}}, {"id": 337996, "name": "Federal Democratic Republic of Ethiopia", "country": "ET", "coord": {"lon": 38, "lat": 8}}, {"id": 3378535, "name": "Co-operative Republic of Guyana", "country": "GY", "coord": {"lon": -59, "lat": 5}}, {"id": 2363686, "name": "Togolese Republic", "country": "TG", "coord": {"lon": 1.16667, "lat": 8}}, {"id": 2395170, "name": "Republic of Benin", "country": "BJ", "coord": {"lon": 2.25, "lat": 9.5}}, {"id": 3703430, "name": "Republic of Panama", "country": "PA", "coord": {"lon": -80, "lat": 9}}, {"id": 2420477, "name": "Republic of Guinea", "country": "GN", "coord": {"lon": -10, "lat": 11}}, {"id": 3573591, "name": "Republic of Trinidad and Tobago", "country": "TT", "coord": {"lon": -61, "lat": 11}}, {"id": 3573650, "name": "Tabaquite", "country": "TT", "coord": {"lon": -61.299999, "lat": 10.38333}}, {"id": 3573804, "name": "Saint Andrew", "country": "TT", "coord": {"lon": -61.466671, "lat": 10.41667}}, {"id": 2293721, "name": "Yunyo", "country": "GH", "coord": {"lon": 0.0074, "lat": 10.47494}}, {"id": 2299872, "name": "Kalesesi", "country": "GH", "coord": {"lon": -1.05, "lat": 10.55}}, {"id": 3626655, "name": "Estado Sucre", "country": "VE", "coord": {"lon": -63.5, "lat": 10.41667}}, {"id": 3749457, "name": "Sampayo", "country": "VE", "coord": {"lon": -63.553761, "lat": 10.54663}}, {"id": 3574345, "name": "La Finette", "country": "TT", "coord": {"lon": -61.51667, "lat": 10.73333}}, {"id": 366755, "name": "Republic of the Sudan", "country": "SD", "coord": {"lon": 30, "lat": 16}}, {"id": 3617476, "name": "Republic of Nicaragua", "country": "NI", "coord": {"lon": -85, "lat": 13}}, {"id": 2372248, "name": "Republic of Guinea-Bissau", "country": "GW", "coord": {"lon": -15, "lat": 12}}, {"id": 2361809, "name": "Burkina Faso", "country": "BF", "coord": {"lon": -2, "lat": 13}}, {"id": 1831722, "name": "Kingdom of Cambodia", "country": "KH", "coord": {"lon": 105, "lat": 13}}, {"id": 338010, "name": "State of Eritrea", "country": "ER", "coord": {"lon": 39, "lat": 15}}, {"id": 69543, "name": "Republic of Yemen", "country": "YE", "coord": {"lon": 47.5, "lat": 15.5}}, {"id": 3608932, "name": "Republic of Honduras", "country": "HN", "coord": {"lon": -86.5, "lat": 15}}, {"id": 2440476, "name": "Republic of Niger", "country": "NE", "coord": {"lon": 8, "lat": 16}}, {"id": 3585968, "name": "Republic of El Salvador", "country": "SV", "coord": {"lon": -88.916672, "lat": 13.83333}}, {"id": 2245662, "name": "Republic of Senegal", "country": "SN", "coord": {"lon": -14, "lat": 14}}, {"id": 3570311, "name": "Martinique", "country": "MQ", "coord": {"lon": -61, "lat": 14.66667}}, {"id": 1617290, "name": "Ban Kut Khae Don", "country": "TH", "coord": {"lon": 104.433327, "lat": 16.299999}}, {"id": 408664, "name": "River Nile State", "country": "SD", "coord": {"lon": 33.200001, "lat": 19}}, {"id": 443868, "name": "El Ghadoora", "country": "SD", "coord": {"lon": 33.1394, "lat": 16.518}}, {"id": 1321850, "name": "Ayeyarwady Division", "country": "MM", "coord": {"lon": 95, "lat": 17}}, {"id": 1290920, "name": "Tingyaung", "country": "MM", "coord": {"lon": 94.449997, "lat": 16.383329}}, {"id": 1607724, "name": "Changwat Phichit", "country": "TH", "coord": {"lon": 100.416672, "lat": 16.25}}, {"id": 1599907, "name": "Ban Nong Sadao", "country": "TH", "coord": {"lon": 100.133331, "lat": 16.466669}}, {"id": 1607736, "name": "Changwat Phetchabun", "country": "TH", "coord": {"lon": 101.083328, "lat": 16.25}}, {"id": 1616495, "name": "Ban Na", "country": "TH", "coord": {"lon": 101.166672, "lat": 16.5}}, {"id": 1298822, "name": "Yangon Division", "country": "MM", "coord": {"lon": 96.166672, "lat": 17}}, {"id": 1482099, "name": "Chaungbo", "country": "MM", "coord": {"lon": 96.096939, "lat": 16.503889}}, {"id": 3591410, "name": "Departamento del Pet\u00e9n", "country": "GT", "coord": {"lon": -90, "lat": 16.83333}}, {"id": 3597887, "name": "Cristo Rey", "country": "GT", "coord": {"lon": -89.533333, "lat": 16.6}}, {"id": 1618918, "name": "Ban Huai Pun", "country": "TH", "coord": {"lon": 101.183327, "lat": 16.799999}}, {"id": 1616123, "name": "Ban Na Sam", "country": "TH", "coord": {"lon": 101.223534, "lat": 17.00271}}, {"id": 1606789, "name": "Changwat Sakon Nakhon", "country": "TH", "coord": {"lon": 103.833328, "lat": 17.33333}}, {"id": 7918493, "name": "Ban Bon", "country": "TH", "coord": {"lon": 104.073608, "lat": 17.08703}}, {"id": 1480737, "name": "Inkyangon", "country": "MM", "coord": {"lon": 96.30722, "lat": 17.191389}}, {"id": 1608530, "name": "Changwat Nakhon Phanom", "country": "TH", "coord": {"lon": 104.416672, "lat": 17.33333}}, {"id": 1597746, "name": "Ban Than Samai", "country": "TH", "coord": {"lon": 104.460442, "lat": 17.25131}}, {"id": 1278629, "name": "State of Andhra Pradesh", "country": "IN", "coord": {"lon": 79, "lat": 16}}, {"id": 1445294, "name": "Dosuw\u0101da", "country": "IN", "coord": {"lon": 78.257782, "lat": 17.266939}}, {"id": 286963, "name": "Sultanate of Oman", "country": "OM", "coord": {"lon": 57, "lat": 21}}, {"id": 8136536, "name": "Ban Thai Toei", "country": "TH", "coord": {"lon": 100.063889, "lat": 17.569719}}, {"id": 1601026, "name": "Ban Nam Phi", "country": "TH", "coord": {"lon": 100.288971, "lat": 17.55756}}, {"id": 1603424, "name": "Ban Huai Khom", "country": "TH", "coord": {"lon": 100.682968, "lat": 17.582359}}, {"id": 8136306, "name": "Ban Na Klam", "country": "TH", "coord": {"lon": 100.49556, "lat": 17.589531}}, {"id": 8136656, "name": "Ban Hua Dum", "country": "TH", "coord": {"lon": 100.025391, "lat": 17.592529}}, {"id": 8136670, "name": "Ban Phra Thaen", "country": "TH", "coord": {"lon": 100.049889, "lat": 17.59692}}, {"id": 8136559, "name": "Ban Khok Chang", "country": "TH", "coord": {"lon": 100.03611, "lat": 17.656639}}, {"id": 1150532, "name": "Changwat Sukhothai", "country": "TH", "coord": {"lon": 99.666672, "lat": 17.25}}, {"id": 1330822, "name": "Ban Nam Rai", "country": "TH", "coord": {"lon": 99.879723, "lat": 17.67}}, {"id": 8136647, "name": "Ban Wat Pa", "country": "TH", "coord": {"lon": 100.02961, "lat": 17.676559}}, {"id": 8136643, "name": "Ban Wang Yang", "country": "TH", "coord": {"lon": 100.223778, "lat": 17.670031}}, {"id": 1603254, "name": "Ban Huai Si Siat", "country": "TH", "coord": {"lon": 100.554832, "lat": 17.68939}}, {"id": 1603453, "name": "Ban Huai Hut", "country": "TH", "coord": {"lon": 100.63343, "lat": 17.69956}}, {"id": 1603521, "name": "Ban Hua Dong", "country": "TH", "coord": {"lon": 100.014717, "lat": 17.708281}}, {"id": 8136357, "name": "Ban Ruam Chit", "country": "TH", "coord": {"lon": 100.34758, "lat": 17.70989}}, {"id": 1597447, "name": "Ban Ton Kluea", "country": "TH", "coord": {"lon": 99.990173, "lat": 17.70994}}, {"id": 8136685, "name": "Ban Long Kham Pom", "country": "TH", "coord": {"lon": 100.069527, "lat": 17.730579}}, {"id": 8136354, "name": "Ban Huai Pop", "country": "TH", "coord": {"lon": 100.262863, "lat": 17.73033}}, {"id": 1608483, "name": "Nam Pat", "country": "TH", "coord": {"lon": 100.684334, "lat": 17.72806}}, {"id": 8136662, "name": "Ban Huai Tai", "country": "TH", "coord": {"lon": 100.012894, "lat": 17.72094}}, {"id": 8136363, "name": "Ban Hat Thung", "country": "TH", "coord": {"lon": 100.39389, "lat": 17.72583}}, {"id": 8136550, "name": "Ban Nam Long", "country": "TH", "coord": {"lon": 100.133698, "lat": 17.73292}}, {"id": 8181956, "name": "Ban Nam Man Tai", "country": "TH", "coord": {"lon": 100.303612, "lat": 17.75808}}, {"id": 1607551, "name": "Changwat Phrae", "country": "TH", "coord": {"lon": 100, "lat": 18.08333}}, {"id": 1155284, "name": "Ban Phae", "country": "TH", "coord": {"lon": 99.449997, "lat": 17.76667}}, {"id": 1601453, "name": "Ban Muang", "country": "TH", "coord": {"lon": 100.731003, "lat": 17.777361}}, {"id": 8136190, "name": "Ban Noen Suan", "country": "TH", "coord": {"lon": 100.376442, "lat": 17.7847}}, {"id": 8136189, "name": "Ban Noen Sung", "country": "TH", "coord": {"lon": 100.349281, "lat": 17.812}}, {"id": 1620025, "name": "Ban Den Lek", "country": "TH", "coord": {"lon": 100.783417, "lat": 17.8347}}, {"id": 8136781, "name": "Ban Doen", "country": "TH", "coord": {"lon": 100.82251, "lat": 17.889099}}, {"id": 1613268, "name": "Ban Siao", "country": "TH", "coord": {"lon": 100.823769, "lat": 17.904209}}, {"id": 1603437, "name": "Ban Huai Khai Khiat", "country": "TH", "coord": {"lon": 100.866562, "lat": 17.96917}}, {"id": 8136802, "name": "Ban Song Khon", "country": "TH", "coord": {"lon": 100.875198, "lat": 17.99378}}, {"id": 1603679, "name": "Ban Fak Tha", "country": "TH", "coord": {"lon": 100.883331, "lat": 18}}, {"id": 1950675, "name": "Ban Khok Nai", "country": "TH", "coord": {"lon": 101.067619, "lat": 18.01824}}, {"id": 1616593, "name": "Ban Muang Chet Ton", "country": "TH", "coord": {"lon": 101.126183, "lat": 18.08954}}, {"id": 1599062, "name": "Ban Phan Soeng", "country": "TH", "coord": {"lon": 100.216667, "lat": 18.08333}}, {"id": 1320233, "name": "Kayin State", "country": "MM", "coord": {"lon": 97.75, "lat": 17.5}}, {"id": 1315047, "name": "Lakawdo", "country": "MM", "coord": {"lon": 97.576942, "lat": 18.119169}}, {"id": 3508796, "name": "Dominican Republic", "country": "DO", "coord": {"lon": -70.666672, "lat": 19}}, {"id": 3512042, "name": "Provincia de Barahona", "country": "DO", "coord": {"lon": -71.25, "lat": 18.16667}}, {"id": 3499450, "name": "Los Amaceyes", "country": "DO", "coord": {"lon": -71.116669, "lat": 18.216669}}, {"id": 7521300, "name": "Cordillera Administrative Region", "country": "PH", "coord": {"lon": 121.033218, "lat": 17.085199}}, {"id": 7115731, "name": "Apayao", "country": "PH", "coord": {"lon": 121.179199, "lat": 18.03359}}, {"id": 1685153, "name": "Swan", "country": "PH", "coord": {"lon": 121.379097, "lat": 18.224199}}, {"id": 3510992, "name": "Caballero", "country": "DO", "coord": {"lon": -71.145683, "lat": 18.24118}}, {"id": 2597449, "name": "R\u00e9gion de Kidal", "country": "ML", "coord": {"lon": 1.08333, "lat": 19.91667}}, {"id": 2455290, "name": "Kidal", "country": "ML", "coord": {"lon": 1.40778, "lat": 18.441111}}, {"id": 3723988, "name": "Republic of Haiti", "country": "HT", "coord": {"lon": -72.416672, "lat": 19}}, {"id": 1153670, "name": "Chiang Mai Province", "country": "TH", "coord": {"lon": 99, "lat": 18.75}}, {"id": 3523272, "name": "Estado de M\u00e9xico", "country": "MX", "coord": {"lon": -99.5, "lat": 19.33333}}, {"id": 3515302, "name": "Toluca", "country": "MX", "coord": {"lon": -99.667221, "lat": 19.28833}}, {"id": 1607758, "name": "Changwat Phayao", "country": "TH", "coord": {"lon": 100.25, "lat": 19.25}}, {"id": 1619006, "name": "Ban Huai Chun", "country": "TH", "coord": {"lon": 100.166672, "lat": 19.299999}}, {"id": 3527646, "name": "Distrito Federal", "country": "MX", "coord": {"lon": -99.166672, "lat": 19.25}}, {"id": 3530139, "name": "Coyoacan", "country": "MX", "coord": {"lon": -99.160278, "lat": 19.32889}}, {"id": 408646, "name": "Red Sea State", "country": "SD", "coord": {"lon": 36, "lat": 20}}, {"id": 443909, "name": "Sal\u016bm", "country": "SD", "coord": {"lon": 37.110828, "lat": 19.389441}}, {"id": 1153668, "name": "Changwat Chiang Rai", "country": "TH", "coord": {"lon": 99.916672, "lat": 19.91667}}, {"id": 7505667, "name": "Ban San Ma Faen", "country": "TH", "coord": {"lon": 99.492081, "lat": 19.548389}}, {"id": 411737, "name": "Al Min\u0163aqah al Wus\u0163\u00e1", "country": "OM", "coord": {"lon": 56.283329, "lat": 19.950001}}, {"id": 287939, "name": "Hayma", "country": "OM", "coord": {"lon": 56.316669, "lat": 19.933331}}, {"id": 3496200, "name": "Provincia de Monte Cristi", "country": "DO", "coord": {"lon": -71.416672, "lat": 19.66667}}, {"id": 3494770, "name": "Piloto", "country": "DO", "coord": {"lon": -71.204803, "lat": 19.601049}}, {"id": 3494267, "name": "Provincia de Puerto Plata", "country": "DO", "coord": {"lon": -70.75, "lat": 19.75}}, {"id": 3493494, "name": "Sabana Grande", "country": "DO", "coord": {"lon": -70.67289, "lat": 19.766769}}, {"id": 1809054, "name": "Hainan Sheng", "country": "CN", "coord": {"lon": 109.599998, "lat": 19.200001}}, {"id": 1885397, "name": "Changliu", "country": "CN", "coord": {"lon": 110.200867, "lat": 20.013269}}, {"id": 3527115, "name": "Estado de Hidalgo", "country": "MX", "coord": {"lon": -99, "lat": 20.5}}, {"id": 2434508, "name": "Republic of Chad", "country": "TD", "coord": {"lon": 19, "lat": 15}}, {"id": 102358, "name": "Kingdom of Saudi Arabia", "country": "SA", "coord": {"lon": 45, "lat": 25}}, {"id": 104514, "name": "Min\u0163aqat Makkah", "country": "SA", "coord": {"lon": 41.333328, "lat": 20.66667}}, {"id": 411338, "name": "Al Mudawwarah", "country": "SA", "coord": {"lon": 39.962681, "lat": 21.271589}}, {"id": 101752, "name": "\u015eumaymah", "country": "SA", "coord": {"lon": 39.157711, "lat": 21.249649}}, {"id": 1278277, "name": "Asirgarh", "country": "IN", "coord": {"lon": 76.26667, "lat": 21.48333}}, {"id": 1261029, "name": "State of Odisha", "country": "IN", "coord": {"lon": 84.416672, "lat": 20.5}}, {"id": 1257073, "name": "S\u0101son", "country": "IN", "coord": {"lon": 84.050003, "lat": 21.549999}}, {"id": 1296119, "name": "Singun", "country": "MM", "coord": {"lon": 96.033333, "lat": 21.58333}}, {"id": 411739, "name": "Min\u0163aqat az\u0327 Z\u0327\u0101hirah", "country": "OM", "coord": {"lon": 56.585232, "lat": 22.93368}}, {"id": 289212, "name": "Al Jib\u0101l", "country": "OM", "coord": {"lon": 56.01619, "lat": 22.14431}}, {"id": 3544088, "name": "Provincia de Pinar del R\u00edo", "country": "CU", "coord": {"lon": -83.833328, "lat": 22.41667}}, {"id": 3547258, "name": "Media Luna", "country": "CU", "coord": {"lon": -83.383331, "lat": 22.26667}}, {"id": 409950, "name": "Ra\u1e11w\u0101n", "country": "SA", "coord": {"lon": 41.274559, "lat": 22.09037}}, {"id": 289415, "name": "Afl\u0101j", "country": "OM", "coord": {"lon": 58.213249, "lat": 22.383881}}, {"id": 3564120, "name": "Provincia de Cienfuegos", "country": "CU", "coord": {"lon": -80.5, "lat": 22.299999}}, {"id": 3539201, "name": "San Lino", "country": "CU", "coord": {"lon": -80.550003, "lat": 22.4}}, {"id": 3537511, "name": "Santa Juana", "country": "CU", "coord": {"lon": -83.583328, "lat": 22.4}}, {"id": 3979840, "name": "Estado de Zacatecas", "country": "MX", "coord": {"lon": -103, "lat": 23}}, {"id": 1807831, "name": "Houjie", "country": "CN", "coord": {"lon": 113.656151, "lat": 22.942659}}, {"id": 3542351, "name": "Residencial Porta", "country": "CU", "coord": {"lon": -82.349998, "lat": 23.01667}}, {"id": 288239, "name": "Ghubrat \u0162an\u016bf", "country": "OM", "coord": {"lon": 57.41153, "lat": 23.04838}}, {"id": 411720, "name": "Mu\u2018 askar \u2018Ibr\u012b", "country": "OM", "coord": {"lon": 56.434052, "lat": 23.195511}}, {"id": 287241, "name": "Mazra\u2018 Khu\u015fayyin", "country": "OM", "coord": {"lon": 58.14333, "lat": 23.37361}}, {"id": 290557, "name": "United Arab Emirates", "country": "AE", "coord": {"lon": 54, "lat": 24}}, {"id": 292969, "name": "Ab\u016b Z\u0327aby", "country": "AE", "coord": {"lon": 54, "lat": 23.66667}}, {"id": 290400, "name": "Z\u0327uwayhir", "country": "AE", "coord": {"lon": 53.200001, "lat": 23.283331}}, {"id": 2462879, "name": "El Aargub", "country": "EH", "coord": {"lon": -15.83472, "lat": 23.577551}}, {"id": 1210997, "name": "People\u2019s Republic of Bangladesh", "country": "BD", "coord": {"lon": 90, "lat": 24}}, {"id": 1310084, "name": "Mawnwe", "country": "MM", "coord": {"lon": 94.550003, "lat": 24.533331}}, {"id": 6640681, "name": "Gaoqiao", "country": "TW", "coord": {"lon": 121.178329, "lat": 24.56139}}, {"id": 1785694, "name": "Yunnan Sheng", "country": "CN", "coord": {"lon": 102, "lat": 25}}, {"id": 6824964, "name": "Hongmiao", "country": "CN", "coord": {"lon": 102.693314, "lat": 24.99333}}, {"id": 1676426, "name": "Guoxizi", "country": "TW", "coord": {"lon": 121.128304, "lat": 25.039129}}, {"id": 389469, "name": "Balad\u012byat ar Rayy\u0101n", "country": "QA", "coord": {"lon": 51.049999, "lat": 25.200001}}, {"id": 442553, "name": "Mukaynis", "country": "QA", "coord": {"lon": 51.21833, "lat": 25.121941}}, {"id": 2378080, "name": "Islamic Republic of Mauritania", "country": "MR", "coord": {"lon": -12, "lat": 20}}, {"id": 2375989, "name": "Wilaya du Tiris Zemmour", "country": "MR", "coord": {"lon": -9, "lat": 24}}, {"id": 2380975, "name": "B\u00eer Mogre\u00efn", "country": "MR", "coord": {"lon": -11.57928, "lat": 25.221251}}, {"id": 1304138, "name": "Ninglum", "country": "MM", "coord": {"lon": 97.23333, "lat": 25.216669}}, {"id": 1267826, "name": "Kar\u0101rkhera", "country": "IN", "coord": {"lon": 78.23333, "lat": 25.283331}}, {"id": 108190, "name": "Ash Shurayf", "country": "SA", "coord": {"lon": 39.282341, "lat": 25.707081}}, {"id": 290291, "name": "Kingdom of Bahrain", "country": "BH", "coord": {"lon": 50.5, "lat": 26}}, {"id": 2515271, "name": "Provincia de Las Palmas", "country": "ES", "coord": {"lon": -14.01306, "lat": 28.420389}}, {"id": 6360201, "name": "Valsequillo de Gran Canaria", "country": "ES", "coord": {"lon": -15.50631, "lat": 27.98262}}, {"id": 2510524, "name": "Tenteniguada", "country": "ES", "coord": {"lon": -15.52488, "lat": 27.98208}}, {"id": 357994, "name": "Arab Republic of Egypt", "country": "EG", "coord": {"lon": 30, "lat": 27}}, {"id": 360688, "name": "Mu\u1e29\u0101faz\u0327at al Miny\u0101", "country": "EG", "coord": {"lon": 30, "lat": 28.1}}, {"id": 432887, "name": "Al Amal (Nimrah Tham\u0101niyah)", "country": "EG", "coord": {"lon": 30.603649, "lat": 28.1054}}, {"id": 2493455, "name": "Wilaya d\u2019 Illizi", "country": "DZ", "coord": {"lon": 8.16667, "lat": 26.83333}}, {"id": 2503633, "name": "Bordj Omar Driss", "country": "DZ", "coord": {"lon": 6.81856, "lat": 28.120239}}, {"id": 2511173, "name": "Provincia de Santa Cruz de Tenerife", "country": "ES", "coord": {"lon": -17.33333, "lat": 28.16667}}, {"id": 6360647, "name": "Vilaflor", "country": "ES", "coord": {"lon": -16.64002, "lat": 28.155991}}, {"id": 2517958, "name": "Escalona", "country": "ES", "coord": {"lon": -16.670891, "lat": 28.11908}}, {"id": 6360621, "name": "Arico", "country": "ES", "coord": {"lon": -16.481939, "lat": 28.166309}}, {"id": 2512406, "name": "Poris de Abona", "country": "ES", "coord": {"lon": -16.43214, "lat": 28.150499}}, {"id": 6360619, "name": "Adeje", "country": "ES", "coord": {"lon": -16.74332, "lat": 28.126329}}, {"id": 6355126, "name": "Playa Paraiso", "country": "ES", "coord": {"lon": -16.77458, "lat": 28.121799}}, {"id": 2510589, "name": "Taucho", "country": "ES", "coord": {"lon": -16.716669, "lat": 28.15}}, {"id": 1164807, "name": "Sindh", "country": "PK", "coord": {"lon": 68.7696, "lat": 26.13456}}, {"id": 1418826, "name": "Sobd\u0101r Kh\u0101n Khosa", "country": "PK", "coord": {"lon": 68.291908, "lat": 28.16873}}, {"id": 1276201, "name": "Bhamora", "country": "IN", "coord": {"lon": 79.283333, "lat": 28.200001}}, {"id": 6360620, "name": "Arafo", "country": "ES", "coord": {"lon": -16.39889, "lat": 28.346291}}, {"id": 2521692, "name": "Arafo", "country": "ES", "coord": {"lon": -16.42244, "lat": 28.33971}}, {"id": 1275793, "name": "Bhundsi", "country": "IN", "coord": {"lon": 77.066673, "lat": 28.35}}, {"id": 6360626, "name": "Garachico", "country": "ES", "coord": {"lon": -16.761169, "lat": 28.36051}}, {"id": 2518435, "name": "El Guincho", "country": "ES", "coord": {"lon": -16.716669, "lat": 28.366671}}, {"id": 2515819, "name": "Partido Judicial de La Laguna", "country": "ES", "coord": {"lon": -16.366671, "lat": 28.466669}}, {"id": 2516912, "name": "Guamasa", "country": "ES", "coord": {"lon": -16.35, "lat": 28.48333}}, {"id": 285570, "name": "State of Kuwait", "country": "KW", "coord": {"lon": 47.75, "lat": 29.5}}, {"id": 387897, "name": "Al Wafrah", "country": "KW", "coord": {"lon": 48.053059, "lat": 28.554171}}, {"id": 361323, "name": "Mu\u1e29\u0101faz\u0327at al Fayy\u016bm", "country": "EG", "coord": {"lon": 30.5, "lat": 29.299999}}, {"id": 359416, "name": "B\u0101h\u0101", "country": "EG", "coord": {"lon": 31.012251, "lat": 29.139429}}, {"id": 285375, "name": "\u2018Ushaysh al Jahr\u0101\u2019", "country": "KW", "coord": {"lon": 47.663891, "lat": 29.31583}}, {"id": 6942029, "name": "Highway of Death", "country": "KW", "coord": {"lon": 47.651798, "lat": 29.384199}}, {"id": 1784764, "name": "Zhejiang Sheng", "country": "CN", "coord": {"lon": 120, "lat": 29}}, {"id": 1887115, "name": "Wantou", "country": "CN", "coord": {"lon": 121.550003, "lat": 29.897221}}, {"id": 2542007, "name": "Kingdom of Morocco", "country": "MA", "coord": {"lon": -5, "lat": 32}}, {"id": 2597554, "name": "R\u00e9gion de Souss-Massa-Dr\u00e2a", "country": "MA", "coord": {"lon": -7.5, "lat": 30.66667}}, {"id": 2560237, "name": "A\u00eft Bou Mezrag", "country": "MA", "coord": {"lon": -5.55, "lat": 30.18}}, {"id": 2527825, "name": "Ti n\u2019 Salah", "country": "MA", "coord": {"lon": -9.33218, "lat": 30.23579}}, {"id": 89341, "name": "Mu\u1e29\u0101faz\u0327at al Ba\u015frah", "country": "IQ", "coord": {"lon": 47.25, "lat": 30.33333}}, {"id": 98689, "name": "Ar Rumaylah", "country": "IQ", "coord": {"lon": 47.34972, "lat": 30.27417}}, {"id": 99536, "name": "Al Barjis\u012byah", "country": "IQ", "coord": {"lon": 47.566669, "lat": 30.35}}, {"id": 361056, "name": "Mu\u1e29\u0101faz\u0327at al Ism\u0101\u2018\u012bl\u012byah", "country": "EG", "coord": {"lon": 32.400002, "lat": 30.6}}, {"id": 349598, "name": "Sar\u0101biy\u016bm", "country": "EG", "coord": {"lon": 32.291111, "lat": 30.375561}}, {"id": 1167710, "name": "Punjab", "country": "PK", "coord": {"lon": 72.319763, "lat": 30.86017}}, {"id": 1382698, "name": "Chak Fourteen-Eight R", "country": "PK", "coord": {"lon": 72.158333, "lat": 30.45694}}, {"id": 361370, "name": "Mu\u1e29\u0101faz\u0327at al Bu\u1e29ayrah", "country": "EG", "coord": {"lon": 30.200001, "lat": 30.6}}, {"id": 408911, "name": "Al Wi\u1e29dah", "country": "EG", "coord": {"lon": 30.07633, "lat": 30.581699}}, {"id": 99032, "name": "Mu\u1e29\u0101faz\u0327at al Muthann\u00e1", "country": "IQ", "coord": {"lon": 45, "lat": 30.5}}, {"id": 95308, "name": "Jal\u012bb Shih\u0101b", "country": "IQ", "coord": {"lon": 46.183331, "lat": 30.41667}}, {"id": 5523967, "name": "Jeff Davis County", "country": "US", "coord": {"lon": -104.083801, "lat": 30.70015}}, {"id": 5521715, "name": "Fort Davis", "country": "US", "coord": {"lon": -103.89463, "lat": 30.588209}}, {"id": 1149361, "name": "Islamic Republic of Afghanistan", "country": "AF", "coord": {"lon": 66, "lat": 33}}, {"id": 1138335, "name": "Wil\u0101yat-e Kandah\u0101r", "country": "AF", "coord": {"lon": 65.75, "lat": 31}}, {"id": 1139813, "name": "It\u012b", "country": "AF", "coord": {"lon": 66.219498, "lat": 31.01062}}, {"id": 1140043, "name": "Wil\u0101yat-e Helmand", "country": "AF", "coord": {"lon": 64, "lat": 31}}, {"id": 1137047, "name": "Kh\u0101r\u0101 K\u016bh", "country": "AF", "coord": {"lon": 64.116669, "lat": 31.066669}}, {"id": 6874767, "name": "Dowlat\u0101b\u0101d", "country": "IR", "coord": {"lon": 52.411999, "lat": 31.1562}}, {"id": 1796231, "name": "Shanghai Shi", "country": "CN", "coord": {"lon": 121.466667, "lat": 31.23333}}, {"id": 7843569, "name": "Jiangnong", "country": "CN", "coord": {"lon": 121.55703, "lat": 31.219219}}, {"id": 1466891, "name": "\u1e28ow\u1e95 K\u00ealay", "country": "AF", "coord": {"lon": 65.553902, "lat": 31.41453}}, {"id": 1330650, "name": "Budduke", "country": "PK", "coord": {"lon": 74.181107, "lat": 31.32583}}, {"id": 1121789, "name": "Wak\u012bl Rustam K\u00ealay", "country": "AF", "coord": {"lon": 65.293861, "lat": 31.448641}}, {"id": 1425381, "name": "Chagh\u0101l\u0101n\u014d Ghun\u1e0f\u00eay", "country": "AF", "coord": {"lon": 64.427193, "lat": 31.56366}}, {"id": 1860112, "name": "Kanoya", "country": "JP", "coord": {"lon": 130.850006, "lat": 31.383329}}, {"id": 93540, "name": "Mu\u1e29\u0101faz\u0327at Mays\u0101n", "country": "IQ", "coord": {"lon": 47, "lat": 32}}, {"id": 6772182, "name": "\u1e28aw\u012bl\u012byah", "country": "IQ", "coord": {"lon": 47.02256, "lat": 31.49262}}, {"id": 1407167, "name": "Za\u2019far\u0101nza\u012b", "country": "AF", "coord": {"lon": 65.502968, "lat": 31.509991}}, {"id": 6254930, "name": "Palestine", "country": "PS", "coord": {"lon": 35.203289, "lat": 31.92157}}, {"id": 1121143, "name": "Wil\u0101yat-e Z\u0101bul", "country": "AF", "coord": {"lon": 67.25, "lat": 32.25}}, {"id": 1131256, "name": "Wil\u0101yat-e Pakt\u012bk\u0101", "country": "AF", "coord": {"lon": 68.75, "lat": 32.416672}}, {"id": 248816, "name": "Hashemite Kingdom of Jordan", "country": "JO", "coord": {"lon": 36, "lat": 31}}, {"id": 2464461, "name": "Tunisian Republic", "country": "TN", "coord": {"lon": 9, "lat": 34}}, {"id": 8010681, "name": "Santana", "country": "PT", "coord": {"lon": -16.90444, "lat": 32.796581}}, {"id": 8014041, "name": "Santana", "country": "PT", "coord": {"lon": -16.880501, "lat": 32.812401}}, {"id": 2263491, "name": "Santana", "country": "PT", "coord": {"lon": -16.883329, "lat": 32.799999}}, {"id": 1858419, "name": "Kumamoto-ken", "country": "JP", "coord": {"lon": 130.754303, "lat": 32.620491}}, {"id": 1853150, "name": "Sakanashi", "country": "JP", "coord": {"lon": 131.133331, "lat": 32.933331}}, {"id": 1857357, "name": "Mie", "country": "JP", "coord": {"lon": 131.583328, "lat": 32.966671}}, {"id": 1141268, "name": "Wil\u0101yat-e Ghazn\u012b", "country": "AF", "coord": {"lon": 67.75, "lat": 33.333328}}, {"id": 1148138, "name": "A\u1e6fak", "country": "AF", "coord": {"lon": 67.994499, "lat": 33.007542}}, {"id": 1851937, "name": "Shirahama", "country": "JP", "coord": {"lon": 129.733337, "lat": 33.01667}}, {"id": 1138464, "name": "Kamah Jarkanah", "country": "AF", "coord": {"lon": 68.506393, "lat": 33.065559}}, {"id": 98180, "name": "Mu\u1e29\u0101faz\u0327at Baghd\u0101d", "country": "IQ", "coord": {"lon": 44.25, "lat": 33.133331}}, {"id": 99914, "name": "Ab\u016b Mu\u1e29ammad", "country": "IQ", "coord": {"lon": 44.116669, "lat": 33.166672}}, {"id": 92628, "name": "Qal\u2018at as S\u0101dah", "country": "IQ", "coord": {"lon": 44.157219, "lat": 33.161388}}, {"id": 1862732, "name": "Higashi-suminoe", "country": "JP", "coord": {"lon": 130.199997, "lat": 33.200001}}, {"id": 99592, "name": "Mu\u1e29\u0101faz\u0327at al Anb\u0101r", "country": "IQ", "coord": {"lon": 41.75, "lat": 33}}, {"id": 435805, "name": "Qaryat al \u2018Ank\u016br", "country": "IQ", "coord": {"lon": 43.42918, "lat": 33.220909}}, {"id": 448779, "name": "Qaryat al Majarrah", "country": "IQ", "coord": {"lon": 43.510658, "lat": 33.198212}}, {"id": 1146706, "name": "B\u0101zak", "country": "AF", "coord": {"lon": 69.254082, "lat": 33.20808}}, {"id": 1444362, "name": "Vel\u0101yat-e Khowst", "country": "AF", "coord": {"lon": 69.883331, "lat": 33.383331}}, {"id": 1120713, "name": "Zindah Tiz\u0332h\u0332ah", "country": "AF", "coord": {"lon": 69.553886, "lat": 33.233059}}, {"id": 1140025, "name": "Wil\u0101yat-e Her\u0101t", "country": "AF", "coord": {"lon": 62, "lat": 34.5}}, {"id": 1863385, "name": "Hainuzuka", "country": "JP", "coord": {"lon": 130.5, "lat": 33.200001}}, {"id": 5303754, "name": "Maricopa County", "country": "US", "coord": {"lon": -112.500717, "lat": 33.500038}}, {"id": 4439115, "name": "Noxubee County", "country": "US", "coord": {"lon": -88.555878, "lat": 33.129009}}, {"id": 6798467, "name": "Saw\u1e29 al Ghawr", "country": "IQ", "coord": {"lon": 43.10643, "lat": 33.19656}}, {"id": 4434357, "name": "Lowndes County", "country": "US", "coord": {"lon": -88.401711, "lat": 33.517059}}, {"id": 4437979, "name": "Nashville (historical)", "country": "US", "coord": {"lon": -88.323647, "lat": 33.326511}}, {"id": 2542710, "name": "R\u00e9gion de Mekn\u00e8s-Tafilalet", "country": "MA", "coord": {"lon": -5, "lat": 32.583328}}, {"id": 2554988, "name": "Bou Dra", "country": "MA", "coord": {"lon": -5.03785, "lat": 33.259022}}, {"id": 96269, "name": "\u2018Arab \u1e28asan as Suhayl", "country": "IQ", "coord": {"lon": 44.15752, "lat": 33.32304}}, {"id": 5301242, "name": "Komatke", "country": "US", "coord": {"lon": -112.17543, "lat": 33.293381}}, {"id": 4597040, "name": "South Carolina", "country": "US", "coord": {"lon": -81.000092, "lat": 34.000431}}, {"id": 4570707, "name": "Berkeley County", "country": "US", "coord": {"lon": -79.949799, "lat": 33.183498}}, {"id": 4575982, "name": "Cross Cross Roads", "country": "US", "coord": {"lon": -80.142593, "lat": 33.344608}}, {"id": 4742676, "name": "Wise County", "country": "US", "coord": {"lon": -97.666969, "lat": 33.200119}}, {"id": 4695096, "name": "Greenwood", "country": "US", "coord": {"lon": -97.474472, "lat": 33.380951}}, {"id": 5525637, "name": "Lynn County", "country": "US", "coord": {"lon": -101.833771, "lat": 33.166759}}, {"id": 2597548, "name": "R\u00e9gion de Chaouia-Ouardigha", "country": "MA", "coord": {"lon": -7.16667, "lat": 33}}, {"id": 2536792, "name": "Sidi Ahmed el Rhandour", "country": "MA", "coord": {"lon": -7.23519, "lat": 33.366421}}, {"id": 1131257, "name": "Wil\u0101yat-e Paktiy\u0101", "country": "AF", "coord": {"lon": 69.333328, "lat": 33.666672}}, {"id": 2529665, "name": "Tarmilet", "country": "MA", "coord": {"lon": -6.1078, "lat": 33.386829}}, {"id": 4099753, "name": "Arkansas", "country": "US", "coord": {"lon": -92.500443, "lat": 34.75037}}, {"id": 4719006, "name": "Pilot Grove", "country": "US", "coord": {"lon": -96.424713, "lat": 33.437889}}, {"id": 1898149, "name": "Mirukashi", "country": "JP", "coord": {"lon": 129.938324, "lat": 33.438332}}, {"id": 96215, "name": "\u1e28\u0101jj Sall\u016bm", "country": "IQ", "coord": {"lon": 44.349171, "lat": 33.455349}}, {"id": 2491188, "name": "Wilaya de Laghouat", "country": "DZ", "coord": {"lon": 2.66667, "lat": 33.583328}}, {"id": 2498071, "name": "El Haouita", "country": "DZ", "coord": {"lon": 2.44905, "lat": 33.646671}}, {"id": 6759153, "name": "\u2018Ayn al Arnab", "country": "IQ", "coord": {"lon": 42.462509, "lat": 33.605831}}, {"id": 1862633, "name": "Hikosan", "country": "JP", "coord": {"lon": 130.899994, "lat": 33.48333}}, {"id": 5332921, "name": "California", "country": "US", "coord": {"lon": -119.751259, "lat": 37.250221}}, {"id": 5387890, "name": "Riverside County", "country": "US", "coord": {"lon": -116.050827, "lat": 33.733349}}, {"id": 5363892, "name": "La Cresta Highlands", "country": "US", "coord": {"lon": -117.346153, "lat": 33.5228}}, {"id": 4681782, "name": "Clay County", "country": "US", "coord": {"lon": -98.216988, "lat": 33.766769}}, {"id": 4728096, "name": "Shannon", "country": "US", "coord": {"lon": -98.258942, "lat": 33.473999}}, {"id": 6822147, "name": "Kasuga", "country": "JP", "coord": {"lon": 130.48703, "lat": 33.526112}}, {"id": 1852195, "name": "Shimo-shir\u014dzu", "country": "JP", "coord": {"lon": 130.433334, "lat": 33.51667}}, {"id": 1864572, "name": "Chikushino-shi", "country": "JP", "coord": {"lon": 130.515594, "lat": 33.496311}}, {"id": 5387307, "name": "Ribbonwood", "country": "US", "coord": {"lon": -116.498901, "lat": 33.570309}}, {"id": 4675805, "name": "Bowie County", "country": "US", "coord": {"lon": -94.433533, "lat": 33.450119}}, {"id": 4743093, "name": "Woodstock", "country": "US", "coord": {"lon": -94.462982, "lat": 33.55817}}, {"id": 1136938, "name": "Kharoti", "country": "AF", "coord": {"lon": 69.032967, "lat": 33.54871}}, {"id": 1148914, "name": "\u2018Al\u012b Mu\u1e29ammad Kh\u0113l", "country": "AF", "coord": {"lon": 69.418037, "lat": 33.518311}}, {"id": 1849299, "name": "Umi", "country": "JP", "coord": {"lon": 130.5, "lat": 33.566669}}, {"id": 6806015, "name": "\u2018Abd Sha\u1e29\u1e29\u0101dh M\u016bs\u00e1", "country": "IQ", "coord": {"lon": 44.219349, "lat": 33.574348}}, {"id": 418862, "name": "Ost\u0101n-e E\u015ffah\u0101n", "country": "IR", "coord": {"lon": 52.166672, "lat": 33}}, {"id": 4210114, "name": "Morgan County", "country": "US", "coord": {"lon": -83.383217, "lat": 33.583462}}, {"id": 4117436, "name": "Killin", "country": "US", "coord": {"lon": -91.741241, "lat": 33.612331}}, {"id": 1848087, "name": "Yukuhashi", "country": "JP", "coord": {"lon": 130.983002, "lat": 33.728729}}, {"id": 1855973, "name": "Naka-g\u014dchi", "country": "JP", "coord": {"lon": 131.333328, "lat": 34.01667}}, {"id": 1168873, "name": "Khyber Pakhtunkhwa Province", "country": "PK", "coord": {"lon": 72.502373, "lat": 34.45993}}, {"id": 7041388, "name": "Sard\u0101r Colony", "country": "PK", "coord": {"lon": 71.579803, "lat": 34.035702}}, {"id": 4130562, "name": "Sevier County", "country": "US", "coord": {"lon": -94.250481, "lat": 33.983452}}, {"id": 4568959, "name": "Abbeville County", "country": "US", "coord": {"lon": -82.466522, "lat": 34.233452}}, {"id": 4574333, "name": "Charleston Crossroads", "country": "US", "coord": {"lon": -82.483742, "lat": 34.08123}}, {"id": 5475934, "name": "Lincoln County", "country": "US", "coord": {"lon": -105.251106, "lat": 34.250629}}, {"id": 5493952, "name": "Tecolote", "country": "US", "coord": {"lon": -105.663322, "lat": 34.017849}}, {"id": 1130419, "name": "Pusht K\u014dh", "country": "AF", "coord": {"lon": 62.13467, "lat": 34.10582}}, {"id": 1132366, "name": "Wil\u0101yat-e Nangarh\u0101r", "country": "AF", "coord": {"lon": 70.416672, "lat": 34.333328}}, {"id": 1144882, "name": "Ts\u014db\u012b", "country": "AF", "coord": {"lon": 71.027199, "lat": 34.068729}}, {"id": 1858486, "name": "Kuga", "country": "JP", "coord": {"lon": 132.083328, "lat": 34.083328}}, {"id": 4544379, "name": "Oklahoma", "country": "US", "coord": {"lon": -97.503281, "lat": 35.492088}}, {"id": 4541812, "name": "Love County", "country": "US", "coord": {"lon": -97.233627, "lat": 33.9501}}, {"id": 4539119, "name": "Hoxbar", "country": "US", "coord": {"lon": -97.039177, "lat": 34.07093}}, {"id": 5405889, "name": "Ventura County", "country": "US", "coord": {"lon": -119.017601, "lat": 34.46666}}, {"id": 5401954, "name": "The Colony Mobile Home Park", "country": "US", "coord": {"lon": -119.138718, "lat": 34.16362}}, {"id": 5295877, "name": "Gila County", "country": "US", "coord": {"lon": -110.517326, "lat": 33.51672}}, {"id": 2597557, "name": "R\u00e9gion de Taza-Al Hoceima-Taounate", "country": "MA", "coord": {"lon": -4.16667, "lat": 34.5}}, {"id": 2538396, "name": "Ras el Oued", "country": "MA", "coord": {"lon": -4, "lat": 34.150002}}, {"id": 2597550, "name": "R\u00e9gion de Gharb-Chrarda-Beni Hssen", "country": "MA", "coord": {"lon": -6, "lat": 34.5}}, {"id": 6928117, "name": "Al Qaryat al \u2018A\u015fir\u012byah", "country": "IQ", "coord": {"lon": 45.101299, "lat": 34.139439}}, {"id": 4741797, "name": "Wilbarger County", "country": "US", "coord": {"lon": -99.267021, "lat": 34.06675}}, {"id": 4716202, "name": "Oklaunion", "country": "US", "coord": {"lon": -99.142853, "lat": 34.129532}}, {"id": 5306233, "name": "Navajo County", "country": "US", "coord": {"lon": -110.813187, "lat": 36.9375}}, {"id": 5301442, "name": "Lake of the Woods", "country": "US", "coord": {"lon": -109.989548, "lat": 34.163929}}, {"id": 1473427, "name": "\u0100sm\u0101n B\u0101n\u1e0fah", "country": "AF", "coord": {"lon": 70.091843, "lat": 34.162819}}, {"id": 6763613, "name": "Q\u016br al Asl\u0101f", "country": "IQ", "coord": {"lon": 41.305698, "lat": 34.217659}}, {"id": 5391726, "name": "San Bernardino County", "country": "US", "coord": {"lon": -116.167511, "lat": 34.66666}}, {"id": 5355463, "name": "Harmony Acres", "country": "US", "coord": {"lon": -116.109451, "lat": 34.143608}}, {"id": 1460441, "name": "Regak", "country": "AF", "coord": {"lon": 67.503891, "lat": 34.16972}}, {"id": 132142, "name": "Ost\u0101n-e Hamad\u0101n", "country": "IR", "coord": {"lon": 48.583328, "lat": 34.833328}}, {"id": 140082, "name": "Borjak", "country": "IR", "coord": {"lon": 48.470081, "lat": 34.174278}}, {"id": 5488372, "name": "Roosevelt County", "country": "US", "coord": {"lon": -103.450508, "lat": 33.966751}}, {"id": 5457268, "name": "Bethel", "country": "US", "coord": {"lon": -103.474678, "lat": 34.228691}}, {"id": 1858667, "name": "Kotohira", "country": "JP", "coord": {"lon": 133.816666, "lat": 34.183331}}, {"id": 6201375, "name": "Ost\u0101n-e Khor\u0101s\u0101n-e Ra\u1e95av\u012b", "country": "IR", "coord": {"lon": 59, "lat": 35.25}}, {"id": 5399922, "name": "Sun Valley", "country": "US", "coord": {"lon": -118.370361, "lat": 34.217499}}, {"id": 1147239, "name": "Wil\u0101yat-e B\u0101my\u0101n", "country": "AF", "coord": {"lon": 67.25, "lat": 34.75}}, {"id": 1121863, "name": "Wil\u0101yat-e Wardak", "country": "AF", "coord": {"lon": 68, "lat": 34.25}}, {"id": 1130704, "name": "Pa\u012bwand", "country": "AF", "coord": {"lon": 68.503326, "lat": 34.227219}}, {"id": 4529605, "name": "Atoka County", "country": "US", "coord": {"lon": -96.01693, "lat": 34.400089}}, {"id": 4530363, "name": "Bentley", "country": "US", "coord": {"lon": -96.07888, "lat": 34.214821}}, {"id": 163843, "name": "Syrian Arab Republic", "country": "SY", "coord": {"lon": 38, "lat": 35}}, {"id": 6957553, "name": "Wil\u0101yat-e D\u0101ykund\u012b", "country": "AF", "coord": {"lon": 66.25, "lat": 33.75}}, {"id": 1456506, "name": "Siy\u0101h Kharak-e W\u0101tarmah", "country": "AF", "coord": {"lon": 66.172211, "lat": 34.292488}}, {"id": 91823, "name": "Sa\u2018d All\u0101h Afand\u012b", "country": "IQ", "coord": {"lon": 45.333328, "lat": 34.316669}}, {"id": 1859914, "name": "Kashiwano", "country": "JP", "coord": {"lon": 136.399994, "lat": 34.316669}}, {"id": 1134561, "name": "Wil\u0101yat-e L\u014dgar", "country": "AF", "coord": {"lon": 69.25, "lat": 34}}, {"id": 1131173, "name": "Panamay", "country": "AF", "coord": {"lon": 69.010277, "lat": 34.29583}}, {"id": 1131965, "name": "N\u0101z\u0327ir Kal\u0101", "country": "AF", "coord": {"lon": 69.098892, "lat": 34.30444}}, {"id": 5301232, "name": "Kohls Ranch", "country": "US", "coord": {"lon": -111.094299, "lat": 34.32531}}, {"id": 1459084, "name": "Khal\u012bl Murdah", "country": "AF", "coord": {"lon": 68.044724, "lat": 34.327499}}, {"id": 1457199, "name": "\u0100kh\u016bndz\u0101dah Kh\u0113l", "country": "AF", "coord": {"lon": 68.584442, "lat": 34.352501}}, {"id": 1851426, "name": "Sumoto", "country": "JP", "coord": {"lon": 134.899994, "lat": 34.349998}}, {"id": 1861049, "name": "Jigozen", "country": "JP", "coord": {"lon": 132.316666, "lat": 34.333328}}, {"id": 1853904, "name": "\u014csaka-fu", "country": "JP", "coord": {"lon": 135.519684, "lat": 34.68631}}, {"id": 1854255, "name": "\u014c-kubo", "country": "JP", "coord": {"lon": 135.350006, "lat": 34.400002}}, {"id": 5464151, "name": "Curry County", "country": "US", "coord": {"lon": -103.251892, "lat": 34.952839}}, {"id": 5470124, "name": "Grier", "country": "US", "coord": {"lon": -103.398567, "lat": 34.410629}}, {"id": 1129844, "name": "Qal\u0101t-e Q\u0101\u1e95\u012b", "country": "AF", "coord": {"lon": 61.41721, "lat": 34.440552}}, {"id": 443794, "name": "Ost\u0101n-e Qom", "country": "IR", "coord": {"lon": 51, "lat": 34.75}}, {"id": 403714, "name": "Khorram\u0101b\u0101d", "country": "IR", "coord": {"lon": 50.537701, "lat": 34.4161}}, {"id": 5494881, "name": "Torrance County", "country": "US", "coord": {"lon": -105.81723, "lat": 34.6334}}, {"id": 5490606, "name": "Scholle", "country": "US", "coord": {"lon": -106.416679, "lat": 34.427559}}, {"id": 1146910, "name": "Bar Kak\u1e5fak", "country": "AF", "coord": {"lon": 70.107224, "lat": 34.376549}}, {"id": 1857334, "name": "Mihara", "country": "JP", "coord": {"lon": 133.083328, "lat": 34.400002}}, {"id": 1862782, "name": "Higashimachi", "country": "JP", "coord": {"lon": 133.083328, "lat": 34.400002}}, {"id": 2500013, "name": "Wilaya de Djelfa", "country": "DZ", "coord": {"lon": 3.66667, "lat": 34.333328}}, {"id": 2491340, "name": "Ksar Ahmera", "country": "DZ", "coord": {"lon": 3.14012, "lat": 34.370159}}, {"id": 91695, "name": "Muhafazat Salah ad Din", "country": "IQ", "coord": {"lon": 43.650002, "lat": 34.5}}, {"id": 6871491, "name": "Ma\u1e29m\u016bd \u2018Al\u012b", "country": "IQ", "coord": {"lon": 43.33181, "lat": 34.400398}}, {"id": 4058479, "name": "DeKalb County", "country": "US", "coord": {"lon": -85.783302, "lat": 34.450089}}, {"id": 4093194, "name": "Ten Broeck", "country": "US", "coord": {"lon": -85.986923, "lat": 34.41787}}, {"id": 5321860, "name": "Yavapai County", "country": "US", "coord": {"lon": -112.375717, "lat": 34.508362}}, {"id": 4585582, "name": "Lockhart Oil Field", "country": "US", "coord": {"lon": -80.534523, "lat": 34.423489}}, {"id": 1123410, "name": "Tag\u0101b-e M\u0101\u2019\u012bch", "country": "AF", "coord": {"lon": 63.271191, "lat": 34.479198}}, {"id": 4116433, "name": "Jefferson County", "country": "US", "coord": {"lon": -91.900139, "lat": 34.233429}}, {"id": 4127994, "name": "Red Bluff (historical)", "country": "US", "coord": {"lon": -92.150146, "lat": 34.481209}}, {"id": 1848409, "name": "Yobimatsu", "country": "JP", "coord": {"lon": 133.766663, "lat": 34.5}}, {"id": 4074736, "name": "Marshall County", "country": "US", "coord": {"lon": -86.333321, "lat": 34.383419}}, {"id": 4070512, "name": "Keel (historical)", "country": "US", "coord": {"lon": -86.307762, "lat": 34.51675}}, {"id": 4207132, "name": "Lumpkin County", "country": "US", "coord": {"lon": -84.016579, "lat": 34.566761}}, {"id": 4190542, "name": "Dahlonega", "country": "US", "coord": {"lon": -83.984909, "lat": 34.532589}}, {"id": 1352874, "name": "Shamshai", "country": "PK", "coord": {"lon": 71.056488, "lat": 34.50666}}, {"id": 1138957, "name": "Wil\u0101yat-e K\u0101bul", "country": "AF", "coord": {"lon": 69.416672, "lat": 34.5}}, {"id": 1146081, "name": "Butkh\u0101k", "country": "AF", "coord": {"lon": 69.3591, "lat": 34.50111}}, {"id": 1850034, "name": "Tondabayashi", "country": "JP", "coord": {"lon": 135.600006, "lat": 34.5}}, {"id": 1141103, "name": "Wil\u0101yat-e Gh\u014dr", "country": "AF", "coord": {"lon": 65, "lat": 34}}, {"id": 5470197, "name": "Guadalupe County", "country": "US", "coord": {"lon": -105.251122, "lat": 35.12561}}, {"id": 2481001, "name": "Wilaya de Sidi Bel Abb\u00e8s", "country": "DZ", "coord": {"lon": -0.5, "lat": 34.833328}}, {"id": 2490138, "name": "Marhoum", "country": "DZ", "coord": {"lon": -0.19465, "lat": 34.446751}}, {"id": 6752102, "name": "Qaryat as S\u0101dah", "country": "IQ", "coord": {"lon": 44.295872, "lat": 34.559769}}, {"id": 1454033, "name": "Kalayi-Daulat", "country": "AF", "coord": {"lon": 69.180573, "lat": 34.581692}}, {"id": 1349962, "name": "Khw\u0101jah-Bughr\u0101", "country": "AF", "coord": {"lon": 69.160233, "lat": 34.582939}}, {"id": 1135022, "name": "Wil\u0101yat-e Laghm\u0101n", "country": "AF", "coord": {"lon": 70.183327, "lat": 34.783329}}, {"id": 1474601, "name": "Kandah", "country": "AF", "coord": {"lon": 70.213509, "lat": 34.572929}}, {"id": 5322400, "name": "Adelanto", "country": "US", "coord": {"lon": -117.409218, "lat": 34.582771}}, {"id": 4574531, "name": "Chester County", "country": "US", "coord": {"lon": -81.133141, "lat": 34.683472}}, {"id": 4593538, "name": "Rossville", "country": "US", "coord": {"lon": -80.992577, "lat": 34.603481}}, {"id": 1861797, "name": "Ikeda", "country": "JP", "coord": {"lon": 137.816666, "lat": 34.73333}}, {"id": 1857213, "name": "Minagi", "country": "JP", "coord": {"lon": 133.649994, "lat": 34.716671}}, {"id": 7302982, "name": "\u5fa1\u5f71", "country": "JP", "coord": {"lon": 135.252426, "lat": 34.724258}}, {"id": 1860293, "name": "Kanagawa", "country": "JP", "coord": {"lon": 133.933334, "lat": 34.799999}}, {"id": 1861036, "name": "Jinai", "country": "JP", "coord": {"lon": 135.533325, "lat": 34.783329}}, {"id": 1855566, "name": "Nashizukuri", "country": "JP", "coord": {"lon": 135.666672, "lat": 34.783329}}, {"id": 1863516, "name": "Goyuch\u014d", "country": "JP", "coord": {"lon": 137.316666, "lat": 34.833328}}, {"id": 1855756, "name": "Nakatsu", "country": "JP", "coord": {"lon": 137.716675, "lat": 34.799999}}, {"id": 1848899, "name": "Warabo", "country": "JP", "coord": {"lon": 139, "lat": 34.916672}}, {"id": 2113014, "name": "Chiba-ken", "country": "JP", "coord": {"lon": 140.123337, "lat": 35.605061}}, {"id": 1855512, "name": "Nemoto", "country": "JP", "coord": {"lon": 139.833328, "lat": 34.900002}}, {"id": 1862292, "name": "H\u014dj\u014d", "country": "JP", "coord": {"lon": 134.833328, "lat": 34.933331}}, {"id": 1851717, "name": "Shizuoka-shi", "country": "JP", "coord": {"lon": 138.383057, "lat": 34.97694}}, {"id": 1851114, "name": "Takaj\u014dmachi", "country": "JP", "coord": {"lon": 138.383331, "lat": 34.966671}}, {"id": 1851632, "name": "Shuzenji", "country": "JP", "coord": {"lon": 138.933334, "lat": 34.966671}}, {"id": 1855416, "name": "Niimi", "country": "JP", "coord": {"lon": 133.466675, "lat": 34.98333}}, {"id": 1855947, "name": "Nakai", "country": "JP", "coord": {"lon": 134.533325, "lat": 34.98333}}, {"id": 1865404, "name": "Akuchi", "country": "JP", "coord": {"lon": 133.633331, "lat": 35.01667}}, {"id": 4482348, "name": "North Carolina", "country": "US", "coord": {"lon": -80.00032, "lat": 35.50069}}, {"id": 4452708, "name": "Anson County", "country": "US", "coord": {"lon": -80.099777, "lat": 34.98349}}, {"id": 4485528, "name": "Pinkston", "country": "US", "coord": {"lon": -80.078392, "lat": 35.016258}}, {"id": 1135702, "name": "Wil\u0101yat-e Kuna\u1e5f", "country": "AF", "coord": {"lon": 71.133331, "lat": 34.950001}}, {"id": 1424092, "name": "Hil\u0101lz\u014d K\u00ealay", "country": "AF", "coord": {"lon": 71.263046, "lat": 35.00631}}, {"id": 5457180, "name": "Bernalillo County", "country": "US", "coord": {"lon": -106.667252, "lat": 35.050049}}, {"id": 5460986, "name": "Cedro", "country": "US", "coord": {"lon": -106.353638, "lat": 35.02227}}, {"id": 1854762, "name": "\u014cdaka", "country": "JP", "coord": {"lon": 136.933334, "lat": 35.066669}}, {"id": 1131054, "name": "Wil\u0101yat-e Parw\u0101n", "country": "AF", "coord": {"lon": 68.916672, "lat": 35}}, {"id": 1423348, "name": "M\u012br \u2018Al\u0101", "country": "AF", "coord": {"lon": 69.168083, "lat": 35.05928}}, {"id": 5474813, "name": "La Cuesta", "country": "US", "coord": {"lon": -106.506973, "lat": 35.078381}}, {"id": 2597553, "name": "R\u00e9gion de l\u2019 Oriental", "country": "MA", "coord": {"lon": -2.5, "lat": 33.666672}}, {"id": 2546536, "name": "Ijertsal", "country": "MA", "coord": {"lon": -2.48701, "lat": 35.092892}},