[{"id": 6358435, "name": "Valle de Bardaj\u00ed", "country": "ES", "coord": {"lon": 0.46714, "lat": 42.42733}}, {"id": 3980621, "name": "Valle de Bravo", "country": "MX", "coord": {"lon": -100.133331, "lat": 19.183331}}, {"id": 6360128, "name": "Valle de Cerrato", "country": "ES", "coord": {"lon": -4.35287, "lat": 41.901569}}, {"id": 3106591, "name": "Valle de Cerrato", "country": "ES", "coord": {"lon": -4.36243, "lat": 41.88044}}, {"id": 3980617, "name": "Valle de Guadalupe", "country": "MX", "coord": {"lon": -102.616669, "lat": 21}}, {"id": 3625519, "name": "Valle de Guanape", "country": "VE", "coord": {"lon": -65.674049, "lat": 9.90999}}, {"id": 6358447, "name": "Valle de Hecho", "country": "ES", "coord": {"lon": -0.73055, "lat": 42.719372}}, {"id": 3980627, "name": "Valle de Ignacio Allende", "country": "MX", "coord": {"lon": -105.400002, "lat": 26.933331}}, {"id": 3980614, "name": "Valle de Juarez", "country": "MX", "coord": {"lon": -102.933327, "lat": 19.933331}}, {"id": 3625515, "name": "Valle de La Pascua", "country": "VE", "coord": {"lon": -66.007339, "lat": 9.21554}}, {"id": 6356697, "name": "Valle de Losa", "country": "ES", "coord": {"lon": -3.21234, "lat": 42.991531}}, {"id": 6356012, "name": "Valle de Matamoros", "country": "ES", "coord": {"lon": -6.7966, "lat": 38.385948}}, {"id": 2509894, "name": "Valle de Matamoros", "country": "ES", "coord": {"lon": -6.80371, "lat": 38.378891}}, {"id": 6356636, "name": "Valle de Mena", "country": "ES", "coord": {"lon": -3.24417, "lat": 43.111118}}, {"id": 3666311, "name": "Valle de San Jose", "country": "CO", "coord": {"lon": -73.143608, "lat": 6.4475}}, {"id": 4568518, "name": "Valle de San Juan", "country": "PR", "coord": {"lon": -65.992111, "lat": 18.341339}}, {"id": 3666309, "name": "Valle de San Juan", "country": "CO", "coord": {"lon": -75.117332, "lat": 4.19869}}, {"id": 2509892, "name": "Valle de San Lorenzo", "country": "ES", "coord": {"lon": -16.65856, "lat": 28.087919}}, {"id": 6356013, "name": "Valle de Santa Ana", "country": "ES", "coord": {"lon": -6.78251, "lat": 38.36692}}, {"id": 2509891, "name": "Valle de Santa Ana", "country": "ES", "coord": {"lon": -6.7886, "lat": 38.366371}}, {"id": 3980605, "name": "Valle de Santiago", "country": "MX", "coord": {"lon": -101.199997, "lat": 20.383329}}, {"id": 6360936, "name": "Valle de Tabladillo", "country": "ES", "coord": {"lon": -3.83342, "lat": 41.368179}}, {"id": 3106572, "name": "Valle de Tabladillo", "country": "ES", "coord": {"lon": -3.83966, "lat": 41.363041}}, {"id": 6356638, "name": "Valle de Tobalina", "country": "ES", "coord": {"lon": -3.27269, "lat": 42.81039}}, {"id": 6356639, "name": "Valle de Valdebezana", "country": "ES", "coord": {"lon": -3.80688, "lat": 42.965752}}, {"id": 6360745, "name": "Valle de Villaverde", "country": "ES", "coord": {"lon": -3.27722, "lat": 43.231831}}, {"id": 6356011, "name": "Valle de la Serena", "country": "ES", "coord": {"lon": -5.81145, "lat": 38.70015}}, {"id": 2509902, "name": "Valle de la Serena", "country": "ES", "coord": {"lon": -5.79846, "lat": 38.710098}}, {"id": 3106586, "name": "Valle de la Valduerna", "country": "ES", "coord": {"lon": -5.99519, "lat": 42.319801}}, {"id": 3827723, "name": "Valle del Guamuez", "country": "CO", "coord": {"lon": -76.919167, "lat": 0.4525}}, {"id": 3164856, "name": "Valle dellAngelo", "country": "IT", "coord": {"lon": 15.36846, "lat": 40.343811}}, {"id": 3219716, "name": "Valle di Cadore", "country": "IT", "coord": {"lon": 12.33639, "lat": 46.417782}}, {"id": 6534794, "name": "Valle di Casies - Gsies", "country": "IT", "coord": {"lon": 12.17939, "lat": 46.76833}}, {"id": 3164854, "name": "Valle di Dentro", "country": "IT", "coord": {"lon": 10.28333, "lat": 46.48333}}, {"id": 3164853, "name": "Valle di Maddaloni", "country": "IT", "coord": {"lon": 14.41563, "lat": 41.079521}}, {"id": 6534671, "name": "Valle e Castello", "country": "IT", "coord": {"lon": 13.08742, "lat": 43.037399}}, {"id": 3164872, "name": "Vallebona", "country": "IT", "coord": {"lon": 7.66654, "lat": 43.812721}}, {"id": 3106601, "name": "Vallecas", "country": "ES", "coord": {"lon": -3.61667, "lat": 40.383331}}, {"id": 3164867, "name": "Vallecchia", "country": "IT", "coord": {"lon": 10.21667, "lat": 43.98333}}, {"id": 3600450, "name": "Vallecillo", "country": "HN", "coord": {"lon": -87.400002, "lat": 14.51667}}, {"id": 6358725, "name": "Vallecillo", "country": "ES", "coord": {"lon": -5.21421, "lat": 42.353401}}, {"id": 3106600, "name": "Vallecillo", "country": "ES", "coord": {"lon": -5.21088, "lat": 42.356041}}, {"id": 3753555, "name": "Vallecito", "country": "VE", "coord": {"lon": -71.121109, "lat": 8.638056}}, {"id": 3666314, "name": "Vallecito", "country": "CO", "coord": {"lon": -75.486969, "lat": 6.72594}}, {"id": 3164863, "name": "Vallecorsa", "country": "IT", "coord": {"lon": 13.4052, "lat": 41.444618}}, {"id": 3164862, "name": "Vallecrosia", "country": "IT", "coord": {"lon": 7.63902, "lat": 43.786709}}, {"id": 3164859, "name": "Vallecupa", "country": "IT", "coord": {"lon": 13.56667, "lat": 42.25}}, {"id": 2522804, "name": "Valledolmo", "country": "IT", "coord": {"lon": 13.82786, "lat": 37.747452}}, {"id": 6534816, "name": "Valledoria", "country": "IT", "coord": {"lon": 8.82322, "lat": 40.928669}}, {"id": 3666304, "name": "Valledupar", "country": "CO", "coord": {"lon": -73.25322, "lat": 10.46314}}, {"id": 2522803, "name": "Vallefiorita", "country": "IT", "coord": {"lon": 16.461, "lat": 38.776379}}, {"id": 3901874, "name": "Vallegrande", "country": "BO", "coord": {"lon": -64.106941, "lat": -18.489719}}, {"id": 2509907, "name": "Valleguerra", "country": "ES", "coord": {"lon": -16.383329, "lat": 28.51667}}, {"id": 2509887, "name": "Vallehermosa", "country": "ES", "coord": {"lon": -17.26664, "lat": 28.17944}}, {"id": 6534200, "name": "Vallehermoso", "country": "ES", "coord": {"lon": -17.28558, "lat": 28.153749}}, {"id": 1680092, "name": "Vallehermoso", "country": "PH", "coord": {"lon": 123.325897, "lat": 10.3349}}, {"id": 6612786, "name": "Valleiry", "country": "FR", "coord": {"lon": 5.96667, "lat": 46.116669}}, {"id": 2970948, "name": "Valleiry", "country": "FR", "coord": {"lon": 5.97267, "lat": 46.111172}}, {"id": 3106563, "name": "Vallejera de Riofrio", "country": "ES", "coord": {"lon": -5.71943, "lat": 40.4091}}, {"id": 6360579, "name": "Vallejera de Riofr\u00edo", "country": "ES", "coord": {"lon": -5.7167, "lat": 40.418629}}, {"id": 5405380, "name": "Vallejo", "country": "US", "coord": {"lon": -122.256638, "lat": 38.104092}}, {"id": 3901869, "name": "Vallejos", "country": "BO", "coord": {"lon": -64.900002, "lat": -14.81667}}, {"id": 3106552, "name": "Vallejuelo", "country": "ES", "coord": {"lon": -3.3267, "lat": 43.07077}}, {"id": 3492123, "name": "Vallejuelo", "country": "DO", "coord": {"lon": -71.334312, "lat": 18.65354}}, {"id": 6360937, "name": "Vallelado", "country": "ES", "coord": {"lon": -4.42327, "lat": 41.392818}}, {"id": 3106551, "name": "Vallelado", "country": "ES", "coord": {"lon": -4.42662, "lat": 41.404362}}, {"id": 2522802, "name": "Vallelonga", "country": "IT", "coord": {"lon": 16.294901, "lat": 38.647282}}, {"id": 2522801, "name": "Vallelunga Pratameno", "country": "IT", "coord": {"lon": 13.83156, "lat": 37.682049}}, {"id": 2658196, "name": "Vallemaggia", "country": "CH", "coord": {"lon": 8.58333, "lat": 46.349998}}, {"id": 3164845, "name": "Vallemaio", "country": "IT", "coord": {"lon": 13.80931, "lat": 41.364422}}, {"id": 3868633, "name": "Vallenar", "country": "CL", "coord": {"lon": -70.758057, "lat": -28.570829}}, {"id": 8259949, "name": "Vallenar", "country": "CL", "coord": {"lon": -70.255508, "lat": -28.51576}}, {"id": 2817909, "name": "Vallendar", "country": "DE", "coord": {"lon": 7.61667, "lat": 50.400002}}, {"id": 2610789, "name": "Vallensbaek", "country": "DK", "coord": {"lon": 12.36667, "lat": 55.633331}}, {"id": 2610788, "name": "Vallensb\u00e6k Kommune", "country": "DK", "coord": {"lon": 12.36667, "lat": 55.633331}}, {"id": 2665452, "name": "Vallentuna", "country": "SE", "coord": {"lon": 18.077579, "lat": 59.534359}}, {"id": 2665451, "name": "Vallentuna Kommun", "country": "SE", "coord": {"lon": 18.216669, "lat": 59.583328}}, {"id": 3164835, "name": "Vallepietra", "country": "IT", "coord": {"lon": 13.23139, "lat": 41.92622}}, {"id": 3164833, "name": "Vallerano", "country": "IT", "coord": {"lon": 12.26347, "lat": 42.384029}}, {"id": 6431474, "name": "Valleraugue", "country": "FR", "coord": {"lon": 3.63333, "lat": 44.083328}}, {"id": 2970941, "name": "Valleraugue", "country": "FR", "coord": {"lon": 3.64154, "lat": 44.081299}}, {"id": 2522798, "name": "Vallermosa", "country": "IT", "coord": {"lon": 8.79556, "lat": 39.363892}}, {"id": 3164828, "name": "Vallerotonda", "country": "IT", "coord": {"lon": 13.91201, "lat": 41.550522}}, {"id": 6454317, "name": "Valleroy", "country": "FR", "coord": {"lon": 5.9363, "lat": 49.212002}}, {"id": 2970932, "name": "Valleroy", "country": "FR", "coord": {"lon": 5.9383, "lat": 49.209049}}, {"id": 6360938, "name": "Valleruela de Pedraza", "country": "ES", "coord": {"lon": -3.82311, "lat": 41.172459}}, {"id": 3106545, "name": "Valleruela de Pedraza", "country": "ES", "coord": {"lon": -3.80717, "lat": 41.179371}}, {"id": 3106544, "name": "Valleruela de Sepulveda", "country": "ES", "coord": {"lon": -3.77277, "lat": 41.187939}}, {"id": 6360939, "name": "Valleruela de Sep\u00falveda", "country": "ES", "coord": {"lon": -3.76641, "lat": 41.191898}}, {"id": 2509869, "name": "Valles", "country": "ES", "coord": {"lon": -0.55696, "lat": 38.98518}}, {"id": 6356644, "name": "Valles de Palenzuela", "country": "ES", "coord": {"lon": -4.05964, "lat": 42.12347}}, {"id": 3106535, "name": "Valles de Palenzuela", "country": "ES", "coord": {"lon": -4.0775, "lat": 42.12019}}, {"id": 3106538, "name": "Vallesa de la Guarena", "country": "ES", "coord": {"lon": -5.32611, "lat": 41.135319}}, {"id": 6362653, "name": "Vallesa de la Guare\u00f1a", "country": "ES", "coord": {"lon": -5.31497, "lat": 41.153969}}, {"id": 6535642, "name": "Vallesaccarda", "country": "IT", "coord": {"lon": 15.25205, "lat": 41.063122}}, {"id": 6360202, "name": "Valleseco", "country": "ES", "coord": {"lon": -15.58029, "lat": 28.04796}}, {"id": 2509864, "name": "Valleseco", "country": "ES", "coord": {"lon": -15.57623, "lat": 28.043301}}, {"id": 6434555, "name": "Vallet", "country": "FR", "coord": {"lon": -1.26667, "lat": 47.166672}}, {"id": 2970923, "name": "Vallet", "country": "FR", "coord": {"lon": -1.26607, "lat": 47.16227}}, {"id": 2562305, "name": "Valletta", "country": "MT", "coord": {"lon": 14.51472, "lat": 35.899719}}, {"id": 6534520, "name": "Valleve", "country": "IT", "coord": {"lon": 9.74375, "lat": 46.028191}}, {"id": 6556281, "name": "Valley", "country": "DE", "coord": {"lon": 11.7833, "lat": 47.900002}}, {"id": 2817904, "name": "Valley", "country": "DE", "coord": {"lon": 11.77915, "lat": 47.893101}}, {"id": 7301166, "name": "Valley", "country": "GB", "coord": {"lon": -4.55395, "lat": 53.288288}}, {"id": 2635022, "name": "Valley", "country": "GB", "coord": {"lon": -4.56644, "lat": 53.284901}}, {"id": 4095186, "name": "Valley", "country": "US", "coord": {"lon": -85.17939, "lat": 32.818741}}, {"id": 5080995, "name": "Valley", "country": "US", "coord": {"lon": -96.346138, "lat": 41.312778}}, {"id": 4280910, "name": "Valley Center", "country": "US", "coord": {"lon": -97.373383, "lat": 37.834728}}, {"id": 5405430, "name": "Valley Center", "country": "US", "coord": {"lon": -117.034203, "lat": 33.218369}}, {"id": 5062292, "name": "Valley City", "country": "US", "coord": {"lon": -98.003151, "lat": 46.923309}}, {"id": 5142101, "name": "Valley Cottage", "country": "US", "coord": {"lon": -73.955421, "lat": 41.118149}}, {"id": 5611156, "name": "Valley County", "country": "US", "coord": {"lon": -116.126244, "lat": 45.12767}}, {"id": 5684246, "name": "Valley County", "country": "US", "coord": {"lon": -106.650597, "lat": 48.43335}}, {"id": 4280917, "name": "Valley Falls", "country": "US", "coord": {"lon": -95.460251, "lat": 39.34333}}, {"id": 4599455, "name": "Valley Falls", "country": "US", "coord": {"lon": -81.974831, "lat": 35.015949}}, {"id": 5225388, "name": "Valley Falls", "country": "US", "coord": {"lon": -71.39061, "lat": 41.906769}}, {"id": 4738810, "name": "Valley Farms", "country": "US", "coord": {"lon": -96.40554, "lat": 32.307919}}, {"id": 4412813, "name": "Valley Forge (historical)", "country": "US", "coord": {"lon": -90.373459, "lat": 37.785332}}, {"id": 4095213, "name": "Valley Grande", "country": "US", "coord": {"lon": -86.987488, "lat": 32.509022}}, {"id": 5217005, "name": "Valley Green", "country": "US", "coord": {"lon": -76.792747, "lat": 40.15731}}, {"id": 2145327, "name": "Valley Heights", "country": "AU", "coord": {"lon": 150.583328, "lat": -33.700001}}, {"id": 4496508, "name": "Valley Hill", "country": "US", "coord": {"lon": -82.483177, "lat": 35.29845}}, {"id": 4738825, "name": "Valley Mills", "country": "US", "coord": {"lon": -97.472237, "lat": 31.65933}}, {"id": 5405529, "name": "Valley Oaks Mobile Home Park", "country": "US", "coord": {"lon": -123.314728, "lat": 39.411831}}, {"id": 4412820, "name": "Valley Park", "country": "US", "coord": {"lon": -90.492622, "lat": 38.549221}}, {"id": 5405554, "name": "Valley Springs", "country": "US", "coord": {"lon": -120.829102, "lat": 38.191589}}, {"id": 4311963, "name": "Valley Station", "country": "US", "coord": {"lon": -85.870239, "lat": 38.111179}}, {"id": 7260226, "name": "Valley Station  (historical)", "country": "US", "coord": {"lon": -85.858871, "lat": 38.105042}}, {"id": 5142109, "name": "Valley Stream", "country": "US", "coord": {"lon": -73.708458, "lat": 40.664268}}, {"id": 5514318, "name": "Valley View", "country": "US", "coord": {"lon": -117.224533, "lat": 38.068272}}, {"id": 4412833, "name": "Valley View", "country": "US", "coord": {"lon": -93.428261, "lat": 38.206139}}, {"id": 4914628, "name": "Valley View", "country": "US", "coord": {"lon": -88.966209, "lat": 42.222801}}, {"id": 4738851, "name": "Valley View", "country": "US", "coord": {"lon": -97.244453, "lat": 31.631001}}, {"id": 4561909, "name": "Valley View", "country": "US", "coord": {"lon": -76.70108, "lat": 39.9501}}, {"id": 5174958, "name": "Valley View", "country": "US", "coord": {"lon": -81.604568, "lat": 41.387829}}, {"id": 5217039, "name": "Valley View", "country": "US", "coord": {"lon": -76.539131, "lat": 40.64592}}, {"id": 7225262, "name": "Valley View Mobile Home Park", "country": "US", "coord": {"lon": -75.531937, "lat": 42.558609}}, {"id": 5405603, "name": "Valley Vista", "country": "US", "coord": {"lon": -117.073082, "lat": 33.741409}}, {"id": 3830322, "name": "Valley of Peace", "country": "BZ", "coord": {"lon": -88.834717, "lat": 17.334721}}, {"id": 6173220, "name": "Valleyview", "country": "CA", "coord": {"lon": -117.285851, "lat": 55.06673}}, {"id": 3106528, "name": "Vallfogona de Balaguer", "country": "ES", "coord": {"lon": 0.81385, "lat": 41.75211}}, {"id": 6361401, "name": "Vallfogona de Riucorb", "country": "ES", "coord": {"lon": 1.23892, "lat": 41.559589}}, {"id": 3106527, "name": "Vallfogona de Riucorb", "country": "ES", "coord": {"lon": 1.23691, "lat": 41.562801}}, {"id": 6356311, "name": "Vallgorguina", "country": "ES", "coord": {"lon": 2.49257, "lat": 41.6493}}, {"id": 3106526, "name": "Vallgorguina", "country": "ES", "coord": {"lon": 2.50996, "lat": 41.64822}}, {"id": 3164804, "name": "Valli del Pasubio", "country": "IT", "coord": {"lon": 11.26169, "lat": 45.740799}}, {"id": 6357077, "name": "Vallibona", "country": "ES", "coord": {"lon": 0.07652, "lat": 40.603699}}, {"id": 3106523, "name": "Vallibona", "country": "ES", "coord": {"lon": 0.04642, "lat": 40.603001}}, {"id": 2970911, "name": "Vallieres", "country": "FR", "coord": {"lon": 5.93811, "lat": 45.902618}}, {"id": 3106519, "name": "Vallina", "country": "ES", "coord": {"lon": -5.71667, "lat": 43.366669}}, {"id": 3164800, "name": "Vallinfreda", "country": "IT", "coord": {"lon": 12.99689, "lat": 42.083832}}, {"id": 6534753, "name": "Vallio Terme", "country": "IT", "coord": {"lon": 10.39737, "lat": 45.609779}}, {"id": 6443565, "name": "Valliquerville", "country": "FR", "coord": {"lon": 0.68333, "lat": 49.616669}}, {"id": 2970901, "name": "Valliquerville", "country": "FR", "coord": {"lon": 0.68703, "lat": 49.61385}}, {"id": 6356312, "name": "Vallirana", "country": "ES", "coord": {"lon": 1.92423, "lat": 41.37534}}, {"id": 3106515, "name": "Vallirana", "country": "ES", "coord": {"lon": 1.93205, "lat": 41.386761}}, {"id": 6443069, "name": "Valli\u00e8res", "country": "FR", "coord": {"lon": 5.93333, "lat": 45.900002}}, {"id": 2665403, "name": "Vallk\u00e4ra", "country": "SE", "coord": {"lon": 13.17698, "lat": 55.738811}}, {"id": 3106504, "name": "Vallmoll", "country": "ES", "coord": {"lon": 1.249, "lat": 41.243111}}, {"id": 6535426, "name": "Vallo Torinese", "country": "IT", "coord": {"lon": 7.49632, "lat": 45.223549}}, {"id": 6537424, "name": "Vallo della Lucania", "country": "IT", "coord": {"lon": 15.26576, "lat": 40.229698}}, {"id": 3164794, "name": "Vallo della Lucania", "country": "IT", "coord": {"lon": 15.26576, "lat": 40.229698}}, {"id": 3164793, "name": "Vallo di Nera", "country": "IT", "coord": {"lon": 12.86407, "lat": 42.754639}}, {"id": 6454658, "name": "Valloire", "country": "FR", "coord": {"lon": 6.43333, "lat": 45.166672}}, {"id": 2970899, "name": "Valloire", "country": "FR", "coord": {"lon": 6.42994, "lat": 45.165649}}, {"id": 6425500, "name": "Vallon-en-Sully", "country": "FR", "coord": {"lon": 2.6, "lat": 46.533329}}, {"id": 2970889, "name": "Vallon-en-Sully", "country": "FR", "coord": {"lon": 2.60828, "lat": 46.536758}}, {"id": 7287412, "name": "Vallorbe", "country": "CH", "coord": {"lon": 6.37148, "lat": 46.70784}}, {"id": 2658194, "name": "Vallorbe", "country": "CH", "coord": {"lon": 6.37894, "lat": 46.712559}}, {"id": 6534377, "name": "Valloriate", "country": "IT", "coord": {"lon": 7.37393, "lat": 44.337631}}, {"id": 6356313, "name": "Vallromanes", "country": "ES", "coord": {"lon": 2.30336, "lat": 41.529629}}, {"id": 3106493, "name": "Vallromanes", "country": "ES", "coord": {"lon": 2.3, "lat": 41.533329}}, {"id": 6361403, "name": "Valls", "country": "ES", "coord": {"lon": 1.23633, "lat": 41.291111}}, {"id": 3106492, "name": "Valls", "country": "ES", "coord": {"lon": 1.24993, "lat": 41.286121}}, {"id": 3106488, "name": "Valluercanes", "country": "ES", "coord": {"lon": -3.12113, "lat": 42.572201}}, {"id": 2817901, "name": "Valluhn", "country": "DE", "coord": {"lon": 10.84299, "lat": 53.525509}}, {"id": 6356645, "name": "Vallu\u00e9rcanes", "country": "ES", "coord": {"lon": -3.11821, "lat": 42.577461}}, {"id": 1106806, "name": "Vall\u00e9e Pitot", "country": "MU", "coord": {"lon": 57.513062, "lat": -20.164721}}, {"id": 1106815, "name": "Vall\u00e9e des Pr\u00eatres", "country": "MU", "coord": {"lon": 57.53056, "lat": -20.166941}}, {"id": 2137776, "name": "Vall\u00e9e du Tir", "country": "NC", "coord": {"lon": 166.449997, "lat": -22.26667}}, {"id": 6363001, "name": "Vall\u00e9s", "country": "ES", "coord": {"lon": -0.5555, "lat": 38.989609}}, {"id": 3164784, "name": "Valmacca", "country": "IT", "coord": {"lon": 8.58304, "lat": 45.100262}}, {"id": 6536414, "name": "Valmadrera", "country": "IT", "coord": {"lon": 9.35824, "lat": 45.846279}}, {"id": 3164782, "name": "Valmadrera", "country": "IT", "coord": {"lon": 9.35824, "lat": 45.846279}}, {"id": 6362961, "name": "Valmadrid", "country": "ES", "coord": {"lon": -0.87993, "lat": 41.448929}}, {"id": 3106482, "name": "Valmadrid", "country": "ES", "coord": {"lon": -0.88482, "lat": 41.443501}}, {"id": 3164781, "name": "Valmaggiore", "country": "IT", "coord": {"lon": 11.61667, "lat": 44.133331}}, {"id": 6356633, "name": "Valmala", "country": "ES", "coord": {"lon": -3.25341, "lat": 42.290081}}, {"id": 3106480, "name": "Valmala", "country": "ES", "coord": {"lon": -3.25456, "lat": 42.305901}}, {"id": 6535493, "name": "Valmala", "country": "IT", "coord": {"lon": 7.34602, "lat": 44.544231}}, {"id": 4251900, "name": "Valmeyer", "country": "US", "coord": {"lon": -90.276512, "lat": 38.305611}}, {"id": 453754, "name": "Valmiera", "country": "LV", "coord": {"lon": 25.427509, "lat": 57.54108}}, {"id": 454564, "name": "Valmieras Rajons", "country": "LV", "coord": {"lon": 25.25, "lat": 57.75}}, {"id": 6361839, "name": "Valmojado", "country": "ES", "coord": {"lon": -4.10869, "lat": 40.221661}}, {"id": 3106471, "name": "Valmojado", "country": "ES", "coord": {"lon": -4.09146, "lat": 40.204441}}, {"id": 6446347, "name": "Valmondois", "country": "FR", "coord": {"lon": 2.2, "lat": 49.099998}}, {"id": 2970866, "name": "Valmondois", "country": "FR", "coord": {"lon": 2.18996, "lat": 49.097301}}, {"id": 6437905, "name": "Valmont", "country": "FR", "coord": {"lon": 6.7, "lat": 49.083328}}, {"id": 2970865, "name": "Valmont", "country": "FR", "coord": {"lon": 6.69942, "lat": 49.083832}}, {"id": 3164778, "name": "Valmontone", "country": "IT", "coord": {"lon": 12.91749, "lat": 41.77882}}, {"id": 6535758, "name": "Valmorea", "country": "IT", "coord": {"lon": 8.93064, "lat": 45.815182}}, {"id": 6534660, "name": "Valmozzola", "country": "IT", "coord": {"lon": 9.88328, "lat": 44.568459}}, {"id": 3164774, "name": "Valnegra", "country": "IT", "coord": {"lon": 9.68935, "lat": 45.949089}}, {"id": 3106467, "name": "Valnera", "country": "ES", "coord": {"lon": -3.43333, "lat": 43.183331}}, {"id": 6435691, "name": "Valognes", "country": "FR", "coord": {"lon": -1.46667, "lat": 49.51667}}, {"id": 2970860, "name": "Valognes", "country": "FR", "coord": {"lon": -1.47047, "lat": 49.508808}}, {"id": 6429669, "name": "Valojoulx", "country": "FR", "coord": {"lon": 1.1438, "lat": 45.018902}}, {"id": 2970859, "name": "Valojoulx", "country": "FR", "coord": {"lon": 1.15, "lat": 45.116669}}, {"id": 8010590, "name": "Valongo", "country": "PT", "coord": {"lon": -8.50086, "lat": 41.20797}}, {"id": 8012902, "name": "Valongo", "country": "PT", "coord": {"lon": -8.49864, "lat": 41.19175}}, {"id": 2732978, "name": "Valongo", "country": "PT", "coord": {"lon": -8.51027, "lat": 41.195011}}, {"id": 2732980, "name": "Valongo", "country": "PT", "coord": {"lon": -8.45, "lat": 40.616669}}, {"id": 2509853, "name": "Valor", "country": "ES", "coord": {"lon": -3.08287, "lat": 36.996181}}, {"id": 3106464, "name": "Valoria de Aguilar", "country": "ES", "coord": {"lon": -4.27536, "lat": 42.767448}}, {"id": 6362306, "name": "Valoria la Buena", "country": "ES", "coord": {"lon": -4.52629, "lat": 41.810589}}, {"id": 3106462, "name": "Valoria la Buena", "country": "ES", "coord": {"lon": -4.53055, "lat": 41.79966}}, {"id": 620445, "name": "Valozhyn", "country": "BY", "coord": {"lon": 26.522461, "lat": 54.090931}}, {"id": 2732965, "name": "Valpacos", "country": "PT", "coord": {"lon": -7.31088, "lat": 41.60746}}, {"id": 6362962, "name": "Valpalmas", "country": "ES", "coord": {"lon": -0.85661, "lat": 42.16328}}, {"id": 3106461, "name": "Valpalmas", "country": "ES", "coord": {"lon": -0.85481, "lat": 42.158211}}, {"id": 1253472, "name": "Valparai", "country": "IN", "coord": {"lon": 76.966667, "lat": 10.36667}}, {"id": 3868626, "name": "Valparaiso", "country": "CL", "coord": {"lon": -71.627251, "lat": -33.039322}}, {"id": 3445575, "name": "Valparaiso", "country": "BR", "coord": {"lon": -50.868328, "lat": -21.227779}}, {"id": 4927537, "name": "Valparaiso", "country": "US", "coord": {"lon": -87.061142, "lat": 41.473091}}, {"id": 3666287, "name": "Valparaiso", "country": "CO", "coord": {"lon": -75.624222, "lat": 5.615}}, {"id": 3666291, "name": "Valparaiso", "country": "CO", "coord": {"lon": -75.707047, "lat": 1.19512}}, {"id": 3980586, "name": "Valparaiso", "country": "MX", "coord": {"lon": -103.566673, "lat": 22.76667}}, {"id": 4176316, "name": "Valparaiso", "country": "US", "coord": {"lon": -86.502731, "lat": 30.50853}}, {"id": 8010648, "name": "Valpa\u00e7os", "country": "PT", "coord": {"lon": -7.33607, "lat": 41.620819}}, {"id": 8013702, "name": "Valpa\u00e7os", "country": "PT", "coord": {"lon": -7.29548, "lat": 41.607189}}, {"id": 8012849, "name": "Valpedre", "country": "PT", "coord": {"lon": -8.32135, "lat": 41.13736}}, {"id": 2732964, "name": "Valpedre", "country": "PT", "coord": {"lon": -8.3079, "lat": 41.1367}}, {"id": 3164769, "name": "Valpelline", "country": "IT", "coord": {"lon": 7.3255, "lat": 45.82486}}, {"id": 3164768, "name": "Valperga", "country": "IT", "coord": {"lon": 7.65802, "lat": 45.373249}}, {"id": 3188395, "name": "Valpovo", "country": "HR", "coord": {"lon": 18.41861, "lat": 45.660831}}, {"id": 1253471, "name": "Valpoy", "country": "IN", "coord": {"lon": 74.133331, "lat": 15.53333}}, {"id": 3164764, "name": "Valprato Soana", "country": "IT", "coord": {"lon": 7.54901, "lat": 45.52076}}, {"id": 6434460, "name": "Valprivas", "country": "FR", "coord": {"lon": 4.05, "lat": 45.316669}}, {"id": 2970843, "name": "Valprivas", "country": "FR", "coord": {"lon": 4.04399, "lat": 45.311432}}, {"id": 6432677, "name": "Valras-Plage", "country": "FR", "coord": {"lon": 3.28333, "lat": 43.25}}, {"id": 2970839, "name": "Valras-Plage", "country": "FR", "coord": {"lon": 3.29032, "lat": 43.248081}}, {"id": 2970838, "name": "Valreas", "country": "FR", "coord": {"lon": 4.99084, "lat": 44.383659}}, {"id": 4176318, "name": "Valrico", "country": "US", "coord": {"lon": -82.236443, "lat": 27.937889}}, {"id": 6432678, "name": "Valros", "country": "FR", "coord": {"lon": 3.36667, "lat": 43.416672}}, {"id": 2970837, "name": "Valros", "country": "FR", "coord": {"lon": 3.36506, "lat": 43.419559}}, {"id": 3164762, "name": "Valrovina", "country": "IT", "coord": {"lon": 11.68333, "lat": 45.783329}}, {"id": 6615256, "name": "Valr\u00e9as", "country": "FR", "coord": {"lon": 4.98333, "lat": 44.383331}}, {"id": 7287414, "name": "Vals", "country": "CH", "coord": {"lon": 9.13071, "lat": 46.573662}}, {"id": 2658191, "name": "Vals Platz", "country": "CH", "coord": {"lon": 9.18025, "lat": 46.61647}}, {"id": 6425873, "name": "Vals-les-Bains", "country": "FR", "coord": {"lon": 4.36667, "lat": 44.666672}}, {"id": 2970828, "name": "Vals-les-Bains", "country": "FR", "coord": {"lon": 4.36861, "lat": 44.663872}}, {"id": 2970826, "name": "Vals-pres-le-Puy", "country": "FR", "coord": {"lon": 3.87787, "lat": 45.031551}}, {"id": 6434462, "name": "Vals-pr\u00e8s-le-Puy", "country": "FR", "coord": {"lon": 3.87807, "lat": 45.031639}}, {"id": 1253468, "name": "Valsad", "country": "IN", "coord": {"lon": 72.933327, "lat": 20.633329}}, {"id": 6360576, "name": "Valsalabroso", "country": "ES", "coord": {"lon": -6.48979, "lat": 41.103531}}, {"id": 3106448, "name": "Valsalabroso", "country": "ES", "coord": {"lon": -6.50269, "lat": 41.109619}}, {"id": 6357550, "name": "Valsalobre", "country": "ES", "coord": {"lon": -2.12221, "lat": 40.635792}}, {"id": 3106446, "name": "Valsalobre", "country": "ES", "coord": {"lon": -2.09297, "lat": 40.61742}}, {"id": 252327, "name": "Valsamata", "country": "GR", "coord": {"lon": 20.6, "lat": 38.166672}}, {"id": 6534765, "name": "Valsavarenche", "country": "IT", "coord": {"lon": 7.21, "lat": 45.591862}}, {"id": 6360933, "name": "Valseca", "country": "ES", "coord": {"lon": -4.16661, "lat": 40.99651}}, {"id": 3106444, "name": "Valseca", "country": "ES", "coord": {"lon": -4.17514, "lat": 40.999329}}, {"id": 3164758, "name": "Valsecca", "country": "IT", "coord": {"lon": 9.49535, "lat": 45.827278}}, {"id": 6427541, "name": "Valsem\u00e9", "country": "FR", "coord": {"lon": 0.1, "lat": 49.23333}}, {"id": 2970833, "name": "Valsem\u00e9", "country": "FR", "coord": {"lon": 0.09611, "lat": 49.237282}}, {"id": 6360201, "name": "Valsequillo de Gran Canaria", "country": "ES", "coord": {"lon": -15.50631, "lat": 27.98262}}, {"id": 2509846, "name": "Valsequillo de Gran Canaria", "country": "ES", "coord": {"lon": -15.49725, "lat": 27.98562}}, {"id": 3164756, "name": "Valsinni", "country": "IT", "coord": {"lon": 16.443489, "lat": 40.16991}}, {"id": 3164754, "name": "Valstagna", "country": "IT", "coord": {"lon": 11.6607, "lat": 45.8563}}, {"id": 6534841, "name": "Valstrona", "country": "IT", "coord": {"lon": 8.34322, "lat": 45.907669}}, {"id": 3106437, "name": "Valsurbio", "country": "ES", "coord": {"lon": -4.73307, "lat": 42.866241}}, {"id": 3106435, "name": "Valtablado del Rio", "country": "ES", "coord": {"lon": -2.40225, "lat": 40.714199}}, {"id": 6358072, "name": "Valtablado del R\u00edo", "country": "ES", "coord": {"lon": -2.40132, "lat": 40.72604}}, {"id": 6361226, "name": "Valtajeros", "country": "ES", "coord": {"lon": -2.23296, "lat": 41.939251}}, {"id": 3106432, "name": "Valtajeros", "country": "ES", "coord": {"lon": -2.22289, "lat": 41.93808}}, {"id": 733965, "name": "Valteron", "country": "GR", "coord": {"lon": 23.316669, "lat": 41.183331}}, {"id": 3063409, "name": "Valtice", "country": "CZ", "coord": {"lon": 16.75499, "lat": 48.740688}}, {"id": 6360934, "name": "Valtiendas", "country": "ES", "coord": {"lon": -3.90545, "lat": 41.48848}}, {"id": 3106431, "name": "Valtiendas", "country": "ES", "coord": {"lon": -3.91766, "lat": 41.478512}}, {"id": 6359796, "name": "Valtierra", "country": "ES", "coord": {"lon": -1.61625, "lat": 42.20871}}, {"id": 3106430, "name": "Valtierra", "country": "ES", "coord": {"lon": -1.63459, "lat": 42.196529}}, {"id": 3980580, "name": "Valtierrilla", "country": "MX", "coord": {"lon": -101.133331, "lat": 20.533331}}, {"id": 632553, "name": "Valtimo", "country": "FI", "coord": {"lon": 28.83333, "lat": 63.75}}, {"id": 632552, "name": "Valtimo", "country": "FI", "coord": {"lon": 28.799999, "lat": 63.666672}}, {"id": 6535042, "name": "Valtopina", "country": "IT", "coord": {"lon": 12.75307, "lat": 43.05674}}, {"id": 6362963, "name": "Valtorres", "country": "ES", "coord": {"lon": -1.74309, "lat": 41.300659}}, {"id": 3106424, "name": "Valtorres", "country": "ES", "coord": {"lon": -1.7408, "lat": 41.29855}}, {"id": 3164749, "name": "Valtorta", "country": "IT", "coord": {"lon": 9.53494, "lat": 45.977791}}, {"id": 733959, "name": "Valtotopion", "country": "GR", "coord": {"lon": 23.6, "lat": 41}}, {"id": 6542791, "name": "Valtournenche", "country": "IT", "coord": {"lon": 7.6243, "lat": 45.876068}}, {"id": 6534766, "name": "Valtournenche", "country": "IT", "coord": {"lon": 7.6243, "lat": 45.876068}}, {"id": 3106418, "name": "Valtuille de Abajo", "country": "ES", "coord": {"lon": -6.76442, "lat": 42.595798}}, {"id": 663234, "name": "Valu lui Traian", "country": "RO", "coord": {"lon": 28.466669, "lat": 44.166672}}, {"id": 477192, "name": "Valuyki", "country": "RU", "coord": {"lon": 38.106701, "lat": 50.203499}}, {"id": 6427672, "name": "Valu\u00e9jols", "country": "FR", "coord": {"lon": 2.93333, "lat": 45.049999}}, {"id": 2970823, "name": "Valu\u00e9jols", "country": "FR", "coord": {"lon": 2.93272, "lat": 45.053268}}, {"id": 3164746, "name": "Valva", "country": "IT", "coord": {"lon": 15.26945, "lat": 40.73822}}, {"id": 3164745, "name": "Valvasone", "country": "IT", "coord": {"lon": 12.87028, "lat": 45.994438}}, {"id": 1225142, "name": "Valvedditturai", "country": "LK", "coord": {"lon": 80.166672, "lat": 9.81667}}, {"id": 6534198, "name": "Valverde", "country": "ES", "coord": {"lon": -17.93483, "lat": 27.798571}}, {"id": 2509841, "name": "Valverde", "country": "ES", "coord": {"lon": -17.915779, "lat": 27.80628}}, {"id": 2732948, "name": "Valverde", "country": "PT", "coord": {"lon": -8.75139, "lat": 41.651981}}, {"id": 6535328, "name": "Valverde", "country": "IT", "coord": {"lon": 15.12419, "lat": 37.57695}}, {"id": 3372490, "name": "Valverde", "country": "PT", "coord": {"lon": -25.133329, "lat": 36.950001}}, {"id": 2509838, "name": "Valverde Bajo", "country": "ES", "coord": {"lon": -0.6, "lat": 38.23333}}, {"id": 3106403, "name": "Valverde de Alcala", "country": "ES", "coord": {"lon": -3.29631, "lat": 40.416672}}, {"id": 6359385, "name": "Valverde de Alcal\u00e1", "country": "ES", "coord": {"lon": -3.29984, "lat": 40.409061}}, {"id": 6356007, "name": "Valverde de Burguillos", "country": "ES", "coord": {"lon": -6.53814, "lat": 38.32597}}, {"id": 2509837, "name": "Valverde de Burguillos", "country": "ES", "coord": {"lon": -6.53648, "lat": 38.327099}}, {"id": 6362307, "name": "Valverde de Campos", "country": "ES", "coord": {"lon": -5.0338, "lat": 41.82663}}, {"id": 3106402, "name": "Valverde de Campos", "country": "ES", "coord": {"lon": -5.03674, "lat": 41.835098}}, {"id": 2509836, "name": "Valverde de Jucar", "country": "ES", "coord": {"lon": -2.22135, "lat": 39.718658}}, {"id": 6357551, "name": "Valverde de J\u00facar", "country": "ES", "coord": {"lon": -2.23555, "lat": 39.703602}}, {"id": 2509834, "name": "Valverde de Leganes", "country": "ES", "coord": {"lon": -6.98036, "lat": 38.670589}}, {"id": 6356008, "name": "Valverde de Legan\u00e9s", "country": "ES", "coord": {"lon": -6.97977, "lat": 38.664162}}, {"id": 6356009, "name": "Valverde de Llerena", "country": "ES", "coord": {"lon": -5.80497, "lat": 38.206558}}, {"id": 2509833, "name": "Valverde de Llerena", "country": "ES", "coord": {"lon": -5.81667, "lat": 38.216671}}, {"id": 2509832, "name": "Valverde de Merida", "country": "ES", "coord": {"lon": -6.21999, "lat": 38.911221}}, {"id": 6356010, "name": "Valverde de M\u00e9rida", "country": "ES", "coord": {"lon": -6.22025, "lat": 38.90134}}, {"id": 6360577, "name": "Valverde de Valdelacasa", "country": "ES", "coord": {"lon": -5.78251, "lat": 40.4865}}, {"id": 3106391, "name": "Valverde de Valdelacasa", "country": "ES", "coord": {"lon": -5.78145, "lat": 40.481548}}, {"id": 6356899, "name": "Valverde de la Vera", "country": "ES", "coord": {"lon": -5.49668, "lat": 40.108131}}, {"id": 3106398, "name": "Valverde de la Vera", "country": "ES", "coord": {"lon": -5.49541, "lat": 40.122681}}, {"id": 6358723, "name": "Valverde de la Virgen", "country": "ES", "coord": {"lon": -5.68255, "lat": 42.564072}}, {"id": 3106397, "name": "Valverde de la Virgen", "country": "ES", "coord": {"lon": -5.68461, "lat": 42.56823}}, {"id": 6358073, "name": "Valverde de los Arroyos", "country": "ES", "coord": {"lon": -3.20659, "lat": 41.12986}}, {"id": 3106393, "name": "Valverde de los Arroyos", "country": "ES", "coord": {"lon": -3.23333, "lat": 41.129299}}, {"id": 6358248, "name": "Valverde del Camino", "country": "ES", "coord": {"lon": -6.74951, "lat": 37.545811}}, {"id": 2509835, "name": "Valverde del Camino", "country": "ES", "coord": {"lon": -6.75432, "lat": 37.575111}}, {"id": 6356900, "name": "Valverde del Fresno", "country": "ES", "coord": {"lon": -6.92949, "lat": 40.157848}}, {"id": 3106396, "name": "Valverde del Fresno", "country": "ES", "coord": {"lon": -6.87848, "lat": 40.222099}}, {"id": 6360935, "name": "Valverde del Majano", "country": "ES", "coord": {"lon": -4.20744, "lat": 40.95285}}, {"id": 3106395, "name": "Valverde del Majano", "country": "ES", "coord": {"lon": -4.23468, "lat": 40.95689}}, {"id": 6358724, "name": "Valverde-Enrique", "country": "ES", "coord": {"lon": -5.28067, "lat": 42.305721}}, {"id": 3106390, "name": "Valverde-Enrique", "country": "ES", "coord": {"lon": -5.2999, "lat": 42.304588}}, {"id": 6357552, "name": "Valverdejo", "country": "ES", "coord": {"lon": -2.02723, "lat": 39.628071}}, {"id": 2509831, "name": "Valverdejo", "country": "ES", "coord": {"lon": -2.01667, "lat": 39.616669}}, {"id": 3106388, "name": "Valverdon", "country": "ES", "coord": {"lon": -5.76955, "lat": 41.046909}}, {"id": 6360578, "name": "Valverd\u00f3n", "country": "ES", "coord": {"lon": -5.7431, "lat": 41.049438}}, {"id": 6534754, "name": "Valvestino", "country": "IT", "coord": {"lon": 10.59547, "lat": 45.760689}}, {"id": 2970820, "name": "Valvins", "country": "FR", "coord": {"lon": 2.73796, "lat": 48.421848}}, {"id": 6553731, "name": "Valwig", "country": "DE", "coord": {"lon": 7.21667, "lat": 50.150002}}, {"id": 2817894, "name": "Valwig", "country": "DE", "coord": {"lon": 7.21667, "lat": 50.150002}}, {"id": 2817893, "name": "Valwigerberg", "country": "DE", "coord": {"lon": 7.21667, "lat": 50.150002}}, {"id": 7457962, "name": "Valyayevka", "country": "RU", "coord": {"lon": 44.3106, "lat": 53.271801}}, {"id": 620451, "name": "Valyewka", "country": "BY", "coord": {"lon": 25.9, "lat": 53.466671}}, {"id": 7287415, "name": "Valzeina", "country": "CH", "coord": {"lon": 9.61364, "lat": 46.943039}}, {"id": 2658189, "name": "Valzeina", "country": "CH", "coord": {"lon": 9.60268, "lat": 46.950199}}, {"id": 3106693, "name": "Val\u00edn", "country": "ES", "coord": {"lon": -7.09284, "lat": 43.36285}}, {"id": 477218, "name": "Val\u2019tsovo", "country": "RU", "coord": {"lon": 38.145279, "lat": 54.924721}}, {"id": 663226, "name": "Vama", "country": "RO", "coord": {"lon": 23.4, "lat": 47.833328}}, {"id": 663227, "name": "Vama", "country": "RO", "coord": {"lon": 25.683331, "lat": 47.566669}}, {"id": 3063400, "name": "Vamberk", "country": "CZ", "coord": {"lon": 16.29067, "lat": 50.117561}}, {"id": 2610760, "name": "Vamdrup", "country": "DK", "coord": {"lon": 9.28435, "lat": 55.427639}}, {"id": 632542, "name": "Vammala", "country": "FI", "coord": {"lon": 22.9, "lat": 61.333328}}, {"id": 4176324, "name": "Vamo", "country": "US", "coord": {"lon": -82.497871, "lat": 27.222}}, {"id": 3043210, "name": "Vamosgyork", "country": "HU", "coord": {"lon": 19.929239, "lat": 47.68428}}, {"id": 714265, "name": "Vamospercs", "country": "HU", "coord": {"lon": 21.9, "lat": 47.533329}}, {"id": 632539, "name": "Vampula", "country": "FI", "coord": {"lon": 22.700001, "lat": 61.01667}}, {"id": 733955, "name": "Vamvakofiton", "country": "GR", "coord": {"lon": 23.4, "lat": 41.183331}}, {"id": 252303, "name": "Vamvakou", "country": "GR", "coord": {"lon": 22.41667, "lat": 39.333328}}, {"id": 4311953, "name": "Van", "country": "US", "coord": {"lon": -82.873489, "lat": 37.151489}}, {"id": 298113, "name": "Van", "country": "TR", "coord": {"lon": 43.5, "lat": 38.5}}, {"id": 298117, "name": "Van", "country": "TR", "coord": {"lon": 43.38311, "lat": 38.49239}}, {"id": 4738883, "name": "Van", "country": "US", "coord": {"lon": -95.637177, "lat": 32.52486}}, {"id": 4738884, "name": "Van Alstyne", "country": "US", "coord": {"lon": -96.577209, "lat": 33.421501}}, {"id": 4134716, "name": "Van Buren", "country": "US", "coord": {"lon": -94.348267, "lat": 35.43676}}, {"id": 4412847, "name": "Van Buren", "country": "US", "coord": {"lon": -91.014572, "lat": 36.995609}}, {"id": 4981710, "name": "Van Buren", "country": "US", "coord": {"lon": -67.935303, "lat": 47.157269}}, {"id": 5013104, "name": "Van Buren County", "country": "US", "coord": {"lon": -86.033348, "lat": 42.250591}}, {"id": 5532924, "name": "Van Horn", "country": "US", "coord": {"lon": -104.830772, "lat": 31.03986}}, {"id": 5142171, "name": "Van Hornesville", "country": "US", "coord": {"lon": -74.827652, "lat": 42.895069}}, {"id": 4311959, "name": "Van Lear", "country": "US", "coord": {"lon": -82.757942, "lat": 37.77121}}, {"id": 4880034, "name": "Van Meter", "country": "US", "coord": {"lon": -93.954117, "lat": 41.531929}}, {"id": 4738908, "name": "Van Vleck", "country": "US", "coord": {"lon": -95.889397, "lat": 29.01775}}, {"id": 5175079, "name": "Van Wert", "country": "US", "coord": {"lon": -84.584122, "lat": 40.869492}}, {"id": 4738915, "name": "Van Zandt County", "country": "US", "coord": {"lon": -95.850243, "lat": 32.566799}}, {"id": 587826, "name": "Vana-Antsla", "country": "EE", "coord": {"lon": 26.532221, "lat": 57.866112}}, {"id": 1092041, "name": "Vanadjou", "country": "KM", "coord": {"lon": 43.276112, "lat": -11.6075}}, {"id": 616530, "name": "Vanadzor", "country": "AM", "coord": {"lon": 44.4939, "lat": 40.804562}}, {"id": 921661, "name": "Vanambouani", "country": "KM", "coord": {"lon": 43.253059, "lat": -11.61139}}, {"id": 5319409, "name": "Vanar", "country": "US", "coord": {"lon": -109.095062, "lat": 32.241192}}, {"id": 662837, "name": "Vanatori", "country": "RO", "coord": {"lon": 27.533331, "lat": 47.23333}}, {"id": 662840, "name": "Vanatori", "country": "RO", "coord": {"lon": 24.933331, "lat": 46.23333}}, {"id": 662841, "name": "Vanatori", "country": "RO", "coord": {"lon": 27.25, "lat": 45.73333}}, {"id": 662842, "name": "Vanatori", "country": "RO", "coord": {"lon": 28.01667, "lat": 45.533329}}, {"id": 662844, "name": "Vanatori", "country": "RO", "coord": {"lon": 22.92889, "lat": 44.242779}}, {"id": 662822, "name": "Vanatori-Neamt", "country": "RO", "coord": {"lon": 26.316669, "lat": 47.200001}}, {"id": 662824, "name": "Vanatorii Mici", "country": "RO", "coord": {"lon": 25.558889, "lat": 44.49028}}, {"id": 2013727, "name": "Vanavara", "country": "RU", "coord": {"lon": 102.279716, "lat": 60.34}}, {"id": 4095294, "name": "Vance", "country": "US", "coord": {"lon": -87.233612, "lat": 33.174278}}, {"id": 4496539, "name": "Vance County", "country": "US", "coord": {"lon": -78.399719, "lat": 36.36681}}, {"id": 4496570, "name": "Vanceboro", "country": "US", "coord": {"lon": -77.154121, "lat": 35.308498}}, {"id": 4311976, "name": "Vanceburg", "country": "US", "coord": {"lon": -83.318802, "lat": 38.599239}}, {"id": 4228221, "name": "Vanceville", "country": "US", "coord": {"lon": -83.44072, "lat": 31.43297}}, {"id": 4449532, "name": "Vancleave", "country": "US", "coord": {"lon": -88.687523, "lat": 30.54047}}, {"id": 6173331, "name": "Vancouver", "country": "CA", "coord": {"lon": -123.119339, "lat": 49.24966}}, {"id": 5814616, "name": "Vancouver", "country": "US", "coord": {"lon": -122.661491, "lat": 45.638729}}, {"id": 477162, "name": "Vanda", "country": "RU", "coord": {"lon": 39.823334, "lat": 54.950001}}, {"id": 4527124, "name": "Vandalia", "country": "US", "coord": {"lon": -84.19883, "lat": 39.89061}}, {"id": 4251917, "name": "Vandalia", "country": "US", "coord": {"lon": -89.093681, "lat": 38.960602}}, {"id": 4412896, "name": "Vandalia", "country": "US", "coord": {"lon": -91.488487, "lat": 39.310871}}, {"id": 1253454, "name": "Vandalur", "country": "IN", "coord": {"lon": 80.080833, "lat": 12.89278}}, {"id": 1253452, "name": "Vandavasi", "country": "IN", "coord": {"lon": 79.616669, "lat": 12.5}}, {"id": 6361404, "name": "Vandell\u00f2s i l'Hospitalet de l'Infant", "country": "ES", "coord": {"lon": 0.8642, "lat": 40.99445}}, {"id": 3106385, "name": "Vandell\u00f3s", "country": "ES", "coord": {"lon": 0.83065, "lat": 41.019852}}, {"id": 7262449, "name": "Vandenberg Air Force Base", "country": "US", "coord": {"lon": -120.518173, "lat": 34.748299}}, {"id": 5319417, "name": "Vandenberg Village", "country": "US", "coord": {"lon": -110.867867, "lat": 32.180359}}, {"id": 5405737, "name": "Vandenberg Village", "country": "US", "coord": {"lon": -120.467659, "lat": 34.708321}}, {"id": 4496582, "name": "Vander", "country": "US", "coord": {"lon": -78.794739, "lat": 35.032108}}, {"id": 944986, "name": "Vanderbijlpark", "country": "ZA", "coord": {"lon": 27.83795, "lat": -26.71171}}, {"id": 5514336, "name": "Vanderbilt (historical)", "country": "US", "coord": {"lon": -115.978394, "lat": 39.424648}}, {"id": 4266235, "name": "Vanderburgh County", "country": "US", "coord": {"lon": -87.550568, "lat": 38.082821}}, {"id": 5013156, "name": "Vandercook Lake", "country": "US", "coord": {"lon": -84.391068, "lat": 42.193371}}, {"id": 5217103, "name": "Vandergrift", "country": "US", "coord": {"lon": -79.564774, "lat": 40.60284}}, {"id": 6173361, "name": "Vanderhoof", "country": "CA", "coord": {"lon": -124.019821, "lat": 54.016571}}, {"id": 4311983, "name": "Vandetta", "country": "US", "coord": {"lon": -87.425278, "lat": 37.451431}}, {"id": 4095288, "name": "Vandiver", "country": "US", "coord": {"lon": -86.513321, "lat": 33.470661}}, {"id": 2970797, "name": "Vandoeuvre-les-Nancy", "country": "FR", "coord": {"lon": 6.18333, "lat": 48.650002}}, {"id": 7287416, "name": "Vandoeuvres", "country": "CH", "coord": {"lon": 6.20369, "lat": 46.218948}}, {"id": 2658188, "name": "Vandoeuvres", "country": "CH", "coord": {"lon": 6.20285, "lat": 46.22179}}, {"id": 6534795, "name": "Vandoies - Vintl", "country": "IT", "coord": {"lon": 11.72068, "lat": 46.815128}}, {"id": 3164736, "name": "Vandoies di Sotto", "country": "IT", "coord": {"lon": 11.73333, "lat": 46.799999}}, {"id": 587440, "name": "Vandra", "country": "EE", "coord": {"lon": 25.03611, "lat": 58.64806}}, {"id": 6614585, "name": "Vand\u0153uvre-l\u00e8s-Nancy", "country": "FR", "coord": {"lon": 6.18333, "lat": 48.650002}}, {"id": 2665171, "name": "Vanersborg", "country": "SE", "coord": {"lon": 12.3234, "lat": 58.380749}}, {"id": 7626337, "name": "Vang", "country": "NO", "coord": {"lon": 8.5729, "lat": 61.12529}}, {"id": 1054329, "name": "Vangaindrano", "country": "MG", "coord": {"lon": 47.599998, "lat": -23.35}}, {"id": 454537, "name": "Vangazi", "country": "LV", "coord": {"lon": 24.548611, "lat": 57.093609}}, {"id": 3132735, "name": "Vangsvika", "country": "NO", "coord": {"lon": 17.734159, "lat": 69.17057}}, {"id": 6173385, "name": "Vanguard", "country": "CA", "coord": {"lon": -107.3013, "lat": 49.916759}}, {"id": 477134, "name": "Vani", "country": "RU", "coord": {"lon": 54.166672, "lat": 56.76667}}, {"id": 611219, "name": "Vani", "country": "GE", "coord": {"lon": 42.521629, "lat": 42.083199}}, {"id": 2084442, "name": "Vanimo", "country": "PG", "coord": {"lon": 141.302841, "lat": -2.67408}}, {"id": 6609011, "name": "Vanino", "country": "RU", "coord": {"lon": 42.283054, "lat": 56.849445}}, {"id": 2119932, "name": "Vanino", "country": "RU", "coord": {"lon": 140.254333, "lat": 49.086861}}, {"id": 1253437, "name": "Vaniyambadi", "country": "IN", "coord": {"lon": 78.616669, "lat": 12.68333}}, {"id": 1220210, "name": "Vanj", "country": "TJ", "coord": {"lon": 71.454742, "lat": 38.370781}}, {"id": 662805, "name": "Vanju-Mare", "country": "RO", "coord": {"lon": 22.86972, "lat": 44.425282}}, {"id": 662807, "name": "Vanjulet", "country": "RO", "coord": {"lon": 22.7925, "lat": 44.441109}}, {"id": 6173412, "name": "Vankleek Hill", "country": "CA", "coord": {"lon": -74.649261, "lat": 45.516788}}, {"id": 726060, "name": "Vankovtsi", "country": "BG", "coord": {"lon": 24.26667, "lat": 42.916672}}, {"id": 2665090, "name": "Vannasby", "country": "SE", "coord": {"lon": 19.83333, "lat": 63.933331}}, {"id": 6437407, "name": "Vannes", "country": "FR", "coord": {"lon": -2.7604, "lat": 47.654999}}, {"id": 2970777, "name": "Vannes", "country": "FR", "coord": {"lon": -2.75, "lat": 47.666672}}, {"id": 5405760, "name": "Vanris (historical)", "country": "US", "coord": {"lon": -119.700417, "lat": 36.77578}}, {"id": 1253425, "name": "Vansada", "country": "IN", "coord": {"lon": 73.366669, "lat": 20.75}}, {"id": 2665063, "name": "Vansbro", "country": "SE", "coord": {"lon": 14.22458, "lat": 60.50893}}, {"id": 6173456, "name": "Vanscoy", "country": "CA", "coord": {"lon": -106.984558, "lat": 52.00008}}, {"id": 3132720, "name": "Vanse", "country": "NO", "coord": {"lon": 6.7, "lat": 58.116669}}, {"id": 830153, "name": "Vantaa", "country": "FI", "coord": {"lon": 25.16667, "lat": 60.299999}}, {"id": 632453, "name": "Vantaa", "country": "FI", "coord": {"lon": 25.040991, "lat": 60.29414}}, {"id": 6613135, "name": "Vanves", "country": "FR", "coord": {"lon": 2.2895, "lat": 48.819599}}, {"id": 2970761, "name": "Vanves", "country": "FR", "coord": {"lon": 2.29025, "lat": 48.823448}}, {"id": 6429670, "name": "Vanxains", "country": "FR", "coord": {"lon": 0.28333, "lat": 45.216671}}, {"id": 2970758, "name": "Vanxains", "country": "FR", "coord": {"lon": 0.28333, "lat": 45.216671}}, {"id": 3164728, "name": "Vanzaghello", "country": "IT", "coord": {"lon": 8.78104, "lat": 45.57917}}, {"id": 3164727, "name": "Vanzago", "country": "IT", "coord": {"lon": 8.99404, "lat": 45.52697}}, {"id": 477109, "name": "Van\u2019kovo", "country": "RU", "coord": {"lon": 37.700001, "lat": 56.266666}}, {"id": 2137773, "name": "Vao", "country": "NC", "coord": {"lon": 167.483337, "lat": -22.66667}}, {"id": 3063385, "name": "Vapenna", "country": "CZ", "coord": {"lon": 17.09762, "lat": 50.283379}}, {"id": 7279741, "name": "Vapi", "country": "IN", "coord": {"lon": 72.90493, "lat": 20.37175}}, {"id": 690485, "name": "Vapnyarka", "country": "UA", "coord": {"lon": 28.74358, "lat": 48.53479}}, {"id": 3164723, "name": "Vaprio dAdda", "country": "IT", "coord": {"lon": 9.52475, "lat": 45.577782}}, {"id": 3164722, "name": "Vaprio dAgogna", "country": "IT", "coord": {"lon": 8.55353, "lat": 45.603668}}, {"id": 3106380, "name": "Vaqueira-Beret", "country": "ES", "coord": {"lon": 0.93333, "lat": 42.683331}}, {"id": 3833182, "name": "Vaqueros", "country": "AR", "coord": {"lon": -65.397911, "lat": -24.705851}}, {"id": 2665018, "name": "Vara", "country": "SE", "coord": {"lon": 12.95413, "lat": 58.262341}}, {"id": 3739012, "name": "Vara de Mar\u00eda", "country": "VE", "coord": {"lon": -70.762154, "lat": 7.20152}}, {"id": 6357553, "name": "Vara de Rey", "country": "ES", "coord": {"lon": -2.28359, "lat": 39.420311}}, {"id": 2509819, "name": "Vara de Rey", "country": "ES", "coord": {"lon": -2.29404, "lat": 39.425949}}, {"id": 3534632, "name": "Varadero", "country": "CU", "coord": {"lon": -81.251389, "lat": 23.15361}}, {"id": 6434556, "name": "Varades", "country": "FR", "coord": {"lon": -1.03333, "lat": 47.383331}}, {"id": 2970747, "name": "Varades", "country": "FR", "coord": {"lon": -1.02842, "lat": 47.384579}}, {"id": 663207, "name": "Varadia", "country": "RO", "coord": {"lon": 21.54694, "lat": 45.078331}}, {"id": 663205, "name": "Varadia de Mures", "country": "RO", "coord": {"lon": 22.15, "lat": 46.01667}}, {"id": 6429671, "name": "Varaignes", "country": "FR", "coord": {"lon": 0.53333, "lat": 45.599998}}, {"id": 2970744, "name": "Varaignes", "country": "FR", "coord": {"lon": 0.53088, "lat": 45.598099}}, {"id": 819526, "name": "Varakinskiy", "country": "RU", "coord": {"lon": 45.344723, "lat": 58.368057}}, {"id": 3164718, "name": "Varallo", "country": "IT", "coord": {"lon": 8.25902, "lat": 45.813869}}, {"id": 3164717, "name": "Varallo Pombia", "country": "IT", "coord": {"lon": 8.62893, "lat": 45.66687}}, {"id": 112214, "name": "Varamin", "country": "IR", "coord": {"lon": 51.645699, "lat": 35.3242}}, {"id": 1253405, "name": "Varanasi", "country": "IN", "coord": {"lon": 83, "lat": 25.333332}}, {"id": 1253403, "name": "Varangaon", "country": "IN", "coord": {"lon": 75.900002, "lat": 21.01667}}, {"id": 777032, "name": "Varangerbotn", "country": "NO", "coord": {"lon": 28.555981, "lat": 70.172783}}, {"id": 2970739, "name": "Varangeville", "country": "FR", "coord": {"lon": 6.32112, "lat": 48.636051}}, {"id": 6436896, "name": "Varang\u00e9ville", "country": "FR", "coord": {"lon": 6.31667, "lat": 48.633331}}, {"id": 6534924, "name": "Varano Borghi", "country": "IT", "coord": {"lon": 8.70403, "lat": 45.774071}}, {"id": 3164712, "name": "Varano deMelegari", "country": "IT", "coord": {"lon": 10.01148, "lat": 44.688061}}, {"id": 2522795, "name": "Varapodio", "country": "IT", "coord": {"lon": 15.9844, "lat": 38.31707}}, {"id": 663197, "name": "Varasti", "country": "RO", "coord": {"lon": 26.24861, "lat": 44.237782}}, {"id": 6453684, "name": "Varaville", "country": "FR", "coord": {"lon": -0.15, "lat": 49.25}}, {"id": 2970736, "name": "Varaville", "country": "FR", "coord": {"lon": -0.15879, "lat": 49.25322}}, {"id": 3188383, "name": "Varazdin", "country": "HR", "coord": {"lon": 16.33778, "lat": 46.30444}}, {"id": 6536089, "name": "Varazze", "country": "IT", "coord": {"lon": 8.57405, "lat": 44.359539}}, {"id": 3164709, "name": "Varazze", "country": "IT", "coord": {"lon": 8.57405, "lat": 44.359539}}, {"id": 3337528, "name": "Vara\u017edinska \u017dupanija", "country": "HR", "coord": {"lon": 16.33333, "lat": 46.25}}, {"id": 3188380, "name": "Vara\u017edinske Toplice", "country": "HR", "coord": {"lon": 16.41917, "lat": 46.209171}}, {"id": 2664996, "name": "Varberg", "country": "SE", "coord": {"lon": 12.25078, "lat": 57.105572}}, {"id": 2664994, "name": "Varbergs Kommun", "country": "SE", "coord": {"lon": 12.25, "lat": 57.150002}}, {"id": 663178, "name": "Varbilau", "country": "RO", "coord": {"lon": 25.950001, "lat": 45.183331}}, {"id": 1253401, "name": "Varca", "country": "IN", "coord": {"lon": 73.916672, "lat": 15.21667}}, {"id": 6548097, "name": "Varchentin", "country": "DE", "coord": {"lon": 12.85, "lat": 53.583302}}, {"id": 2817881, "name": "Varchentin", "country": "DE", "coord": {"lon": 12.85, "lat": 53.583328}}, {"id": 662785, "name": "Varciorog", "country": "RO", "coord": {"lon": 22.299999, "lat": 46.966671}}, {"id": 3164705, "name": "Varco Sabino", "country": "IT", "coord": {"lon": 13.01988, "lat": 42.23983}}, {"id": 252291, "name": "Varda", "country": "GR", "coord": {"lon": 21.366671, "lat": 38.033329}}, {"id": 793638, "name": "Vardablur", "country": "AM", "coord": {"lon": 44.508888, "lat": 40.970829}}, {"id": 859714, "name": "Vardadzor", "country": "AM", "coord": {"lon": 45.19212, "lat": 40.187012}}, {"id": 4449552, "name": "Vardaman", "country": "US", "coord": {"lon": -89.177292, "lat": 33.875671}}, {"id": 477047, "name": "Vardane", "country": "RU", "coord": {"lon": 39.551388, "lat": 43.731667}}, {"id": 2610726, "name": "Varde", "country": "DK", "coord": {"lon": 8.48069, "lat": 55.62112}}, {"id": 2622446, "name": "Varde Kommune", "country": "DK", "coord": {"lon": 8.5, "lat": 55.616669}}, {"id": 616109, "name": "Vardenik", "country": "AM", "coord": {"lon": 45.433418, "lat": 40.139278}}, {"id": 616108, "name": "Vardenis", "country": "AM", "coord": {"lon": 45.731098, "lat": 40.18272}}, {"id": 6460884, "name": "Vardim", "country": "BG", "coord": {"lon": 25.466669, "lat": 43.616669}}, {"id": 726055, "name": "Vardim", "country": "BG", "coord": {"lon": 25.466669, "lat": 43.616669}}, {"id": 777019, "name": "Vardo", "country": "NO", "coord": {"lon": 31.110661, "lat": 70.370483}}, {"id": 632421, "name": "Vardoe", "country": "AX", "coord": {"lon": 20.383329, "lat": 60.25}}, {"id": 6453313, "name": "Vard\u00f8", "country": "NO", "coord": {"lon": 31.10866, "lat": 70.370399}}, {"id": 3164702, "name": "Varedo", "country": "IT", "coord": {"lon": 9.15674, "lat": 45.597969}}, {"id": 252267, "name": "Vareia", "country": "GR", "coord": {"lon": 26.566669, "lat": 39.083328}}, {"id": 2817876, "name": "Varel", "country": "DE", "coord": {"lon": 8.13602, "lat": 53.396931}}, {"id": 2817873, "name": "Varel", "country": "DE", "coord": {"lon": 8.13621, "lat": 53.396931}}, {"id": 4568524, "name": "Varela", "country": "PR", "coord": {"lon": -66.63073, "lat": 18.37606}}, {"id": 7287417, "name": "Varen", "country": "CH", "coord": {"lon": 7.59282, "lat": 46.337559}}, {"id": 2658185, "name": "Varen", "country": "CH", "coord": {"lon": 7.60743, "lat": 46.3186}}, {"id": 593406, "name": "Varena", "country": "LT", "coord": {"lon": 24.566669, "lat": 54.216671}}, {"id": 6534648, "name": "Varena", "country": "IT", "coord": {"lon": 11.45828, "lat": 46.306709}}, {"id": 6443567, "name": "Varengeville-sur-Mer", "country": "FR", "coord": {"lon": 0.9953, "lat": 49.905899}}, {"id": 2970725, "name": "Varengeville-sur-Mer", "country": "FR", "coord": {"lon": 0.9948, "lat": 49.904751}}, {"id": 6435692, "name": "Varenguebec", "country": "FR", "coord": {"lon": -1.5, "lat": 49.333328}}, {"id": 2970724, "name": "Varenguebec", "country": "FR", "coord": {"lon": -1.49762, "lat": 49.337849}}, {"id": 477039, "name": "Varenikovskaya", "country": "RU", "coord": {"lon": 37.641708, "lat": 45.12085}}, {"id": 3164701, "name": "Varenna", "country": "IT", "coord": {"lon": 9.28364, "lat": 46.01088}}, {"id": 6173508, "name": "Varennes", "country": "CA", "coord": {"lon": -73.432457, "lat": 45.68338}}, {"id": 6446215, "name": "Varennes-Jarcy", "country": "FR", "coord": {"lon": 2.55, "lat": 48.683331}}, {"id": 2970693, "name": "Varennes-Jarcy", "country": "FR", "coord": {"lon": 2.56152, "lat": 48.679138}}, {"id": 6442524, "name": "Varennes-Saint-Sauveur", "country": "FR", "coord": {"lon": 5.25, "lat": 46.48333}}, {"id": 2970687, "name": "Varennes-Saint-Sauveur", "country": "FR", "coord": {"lon": 5.24349, "lat": 46.482262}}, {"id": 6454397, "name": "Varennes-Vauzelles", "country": "FR", "coord": {"lon": 3.14037, "lat": 47.016781}}, {"id": 3024865, "name": "Varennes-Vauzelles", "country": "FR", "coord": {"lon": 3.14037, "lat": 47.016781}}, {"id": 6442522, "name": "Varennes-le-Grand", "country": "FR", "coord": {"lon": 4.88333, "lat": 46.716671}}, {"id": 2970692, "name": "Varennes-le-Grand", "country": "FR", "coord": {"lon": 4.86872, "lat": 46.718681}}, {"id": 6425501, "name": "Varennes-sur-Allier", "country": "FR", "coord": {"lon": 3.4, "lat": 46.316669}}, {"id": 2970685, "name": "Varennes-sur-Allier", "country": "FR", "coord": {"lon": 3.39846, "lat": 46.31472}}, {"id": 6435342, "name": "Varennes-sur-Loire", "country": "FR", "coord": {"lon": 0.05, "lat": 47.23333}}, {"id": 2970681, "name": "Varennes-sur-Loire", "country": "FR", "coord": {"lon": 0.0535, "lat": 47.237671}}, {"id": 6440262, "name": "Varennes-sur-Morge", "country": "FR", "coord": {"lon": 3.18333, "lat": 45.933331}}, {"id": 2970680, "name": "Varennes-sur-Morge", "country": "FR", "coord": {"lon": 3.18814, "lat": 45.941849}}, {"id": 6443886, "name": "Varennes-sur-Seine", "country": "FR", "coord": {"lon": 2.91667, "lat": 48.366669}}, {"id": 2970679, "name": "Varennes-sur-Seine", "country": "FR", "coord": {"lon": 2.92571, "lat": 48.373039}}, {"id": 6425502, "name": "Varennes-sur-T\u00e8che", "country": "FR", "coord": {"lon": 3.63333, "lat": 46.316669}}, {"id": 2970678, "name": "Varennes-sur-T\u00e8che", "country": "FR", "coord": {"lon": 3.63171, "lat": 46.32618}}, {"id": 6440263, "name": "Varennes-sur-Usson", "country": "FR", "coord": {"lon": 3.3, "lat": 45.533329}}, {"id": 2970677, "name": "Varennes-sur-Usson", "country": "FR", "coord": {"lon": 3.30481, "lat": 45.531898}}, {"id": 477034, "name": "Varenovka", "country": "RU", "coord": {"lon": 39.022221, "lat": 47.283051}}, {"id": 3188366, "name": "Vares", "country": "BA", "coord": {"lon": 18.328329, "lat": 44.16444}}, {"id": 6542112, "name": "Varese", "country": "IT", "coord": {"lon": 8.82193, "lat": 45.829079}}, {"id": 3164699, "name": "Varese", "country": "IT", "coord": {"lon": 8.82193, "lat": 45.829079}}, {"id": 6541556, "name": "Varese Ligure", "country": "IT", "coord": {"lon": 9.59418, "lat": 44.37635}}, {"id": 3164696, "name": "Varese Ligure", "country": "IT", "coord": {"lon": 9.59418, "lat": 44.37635}}, {"id": 6428492, "name": "Varetz", "country": "FR", "coord": {"lon": 1.45, "lat": 45.200001}}, {"id": 2970673, "name": "Varetz", "country": "FR", "coord": {"lon": 1.45121, "lat": 45.193901}}, {"id": 662772, "name": "Varfuri", "country": "RO", "coord": {"lon": 25.51667, "lat": 45.099998}}, {"id": 662769, "name": "Varfurile", "country": "RO", "coord": {"lon": 22.51667, "lat": 46.316669}}, {"id": 2664939, "name": "Vargarda", "country": "SE", "coord": {"lon": 12.80907, "lat": 58.03706}}, {"id": 1680075, "name": "Vargas", "country": "PH", "coord": {"lon": 120.486702, "lat": 15.5928}}, {"id": 1487784, "name": "Vargashi", "country": "RU", "coord": {"lon": 65.846672, "lat": 55.35556}}, {"id": 663173, "name": "Vargata", "country": "RO", "coord": {"lon": 24.799999, "lat": 46.566669}}, {"id": 3445550, "name": "Vargem", "country": "BR", "coord": {"lon": -46.849998, "lat": -22.73333}}, {"id": 3445543, "name": "Vargem Alegre", "country": "BR", "coord": {"lon": -42.298328, "lat": -19.60833}}, {"id": 3445534, "name": "Vargem Alta", "country": "BR", "coord": {"lon": -41.006939, "lat": -20.671391}}, {"id": 3445530, "name": "Vargem Bonita", "country": "BR", "coord": {"lon": -53.01667, "lat": -26.116671}}, {"id": 3445506, "name": "Vargem Grande", "country": "BR", "coord": {"lon": -45.283329, "lat": -22.98333}}, {"id": 3385538, "name": "Vargem Grande", "country": "BR", "coord": {"lon": -43.915829, "lat": -3.54306}}, {"id": 6322649, "name": "Vargem Grande Paulista", "country": "BR", "coord": {"lon": -47.019138, "lat": -23.628559}}, {"id": 6318864, "name": "Vargem Grande Paulista", "country": "BR", "coord": {"lon": -47.02639, "lat": -23.603331}}, {"id": 3445500, "name": "Vargem Grande do Sul", "country": "BR", "coord": {"lon": -46.893608, "lat": -21.83222}}, {"id": 662767, "name": "Varghis", "country": "RO", "coord": {"lon": 25.533331, "lat": 46.133331}}, {"id": 3445487, "name": "Varginha", "country": "BR", "coord": {"lon": -45.430279, "lat": -21.55139}}, {"id": 3385512, "name": "Varginha", "country": "BR", "coord": {"lon": -38.75, "lat": -8.85}}, {"id": 7670441, "name": "Vargistagn", "country": "CH", "coord": {"lon": 9.40838, "lat": 46.627899}}, {"id": 2664921, "name": "Vargon", "country": "SE", "coord": {"lon": 12.3906, "lat": 58.355991}}, {"id": 3132644, "name": "Varhaug", "country": "NO", "coord": {"lon": 5.64571, "lat": 58.614712}}, {"id": 252271, "name": "Vari", "country": "GR", "coord": {"lon": 24.950001, "lat": 37.400002}}, {"id": 252270, "name": "Vari", "country": "GR", "coord": {"lon": 23.80809, "lat": 37.8312}}, {"id": 663171, "name": "Varias", "country": "RO", "coord": {"lon": 20.950001, "lat": 46.01667}}, {"id": 6426346, "name": "Varilhes", "country": "FR", "coord": {"lon": 1.63333, "lat": 43.049999}}, {"id": 2970669, "name": "Varilhes", "country": "FR", "coord": {"lon": 1.62805, "lat": 43.045139}}, {"id": 6535823, "name": "Varisella", "country": "IT", "coord": {"lon": 7.48382, "lat": 45.208351}}, {"id": 3385504, "name": "Varjota", "country": "BR", "coord": {"lon": -40.476669, "lat": -4.19444}}, {"id": 3445481, "name": "Varj\u00e3o", "country": "BR", "coord": {"lon": -49.631111, "lat": -17.04528}}, {"id": 3043124, "name": "Varj\u00fad\u0171l\u0151", "country": "HU", "coord": {"lon": 18.41667, "lat": 47.200001}}, {"id": 632371, "name": "Varkaus", "country": "FI", "coord": {"lon": 27.866671, "lat": 62.333328}}, {"id": 632370, "name": "Varkaus", "country": "FI", "coord": {"lon": 27.872999, "lat": 62.315331}}, {"id": 1253392, "name": "Varkkallai", "country": "IN", "coord": {"lon": 76.706711, "lat": 8.7341}}, {"id": 477004, "name": "Varlamovo", "country": "RU", "coord": {"lon": 48.4226, "lat": 53.189701}}, {"id": 662759, "name": "Varlezi", "country": "RO", "coord": {"lon": 27.85, "lat": 45.900002}}, {"id": 2817850, "name": "Varlosen", "country": "DE", "coord": {"lon": 9.71667, "lat": 51.5}}, {"id": 3164692, "name": "Varmo", "country": "IT", "coord": {"lon": 12.98667, "lat": 45.886391}}, {"id": 1487764, "name": "Varna", "country": "RU", "coord": {"lon": 60.97472, "lat": 53.381939}}, {"id": 726050, "name": "Varna", "country": "BG", "coord": {"lon": 27.91667, "lat": 43.216671}}, {"id": 3164691, "name": "Varna", "country": "IT", "coord": {"lon": 11.63858, "lat": 46.73822}}, {"id": 3188361, "name": "Varna", "country": "RS", "coord": {"lon": 19.65139, "lat": 44.67778}}, {"id": 4344481, "name": "Varnado", "country": "US", "coord": {"lon": -89.829521, "lat": 30.893801}}, {"id": 2664855, "name": "Varnamo", "country": "SE", "coord": {"lon": 14.04001, "lat": 57.186039}}, {"id": 252244, "name": "Varnavas", "country": "GR", "coord": {"lon": 23.91667, "lat": 38.216671}}, {"id": 476982, "name": "Varnavino", "country": "RU", "coord": {"lon": 45.09164, "lat": 57.403511}}, {"id": 1487762, "name": "Varnek", "country": "RU", "coord": {"lon": 60.052898, "lat": 69.714203}}, {"id": 4228262, "name": "Varnell", "country": "US", "coord": {"lon": -84.973831, "lat": 34.901192}}, {"id": 593378, "name": "Varniai", "country": "LT", "coord": {"lon": 22.364441, "lat": 55.740559}}, {"id": 617149, "name": "Varnita", "country": "MD", "coord": {"lon": 29.46636, "lat": 46.866058}}, {"id": 477012, "name": "Varnitsy", "country": "RU", "coord": {"lon": 42.745556, "lat": 59.9925}}, {"id": 3063375, "name": "Varnsdorf", "country": "CZ", "coord": {"lon": 14.61824, "lat": 50.911541}}, {"id": 4599493, "name": "Varnville", "country": "US", "coord": {"lon": -81.079269, "lat": 32.850441}}, {"id": 6428936, "name": "Varois-et-Chaignot", "country": "FR", "coord": {"lon": 5.11667, "lat": 47.349998}}, {"id": 2970653, "name": "Varois-et-Chaignot", "country": "FR", "coord": {"lon": 5.12838, "lat": 47.350578}}, {"id": 784711, "name": "Varos", "country": "MK", "coord": {"lon": 21.532499, "lat": 41.35722}}, {"id": 3043111, "name": "Varosfoeld", "country": "HU", "coord": {"lon": 19.75668, "lat": 46.816738}}, {"id": 3188357, "name": "Varoska Rijeka", "country": "BA", "coord": {"lon": 16.01417, "lat": 45.084721}}, {"id": 632361, "name": "Varpaisjarvi", "country": "FI", "coord": {"lon": 27.75, "lat": 63.366669}}, {"id": 3043095, "name": "Varpalota", "country": "HU", "coord": {"lon": 18.13954, "lat": 47.19936}}, {"id": 6435343, "name": "Varrains", "country": "FR", "coord": {"lon": -0.06667, "lat": 47.216671}}, {"id": 2970651, "name": "Varrains", "country": "FR", "coord": {"lon": -0.06033, "lat": 47.223049}}, {"id": 6443887, "name": "Varreddes", "country": "FR", "coord": {"lon": 2.93333, "lat": 49}}, {"id": 2970650, "name": "Varreddes", "country": "FR", "coord": {"lon": 2.92788, "lat": 49.003052}}, {"id": 6552465, "name": "Varrel", "country": "DE", "coord": {"lon": 8.73333, "lat": 52.616699}}, {"id": 2817841, "name": "Varrel", "country": "DE", "coord": {"lon": 8.7331, "lat": 52.621498}}, {"id": 6427887, "name": "Vars", "country": "FR", "coord": {"lon": 0.11667, "lat": 45.76667}}, {"id": 2970648, "name": "Vars", "country": "FR", "coord": {"lon": 0.12478, "lat": 45.762562}}, {"id": 663158, "name": "Varsag", "country": "RO", "coord": {"lon": 25.35, "lat": 46.51667}}, {"id": 616103, "name": "Varser", "country": "AM", "coord": {"lon": 44.906898, "lat": 40.553398}}, {"id": 476958, "name": "Varshavka", "country": "RU", "coord": {"lon": 56.110661, "lat": 54.379452}}, {"id": 690471, "name": "Varshitsa", "country": "UA", "coord": {"lon": 28.533331, "lat": 49.466671}}, {"id": 3164686, "name": "Varsi", "country": "IT", "coord": {"lon": 9.84668, "lat": 44.662159}}, {"id": 830708, "name": "Varsinais-Suomi", "country": "FI", "coord": {"lon": 22.25, "lat": 60.5}}, {"id": 7302634, "name": "Varsity Lakes", "country": "AU", "coord": {"lon": 153.412201, "lat": -28.089399}}, {"id": 2745800, "name": "Varsseveld", "country": "NL", "coord": {"lon": 6.45833, "lat": 51.943329}}, {"id": 2664783, "name": "Varsta", "country": "SE", "coord": {"lon": 17.79722, "lat": 59.165279}}, {"id": 1253381, "name": "Vartej", "country": "IN", "coord": {"lon": 72.066673, "lat": 21.73333}}, {"id": 252239, "name": "Vartholomio", "country": "GR", "coord": {"lon": 21.200001, "lat": 37.866669}}, {"id": 7647247, "name": "Vartiovuori", "country": "FI", "coord": {"lon": 22.277611, "lat": 60.446678}}, {"id": 298088, "name": "Varto", "country": "TR", "coord": {"lon": 41.455929, "lat": 39.17321}}, {"id": 662731, "name": "Vartoapele de Jos", "country": "RO", "coord": {"lon": 25.200001, "lat": 44.183331}}, {"id": 662724, "name": "Vartop", "country": "RO", "coord": {"lon": 23.35, "lat": 44.200001}}, {"id": 7871102, "name": "Varuskunta", "country": "FI", "coord": {"lon": 23.623779, "lat": 61.406952}}, {"id": 690469, "name": "Varva", "country": "UA", "coord": {"lon": 32.719681, "lat": 50.495029}}, {"id": 6460065, "name": "Varvara", "country": "BG", "coord": {"lon": 27.91667, "lat": 42.116669}}, {"id": 726041, "name": "Varvara", "country": "BG", "coord": {"lon": 27.91667, "lat": 42.116669}}, {"id": 6461197, "name": "Varvara", "country": "BG", "coord": {"lon": 24.133329, "lat": 42.150002}}, {"id": 726040, "name": "Varvara", "country": "BG", "coord": {"lon": 24.133329, "lat": 42.150002}}, {"id": 784704, "name": "Varvarin", "country": "RS", "coord": {"lon": 21.3624, "lat": 43.723969}}, {"id": 690466, "name": "Varvarivka", "country": "UA", "coord": {"lon": 34.900002, "lat": 45.333332}}, {"id": 866987, "name": "Varvarovka", "country": "RU", "coord": {"lon": 37.386391, "lat": 44.840832}}, {"id": 690454, "name": "Varvarovka", "country": "UA", "coord": {"lon": 36, "lat": 48.716671}}, {"id": 252232, "name": "Varvasaina", "country": "GR", "coord": {"lon": 21.5, "lat": 37.683331}}, {"id": 662717, "name": "Varvoru", "country": "RO", "coord": {"lon": 23.633329, "lat": 44.23333}}, {"id": 690434, "name": "Vary", "country": "UA", "coord": {"lon": 22.712811, "lat": 48.12207}}, {"id": 3385467, "name": "Varzea Alegre", "country": "BR", "coord": {"lon": -40.383331, "lat": -5.35}}, {"id": 3445451, "name": "Varzea Grande", "country": "BR", "coord": {"lon": -56.1325, "lat": -15.64667}}, {"id": 3445446, "name": "Varzea Paulista", "country": "BR", "coord": {"lon": -46.828331, "lat": -23.21139}}, {"id": 3445459, "name": "Varzea da Palma", "country": "BR", "coord": {"lon": -44.730831, "lat": -17.598061}}, {"id": 3445443, "name": "Varzedo", "country": "BR", "coord": {"lon": -39.39389, "lat": -12.97167}}, {"id": 3445442, "name": "Varzelandia", "country": "BR", "coord": {"lon": -44.0275, "lat": -15.70139}}, {"id": 3164685, "name": "Varzi", "country": "IT", "coord": {"lon": 9.19762, "lat": 44.822971}}, {"id": 3164684, "name": "Varzo", "country": "IT", "coord": {"lon": 8.25241, "lat": 46.20668}}, {"id": 1220197, "name": "Varzob", "country": "TJ", "coord": {"lon": 68.817757, "lat": 38.773689}}, {"id": 6454398, "name": "Varzy", "country": "FR", "coord": {"lon": 3.38333, "lat": 47.366669}}, {"id": 2970637, "name": "Varzy", "country": "FR", "coord": {"lon": 3.38619, "lat": 47.358101}}, {"id": 3164683, "name": "Vas", "country": "IT", "coord": {"lon": 11.9366, "lat": 45.939308}}, {"id": 3043047, "name": "Vas megye", "country": "HU", "coord": {"lon": 16.75, "lat": 47.166672}}, {"id": 1253374, "name": "Vasa", "country": "IN", "coord": {"lon": 72.73333, "lat": 22.66667}}, {"id": 632979, "name": "Vasa", "country": "FI", "coord": {"lon": 21.66667, "lat": 63.083328}}, {"id": 1253372, "name": "Vasai", "country": "IN", "coord": {"lon": 72.8, "lat": 19.47}}, {"id": 587699, "name": "Vasalemma", "country": "EE", "coord": {"lon": 24.290001, "lat": 59.244171}}, {"id": 7522454, "name": "Vasalemma vald", "country": "EE", "coord": {"lon": 24.264931, "lat": 59.240891}}, {"id": 3164682, "name": "Vasanello", "country": "IT", "coord": {"lon": 12.34657, "lat": 42.413731}}, {"id": 714188, "name": "Vasarosnameny", "country": "HU", "coord": {"lon": 22.316669, "lat": 48.133331}}, {"id": 2817828, "name": "Vasbeck", "country": "DE", "coord": {"lon": 8.88333, "lat": 51.383331}}, {"id": 663135, "name": "Vascau", "country": "RO", "coord": {"lon": 22.466669, "lat": 46.466671}}, {"id": 2592240, "name": "Vasco", "country": "AO", "coord": {"lon": 16.31361, "lat": -9.53889}}, {"id": 2261810, "name": "Vasco Car\u00e3o", "country": "PT", "coord": {"lon": -8.8, "lat": 38.98333}}, {"id": 1253367, "name": "Vasco Da Gama", "country": "IN", "coord": {"lon": 73.815681, "lat": 15.39585}}, {"id": 8012211, "name": "Vascoveiro", "country": "PT", "coord": {"lon": -7.05904, "lat": 40.732471}}, {"id": 2732884, "name": "Vascoveiro", "country": "PT", "coord": {"lon": -7.06995, "lat": 40.734661}}, {"id": 690428, "name": "Vashkivtsi", "country": "UA", "coord": {"lon": 25.510229, "lat": 48.384918}}, {"id": 5814647, "name": "Vashon", "country": "US", "coord": {"lon": -122.459846, "lat": 47.447319}}, {"id": 4738978, "name": "Vashti", "country": "US", "coord": {"lon": -98.040871, "lat": 33.55566}}, {"id": 3164675, "name": "Vasia", "country": "IT", "coord": {"lon": 7.95295, "lat": 43.932018}}, {"id": 726028, "name": "Vasil Levski", "country": "BG", "coord": {"lon": 28.16667, "lat": 43.416672}}, {"id": 663128, "name": "Vasilati", "country": "RO", "coord": {"lon": 26.4475, "lat": 44.287781}}, {"id": 784700, "name": "Vasilevo", "country": "MK", "coord": {"lon": 22.64167, "lat": 41.476109}}, {"id": 733941, "name": "Vasilika", "country": "GR", "coord": {"lon": 23.13695, "lat": 40.47966}}, {"id": 252200, "name": "Vasiliki", "country": "GR", "coord": {"lon": 21.70472, "lat": 39.638889}}, {"id": 252190, "name": "Vasilikon", "country": "GR", "coord": {"lon": 23.66667, "lat": 38.433331}}, {"id": 620425, "name": "Vasilyevichy", "country": "BY", "coord": {"lon": 29.8288, "lat": 52.251202}}, {"id": 611182, "name": "Vasilyevo", "country": "RU", "coord": {"lon": 48.658199, "lat": 55.83596}}, {"id": 476548, "name": "Vasilyevskiy Mokh", "country": "RU", "coord": {"lon": 35.918968, "lat": 57.013161}}, {"id": 476798, "name": "Vasil\u00ebvo", "country": "RU", "coord": {"lon": 39.200001, "lat": 55.383331}}, {"id": 6610057, "name": "Vasil\u2019chikovo", "country": "RU", "coord": {"lon": 42.574165, "lat": 56.097778}}, {"id": 476732, "name": "Vasil\u2019sursk", "country": "RU", "coord": {"lon": 46.007221, "lat": 56.127499}}, {"id": 690398, "name": "Vasil\u2019yevka", "country": "UA", "coord": {"lon": 34.166668, "lat": 44.516666}}, {"id": 690393, "name": "Vasil\u2019yevka", "country": "UA", "coord": {"lon": 34.583332, "lat": 46.049999}}, {"id": 797076, "name": "Vasil\u2019yevka", "country": "RU", "coord": {"lon": 40.331944, "lat": 48.713333}}, {"id": 476630, "name": "Vasil\u2019yevka", "country": "RU", "coord": {"lon": 36.933331, "lat": 52.883331}}, {"id": 690367, "name": "Vasil\u2019yevka", "country": "UA", "coord": {"lon": 35.5, "lat": 48.033329}}, {"id": 690380, "name": "Vasil\u2019yevka", "country": "UA", "coord": {"lon": 35.299999, "lat": 47.433331}}, {"id": 823667, "name": "Vasil\u2019yevka", "country": "RU", "coord": {"lon": 39.718029, "lat": 43.661121}}, {"id": 476612, "name": "Vasil\u2019yevo", "country": "RU", "coord": {"lon": 37.966667, "lat": 56.200001}}, {"id": 476595, "name": "Vasil\u2019yevo", "country": "RU", "coord": {"lon": 38.183334, "lat": 55.733334}}, {"id": 808864, "name": "Vasil\u2019yevo-Grigor\u2019yevskiy", "country": "UA", "coord": {"lon": 36.509441, "lat": 49.243061}}, {"id": 476567, "name": "Vasil\u2019yevskiy", "country": "RU", "coord": {"lon": 42.451668, "lat": 47.168331}}, {"id": 476540, "name": "Vasil\u2019yevskoye", "country": "RU", "coord": {"lon": 37.422489, "lat": 55.002087}}, {"id": 476538, "name": "Vasil\u2019yevskoye", "country": "RU", "coord": {"lon": 38.086109, "lat": 55.123333}}, {"id": 521022, "name": "Vasil\u2019yevskoye", "country": "RU", "coord": {"lon": 36.555401, "lat": 56.0298}}, {"id": 1253363, "name": "Vasind", "country": "IN", "coord": {"lon": 73.26667, "lat": 19.41667}}, {"id": 3043048, "name": "Vaskut", "country": "HU", "coord": {"lon": 18.98514, "lat": 46.107819}}, {"id": 6612820, "name": "Vasles", "country": "FR", "coord": {"lon": -0.01667, "lat": 46.583328}}, {"id": 2970634, "name": "Vasles", "country": "FR", "coord": {"lon": -0.02638, "lat": 46.57618}}, {"id": 663118, "name": "Vaslui", "country": "RO", "coord": {"lon": 27.73333, "lat": 46.633331}}, {"id": 4981745, "name": "Vassalboro", "country": "US", "coord": {"lon": -69.677551, "lat": 44.459229}}, {"id": 6173559, "name": "Vassar", "country": "CA", "coord": {"lon": -95.831947, "lat": 49.097771}}, {"id": 5013174, "name": "Vassar", "country": "US", "coord": {"lon": -83.58329, "lat": 43.371971}}, {"id": 2059507, "name": "Vasse", "country": "AU", "coord": {"lon": 115.25, "lat": -33.666672}}, {"id": 6440264, "name": "Vassel", "country": "FR", "coord": {"lon": 3.31667, "lat": 45.76667}}, {"id": 2970628, "name": "Vassel", "country": "FR", "coord": {"lon": 3.31019, "lat": 45.765202}}, {"id": 6428323, "name": "Vasselay", "country": "FR", "coord": {"lon": 2.4, "lat": 47.166672}}, {"id": 2970627, "name": "Vasselay", "country": "FR", "coord": {"lon": 2.38963, "lat": 47.15686}}, {"id": 2970619, "name": "Vassivi\u00e8re", "country": "FR", "coord": {"lon": 2.84913, "lat": 45.495392}}, {"id": 3445433, "name": "Vassouras", "country": "BR", "coord": {"lon": -43.662498, "lat": -22.403891}}, {"id": 3132474, "name": "Vassvika", "country": "NO", "coord": {"lon": 14.88333, "lat": 68.5}}, {"id": 6427542, "name": "Vassy", "country": "FR", "coord": {"lon": -0.66667, "lat": 48.849998}}, {"id": 2970610, "name": "Vassy", "country": "FR", "coord": {"lon": -0.67485, "lat": 48.853809}}, {"id": 632225, "name": "Vastanfjard", "country": "FI", "coord": {"lon": 22.683331, "lat": 60.049999}}, {"id": 2664454, "name": "Vasteras", "country": "SE", "coord": {"lon": 16.552759, "lat": 59.616169}}, {"id": 2664339, "name": "Vasterhaninge", "country": "SE", "coord": {"lon": 18.1, "lat": 59.116669}}, {"id": 6435694, "name": "Vasteville", "country": "FR", "coord": {"lon": -1.76667, "lat": 49.599998}}, {"id": 2970608, "name": "Vasteville", "country": "FR", "coord": {"lon": -1.77476, "lat": 49.595001}}, {"id": 3164672, "name": "Vasto", "country": "IT", "coord": {"lon": 14.70592, "lat": 42.12434}}, {"id": 6538896, "name": "Vasto", "country": "IT", "coord": {"lon": 14.70592, "lat": 42.12434}}, {"id": 3164671, "name": "Vastogirardi", "country": "IT", "coord": {"lon": 14.26042, "lat": 41.774132}}, {"id": 6552697, "name": "Vastorf", "country": "DE", "coord": {"lon": 10.55, "lat": 53.200001}}, {"id": 2817823, "name": "Vastorf", "country": "DE", "coord": {"lon": 10.54563, "lat": 53.198009}}, {"id": 1253357, "name": "Vasudevanallur", "country": "IN", "coord": {"lon": 77.416672, "lat": 9.23333}}, {"id": 3043033, "name": "Vasvar", "country": "HU", "coord": {"lon": 16.79954, "lat": 47.049278}}, {"id": 686729, "name": "Vasylivka", "country": "UA", "coord": {"lon": 35.274166, "lat": 47.436943}}, {"id": 690412, "name": "Vasylkiv", "country": "UA", "coord": {"lon": 30.313459, "lat": 50.18692}}, {"id": 690335, "name": "Vasyshcheve", "country": "UA", "coord": {"lon": 36.326908, "lat": 49.828522}}, {"id": 476428, "name": "Vasyukovo", "country": "RU", "coord": {"lon": 38.033333, "lat": 56.116669}}, {"id": 6610563, "name": "Vasyukovo", "country": "RU", "coord": {"lon": 41.626945, "lat": 58.148888}}, {"id": 476417, "name": "Vasyurinskaya", "country": "RU", "coord": {"lon": 39.423981, "lat": 45.118092}}, {"id": 3043034, "name": "Vas\u00fati \u00dajlaktanya", "country": "HU", "coord": {"lon": 16.549999, "lat": 47.383331}}, {"id": 663111, "name": "Vata de Jos", "country": "RO", "coord": {"lon": 22.6, "lat": 46.183331}}, {"id": 6454054, "name": "Vatan", "country": "FR", "coord": {"lon": 1.81667, "lat": 47.066669}}, {"id": 2970606, "name": "Vatan", "country": "FR", "coord": {"lon": 1.8101, "lat": 47.074471}}, {"id": 784692, "name": "Vatasa", "country": "MK", "coord": {"lon": 22.01889, "lat": 41.416939}}, {"id": 663105, "name": "Vatava", "country": "RO", "coord": {"lon": 24.76667, "lat": 46.966671}}, {"id": 2817821, "name": "Vatersdorf", "country": "DE", "coord": {"lon": 12.01667, "lat": 48.416672}}, {"id": 6556156, "name": "Vaterstetten", "country": "DE", "coord": {"lon": 11.7689, "lat": 48.1101}}, {"id": 2817818, "name": "Vaterstetten", "country": "DE", "coord": {"lon": 11.76825, "lat": 48.10537}}, {"id": 252164, "name": "Vathi", "country": "GR", "coord": {"lon": 23.6, "lat": 38.400002}}, {"id": 252165, "name": "Vathi", "country": "GR", "coord": {"lon": 23.481199, "lat": 37.765671}}, {"id": 252166, "name": "Vathy", "country": "GR", "coord": {"lon": 26.98333, "lat": 37.75}}, {"id": 733933, "name": "Vathylakkos", "country": "GR", "coord": {"lon": 22.70167, "lat": 40.76944}}, {"id": 6691831, "name": "Vatican City", "country": "VA", "coord": {"lon": 12.45332, "lat": 41.902359}}, {"id": 3132428, "name": "Vatne", "country": "NO", "coord": {"lon": 6.65, "lat": 62.566669}}, {"id": 2610685, "name": "Vatnsoyrar", "country": "FO", "coord": {"lon": -7.23333, "lat": 62.066669}}, {"id": 824134, "name": "Vatra", "country": "MD", "coord": {"lon": 28.735001, "lat": 47.073891}}, {"id": 663100, "name": "Vatra Dornei", "country": "RO", "coord": {"lon": 25.366671, "lat": 47.349998}}, {"id": 663098, "name": "Vatra Moldovitei", "country": "RO", "coord": {"lon": 25.566669, "lat": 47.650002}}, {"id": 663095, "name": "Vatra T\u00eergului", "country": "RO", "coord": {"lon": 26.366671, "lat": 47.200001}}, {"id": 663094, "name": "Vatra Veche", "country": "RO", "coord": {"lon": 27.966669, "lat": 45.26667}}, {"id": 1253352, "name": "Vattalkundu", "country": "IN", "coord": {"lon": 77.76667, "lat": 10.16667}}, {"id": 3164668, "name": "Vattaro", "country": "IT", "coord": {"lon": 11.21688, "lat": 45.994598}}, {"id": 2817817, "name": "Vatterode", "country": "DE", "coord": {"lon": 10.03333, "lat": 51.316669}}, {"id": 2817816, "name": "Vatterode", "country": "DE", "coord": {"lon": 11.43333, "lat": 51.599998}}, {"id": 2663585, "name": "Vattholma", "country": "SE", "coord": {"lon": 17.73333, "lat": 60.01667}}, {"id": 690312, "name": "Vatutine", "country": "UA", "coord": {"lon": 31.062111, "lat": 49.015018}}, {"id": 476372, "name": "Vatutinki", "country": "RU", "coord": {"lon": 37.3325, "lat": 55.498333}}, {"id": 476368, "name": "Vatutino", "country": "RU", "coord": {"lon": 37.686668, "lat": 55.879723}}, {"id": 8012390, "name": "Vau", "country": "PT", "coord": {"lon": -9.20963, "lat": 39.368629}}, {"id": 2970564, "name": "Vauchretien", "country": "FR", "coord": {"lon": -0.47678, "lat": 47.33234}}, {"id": 6435344, "name": "Vauchr\u00e9tien", "country": "FR", "coord": {"lon": -0.48333, "lat": 47.333328}}, {"id": 2145299, "name": "Vaucluse", "country": "AU", "coord": {"lon": 151.283325, "lat": -33.866669}}, {"id": 6453471, "name": "Vaucouleurs", "country": "FR", "coord": {"lon": 5.66667, "lat": 48.599998}}, {"id": 2970546, "name": "Vaucouleurs", "country": "FR", "coord": {"lon": 5.66659, "lat": 48.60313}}, {"id": 6613136, "name": "Vaucresson", "country": "FR", "coord": {"lon": 2.16667, "lat": 48.833328}}, {"id": 2970540, "name": "Vaucresson", "country": "FR", "coord": {"lon": 2.15652, "lat": 48.840778}}, {"id": 6534334, "name": "Vauda Canavese", "country": "IT", "coord": {"lon": 7.62022, "lat": 45.279949}}, {"id": 6435345, "name": "Vaudelnay", "country": "FR", "coord": {"lon": -0.2035, "lat": 47.137501}}, {"id": 2970534, "name": "Vaudelnay", "country": "FR", "coord": {"lon": -0.20677, "lat": 47.138119}}, {"id": 6427544, "name": "Vaudeloges", "country": "FR", "coord": {"lon": 0, "lat": 48.950001}}, {"id": 2970533, "name": "Vaudeloges", "country": "FR", "coord": {"lon": -0.00611, "lat": 48.94355}}, {"id": 2658181, "name": "Vauderens", "country": "CH", "coord": {"lon": 6.85066, "lat": 46.622829}}, {"id": 6173570, "name": "Vaudreuil-Dorion", "country": "CA", "coord": {"lon": -74.032509, "lat": 45.400082}}, {"id": 6435696, "name": "Vaudrimesnil", "country": "FR", "coord": {"lon": -1.41667, "lat": 49.150002}}, {"id": 2970500, "name": "Vaudrimesnil", "country": "FR", "coord": {"lon": -1.41568, "lat": 49.15321}}, {"id": 6427545, "name": "Vaudry", "country": "FR", "coord": {"lon": -0.85, "lat": 48.833328}}, {"id": 2970495, "name": "Vaudry", "country": "FR", "coord": {"lon": -0.85309, "lat": 48.841301}}, {"id": 7287418, "name": "Vauffelin", "country": "CH", "coord": {"lon": 7.29844, "lat": 47.185452}}, {"id": 6173577, "name": "Vaughan", "country": "CA", "coord": {"lon": -79.498268, "lat": 43.836102}}, {"id": 4496605, "name": "Vaughan", "country": "US", "coord": {"lon": -78.003601, "lat": 36.42654}}, {"id": 4599503, "name": "Vaughans Crossroads", "country": "US", "coord": {"lon": -80.102287, "lat": 34.208771}}, {"id": 6441805, "name": "Vaugneray", "country": "FR", "coord": {"lon": 4.65, "lat": 45.73333}}, {"id": 2970477, "name": "Vaugneray", "country": "FR", "coord": {"lon": 4.65873, "lat": 45.737171}}, {"id": 6446216, "name": "Vaugrigneuse", "country": "FR", "coord": {"lon": 2.11667, "lat": 48.599998}}, {"id": 2970474, "name": "Vaugrigneuse", "country": "FR", "coord": {"lon": 2.12218, "lat": 48.602638}}, {"id": 6446217, "name": "Vauhallan", "country": "FR", "coord": {"lon": 2.2, "lat": 48.73333}}, {"id": 2970472, "name": "Vauhallan", "country": "FR", "coord": {"lon": 2.20277, "lat": 48.73354}}, {"id": 6452006, "name": "Vaujours", "country": "FR", "coord": {"lon": 2.56667, "lat": 48.933331}}, {"id": 2970469, "name": "Vaujours", "country": "FR", "coord": {"lon": 2.5711, "lat": 48.930222}}, {"id": 2013681, "name": "Vaulino", "country": "RU", "coord": {"lon": 109.48333, "lat": 53.566669}}, {"id": 7287420, "name": "Vaulion", "country": "CH", "coord": {"lon": 6.38413, "lat": 46.686081}}, {"id": 2658179, "name": "Vaulion", "country": "CH", "coord": {"lon": 6.38941, "lat": 46.689129}}, {"id": 6433443, "name": "Vaulnaveys-le-Bas", "country": "FR", "coord": {"lon": 5.81667, "lat": 45.099998}}, {"id": 2970463, "name": "Vaulnaveys-le-Bas", "country": "FR", "coord": {"lon": 5.82532, "lat": 45.100201}}, {"id": 6433444, "name": "Vaulnaveys-le-Haut", "country": "FR", "coord": {"lon": 5.8, "lat": 45.116669}}, {"id": 2970462, "name": "Vaulnaveys-le-Haut", "country": "FR", "coord": {"lon": 5.81257, "lat": 45.116959}}, {"id": 476359, "name": "Vaulovo", "country": "RU", "coord": {"lon": 39.283333, "lat": 56.133331}}, {"id": 2658177, "name": "Vaulruz", "country": "CH", "coord": {"lon": 6.98727, "lat": 46.621181}}, {"id": 6433445, "name": "Vaulx-Milieu", "country": "FR", "coord": {"lon": 5.18333, "lat": 45.616669}}, {"id": 2970455, "name": "Vaulx-Milieu", "country": "FR", "coord": {"lon": 5.181, "lat": 45.612259}}, {"id": 6439932, "name": "Vaulx-Vraucourt", "country": "FR", "coord": {"lon": 2.9096, "lat": 50.146198}}, {"id": 2970453, "name": "Vaulx-Vraucourt", "country": "FR", "coord": {"lon": 2.9083, "lat": 50.149101}}, {"id": 6441806, "name": "Vaulx-en-Velin", "country": "FR", "coord": {"lon": 4.93333, "lat": 45.783329}}, {"id": 2970456, "name": "Vaulx-en-Velin", "country": "FR", "coord": {"lon": 4.92085, "lat": 45.781799}}, {"id": 6425503, "name": "Vaumas", "country": "FR", "coord": {"lon": 3.63333, "lat": 46.450001}}, {"id": 2970451, "name": "Vaumas", "country": "FR", "coord": {"lon": 3.63056, "lat": 46.446812}}, {"id": 6439020, "name": "Vaumoise", "country": "FR", "coord": {"lon": 2.98077, "lat": 49.235249}}, {"id": 2970448, "name": "Vaumoise", "country": "FR", "coord": {"lon": 2.98077, "lat": 49.235249}}, {"id": 6439333, "name": "Vaunoise", "country": "FR", "coord": {"lon": 0.48333, "lat": 48.349998}}, {"id": 2970441, "name": "Vaunoise", "country": "FR", "coord": {"lon": 0.48437, "lat": 48.356361}}, {"id": 2970432, "name": "Vaureal", "country": "FR", "coord": {"lon": 2.03333, "lat": 49.033329}}, {"id": 6446349, "name": "Vaur\u00e9al", "country": "FR", "coord": {"lon": 2.03333, "lat": 49.033329}}, {"id": 6431476, "name": "Vauvert", "country": "FR", "coord": {"lon": 4.28333, "lat": 43.700001}}, {"id": 2970407, "name": "Vauvert", "country": "FR", "coord": {"lon": 4.27705, "lat": 43.69529}}, {"id": 6615924, "name": "Vauville", "country": "FR", "coord": {"lon": 0.0539, "lat": 49.311901}}, {"id": 2970404, "name": "Vauville", "country": "FR", "coord": {"lon": 0.0633, "lat": 49.305939}}, {"id": 2970387, "name": "Vaux", "country": "FR", "coord": {"lon": 3.25685, "lat": 46.359909}}, {"id": 2784995, "name": "Vaux sous Olne", "country": "BE", "coord": {"lon": 5.74, "lat": 50.581718}}, {"id": 6424725, "name": "Vaux-en-Bugey", "country": "FR", "coord": {"lon": 5.354, "lat": 45.927898}}, {"id": 2970351, "name": "Vaux-en-Bugey", "country": "FR", "coord": {"lon": 5.35336, "lat": 45.927109}}, {"id": 2970338, "name": "Vaux-le-Penil", "country": "FR", "coord": {"lon": 2.69165, "lat": 48.52803}}, {"id": 6443890, "name": "Vaux-le-P\u00e9nil", "country": "FR", "coord": {"lon": 2.66667, "lat": 48.533329}}, {"id": 6427546, "name": "Vaux-sur-Aure", "country": "FR", "coord": {"lon": -0.7, "lat": 49.299999}}, {"id": 2970321, "name": "Vaux-sur-Aure", "country": "FR", "coord": {"lon": -0.70304, "lat": 49.30431}}, {"id": 6428165, "name": "Vaux-sur-Mer", "country": "FR", "coord": {"lon": -1.03333, "lat": 45.650002}}, {"id": 2970317, "name": "Vaux-sur-Mer", "country": "FR", "coord": {"lon": -1.05841, "lat": 45.646061}}, {"id": 6444092, "name": "Vaux-sur-Seine", "country": "FR", "coord": {"lon": 1.96667, "lat": 49.01667}}, {"id": 2970313, "name": "Vaux-sur-Seine", "country": "FR", "coord": {"lon": 1.96942, "lat": 49.012711}}, {"id": 6427547, "name": "Vaux-sur-Seulles", "country": "FR", "coord": {"lon": -0.63333, "lat": 49.26667}}, {"id": 2970312, "name": "Vaux-sur-Seulles", "country": "FR", "coord": {"lon": -0.62854, "lat": 49.26075}}, {"id": 2784994, "name": "Vaux-sur-Sure", "country": "BE", "coord": {"lon": 5.57848, "lat": 49.910999}}, {"id": 2784999, "name": "Vaux-sur-S\u00fbre", "country": "BE", "coord": {"lon": 5.57436, "lat": 49.911549}}, {"id": 6173600, "name": "Vauxhall", "country": "CA", "coord": {"lon": -112.11853, "lat": 50.06678}}, {"id": 2970306, "name": "Vauzelle", "country": "FR", "coord": {"lon": 3.59315, "lat": 45.220901}}, {"id": 4032231, "name": "Vava`u", "country": "TO", "coord": {"lon": -174, "lat": -18.66667}}, {"id": 1054192, "name": "Vavatenina", "country": "MG", "coord": {"lon": 49.200001, "lat": -17.466669}}, {"id": 476350, "name": "Vavibet", "country": "RU", "coord": {"lon": 34.916668, "lat": 67.933334}}, {"id": 476344, "name": "Vavilovo", "country": "RU", "coord": {"lon": 55.849998, "lat": 54.816666}}, {"id": 2280045, "name": "Vavoua", "country": "CI", "coord": {"lon": -6.47778, "lat": 7.38194}}, {"id": 476343, "name": "Vavozh", "country": "RU", "coord": {"lon": 51.930981, "lat": 56.775131}}, {"id": 6436070, "name": "Vavray-le-Grand", "country": "FR", "coord": {"lon": 4.71667, "lat": 48.799999}}, {"id": 2970300, "name": "Vavray-le-Grand", "country": "FR", "coord": {"lon": 4.70745, "lat": 48.79895}}, {"id": 1225018, "name": "Vavuniya", "country": "LK", "coord": {"lon": 80.497101, "lat": 8.7514}}, {"id": 620079, "name": "Vawkavichy", "country": "BY", "coord": {"lon": 25.950001, "lat": 53.583332}}, {"id": 620391, "name": "Vawkavysk", "country": "BY", "coord": {"lon": 24.4513, "lat": 53.156101}}, {"id": 2663540, "name": "Vaxholm", "country": "SE", "coord": {"lon": 18.35317, "lat": 59.402248}}, {"id": 6434557, "name": "Vay", "country": "FR", "coord": {"lon": -1.7, "lat": 47.549999}}, {"id": 2970293, "name": "Vay", "country": "FR", "coord": {"lon": -1.70095, "lat": 47.554661}}, {"id": 1253340, "name": "Vayalar", "country": "IN", "coord": {"lon": 76.333328, "lat": 9.7}}, {"id": 174726, "name": "Vayk", "country": "AM", "coord": {"lon": 45.46653, "lat": 39.691002}}, {"id": 409315, "name": "Vayots\u2019 Dzori Marz", "country": "AM", "coord": {"lon": 45.416672, "lat": 39.75}}, {"id": 6434943, "name": "Vayrac", "country": "FR", "coord": {"lon": 1.7, "lat": 44.950001}}, {"id": 2970288, "name": "Vayrac", "country": "FR", "coord": {"lon": 1.70358, "lat": 44.953369}}, {"id": 6432493, "name": "Vayres", "country": "FR", "coord": {"lon": -0.31667, "lat": 44.900002}}, {"id": 2970287, "name": "Vayres", "country": "FR", "coord": {"lon": -0.31667, "lat": 44.900002}}, {"id": 7287424, "name": "Vaz/Obervaz", "country": "CH", "coord": {"lon": 9.54147, "lat": 46.725731}}, {"id": 3445418, "name": "Vazante", "country": "BR", "coord": {"lon": -46.90778, "lat": -17.98694}}, {"id": 6434465, "name": "Vazeilles-pr\u00e8s-Saugues", "country": "FR", "coord": {"lon": 3.58333, "lat": 44.900002}}, {"id": 2970280, "name": "Vazeilles-pr\u00e8s-Saugues", "country": "FR", "coord": {"lon": 3.58876, "lat": 44.898331}}, {"id": 6445046, "name": "Vazerac", "country": "FR", "coord": {"lon": 1.3, "lat": 44.183331}}, {"id": 2970278, "name": "Vazerac", "country": "FR", "coord": {"lon": 1.28534, "lat": 44.190262}}, {"id": 476297, "name": "Vazhiny", "country": "RU", "coord": {"lon": 34.022221, "lat": 60.964439}}, {"id": 7304082, "name": "Vazhuthacaud", "country": "IN", "coord": {"lon": 76.960426, "lat": 8.50374}}, {"id": 6424048, "name": "Vazon", "country": "GG", "coord": {"lon": -2.6125, "lat": 49.46278}}, {"id": 6459283, "name": "Vazovo", "country": "BG", "coord": {"lon": 26.816669, "lat": 43.76667}}, {"id": 726019, "name": "Vazovo", "country": "BG", "coord": {"lon": 26.816669, "lat": 43.76667}}, {"id": 4568527, "name": "Vazquez", "country": "PR", "coord": {"lon": -66.238503, "lat": 18.0658}}, {"id": 2522792, "name": "Vazzano", "country": "IT", "coord": {"lon": 16.247999, "lat": 38.632881}}, {"id": 3164665, "name": "Vazzola", "country": "IT", "coord": {"lon": 12.38083, "lat": 45.839169}}, {"id": 3445431, "name": "Va\u00fa", "country": "BR", "coord": {"lon": -50.866669, "lat": -24.616671}}, {"id": 3063349, "name": "Vcelna", "country": "CZ", "coord": {"lon": 14.45383, "lat": 48.923729}}, {"id": 3385303, "name": "Veados", "country": "BR", "coord": {"lon": -40.383331, "lat": -3.86667}}, {"id": 6434339, "name": "Veauche", "country": "FR", "coord": {"lon": 4.2785, "lat": 45.5625}}, {"id": 2970275, "name": "Veauche", "country": "FR", "coord": {"lon": 4.29031, "lat": 45.562939}}, {"id": 4981750, "name": "Veazie", "country": "US", "coord": {"lon": -68.705307, "lat": 44.83868}}, {"id": 2663514, "name": "Veberod", "country": "SE", "coord": {"lon": 13.48333, "lat": 55.633331}}, {"id": 454432, "name": "Vec-Liepaja", "country": "LV", "coord": {"lon": 21.01667, "lat": 56.533329}}, {"id": 454468, "name": "Vecauce", "country": "LV", "coord": {"lon": 22.889669, "lat": 56.468369}}, {"id": 3164663, "name": "Vecchiano", "country": "IT", "coord": {"lon": 10.3844, "lat": 43.78334}}, {"id": 3164658, "name": "Vecciano", "country": "IT", "coord": {"lon": 12.55, "lat": 43.950001}}, {"id": 2817814, "name": "Vechelade", "country": "DE", "coord": {"lon": 10.38208, "lat": 52.269939}}, {"id": 6552397, "name": "Vechelde", "country": "DE", "coord": {"lon": 10.3699, "lat": 52.260201}}, {"id": 2817813, "name": "Vechelde", "country": "DE", "coord": {"lon": 10.36491, "lat": 52.26038}}, {"id": 6726099, "name": "Vecheri", "country": "RU", "coord": {"lon": 37.512775, "lat": 54.844013}}, {"id": 7287425, "name": "Vechigen", "country": "CH", "coord": {"lon": 7.56867, "lat": 46.96302}}, {"id": 2658176, "name": "Vechigen", "country": "CH", "coord": {"lon": 7.56065, "lat": 46.946159}}, {"id": 476257, "name": "Vechnoye", "country": "RU", "coord": {"lon": 39.739445, "lat": 44.938332}}, {"id": 2817812, "name": "Vechta", "country": "DE", "coord": {"lon": 8.28333, "lat": 52.716671}}, {"id": 2817809, "name": "Vechtel", "country": "DE", "coord": {"lon": 7.63333, "lat": 52.566669}}, {"id": 6358726, "name": "Vecilla (La)", "country": "ES", "coord": {"lon": -5.40771, "lat": 42.82478}}, {"id": 3106360, "name": "Vecilla de Trasmonte", "country": "ES", "coord": {"lon": -5.79393, "lat": 41.994499}}, {"id": 6360580, "name": "Vecinos", "country": "ES", "coord": {"lon": -5.87828, "lat": 40.781288}}, {"id": 3106359, "name": "Vecinos", "country": "ES", "coord": {"lon": -5.87815, "lat": 40.778751}}, {"id": 2817806, "name": "Veckenstedt", "country": "DE", "coord": {"lon": 10.73333, "lat": 51.900002}}, {"id": 454436, "name": "Veckrogi", "country": "LV", "coord": {"lon": 22, "lat": 56.966671}}, {"id": 6445785, "name": "Vecoux", "country": "FR", "coord": {"lon": 6.63333, "lat": 47.98333}}, {"id": 2970256, "name": "Vecoux", "country": "FR", "coord": {"lon": 6.63651, "lat": 47.97797}}, {"id": 454407, "name": "Vecpils", "country": "LV", "coord": {"lon": 21.48333, "lat": 56.633331}}, {"id": 6615326, "name": "Vecr\u012bga", "country": "LV", "coord": {"lon": 24.104179, "lat": 56.949661}}, {"id": 3043019, "name": "Vecses", "country": "HU", "coord": {"lon": 19.28648, "lat": 47.407051}}, {"id": 2145296, "name": "Vectis South", "country": "AU", "coord": {"lon": 142.016663, "lat": -36.73333}}, {"id": 454273, "name": "Vecumnieki", "country": "LV", "coord": {"lon": 24.522221, "lat": 56.606392}}, {"id": 454372, "name": "Vecvarkava", "country": "LV", "coord": {"lon": 26.51667, "lat": 56.183331}}, {"id": 6540326, "name": "Vedano Olona", "country": "IT", "coord": {"lon": 8.88584, "lat": 45.775982}}, {"id": 3164657, "name": "Vedano Olona", "country": "IT", "coord": {"lon": 8.88584, "lat": 45.775982}}, {"id": 6535153, "name": "Vedano al Lambro", "country": "IT", "coord": {"lon": 9.26785, "lat": 45.60878}}, {"id": 1253330, "name": "Vedaraniyam", "country": "IN", "coord": {"lon": 79.849998, "lat": 10.36667}}, {"id": 1253328, "name": "Vedasandur", "country": "IN", "coord": {"lon": 77.949997, "lat": 10.53333}}, {"id": 3336591, "name": "Vedavagen", "country": "NO", "coord": {"lon": 5.23333, "lat": 59.291672}}, {"id": 6534461, "name": "Veddasca", "country": "IT", "coord": {"lon": 8.79873, "lat": 46.07058}}, {"id": 2663482, "name": "Veddige", "country": "SE", "coord": {"lon": 12.31667, "lat": 57.26667}}, {"id": 663086, "name": "Vedea", "country": "RO", "coord": {"lon": 24.616671, "lat": 44.783329}}, {"id": 663087, "name": "Vedea", "country": "RO", "coord": {"lon": 25.066669, "lat": 44.083328}}, {"id": 663088, "name": "Vedea", "country": "RO", "coord": {"lon": 25.783331, "lat": 43.783329}}, {"id": 3164656, "name": "Vedelago", "country": "IT", "coord": {"lon": 12.01639, "lat": 45.687222}}, {"id": 2970253, "name": "Vedene", "country": "FR", "coord": {"lon": 4.90428, "lat": 43.97744}}, {"id": 476252, "name": "Vedeno", "country": "RU", "coord": {"lon": 46.095001, "lat": 42.97028}}, {"id": 476231, "name": "Vedernikov", "country": "RU", "coord": {"lon": 41.145889, "lat": 47.581089}}, {"id": 3164654, "name": "Vedeseta", "country": "IT", "coord": {"lon": 9.53927, "lat": 45.891022}}, {"id": 174725, "name": "Vedi", "country": "AM", "coord": {"lon": 44.722172, "lat": 39.914211}}, {"id": 3833140, "name": "Vedia", "country": "AR", "coord": {"lon": -61.541382, "lat": -34.495579}}, {"id": 476228, "name": "Vedishchevo", "country": "RU", "coord": {"lon": 37.664722, "lat": 55.168331}}, {"id": 6357356, "name": "Vedra", "country": "ES", "coord": {"lon": -8.47539, "lat": 42.788319}}, {"id": 3106356, "name": "Vedra", "country": "ES", "coord": {"lon": -8.47636, "lat": 42.77816}}, {"id": 6534950, "name": "Veduggio con Colzano", "country": "IT", "coord": {"lon": 9.27024, "lat": 45.733879}}, {"id": 6445119, "name": "Ved\u00e8ne", "country": "FR", "coord": {"lon": 4.9, "lat": 43.98333}}, {"id": 4927580, "name": "Veedersburg", "country": "US", "coord": {"lon": -87.262512, "lat": 40.113091}}, {"id": 2817798, "name": "Veelboken", "country": "DE", "coord": {"lon": 11.18333, "lat": 53.75}}, {"id": 6548228, "name": "Veelb\u00f6ken", "country": "DE", "coord": {"lon": 11.1833, "lat": 53.75}}, {"id": 2817796, "name": "Veen", "country": "DE", "coord": {"lon": 6.45, "lat": 51.616669}}, {"id": 2745783, "name": "Veendam", "country": "NL", "coord": {"lon": 6.87917, "lat": 53.10667}}, {"id": 2745774, "name": "Veenendaal", "country": "NL", "coord": {"lon": 5.55891, "lat": 52.028629}}, {"id": 2817793, "name": "Veenhusen", "country": "DE", "coord": {"lon": 7.45, "lat": 53.299999}}, {"id": 2745739, "name": "Veere", "country": "NL", "coord": {"lon": 3.66667, "lat": 51.548328}}, {"id": 2784975, "name": "Veeweide", "country": "BE", "coord": {"lon": 4.3, "lat": 50.833328}}, {"id": 3132346, "name": "Vefsn", "country": "NO", "coord": {"lon": 13.20024, "lat": 65.841087}}, {"id": 5532945, "name": "Vega", "country": "US", "coord": {"lon": -102.428261, "lat": 35.242828}}, {"id": 4568528, "name": "Vega Alta", "country": "PR", "coord": {"lon": -66.331284, "lat": 18.41217}}, {"id": 4568529, "name": "Vega Alta Municipio", "country": "PR", "coord": {"lon": -66.332947, "lat": 18.4105}}, {"id": 4568533, "name": "Vega Baja", "country": "PR", "coord": {"lon": -66.387672, "lat": 18.444389}}, {"id": 4568534, "name": "Vega Baja Municipio", "country": "PR", "coord": {"lon": -66.399612, "lat": 18.425779}}, {"id": 3514843, "name": "Vega de Alatorre", "country": "MX", "coord": {"lon": -96.633331, "lat": 20.033331}}, {"id": 6358728, "name": "Vega de Espinareda", "country": "ES", "coord": {"lon": -6.73593, "lat": 42.771561}}, {"id": 3106313, "name": "Vega de Espinareda", "country": "ES", "coord": {"lon": -6.65439, "lat": 42.725368}}, {"id": 3106311, "name": "Vega de Gord\u00f3n", "country": "ES", "coord": {"lon": -5.66161, "lat": 42.87072}}, {"id": 6358729, "name": "Vega de Infanzones", "country": "ES", "coord": {"lon": -5.54297, "lat": 42.487209}}, {"id": 3106309, "name": "Vega de Infanzones", "country": "ES", "coord": {"lon": -5.53295, "lat": 42.481159}}, {"id": 6360741, "name": "Vega de Pas", "country": "ES", "coord": {"lon": -3.77911, "lat": 43.155689}}, {"id": 3106291, "name": "Vega de Pas", "country": "ES", "coord": {"lon": -3.78316, "lat": 43.156921}}, {"id": 6362309, "name": "Vega de Ruiponce", "country": "ES", "coord": {"lon": -5.12104, "lat": 42.189602}}, {"id": 3106286, "name": "Vega de Ruiponce", "country": "ES", "coord": {"lon": -5.11477, "lat": 42.18808}}, {"id": 3518451, "name": "Vega de San Marcos", "country": "MX", "coord": {"lon": -96.949997, "lat": 20.200001}}, {"id": 6360203, "name": "Vega de San Mateo", "country": "ES", "coord": {"lon": -15.55304, "lat": 27.999411}}, {"id": 2509799, "name": "Vega de San Mateo", "country": "ES", "coord": {"lon": -15.5333, "lat": 28.008921}},