[{"id": 4244880, "name": "Morrisonville", "country": "US", "coord": {"lon": -89.45565, "lat": 39.420052}}, {"id": 4244928, "name": "Mound City", "country": "US", "coord": {"lon": -89.162567, "lat": 37.085331}}, {"id": 4244967, "name": "Mount Carmel", "country": "US", "coord": {"lon": -87.761421, "lat": 38.410881}}, {"id": 4245045, "name": "Mount Olive", "country": "US", "coord": {"lon": -89.72731, "lat": 39.072269}}, {"id": 4245136, "name": "Mount Sterling", "country": "US", "coord": {"lon": -90.763458, "lat": 39.98727}}, {"id": 4245174, "name": "Mount Zion", "country": "US", "coord": {"lon": -88.874237, "lat": 39.771431}}, {"id": 4245258, "name": "Moweaqua", "country": "US", "coord": {"lon": -89.018967, "lat": 39.62476}}, {"id": 4245336, "name": "Murphysboro", "country": "US", "coord": {"lon": -89.335091, "lat": 37.7645}}, {"id": 4245376, "name": "Nashville", "country": "US", "coord": {"lon": -89.380638, "lat": 38.343658}}, {"id": 4245443, "name": "Neoga", "country": "US", "coord": {"lon": -88.452827, "lat": 39.319481}}, {"id": 4245463, "name": "New Athens", "country": "US", "coord": {"lon": -89.877052, "lat": 38.326439}}, {"id": 4245474, "name": "New Baden", "country": "US", "coord": {"lon": -89.700653, "lat": 38.535049}}, {"id": 4245481, "name": "New Berlin", "country": "US", "coord": {"lon": -89.91066, "lat": 39.72533}}, {"id": 4245744, "name": "Nokomis", "country": "US", "coord": {"lon": -89.28508, "lat": 39.301159}}, {"id": 4245780, "name": "Norris City", "country": "US", "coord": {"lon": -88.329208, "lat": 37.981159}}, {"id": 4246130, "name": "Oblong", "country": "US", "coord": {"lon": -87.90892, "lat": 39.001991}}, {"id": 4246147, "name": "Odin", "country": "US", "coord": {"lon": -89.052292, "lat": 38.617271}}, {"id": 4246180, "name": "Okawville", "country": "US", "coord": {"lon": -89.550369, "lat": 38.434219}}, {"id": 4246382, "name": "Olney", "country": "US", "coord": {"lon": -88.08532, "lat": 38.730881}}, {"id": 4246560, "name": "Palestine", "country": "US", "coord": {"lon": -87.612801, "lat": 39.003651}}, {"id": 4246595, "name": "Pana", "country": "US", "coord": {"lon": -89.080078, "lat": 39.388931}}, {"id": 4246659, "name": "Paris", "country": "US", "coord": {"lon": -87.696136, "lat": 39.611149}}, {"id": 4246757, "name": "Pawnee", "country": "US", "coord": {"lon": -89.580368, "lat": 39.591721}}, {"id": 4246765, "name": "Payson", "country": "US", "coord": {"lon": -91.242371, "lat": 39.81699}}, {"id": 4246983, "name": "Pinckneyville", "country": "US", "coord": {"lon": -89.382027, "lat": 38.08033}}, {"id": 4247379, "name": "Pontoon Beach", "country": "US", "coord": {"lon": -90.080383, "lat": 38.73172}}, {"id": 4247779, "name": "Ramsey", "country": "US", "coord": {"lon": -89.108681, "lat": 39.144489}}, {"id": 4247860, "name": "Raymond", "country": "US", "coord": {"lon": -89.572037, "lat": 39.319489}}, {"id": 4247880, "name": "Red Bud", "country": "US", "coord": {"lon": -89.99427, "lat": 38.21172}}, {"id": 4248205, "name": "Riverton", "country": "US", "coord": {"lon": -89.539543, "lat": 39.844219}}, {"id": 4248256, "name": "Robinson", "country": "US", "coord": {"lon": -87.739189, "lat": 39.005322}}, {"id": 4248284, "name": "Rochester", "country": "US", "coord": {"lon": -89.531761, "lat": 39.749489}}, {"id": 4248420, "name": "Roodhouse", "country": "US", "coord": {"lon": -90.371513, "lat": 39.48394}}, {"id": 4248480, "name": "Rosewood Heights", "country": "US", "coord": {"lon": -90.084831, "lat": 38.887829}}, {"id": 4248482, "name": "Rosiclare", "country": "US", "coord": {"lon": -88.346153, "lat": 37.42366}}, {"id": 4248546, "name": "Roxana", "country": "US", "coord": {"lon": -90.076218, "lat": 38.848381}}, {"id": 4248562, "name": "Royalton", "country": "US", "coord": {"lon": -89.114517, "lat": 37.876991}}, {"id": 4248788, "name": "Saint Elmo", "country": "US", "coord": {"lon": -88.848106, "lat": 39.027271}}, {"id": 4248819, "name": "Saint Jacob", "country": "US", "coord": {"lon": -89.76815, "lat": 38.71394}}, {"id": 4249437, "name": "Sandoval", "country": "US", "coord": {"lon": -89.114227, "lat": 38.615601}}, {"id": 4249704, "name": "Sesser", "country": "US", "coord": {"lon": -89.050346, "lat": 38.091721}}, {"id": 4249830, "name": "Shawneetown", "country": "US", "coord": {"lon": -88.186699, "lat": 37.7131}}, {"id": 4249857, "name": "Shelbyville", "country": "US", "coord": {"lon": -88.79007, "lat": 39.406429}}, {"id": 4249885, "name": "Sherman", "country": "US", "coord": {"lon": -89.60482, "lat": 39.893661}}, {"id": 4249910, "name": "Shiloh", "country": "US", "coord": {"lon": -89.897324, "lat": 38.56144}}, {"id": 4250209, "name": "Smithton", "country": "US", "coord": {"lon": -89.99205, "lat": 38.408661}}, {"id": 4250334, "name": "South Jacksonville", "country": "US", "coord": {"lon": -90.22818, "lat": 39.70866}}, {"id": 4250399, "name": "South Roxana", "country": "US", "coord": {"lon": -90.062881, "lat": 38.829491}}, {"id": 4250404, "name": "Southern View", "country": "US", "coord": {"lon": -89.653709, "lat": 39.757271}}, {"id": 4250608, "name": "Staunton", "country": "US", "coord": {"lon": -89.791206, "lat": 39.012272}}, {"id": 4250627, "name": "Steeleville", "country": "US", "coord": {"lon": -89.658432, "lat": 38.007271}}, {"id": 4250862, "name": "Sullivan", "country": "US", "coord": {"lon": -88.607841, "lat": 39.59948}}, {"id": 4250909, "name": "Sumner", "country": "US", "coord": {"lon": -87.86142, "lat": 38.716991}}, {"id": 4251003, "name": "Swansea", "country": "US", "coord": {"lon": -89.988991, "lat": 38.533939}}, {"id": 4251141, "name": "Taylorville", "country": "US", "coord": {"lon": -89.294533, "lat": 39.548939}}, {"id": 4251185, "name": "Teutopolis", "country": "US", "coord": {"lon": -88.471992, "lat": 39.133099}}, {"id": 4251330, "name": "Toledo", "country": "US", "coord": {"lon": -88.243652, "lat": 39.273651}}, {"id": 4251341, "name": "Tolono", "country": "US", "coord": {"lon": -88.258942, "lat": 39.986141}}, {"id": 4251513, "name": "Troy", "country": "US", "coord": {"lon": -89.883148, "lat": 38.72921}}, {"id": 4251593, "name": "Tuscola", "country": "US", "coord": {"lon": -88.283096, "lat": 39.799198}}, {"id": 4251900, "name": "Valmeyer", "country": "US", "coord": {"lon": -90.276512, "lat": 38.305611}}, {"id": 4251917, "name": "Vandalia", "country": "US", "coord": {"lon": -89.093681, "lat": 38.960602}}, {"id": 4251958, "name": "Venice", "country": "US", "coord": {"lon": -90.16983, "lat": 38.672272}}, {"id": 4252025, "name": "Vienna", "country": "US", "coord": {"lon": -88.897842, "lat": 37.415329}}, {"id": 4252041, "name": "Villa Grove", "country": "US", "coord": {"lon": -88.16227, "lat": 39.862808}}, {"id": 4252060, "name": "Virden", "country": "US", "coord": {"lon": -89.767868, "lat": 39.500889}}, {"id": 4252071, "name": "Virginia", "country": "US", "coord": {"lon": -90.212341, "lat": 39.95116}}, {"id": 4252425, "name": "Wamac", "country": "US", "coord": {"lon": -89.140633, "lat": 38.508942}}, {"id": 4252469, "name": "Warrensburg", "country": "US", "coord": {"lon": -89.062027, "lat": 39.932819}}, {"id": 4252512, "name": "Washington Park", "country": "US", "coord": {"lon": -90.092888, "lat": 38.635052}}, {"id": 4252548, "name": "Waterloo", "country": "US", "coord": {"lon": -90.149834, "lat": 38.335892}}, {"id": 4252603, "name": "Wayne City", "country": "US", "coord": {"lon": -88.58783, "lat": 38.345329}}, {"id": 4252616, "name": "Waverly", "country": "US", "coord": {"lon": -89.952881, "lat": 39.591721}}, {"id": 4252812, "name": "West Frankfort", "country": "US", "coord": {"lon": -88.931458, "lat": 37.897831}}, {"id": 4253179, "name": "Williamsville", "country": "US", "coord": {"lon": -89.548714, "lat": 39.95422}}, {"id": 4253268, "name": "Winchester", "country": "US", "coord": {"lon": -90.456238, "lat": 39.629768}}, {"id": 4253280, "name": "Windsor", "country": "US", "coord": {"lon": -88.59478, "lat": 39.440868}}, {"id": 4253387, "name": "Wood River", "country": "US", "coord": {"lon": -90.09761, "lat": 38.86116}}, {"id": 4253472, "name": "Worden", "country": "US", "coord": {"lon": -89.838989, "lat": 38.931438}}, {"id": 4253591, "name": "Zeigler", "country": "US", "coord": {"lon": -89.052017, "lat": 37.89949}}, {"id": 4254021, "name": "Avon", "country": "US", "coord": {"lon": -86.399719, "lat": 39.762821}}, {"id": 4254124, "name": "Bargersville", "country": "US", "coord": {"lon": -86.16777, "lat": 39.520882}}, {"id": 4254185, "name": "Batesville", "country": "US", "coord": {"lon": -85.222183, "lat": 39.300049}}, {"id": 4254282, "name": "Bedford", "country": "US", "coord": {"lon": -86.487213, "lat": 38.86116}}, {"id": 4254304, "name": "Beech Grove", "country": "US", "coord": {"lon": -86.089981, "lat": 39.721989}}, {"id": 4254515, "name": "Bicknell", "country": "US", "coord": {"lon": -87.307793, "lat": 38.774212}}, {"id": 4254671, "name": "Bloomfield", "country": "US", "coord": {"lon": -86.937508, "lat": 39.026989}}, {"id": 4254797, "name": "Boonville", "country": "US", "coord": {"lon": -87.27417, "lat": 38.04921}}, {"id": 4254884, "name": "Brazil", "country": "US", "coord": {"lon": -87.125023, "lat": 39.523651}}, {"id": 4254944, "name": "Bright", "country": "US", "coord": {"lon": -84.856056, "lat": 39.218391}}, {"id": 4254985, "name": "Brooklyn", "country": "US", "coord": {"lon": -86.369164, "lat": 39.539211}}, {"id": 4254999, "name": "Brookville", "country": "US", "coord": {"lon": -85.012741, "lat": 39.423111}}, {"id": 4255063, "name": "Brownstown", "country": "US", "coord": {"lon": -86.041924, "lat": 38.878941}}, {"id": 4255339, "name": "Cambridge City", "country": "US", "coord": {"lon": -85.171631, "lat": 39.81255}}, {"id": 4255457, "name": "Cannelton", "country": "US", "coord": {"lon": -86.744431, "lat": 37.911442}}, {"id": 4255557, "name": "Cayuga", "country": "US", "coord": {"lon": -87.45974, "lat": 39.94865}}, {"id": 4255627, "name": "Centerville", "country": "US", "coord": {"lon": -84.996353, "lat": 39.817822}}, {"id": 4255673, "name": "Chandler", "country": "US", "coord": {"lon": -87.368057, "lat": 38.04171}}, {"id": 4255704, "name": "Charlestown", "country": "US", "coord": {"lon": -85.670242, "lat": 38.453121}}, {"id": 4255897, "name": "Clermont", "country": "US", "coord": {"lon": -86.322487, "lat": 39.809769}}, {"id": 4255937, "name": "Clinton", "country": "US", "coord": {"lon": -87.398071, "lat": 39.656979}}, {"id": 4255948, "name": "Cloverdale", "country": "US", "coord": {"lon": -86.7939, "lat": 39.514771}}, {"id": 4256184, "name": "Corydon", "country": "US", "coord": {"lon": -86.121918, "lat": 38.212009}}, {"id": 4256223, "name": "Country Squire Lakes", "country": "US", "coord": {"lon": -85.698578, "lat": 39.034779}}, {"id": 4256339, "name": "Crothersville", "country": "US", "coord": {"lon": -85.841637, "lat": 38.80061}}, {"id": 4256384, "name": "Cumberland", "country": "US", "coord": {"lon": -85.957199, "lat": 39.77615}}, {"id": 4256426, "name": "Dale", "country": "US", "coord": {"lon": -86.989998, "lat": 38.168941}}, {"id": 4256447, "name": "Danville", "country": "US", "coord": {"lon": -86.52639, "lat": 39.760601}}, {"id": 4256460, "name": "Darmstadt", "country": "US", "coord": {"lon": -87.578911, "lat": 38.099209}}, {"id": 4256645, "name": "Dillsboro", "country": "US", "coord": {"lon": -85.058838, "lat": 39.01783}}, {"id": 4257043, "name": "Edinburgh", "country": "US", "coord": {"lon": -85.96666, "lat": 39.354221}}, {"id": 4257110, "name": "Ellettsville", "country": "US", "coord": {"lon": -86.625, "lat": 39.233929}}, {"id": 4257173, "name": "English", "country": "US", "coord": {"lon": -86.464149, "lat": 38.334499}}, {"id": 4257305, "name": "Fairview Park", "country": "US", "coord": {"lon": -87.417519, "lat": 39.680309}}, {"id": 4257396, "name": "Farmersburg", "country": "US", "coord": {"lon": -87.381958, "lat": 39.24865}}, {"id": 4257415, "name": "Ferdinand", "country": "US", "coord": {"lon": -86.862221, "lat": 38.223942}}, {"id": 4257617, "name": "Fort Branch", "country": "US", "coord": {"lon": -87.581131, "lat": 38.25116}}, {"id": 4257630, "name": "Fortville", "country": "US", "coord": {"lon": -85.848038, "lat": 39.932259}}, {"id": 4257770, "name": "French Lick", "country": "US", "coord": {"lon": -86.619987, "lat": 38.548939}}, {"id": 4257835, "name": "Galena", "country": "US", "coord": {"lon": -85.941643, "lat": 38.35173}}, {"id": 4257898, "name": "Geneva", "country": "US", "coord": {"lon": -85.719978, "lat": 39.39172}}, {"id": 4257913, "name": "Georgetown", "country": "US", "coord": {"lon": -85.975517, "lat": 38.29451}}, {"id": 4258273, "name": "Greencastle", "country": "US", "coord": {"lon": -86.864731, "lat": 39.644489}}, {"id": 4258277, "name": "Greendale", "country": "US", "coord": {"lon": -84.86412, "lat": 39.11256}}, {"id": 4258302, "name": "Greensburg", "country": "US", "coord": {"lon": -85.483582, "lat": 39.337269}}, {"id": 4258413, "name": "Hagerstown", "country": "US", "coord": {"lon": -85.161629, "lat": 39.91116}}, {"id": 4258510, "name": "Hanover", "country": "US", "coord": {"lon": -85.473572, "lat": 38.71423}}, {"id": 4258664, "name": "Haubstadt", "country": "US", "coord": {"lon": -87.574188, "lat": 38.20504}}, {"id": 4258799, "name": "Henryville", "country": "US", "coord": {"lon": -85.767738, "lat": 38.541729}}, {"id": 4258871, "name": "Hidden Valley", "country": "US", "coord": {"lon": -84.84301, "lat": 39.162281}}, {"id": 4258909, "name": "Highland", "country": "US", "coord": {"lon": -87.573067, "lat": 38.039761}}, {"id": 4259115, "name": "Hope", "country": "US", "coord": {"lon": -85.77137, "lat": 39.30394}}, {"id": 4259271, "name": "Huntingburg", "country": "US", "coord": {"lon": -86.955002, "lat": 38.298939}}, {"id": 4259436, "name": "Ingalls", "country": "US", "coord": {"lon": -85.80526, "lat": 39.956989}}, {"id": 4259639, "name": "Jasonville", "country": "US", "coord": {"lon": -87.199181, "lat": 39.163101}}, {"id": 4259960, "name": "Knightstown", "country": "US", "coord": {"lon": -85.52636, "lat": 39.795601}}, {"id": 4260223, "name": "Lawrenceburg", "country": "US", "coord": {"lon": -84.849953, "lat": 39.090889}}, {"id": 4260329, "name": "Liberty", "country": "US", "coord": {"lon": -84.931068, "lat": 39.635601}}, {"id": 4260453, "name": "Linton", "country": "US", "coord": {"lon": -87.165848, "lat": 39.034771}}, {"id": 4260711, "name": "Loogootee", "country": "US", "coord": {"lon": -86.914169, "lat": 38.676991}}, {"id": 4260768, "name": "Lowell", "country": "US", "coord": {"lon": -85.946381, "lat": 39.253109}}, {"id": 4260853, "name": "Madison", "country": "US", "coord": {"lon": -85.379959, "lat": 38.735889}}, {"id": 4261032, "name": "Martinsville", "country": "US", "coord": {"lon": -86.428329, "lat": 39.42783}}, {"id": 4261132, "name": "McCordsville", "country": "US", "coord": {"lon": -85.92276, "lat": 39.9081}}, {"id": 4261231, "name": "Melody Hill", "country": "US", "coord": {"lon": -87.515846, "lat": 38.02615}}, {"id": 4261283, "name": "Meridian Hills", "country": "US", "coord": {"lon": -86.157211, "lat": 39.890041}}, {"id": 4261349, "name": "Middlebury", "country": "US", "coord": {"lon": -87.118896, "lat": 39.26421}}, {"id": 4261361, "name": "Milan", "country": "US", "coord": {"lon": -85.131348, "lat": 39.12117}}, {"id": 4261486, "name": "Mitchell", "country": "US", "coord": {"lon": -86.473602, "lat": 38.73283}}, {"id": 4261539, "name": "Monrovia", "country": "US", "coord": {"lon": -86.482224, "lat": 39.578941}}, {"id": 4261552, "name": "Montezuma", "country": "US", "coord": {"lon": -87.37085, "lat": 39.79282}}, {"id": 4261585, "name": "Mooresville", "country": "US", "coord": {"lon": -86.374161, "lat": 39.61282}}, {"id": 4261628, "name": "Morristown", "country": "US", "coord": {"lon": -85.698593, "lat": 39.673382}}, {"id": 4261837, "name": "Mount Vernon", "country": "US", "coord": {"lon": -87.895027, "lat": 37.93227}}, {"id": 4261983, "name": "Nashville", "country": "US", "coord": {"lon": -86.251099, "lat": 39.207272}}, {"id": 4262130, "name": "New Palestine", "country": "US", "coord": {"lon": -85.889153, "lat": 39.721989}}, {"id": 4262159, "name": "New Whiteland", "country": "US", "coord": {"lon": -86.095261, "lat": 39.558102}}, {"id": 4262171, "name": "Newburgh", "country": "US", "coord": {"lon": -87.405289, "lat": 37.944489}}, {"id": 4262177, "name": "Newport", "country": "US", "coord": {"lon": -87.40863, "lat": 39.884201}}, {"id": 4262293, "name": "North Madison", "country": "US", "coord": {"lon": -85.396622, "lat": 38.767841}}, {"id": 4262311, "name": "North Terre Haute", "country": "US", "coord": {"lon": -87.360298, "lat": 39.527809}}, {"id": 4262318, "name": "North Vernon", "country": "US", "coord": {"lon": -85.623581, "lat": 39.006161}}, {"id": 4262406, "name": "Oak Park", "country": "US", "coord": {"lon": -85.69635, "lat": 38.305618}}, {"id": 4262425, "name": "Oakland City", "country": "US", "coord": {"lon": -87.345009, "lat": 38.338661}}, {"id": 4262451, "name": "Odon", "country": "US", "coord": {"lon": -86.991402, "lat": 38.842831}}, {"id": 4262583, "name": "Oolitic", "country": "US", "coord": {"lon": -86.525269, "lat": 38.900879}}, {"id": 4262618, "name": "Orleans", "country": "US", "coord": {"lon": -86.45166, "lat": 38.66172}}, {"id": 4262640, "name": "Osgood", "country": "US", "coord": {"lon": -85.291634, "lat": 39.129219}}, {"id": 4262708, "name": "Owensville", "country": "US", "coord": {"lon": -87.687798, "lat": 38.271992}}, {"id": 4262762, "name": "Paoli", "country": "US", "coord": {"lon": -86.468323, "lat": 38.556171}}, {"id": 4262901, "name": "Pendleton", "country": "US", "coord": {"lon": -85.746643, "lat": 39.99754}}, {"id": 4262968, "name": "Petersburg", "country": "US", "coord": {"lon": -87.278618, "lat": 38.491989}}, {"id": 4263105, "name": "Pittsboro", "country": "US", "coord": {"lon": -86.466942, "lat": 39.86393}}, {"id": 4263307, "name": "Poseyville", "country": "US", "coord": {"lon": -87.783081, "lat": 38.17004}}, {"id": 4263391, "name": "Princes Lakes", "country": "US", "coord": {"lon": -86.098053, "lat": 39.353661}}, {"id": 4263396, "name": "Princeton", "country": "US", "coord": {"lon": -87.56752, "lat": 38.35532}}, {"id": 4263736, "name": "Rising Sun", "country": "US", "coord": {"lon": -84.853844, "lat": 38.949501}}, {"id": 4263848, "name": "Rockport", "country": "US", "coord": {"lon": -87.2789, "lat": 39.880871}}, {"id": 4263850, "name": "Rockville", "country": "US", "coord": {"lon": -87.229179, "lat": 39.762539}}, {"id": 4263856, "name": "Rockport", "country": "US", "coord": {"lon": -87.049438, "lat": 37.88311}}, {"id": 4263965, "name": "Rushville", "country": "US", "coord": {"lon": -85.446358, "lat": 39.609211}}, {"id": 4264243, "name": "Saint Paul", "country": "US", "coord": {"lon": -85.628311, "lat": 39.428101}}, {"id": 4264334, "name": "Salem", "country": "US", "coord": {"lon": -86.101089, "lat": 38.60561}}, {"id": 4264457, "name": "Santa Claus", "country": "US", "coord": {"lon": -86.914162, "lat": 38.120049}}, {"id": 4264555, "name": "Scottsburg", "country": "US", "coord": {"lon": -85.770248, "lat": 38.685612}}, {"id": 4264592, "name": "Seelyville", "country": "US", "coord": {"lon": -87.267242, "lat": 39.491982}}, {"id": 4264598, "name": "Sellersburg", "country": "US", "coord": {"lon": -85.754959, "lat": 38.398121}}, {"id": 4264696, "name": "Shelburn", "country": "US", "coord": {"lon": -87.393631, "lat": 39.178371}}, {"id": 4264771, "name": "Shoals", "country": "US", "coord": {"lon": -86.791107, "lat": 38.666439}}, {"id": 4265103, "name": "Southport", "country": "US", "coord": {"lon": -86.127762, "lat": 39.665051}}, {"id": 4265146, "name": "Speedway", "country": "US", "coord": {"lon": -86.267212, "lat": 39.802269}}, {"id": 4265147, "name": "Spencer", "country": "US", "coord": {"lon": -86.762512, "lat": 39.286709}}, {"id": 4265507, "name": "Sullivan", "country": "US", "coord": {"lon": -87.405853, "lat": 39.095322}}, {"id": 4265554, "name": "Sunman", "country": "US", "coord": {"lon": -85.094681, "lat": 39.237}}, {"id": 4265717, "name": "Tell City", "country": "US", "coord": {"lon": -86.767769, "lat": 37.951439}}, {"id": 4265912, "name": "Trafalgar", "country": "US", "coord": {"lon": -86.150818, "lat": 39.416161}}, {"id": 4266266, "name": "Versailles", "country": "US", "coord": {"lon": -85.2519, "lat": 39.071999}}, {"id": 4266278, "name": "Vevay", "country": "US", "coord": {"lon": -85.067169, "lat": 38.747841}}, {"id": 4266573, "name": "Warren Park", "country": "US", "coord": {"lon": -86.050262, "lat": 39.78199}}, {"id": 4266586, "name": "Washington", "country": "US", "coord": {"lon": -87.172791, "lat": 38.659222}}, {"id": 4266643, "name": "Waterloo", "country": "US", "coord": {"lon": -86.197487, "lat": 39.56255}}, {"id": 4266844, "name": "West Terre Haute", "country": "US", "coord": {"lon": -87.45002, "lat": 39.465038}}, {"id": 4266871, "name": "Westport", "country": "US", "coord": {"lon": -85.573029, "lat": 39.175892}}, {"id": 4266960, "name": "Whiteland", "country": "US", "coord": {"lon": -86.079712, "lat": 39.550049}}, {"id": 4266965, "name": "Whitestown", "country": "US", "coord": {"lon": -86.345833, "lat": 39.997261}}, {"id": 4267235, "name": "Worthington", "country": "US", "coord": {"lon": -86.979446, "lat": 39.125038}}, {"id": 4267336, "name": "Zionsville", "country": "US", "coord": {"lon": -86.26194, "lat": 39.950871}}, {"id": 4267354, "name": "Abilene", "country": "US", "coord": {"lon": -97.213913, "lat": 38.917221}}, {"id": 4267513, "name": "Alma", "country": "US", "coord": {"lon": -96.289162, "lat": 39.01667}}, {"id": 4267531, "name": "Altamont", "country": "US", "coord": {"lon": -95.297188, "lat": 37.190338}}, {"id": 4267594, "name": "Andover", "country": "US", "coord": {"lon": -97.136429, "lat": 37.713902}}, {"id": 4267605, "name": "Anthony", "country": "US", "coord": {"lon": -98.031174, "lat": 37.153358}}, {"id": 4267661, "name": "Arkansas City", "country": "US", "coord": {"lon": -97.038368, "lat": 37.06197}}, {"id": 4267669, "name": "Arma", "country": "US", "coord": {"lon": -94.700241, "lat": 37.543941}}, {"id": 4267710, "name": "Ashland", "country": "US", "coord": {"lon": -99.765678, "lat": 37.188641}}, {"id": 4267733, "name": "Atchison", "country": "US", "coord": {"lon": -95.121643, "lat": 39.563049}}, {"id": 4267767, "name": "Auburn", "country": "US", "coord": {"lon": -95.816101, "lat": 38.906109}}, {"id": 4267773, "name": "Augusta", "country": "US", "coord": {"lon": -96.9767, "lat": 37.68668}}, {"id": 4267866, "name": "Baldwin City", "country": "US", "coord": {"lon": -95.186363, "lat": 38.775009}}, {"id": 4267944, "name": "Basehor", "country": "US", "coord": {"lon": -94.938583, "lat": 39.14167}}, {"id": 4267978, "name": "Baxter Springs", "country": "US", "coord": {"lon": -94.735497, "lat": 37.023682}}, {"id": 4268079, "name": "Bellaire", "country": "US", "coord": {"lon": -97.266991, "lat": 37.762508}}, {"id": 4268081, "name": "Belle Plaine", "country": "US", "coord": {"lon": -97.281158, "lat": 37.393909}}, {"id": 4268091, "name": "Belleville", "country": "US", "coord": {"lon": -97.632538, "lat": 39.824451}}, {"id": 4268119, "name": "Beloit", "country": "US", "coord": {"lon": -98.106163, "lat": 39.45612}}, {"id": 4268455, "name": "Blue Rapids", "country": "US", "coord": {"lon": -96.659737, "lat": 39.681938}}, {"id": 4268521, "name": "Bonner Springs", "country": "US", "coord": {"lon": -94.883583, "lat": 39.059731}}, {"id": 4268854, "name": "Burlington", "country": "US", "coord": {"lon": -95.74276, "lat": 38.194469}}, {"id": 4268940, "name": "Caldwell", "country": "US", "coord": {"lon": -97.606987, "lat": 37.032249}}, {"id": 4269043, "name": "Caney", "country": "US", "coord": {"lon": -95.935257, "lat": 37.011459}}, {"id": 4269076, "name": "Carbondale", "country": "US", "coord": {"lon": -95.689148, "lat": 38.818619}}, {"id": 4269401, "name": "Chapman", "country": "US", "coord": {"lon": -97.022507, "lat": 38.972221}}, {"id": 4269447, "name": "Cheney", "country": "US", "coord": {"lon": -97.782547, "lat": 37.630009}}, {"id": 4269483, "name": "Cherryvale", "country": "US", "coord": {"lon": -95.552483, "lat": 37.27034}}, {"id": 4269493, "name": "Chetopa", "country": "US", "coord": {"lon": -95.089958, "lat": 37.037289}}, {"id": 4269641, "name": "Clay Center", "country": "US", "coord": {"lon": -96.771141, "lat": 37.519459}}, {"id": 4269642, "name": "Clay Center", "country": "US", "coord": {"lon": -97.124741, "lat": 39.376942}}, {"id": 4269690, "name": "Clearwater", "country": "US", "coord": {"lon": -97.504494, "lat": 37.5028}}, {"id": 4269789, "name": "Coffeyville", "country": "US", "coord": {"lon": -95.616371, "lat": 37.0373}}, {"id": 4269802, "name": "Coldwater", "country": "US", "coord": {"lon": -99.326782, "lat": 37.268909}}, {"id": 4269841, "name": "Columbus", "country": "US", "coord": {"lon": -94.844116, "lat": 37.169231}}, {"id": 4269847, "name": "Colwich", "country": "US", "coord": {"lon": -97.536438, "lat": 37.779179}}, {"id": 4269872, "name": "Concordia", "country": "US", "coord": {"lon": -97.662537, "lat": 39.570839}}, {"id": 4269887, "name": "Conway Springs", "country": "US", "coord": {"lon": -97.642273, "lat": 37.390301}}, {"id": 4269988, "name": "Cottonwood Falls", "country": "US", "coord": {"lon": -96.542778, "lat": 38.372238}}, {"id": 4270001, "name": "Council Grove", "country": "US", "coord": {"lon": -96.491951, "lat": 38.661121}}, {"id": 4270269, "name": "De Soto", "country": "US", "coord": {"lon": -94.968582, "lat": 38.979172}}, {"id": 4270460, "name": "Douglass", "country": "US", "coord": {"lon": -97.01281, "lat": 37.519459}}, {"id": 4270819, "name": "Edgerton", "country": "US", "coord": {"lon": -95.008018, "lat": 38.764729}}, {"id": 4270847, "name": "Edwardsville", "country": "US", "coord": {"lon": -94.819679, "lat": 39.061119}}, {"id": 4270863, "name": "El Dorado", "country": "US", "coord": {"lon": -96.862251, "lat": 37.817242}}, {"id": 4270929, "name": "Ellinwood", "country": "US", "coord": {"lon": -98.58091, "lat": 38.355572}}, {"id": 4271035, "name": "Elwood", "country": "US", "coord": {"lon": -94.872467, "lat": 39.75555}}, {"id": 4271131, "name": "Erie", "country": "US", "coord": {"lon": -95.243309, "lat": 37.568111}}, {"id": 4271159, "name": "Eureka", "country": "US", "coord": {"lon": -96.289169, "lat": 37.823921}}, {"id": 4271196, "name": "Eudora", "country": "US", "coord": {"lon": -95.098579, "lat": 38.94334}}, {"id": 4271358, "name": "Fairway", "country": "US", "coord": {"lon": -94.631897, "lat": 39.022228}}, {"id": 4271690, "name": "Fort Scott", "country": "US", "coord": {"lon": -94.708298, "lat": 37.83976}}, {"id": 4271796, "name": "Fredonia", "country": "US", "coord": {"lon": -95.826653, "lat": 37.533939}}, {"id": 4271901, "name": "Galena", "country": "US", "coord": {"lon": -94.639671, "lat": 37.075901}}, {"id": 4271918, "name": "Frontenac", "country": "US", "coord": {"lon": -94.689133, "lat": 37.455601}}, {"id": 4271974, "name": "Garnett", "country": "US", "coord": {"lon": -95.24192, "lat": 38.280579}}, {"id": 4272061, "name": "Girard", "country": "US", "coord": {"lon": -94.83802, "lat": 37.511162}}, {"id": 4272133, "name": "Goddard", "country": "US", "coord": {"lon": -97.575333, "lat": 37.65974}}, {"id": 4272273, "name": "Grandview Plaza", "country": "US", "coord": {"lon": -96.789169, "lat": 39.02916}}, {"id": 4272411, "name": "Greensburg", "country": "US", "coord": {"lon": -99.29261, "lat": 37.602798}}, {"id": 4272660, "name": "Harper", "country": "US", "coord": {"lon": -98.025887, "lat": 37.28669}}, {"id": 4272727, "name": "Haven", "country": "US", "coord": {"lon": -97.782829, "lat": 37.898899}}, {"id": 4272788, "name": "Haysville", "country": "US", "coord": {"lon": -97.352272, "lat": 37.564461}}, {"id": 4272840, "name": "Herington", "country": "US", "coord": {"lon": -96.942513, "lat": 38.67112}}, {"id": 4272861, "name": "Hesston", "country": "US", "coord": {"lon": -97.431427, "lat": 38.13834}}, {"id": 4272873, "name": "Hiawatha", "country": "US", "coord": {"lon": -95.53582, "lat": 39.852501}}, {"id": 4272914, "name": "Highland", "country": "US", "coord": {"lon": -95.269699, "lat": 39.859718}}, {"id": 4273003, "name": "Hillsboro", "country": "US", "coord": {"lon": -97.204468, "lat": 38.351959}}, {"id": 4273066, "name": "Hoisington", "country": "US", "coord": {"lon": -98.778137, "lat": 38.51807}}, {"id": 4273096, "name": "Holton", "country": "US", "coord": {"lon": -95.736366, "lat": 39.465271}}, {"id": 4273211, "name": "Horton", "country": "US", "coord": {"lon": -95.526367, "lat": 39.660561}}, {"id": 4273226, "name": "Howard", "country": "US", "coord": {"lon": -96.263611, "lat": 37.47031}}, {"id": 4273255, "name": "Humboldt", "country": "US", "coord": {"lon": -95.436928, "lat": 37.8106}}, {"id": 4273359, "name": "Independence", "country": "US", "coord": {"lon": -95.708313, "lat": 37.224239}}, {"id": 4273430, "name": "Inman", "country": "US", "coord": {"lon": -97.773376, "lat": 38.231949}}, {"id": 4273441, "name": "Iola", "country": "US", "coord": {"lon": -95.399979, "lat": 37.92448}}, {"id": 4273616, "name": "Jetmore", "country": "US", "coord": {"lon": -99.893463, "lat": 38.084461}}, {"id": 4273881, "name": "Kechi", "country": "US", "coord": {"lon": -97.279488, "lat": 37.795849}}, {"id": 4273978, "name": "Kingman", "country": "US", "coord": {"lon": -98.11367, "lat": 37.645851}}, {"id": 4273993, "name": "Kinsley", "country": "US", "coord": {"lon": -99.409843, "lat": 37.923069}}, {"id": 4273999, "name": "Kiowa", "country": "US", "coord": {"lon": -98.485352, "lat": 37.01725}}, {"id": 4274067, "name": "La Crosse", "country": "US", "coord": {"lon": -99.308723, "lat": 38.531399}}, {"id": 4274070, "name": "La Cygne", "country": "US", "coord": {"lon": -94.761353, "lat": 38.350021}}, {"id": 4274236, "name": "Lansing", "country": "US", "coord": {"lon": -94.900238, "lat": 39.248611}}, {"id": 4274249, "name": "Larned", "country": "US", "coord": {"lon": -99.098709, "lat": 38.180569}}, {"id": 4274450, "name": "Lincoln", "country": "US", "coord": {"lon": -98.144768, "lat": 39.04084}}, {"id": 4274532, "name": "Lindsborg", "country": "US", "coord": {"lon": -97.674477, "lat": 38.57362}}, {"id": 4274828, "name": "Louisburg", "country": "US", "coord": {"lon": -94.680794, "lat": 38.619461}}, {"id": 4274906, "name": "Lyndon", "country": "US", "coord": {"lon": -95.684433, "lat": 38.610008}}, {"id": 4274927, "name": "Lyons", "country": "US", "coord": {"lon": -98.201729, "lat": 38.345009}}, {"id": 4274980, "name": "Maize", "country": "US", "coord": {"lon": -97.46727, "lat": 37.779179}}, {"id": 4275004, "name": "Mankato", "country": "US", "coord": {"lon": -98.210052, "lat": 39.787231}}, {"id": 4275070, "name": "Marion", "country": "US", "coord": {"lon": -97.017242, "lat": 38.348351}}, {"id": 4275144, "name": "Marysville", "country": "US", "coord": {"lon": -96.64724, "lat": 39.84111}}, {"id": 4275261, "name": "McPherson", "country": "US", "coord": {"lon": -97.664207, "lat": 38.370838}}, {"id": 4275315, "name": "Medicine Lodge", "country": "US", "coord": {"lon": -98.58036, "lat": 37.281132}}, {"id": 4275393, "name": "Merriam", "country": "US", "coord": {"lon": -94.693573, "lat": 39.023621}}, {"id": 4275586, "name": "Minneapolis", "country": "US", "coord": {"lon": -97.706703, "lat": 39.121941}}, {"id": 4275600, "name": "Mission", "country": "US", "coord": {"lon": -94.655792, "lat": 39.027779}}, {"id": 4275614, "name": "Mission Hills", "country": "US", "coord": {"lon": -94.616898, "lat": 39.01778}}, {"id": 4275784, "name": "Mound City", "country": "US", "coord": {"lon": -94.813568, "lat": 38.142811}}, {"id": 4275803, "name": "Moundridge", "country": "US", "coord": {"lon": -97.519211, "lat": 38.20306}}, {"id": 4276017, "name": "Mulvane", "country": "US", "coord": {"lon": -97.243927, "lat": 37.474461}}, {"id": 4276128, "name": "Neodesha", "country": "US", "coord": {"lon": -95.68026, "lat": 37.418388}}, {"id": 4276166, "name": "Ness City", "country": "US", "coord": {"lon": -99.906509, "lat": 38.452789}}, {"id": 4276265, "name": "Nickerson", "country": "US", "coord": {"lon": -98.083672, "lat": 38.147228}}, {"id": 4276386, "name": "North Newton", "country": "US", "coord": {"lon": -97.345589, "lat": 38.072231}}, {"id": 4276452, "name": "Norton", "country": "US", "coord": {"lon": -99.89151, "lat": 39.833889}}, {"id": 4276588, "name": "Ogden", "country": "US", "coord": {"lon": -96.706123, "lat": 39.111111}}, {"id": 4276747, "name": "Osage City", "country": "US", "coord": {"lon": -95.825821, "lat": 38.6339}}, {"id": 4276772, "name": "Osawatomie", "country": "US", "coord": {"lon": -94.950523, "lat": 38.497238}}, {"id": 4276781, "name": "Osborne", "country": "US", "coord": {"lon": -98.694794, "lat": 39.4389}}, {"id": 4276792, "name": "Oskaloosa", "country": "US", "coord": {"lon": -95.312752, "lat": 39.215279}}, {"id": 4276800, "name": "Oswego", "country": "US", "coord": {"lon": -95.109962, "lat": 37.167568}}, {"id": 4276816, "name": "Ottawa", "country": "US", "coord": {"lon": -95.267754, "lat": 38.61557}}, {"id": 4276871, "name": "Overbrook", "country": "US", "coord": {"lon": -95.557198, "lat": 38.78056}}, {"id": 4276893, "name": "Oxford", "country": "US", "coord": {"lon": -97.16893, "lat": 37.274189}}, {"id": 4276956, "name": "Paola", "country": "US", "coord": {"lon": -94.879128, "lat": 38.572239}}, {"id": 4276974, "name": "Park City", "country": "US", "coord": {"lon": -97.318382, "lat": 37.800011}}, {"id": 4277011, "name": "Parsons", "country": "US", "coord": {"lon": -95.261078, "lat": 37.34034}}, {"id": 4277079, "name": "Peabody", "country": "US", "coord": {"lon": -97.106697, "lat": 38.16946}}, {"id": 4277260, "name": "Plainville", "country": "US", "coord": {"lon": -99.298157, "lat": 39.23473}}, {"id": 4277481, "name": "Pleasanton", "country": "US", "coord": {"lon": -94.711349, "lat": 38.177811}}, {"id": 4277752, "name": "Pratt", "country": "US", "coord": {"lon": -98.737587, "lat": 37.643909}}, {"id": 4278272, "name": "Roeland Park", "country": "US", "coord": {"lon": -94.632179, "lat": 39.03751}}, {"id": 4278340, "name": "Rose Hill", "country": "US", "coord": {"lon": -97.13504, "lat": 37.55835}}, {"id": 4278393, "name": "Rossville", "country": "US", "coord": {"lon": -95.95166, "lat": 39.136108}}, {"id": 4278471, "name": "Russell", "country": "US", "coord": {"lon": -98.85981, "lat": 38.89529}}, {"id": 4278489, "name": "Sabetha", "country": "US", "coord": {"lon": -95.800819, "lat": 39.902222}}, {"id": 4278621, "name": "Saint John", "country": "US", "coord": {"lon": -98.760094, "lat": 38.002239}}, {"id": 4278741, "name": "Saint Marys", "country": "US", "coord": {"lon": -96.071098, "lat": 39.19416}}, {"id": 4278742, "name": "Saint Marys", "country": "US", "coord": {"lon": -97.640053, "lat": 37.70668}}, {"id": 4279149, "name": "Sedan", "country": "US", "coord": {"lon": -96.186943, "lat": 37.12672}}, {"id": 4279154, "name": "Sedgwick", "country": "US", "coord": {"lon": -97.422539, "lat": 37.916679}}, {"id": 4279170, "name": "Seneca", "country": "US", "coord": {"lon": -96.064171, "lat": 39.83416}}, {"id": 4279397, "name": "Silver Lake", "country": "US", "coord": {"lon": -95.858597, "lat": 39.104172}}, {"id": 4279474, "name": "Smith Center", "country": "US", "coord": {"lon": -98.785072, "lat": 39.779179}}, {"id": 4279540, "name": "Solomon", "country": "US", "coord": {"lon": -97.37114, "lat": 38.919441}}, {"id": 4279645, "name": "South Hutchinson", "country": "US", "coord": {"lon": -97.940331, "lat": 38.028069}}, {"id": 4279847, "name": "Spring Hill", "country": "US", "coord": {"lon": -94.825523, "lat": 38.743061}}, {"id": 4279901, "name": "Stafford", "country": "US", "coord": {"lon": -98.600639, "lat": 37.962238}}, {"id": 4279983, "name": "Sterling", "country": "US", "coord": {"lon": -98.207008, "lat": 38.210011}}, {"id": 4280502, "name": "Tonganoxie", "country": "US", "coord": {"lon": -95.087753, "lat": 39.109718}}, {"id": 4280531, "name": "Towanda", "country": "US", "coord": {"lon": -96.999763, "lat": 37.79752}}, {"id": 4280660, "name": "Troy", "country": "US", "coord": {"lon": -95.089973, "lat": 39.783051}}, {"id": 4280910, "name": "Valley Center", "country": "US", "coord": {"lon": -97.373383, "lat": 37.834728}}, {"id": 4280917, "name": "Valley Falls", "country": "US", "coord": {"lon": -95.460251, "lat": 39.34333}}, {"id": 4281010, "name": "Victoria", "country": "US", "coord": {"lon": -99.147598, "lat": 38.852791}}, {"id": 4281083, "name": "WaKeeney", "country": "US", "coord": {"lon": -99.87957, "lat": 39.025009}}, {"id": 4281227, "name": "Wamego", "country": "US", "coord": {"lon": -96.305, "lat": 39.201939}}, {"id": 4281253, "name": "Washington", "country": "US", "coord": {"lon": -97.050858, "lat": 39.818062}}, {"id": 4281323, "name": "Wathena", "country": "US", "coord": {"lon": -94.949692, "lat": 39.759159}}, {"id": 4281386, "name": "Wellington", "country": "US", "coord": {"lon": -97.371712, "lat": 37.265301}}, {"id": 4281412, "name": "Wellsville", "country": "US", "coord": {"lon": -95.081642, "lat": 38.718342}}, {"id": 4281614, "name": "Westmoreland", "country": "US", "coord": {"lon": -96.413612, "lat": 39.39389}}, {"id": 4281639, "name": "Westwood", "country": "US", "coord": {"lon": -94.616898, "lat": 39.040562}}, {"id": 4281897, "name": "Winfield", "country": "US", "coord": {"lon": -96.99559, "lat": 37.23975}}, {"id": 4282061, "name": "Yates Center", "country": "US", "coord": {"lon": -95.733322, "lat": 37.881149}}, {"id": 4282305, "name": "Albany", "country": "US", "coord": {"lon": -85.134682, "lat": 36.690899}}, {"id": 4282342, "name": "Alexandria", "country": "US", "coord": {"lon": -84.387993, "lat": 38.959511}}, {"id": 4282497, "name": "Anchorage", "country": "US", "coord": {"lon": -85.53302, "lat": 38.266739}}, {"id": 4282563, "name": "Annville", "country": "US", "coord": {"lon": -83.970482, "lat": 37.319248}}, {"id": 4282812, "name": "Auburn", "country": "US", "coord": {"lon": -86.710274, "lat": 36.864208}}, {"id": 4282818, "name": "Audubon Park", "country": "US", "coord": {"lon": -85.725243, "lat": 38.20396}}, {"id": 4282836, "name": "Augusta", "country": "US", "coord": {"lon": -84.007057, "lat": 38.77169}}, {"id": 4283127, "name": "Barbourmeade", "country": "US", "coord": {"lon": -85.603287, "lat": 38.297291}}, {"id": 4283128, "name": "Barbourville", "country": "US", "coord": {"lon": -83.888809, "lat": 36.866482}}, {"id": 4283133, "name": "Bardstown", "country": "US", "coord": {"lon": -85.466904, "lat": 37.809231}}, {"id": 4283138, "name": "Bardwell", "country": "US", "coord": {"lon": -89.009789, "lat": 36.870609}}, {"id": 4283541, "name": "Beattyville", "country": "US", "coord": {"lon": -83.706863, "lat": 37.571751}}, {"id": 4283557, "name": "Beaver Dam", "country": "US", "coord": {"lon": -86.875832, "lat": 37.401989}}, {"id": 4283606, "name": "Bedford", "country": "US", "coord": {"lon": -85.317734, "lat": 38.59256}}, {"id": 4283760, "name": "Beechwood Village", "country": "US", "coord": {"lon": -85.631348, "lat": 38.254791}}, {"id": 4283845, "name": "Bellevue", "country": "US", "coord": {"lon": -84.478828, "lat": 39.106449}}, {"id": 4283953, "name": "Benton", "country": "US", "coord": {"lon": -88.350319, "lat": 36.857281}}, {"id": 4283974, "name": "Berea", "country": "US", "coord": {"lon": -84.296318, "lat": 37.568691}}, {"id": 4285190, "name": "Booneville", "country": "US", "coord": {"lon": -83.674911, "lat": 37.4762}}, {"id": 4285380, "name": "Brandenburg", "country": "US", "coord": {"lon": -86.169411, "lat": 37.998959}}, {"id": 4285427, "name": "Breckinridge Center", "country": "US", "coord": {"lon": -87.863083, "lat": 37.682819}}, {"id": 4285573, "name": "Brodhead", "country": "US", "coord": {"lon": -84.413834, "lat": 37.404251}}, {"id": 4285588, "name": "Brooks", "country": "US", "coord": {"lon": -85.709679, "lat": 38.06118}}, {"id": 4285607, "name": "Brooksville", "country": "US", "coord": {"lon": -84.065758, "lat": 38.682571}}, {"id": 4285708, "name": "Brownsville", "country": "US", "coord": {"lon": -86.267754, "lat": 37.192551}}, {"id": 4286037, "name": "Buckner", "country": "US", "coord": {"lon": -85.439957, "lat": 38.383678}}, {"id": 4286054, "name": "Buechel", "country": "US", "coord": {"lon": -85.651901, "lat": 38.195068}}, {"id": 4286280, "name": "Burkesville", "country": "US", "coord": {"lon": -85.370522, "lat": 36.79034}}, {"id": 4286479, "name": "Cadiz", "country": "US", "coord": {"lon": -87.835297, "lat": 36.865051}}, {"id": 4286519, "name": "Calhoun", "country": "US", "coord": {"lon": -87.258331, "lat": 37.53894}}, {"id": 4286581, "name": "Calvert City", "country": "US", "coord": {"lon": -88.350037, "lat": 37.03339}}, {"id": 4286590, "name": "Camargo", "country": "US", "coord": {"lon": -83.887703, "lat": 37.994251}}, {"id": 4286717, "name": "Campbellsville", "country": "US", "coord": {"lon": -85.341911, "lat": 37.343399}}, {"id": 4286728, "name": "Campton", "country": "US", "coord": {"lon": -83.547409, "lat": 37.734249}}, {"id": 4286981, "name": "Carlisle", "country": "US", "coord": {"lon": -84.027428, "lat": 38.312019}}, {"id": 4287050, "name": "Carrollton", "country": "US", "coord": {"lon": -85.179398, "lat": 38.680901}}, {"id": 4287192, "name": "Catlettsburg", "country": "US", "coord": {"lon": -82.600441, "lat": 38.4048}}, {"id": 4287235, "name": "Cave City", "country": "US", "coord": {"lon": -85.956917, "lat": 37.136719}}, {"id": 4287450, "name": "Central City", "country": "US", "coord": {"lon": -87.123329, "lat": 37.29393}}, {"id": 4287872, "name": "Claryville", "country": "US", "coord": {"lon": -84.395493, "lat": 38.919231}}, {"id": 4287874, "name": "Clay", "country": "US", "coord": {"lon": -87.820023, "lat": 37.476711}}, {"id": 4288062, "name": "Clinton", "country": "US", "coord": {"lon": -88.993401, "lat": 36.667278}}, {"id": 4288101, "name": "Cloverport", "country": "US", "coord": {"lon": -86.632759, "lat": 37.833389}}, {"id": 4288140, "name": "Coal Run Village", "country": "US", "coord": {"lon": -82.558487, "lat": 37.513161}}, {"id": 4288230, "name": "Cold Spring", "country": "US", "coord": {"lon": -84.439941, "lat": 39.021729}}, {"id": 4288250, "name": "Coldstream", "country": "US", "coord": {"lon": -85.523849, "lat": 38.314789}}, {"id": 4288366, "name": "Columbia", "country": "US", "coord": {"lon": -85.306351, "lat": 37.10284}}, {"id": 4288656, "name": "Corbin", "country": "US", "coord": {"lon": -84.096878, "lat": 36.9487}}, {"id": 4289028, "name": "Crescent Springs", "country": "US", "coord": {"lon": -84.581612, "lat": 39.051449}}, {"id": 4289040, "name": "Crestview Hills", "country": "US", "coord": {"lon": -84.584938, "lat": 39.027279}}, {"id": 4289042, "name": "Crestwood", "country": "US", "coord": {"lon": -85.472458, "lat": 38.324242}}, {"id": 4289072, "name": "Crittenden", "country": "US", "coord": {"lon": -84.605217, "lat": 38.782841}}, {"id": 4289232, "name": "Cumberland", "country": "US", "coord": {"lon": -82.988503, "lat": 36.978149}}, {"id": 4289323, "name": "Cynthiana", "country": "US", "coord": {"lon": -84.294098, "lat": 38.39035}}, {"id": 4289606, "name": "Dawson Springs", "country": "US", "coord": {"lon": -87.692513, "lat": 37.167271}}, {"id": 4289629, "name": "Dayton", "country": "US", "coord": {"lon": -84.472717, "lat": 39.112839}}, {"id": 4289966, "name": "Dixon", "country": "US", "coord": {"lon": -87.690292, "lat": 37.517818}}, {"id": 4290181, "name": "Douglass Hills", "country": "US", "coord": {"lon": -85.552742, "lat": 38.23785}}, {"id": 4290421, "name": "Dry Ridge", "country": "US", "coord": {"lon": -84.589943, "lat": 38.682011}}, {"id": 4290685, "name": "Earlington", "country": "US", "coord": {"lon": -87.51194, "lat": 37.274212}}, {"id": 4290859, "name": "Eddyville", "country": "US", "coord": {"lon": -88.080299, "lat": 37.094501}}, {"id": 4290873, "name": "Edgewood", "country": "US", "coord": {"lon": -84.581886, "lat": 39.018669}}, {"id": 4290886, "name": "Edmonton", "country": "US", "coord": {"lon": -85.61219, "lat": 36.980061}}, {"id": 4291056, "name": "Elkfork", "country": "US", "coord": {"lon": -83.13295, "lat": 37.964809}}, {"id": 4291079, "name": "Elkton", "country": "US", "coord": {"lon": -87.154167, "lat": 36.81004}}, {"id": 4291156, "name": "Elsmere", "country": "US", "coord": {"lon": -84.604668, "lat": 39.012562}}, {"id": 4291181, "name": "Eminence", "country": "US", "coord": {"lon": -85.180511, "lat": 38.370071}}, {"id": 4291373, "name": "Fairdale", "country": "US", "coord": {"lon": -85.75885, "lat": 38.105068}}, {"id": 4291501, "name": "Falmouth", "country": "US", "coord": {"lon": -84.330208, "lat": 38.676739}}, {"id": 4291884, "name": "Flatwoods", "country": "US", "coord": {"lon": -82.71711, "lat": 38.522579}}, {"id": 4291905, "name": "Flemingsburg", "country": "US", "coord": {"lon": -83.73381, "lat": 38.422298}}, {"id": 4292067, "name": "Fort Mitchell", "country": "US", "coord": {"lon": -84.54744, "lat": 39.059502}}, {"id": 4292072, "name": "Fort Wright", "country": "US", "coord": {"lon": -84.534111, "lat": 39.051731}}, {"id": 4292182, "name": "Francisville", "country": "US", "coord": {"lon": -84.724388, "lat": 39.105061}}, {"id": 4292193, "name": "Franklin", "country": "US", "coord": {"lon": -86.577217, "lat": 36.72226}}, {"id": 4292308, "name": "Frenchburg", "country": "US", "coord": {"lon": -83.625748, "lat": 37.95092}}, {"id": 4292424, "name": "Fulton", "country": "US", "coord": {"lon": -88.874229, "lat": 36.50423}}, {"id": 4292826, "name": "Glasgow", "country": "US", "coord": {"lon": -85.911919, "lat": 36.99588}}, {"id": 4293284, "name": "Graymoor-Devondale", "country": "US", "coord": {"lon": -85.623016, "lat": 38.273129}}, {"id": 4293311, "name": "Grayson", "country": "US", "coord": {"lon": -82.948502, "lat": 38.332581}}, {"id": 4293470, "name": "Greensburg", "country": "US", "coord": {"lon": -85.498848, "lat": 37.260891}}, {"id": 4293473, "name": "Greenup", "country": "US", "coord": {"lon": -82.83017, "lat": 38.573132}}, {"id": 4293477, "name": "Greenville", "country": "US", "coord": {"lon": -87.178886, "lat": 37.201149}}, {"id": 4293704, "name": "Guthrie", "country": "US", "coord": {"lon": -87.166389, "lat": 36.64838}}, {"id": 4294044, "name": "Hardinsburg", "country": "US", "coord": {"lon": -86.460533, "lat": 37.78006}}, {"id": 4294072, "name": "Harlan", "country": "US", "coord": {"lon": -83.321854, "lat": 36.84314}}, {"id": 4294180, "name": "Harrodsburg", "country": "US", "coord": {"lon": -84.843292, "lat": 37.762299}}, {"id": 4294195, "name": "Hartford", "country": "US", "coord": {"lon": -86.909157, "lat": 37.45116}}, {"id": 4294267, "name": "Hawesville", "country": "US", "coord": {"lon": -86.75499, "lat": 37.900059}}, {"id": 4294349, "name": "Hazard", "country": "US", "coord": {"lon": -83.19323, "lat": 37.249538}}, {"id": 4294433, "name": "Hebron Estates", "country": "US", "coord": {"lon": -85.666069, "lat": 38.049511}}, {"id": 4294526, "name": "Hendron", "country": "US", "coord": {"lon": -88.629219, "lat": 37.039501}}, {"id": 4294625, "name": "Hickman", "country": "US", "coord": {"lon": -89.18618, "lat": 36.571171}}, {"id": 4294788, "name": "Highland Heights", "country": "US", "coord": {"lon": -84.451889, "lat": 39.033119}}, {"id": 4294858, "name": "Hillview", "country": "US", "coord": {"lon": -85.685509, "lat": 38.06979}}, {"id": 4294872, "name": "Hindman", "country": "US", "coord": {"lon": -82.980438, "lat": 37.33593}}, {"id": 4294937, "name": "Hodgenville", "country": "US", "coord": {"lon": -85.73996, "lat": 37.573952}}, {"id": 4295288, "name": "Horse Cave", "country": "US", "coord": {"lon": -85.906921, "lat": 37.179501}}, {"id": 4295686, "name": "Hurstbourne Acres", "country": "US", "coord": {"lon": -85.589127, "lat": 38.22118}}, {"id": 4295689, "name": "Hurstbourne", "country": "US", "coord": {"lon": -85.588287, "lat": 38.238129}}, {"id": 4295712, "name": "Hyden", "country": "US", "coord": {"lon": -83.373238, "lat": 37.160931}}, {"id": 4295852, "name": "Indian Hills", "country": "US", "coord": {"lon": -85.662743, "lat": 38.272572}}, {"id": 4295856, "name": "Indian Hills Cherokee Section", "country": "US", "coord": {"lon": -85.649963, "lat": 38.27951}}, {"id": 4295878, "name": "Inez", "country": "US", "coord": {"lon": -82.538757, "lat": 37.866482}}, {"id": 4295954, "name": "Irvine", "country": "US", "coord": {"lon": -83.973808, "lat": 37.700642}}, {"id": 4295960, "name": "Irvington", "country": "US", "coord": {"lon": -86.283859, "lat": 37.880341}}, {"id": 4296081, "name": "Jackson", "country": "US", "coord": {"lon": -83.383507, "lat": 37.55315}}, {"id": 4296082, "name": "Jackson", "country": "US", "coord": {"lon": -84.870789, "lat": 37.825081}}, {"id": 4296173, "name": "Jamestown", "country": "US", "coord": {"lon": -85.063011, "lat": 36.984791}}, {"id": 4296219, "name": "Jeffersonville", "country": "US", "coord": {"lon": -83.841858, "lat": 37.97369}}, {"id": 4296229, "name": "Jenkins", "country": "US", "coord": {"lon": -82.630989, "lat": 37.173439}}, {"id": 4296734, "name": "Junction City", "country": "US", "coord": {"lon": -84.793839, "lat": 37.586739}}, {"id": 4297236, "name": "La Center", "country": "US", "coord": {"lon": -88.973679, "lat": 37.076721}}, {"id": 4297238, "name": "La Grange", "country": "US", "coord": {"lon": -85.378853, "lat": 38.40757}}, {"id": 4297318, "name": "Lakeside Park", "country": "US", "coord": {"lon": -84.569107, "lat": 39.035622}}, {"id": 4297354, "name": "Lancaster", "country": "US", "coord": {"lon": -84.578003, "lat": 37.619518}}, {"id": 4297581, "name": "Lawrenceburg", "country": "US", "coord": {"lon": -84.896622, "lat": 38.0373}}, {"id": 4297653, "name": "Lebanon", "country": "US", "coord": {"lon": -85.252739, "lat": 37.56979}}, {"id": 4297664, "name": "Lebanon Junction", "country": "US", "coord": {"lon": -85.731903, "lat": 37.834511}}, {"id": 4297673, "name": "Ledbetter", "country": "US", "coord": {"lon": -88.47699, "lat": 37.047562}}, {"id": 4297882, "name": "Leitchfield", "country": "US", "coord": {"lon": -86.293861, "lat": 37.480049}}, {"id": 4297979, "name": "Lewisport", "country": "US", "coord": {"lon": -86.902206, "lat": 37.937}}, {"id": 4298003, "name": "Liberty", "country": "US", "coord": {"lon": -84.9394, "lat": 37.318409}}, {"id": 4298805, "name": "Livermore", "country": "US", "coord": {"lon": -87.131943, "lat": 37.493099}}, {"id": 4298960, "name": "London", "country": "US", "coord": {"lon": -84.08326, "lat": 37.128979}}, {"id": 4299275, "name": "Louisa", "country": "US", "coord": {"lon": -82.60321, "lat": 38.11425}}, {"id": 4299510, "name": "Loyall", "country": "US", "coord": {"lon": -83.354073, "lat": 36.852032}}, {"id": 4299531, "name": "Ludlow", "country": "US", "coord": {"lon": -84.54744, "lat": 39.09256}}, {"id": 4299562, "name": "Lyndon", "country": "US", "coord": {"lon": -85.601631, "lat": 38.256741}}, {"id": 4299741, "name": "Manchester", "country": "US", "coord": {"lon": -83.761864, "lat": 37.153702}}, {"id": 4299842, "name": "Marion", "country": "US", "coord": {"lon": -88.081131, "lat": 37.332829}}, {"id": 4300024, "name": "Masonville", "country": "US", "coord": {"lon": -87.034721, "lat": 37.675049}}, {"id": 4300026, "name": "Massac", "country": "US", "coord": {"lon": -88.730614, "lat": 37.01672}}, {"id": 4300105, "name": "Mayfield", "country": "US", "coord": {"lon": -88.636719, "lat": 36.741718}}, {"id": 4300152, "name": "Maysville", "country": "US", "coord": {"lon": -83.744362, "lat": 38.64119}}, {"id": 4300339, "name": "McKee", "country": "US", "coord": {"lon": -83.997978, "lat": 37.430359}}, {"id": 4300717, "name": "Middlesboro", "country": "US", "coord": {"lon": -83.716583, "lat": 36.608421}}, {"id": 4300725, "name": "Middletown", "country": "US", "coord": {"lon": -85.538849, "lat": 38.24535}}, {"id": 4300739, "name": "Midway", "country": "US", "coord": {"lon": -84.68383, "lat": 38.150909}}, {"id": 4301094, "name": "Heritage Creek", "country": "US", "coord": {"lon": -85.719681, "lat": 38.12368}}, {"id": 4301224, "name": "Monticello", "country": "US", "coord": {"lon": -84.849113, "lat": 36.829788}}, {"id": 4301229, "name": "Monticello", "country": "US", "coord": {"lon": -84.550217, "lat": 37.992298}}, {"id": 4301307, "name": "Morehead", "country": "US", "coord": {"lon": -83.432678, "lat": 38.183971}}, {"id": 4301317, "name": "Morehead", "country": "US", "coord": {"lon": -87.176376, "lat": 37.271149}}, {"id": 4301345, "name": "Morganfield", "country": "US", "coord": {"lon": -87.916687, "lat": 37.68338}}, {"id": 4301349, "name": "Morgantown", "country": "US", "coord": {"lon": -86.683601, "lat": 37.225601}}, {"id": 4301603, "name": "Mount Olivet", "country": "US", "coord": {"lon": -84.036873, "lat": 38.53146}}, {"id": 4301683, "name": "Mount Sterling", "country": "US", "coord": {"lon": -83.94326, "lat": 38.056469}}, {"id": 4301702, "name": "Mount Vernon", "country": "US", "coord": {"lon": -84.495216, "lat": 38.025631}}, {"id": 4301703, "name": "Mount Vernon", "country": "US", "coord": {"lon": -84.340492, "lat": 37.352859}}, {"id": 4301732, "name": "Mount Washington", "country": "US", "coord": {"lon": -85.545792, "lat": 38.05006}}, {"id": 4302012, "name": "Munfordville", "country": "US", "coord": {"lon": -85.891083, "lat": 37.272282}}, {"id": 4302338, "name": "New Castle", "country": "US", "coord": {"lon": -85.169678, "lat": 38.433399}}, {"id": 4302681, "name": "North Corbin", "country": "US", "coord": {"lon": -84.093262, "lat": 36.96064}}, {"id": 4302761, "name": "Northfield", "country": "US", "coord": {"lon": -85.641068, "lat": 38.28701}}, {"id": 4302778, "name": "Nortonville", "country": "US", "coord": {"lon": -87.452782, "lat": 37.19088}}, {"id": 4302827, "name": "Oak Grove", "country": "US", "coord": {"lon": -87.442787, "lat": 36.665051}}, {"id": 4302828, "name": "Oak Grove", "country": "US", "coord": {"lon": -86.754707, "lat": 37.344212}}, {"id": 4302910, "name": "Oakbrook", "country": "US", "coord": {"lon": -84.685219, "lat": 38.999779}}, {"id": 4303194, "name": "Olive Hill", "country": "US", "coord": {"lon": -83.174072, "lat": 38.300079}}, {"id": 4303297, "name": "Orchard Grass Hills", "country": "US", "coord": {"lon": -85.521347, "lat": 38.323681}}, {"id": 4303439, "name": "Owenton", "country": "US", "coord": {"lon": -84.841888, "lat": 38.536461}}, {"id": 4303441, "name": "Owingsville", "country": "US", "coord": {"lon": -83.764076, "lat": 38.144798}}, {"id": 4303543, "name": "Paintsville", "country": "US", "coord": {"lon": -82.807114, "lat": 37.814541}}, {"id": 4303595, "name": "Park Hills", "country": "US", "coord": {"lon": -84.532173, "lat": 39.071449}}, {"id": 4303602, "name": "Paris", "country": "US", "coord": {"lon": -84.252991, "lat": 38.209801}}, {"id": 4304058, "name": "Pewee Valley", "country": "US", "coord": {"lon": -85.487457, "lat": 38.310619}}, {"id": 4304232, "name": "Pikeville", "country": "US", "coord": {"lon": -82.518761, "lat": 37.479271}}, {"id": 4304361, "name": "Pine Knot", "country": "US", "coord": {"lon": -84.438553, "lat": 36.650909}}, {"id": 4304396, "name": "Pineville", "country": "US", "coord": {"lon": -83.694923, "lat": 36.762032}}, {"id": 4304448, "name": "Pioneer Village", "country": "US", "coord": {"lon": -85.677742, "lat": 38.060619}}, {"id": 4304523, "name": "Plano", "country": "US", "coord": {"lon": -86.41832, "lat": 36.880322}}, {"id": 4305210, "name": "Prestonsburg", "country": "US", "coord": {"lon": -82.771553, "lat": 37.665649}}, {"id": 4305266, "name": "Princeton", "country": "US", "coord": {"lon": -87.881958, "lat": 37.109219}}, {"id": 4305287, "name": "Prospect", "country": "US", "coord": {"lon": -85.615517, "lat": 38.34507}}, {"id": 4305294, "name": "Providence", "country": "US", "coord": {"lon": -85.221069, "lat": 38.574509}}, {"id": 4305295, "name": "Providence", "country": "US", "coord": {"lon": -87.762787, "lat": 37.397541}}, {"id": 4305500, "name": "Raceland", "country": "US", "coord": {"lon": -82.7285, "lat": 38.540081}}, {"id": 4305805, "name": "Reidland", "country": "US", "coord": {"lon": -88.531433, "lat": 37.017559}}, {"id": 4306972, "name": "Russell", "country": "US", "coord": {"lon": -82.697662, "lat": 38.5173}}, {"id": 4307012, "name": "Russell Springs", "country": "US", "coord": {"lon": -85.08857, "lat": 37.056179}}, {"id": 4307025, "name": "Russellville", "country": "US", "coord": {"lon": -86.887222, "lat": 36.845322}}, {"id": 4307052, "name": "Ryland Heights", "country": "US", "coord": {"lon": -84.462997, "lat": 38.957561}}, {"id": 4307275, "name": "Saint Regis Park", "country": "US", "coord": {"lon": -85.616631, "lat": 38.226742}}, {"id": 4307447, "name": "Salyersville", "country": "US", "coord": {"lon": -83.068779, "lat": 37.75259}}, {"id": 4307616, "name": "Sandy Hook", "country": "US", "coord": {"lon": -83.126282, "lat": 38.086472}}, {"id": 4307837, "name": "Scottsville", "country": "US", "coord": {"lon": -86.190536, "lat": 36.75338}}, {"id": 4307879, "name": "Sebree", "country": "US", "coord": {"lon": -87.528618, "lat": 37.606991}}, {"id": 4308122, "name": "Shelbyville", "country": "US", "coord": {"lon": -85.223572, "lat": 38.212009}}, {"id": 4308163, "name": "Shepherdsville", "country": "US", "coord": {"lon": -85.71579, "lat": 37.9884}}, {"id": 4308401, "name": "Silver Grove", "country": "US", "coord": {"lon": -84.390221, "lat": 39.034512}}, {"id": 4308453, "name": "Simpsonville", "country": "US", "coord": {"lon": -85.355232, "lat": 38.222569}}, {"id": 4308835, "name": "Smithland", "country": "US", "coord": {"lon": -88.403374, "lat": 37.138939}}, {"id": 4308922, "name": "Somerset", "country": "US", "coord": {"lon": -84.604111, "lat": 37.092018}}, {"id": 4309076, "name": "South Shore", "country": "US", "coord": {"lon": -82.958229, "lat": 38.720909}}, {"id": 4309097, "name": "Southgate", "country": "US", "coord": {"lon": -84.472717, "lat": 39.071999}}, {"id": 4309329, "name": "Springfield", "country": "US", "coord": {"lon": -85.222183, "lat": 37.685341}}, {"id": 4309414, "name": "Saint Dennis", "country": "US", "coord": {"lon": -85.845802, "lat": 38.1884}}, {"id": 4309487, "name": "Stanford", "country": "US", "coord": {"lon": -84.661888, "lat": 37.531189}}, {"id": 4309498, "name": "Stanton", "country": "US", "coord": {"lon": -83.858253, "lat": 37.845638}}, {"id": 4309559, "name": "Stearns", "country": "US", "coord": {"lon": -84.47744, "lat": 36.698971}}, {"id": 4310030, "name": "Sturgis", "country": "US", "coord": {"lon": -87.98391, "lat": 37.546711}}, {"id": 4310616, "name": "Taylor Mill", "country": "US", "coord": {"lon": -84.49633, "lat": 38.997559}}, {"id": 4310638, "name": "Taylorsville", "country": "US", "coord": {"lon": -85.342453, "lat": 38.031731}}, {"id": 4311035, "name": "Tompkinsville", "country": "US", "coord": {"lon": -85.691643, "lat": 36.702278}}, {"id": 4311646, "name": "Union", "country": "US", "coord": {"lon": -84.680496, "lat": 38.9459}}, {"id": 4311722, "name": "Uniontown", "country": "US", "coord": {"lon": -87.93058, "lat": 37.775318}}, {"id": 4311959, "name": "Van Lear", "country": "US", "coord": {"lon": -82.757942, "lat": 37.77121}}, {"id": 4311976, "name": "Vanceburg", "country": "US", "coord": {"lon": -83.318802, "lat": 38.599239}}, {"id": 4312051, "name": "Verona", "country": "US", "coord": {"lon": -84.660782, "lat": 38.818401}}, {"id": 4312057, "name": "Versailles", "country": "US", "coord": {"lon": -84.72995, "lat": 38.052582}}, {"id": 4312088, "name": "Villa Hills", "country": "US", "coord": {"lon": -84.593002, "lat": 39.063389}}, {"id": 4312096, "name": "Vine Grove", "country": "US", "coord": {"lon": -85.981354, "lat": 37.81007}}, {"id": 4312671, "name": "Walton", "country": "US", "coord": {"lon": -84.610222, "lat": 38.875622}}, {"id": 4312734, "name": "Warsaw", "country": "US", "coord": {"lon": -84.901619, "lat": 38.783401}}, {"id": 4312983, "name": "West Buechel", "country": "US", "coord": {"lon": -85.663292, "lat": 38.19701}}, {"id": 4313038, "name": "West Liberty", "country": "US", "coord": {"lon": -83.259621, "lat": 37.921478}}, {"id": 4313093, "name": "Westwood", "country": "US", "coord": {"lon": -82.669884, "lat": 38.483139}}, {"id": 4313346, "name": "Whitesburg", "country": "US", "coord": {"lon": -82.826828, "lat": 37.118431}}, {"id": 4313358, "name": "Whitley City", "country": "US", "coord": {"lon": -84.47049, "lat": 36.723412}}, {"id": 4313395, "name": "Wickliffe", "country": "US", "coord": {"lon": -89.089233, "lat": 36.964779}}, {"id": 4313448, "name": "Wilder", "country": "US", "coord": {"lon": -84.486893, "lat": 39.05645}}, {"id": 4313563, "name": "Williamsburg", "country": "US", "coord": {"lon": -84.15966, "lat": 36.74342}}, {"id": 4313628, "name": "Wilmore", "country": "US", "coord": {"lon": -84.661613, "lat": 37.862019}}, {"id": 4313719, "name": "Windy Hills", "country": "US", "coord": {"lon": -85.634407, "lat": 38.27396}}, {"id": 4314044, "name": "Worthington", "country": "US", "coord": {"lon": -82.724327, "lat": 38.548409}}, {"id": 4314047, "name": "Worthington Hills", "country": "US", "coord": {"lon": -85.526901, "lat": 38.30896}}, {"id": 4314051, "name": "Worthington", "country": "US", "coord": {"lon": -85.56163, "lat": 38.31562}}, {"id": 4314295, "name": "Abbeville", "country": "US", "coord": {"lon": -92.134293, "lat": 29.974649}}, {"id": 4314409, "name": "Addis", "country": "US", "coord": {"lon": -91.265388, "lat": 30.3538}}, {"id": 4314498, "name": "Albany", "country": "US", "coord": {"lon": -90.582314, "lat": 30.50436}}, {"id": 4314712, "name": "Ama", "country": "US", "coord": {"lon": -90.296471, "lat": 29.95215}}, {"id": 4314724, "name": "Amelia", "country": "US", "coord": {"lon": -91.102043, "lat": 29.666321}}, {"id": 4314744, "name": "Amite", "country": "US", "coord": {"lon": -90.50898, "lat": 30.72657}}, {"id": 4314956, "name": "Arabi", "country": "US", "coord": {"lon": -90.005348, "lat": 29.95437}}, {"id": 4315034, "name": "Arnaudville", "country": "US", "coord": {"lon": -91.931511, "lat": 30.397699}}, {"id": 4315225, "name": "Avondale", "country": "US", "coord": {"lon": -90.20369, "lat": 29.912979}}, {"id": 4315312, "name": "Baker", "country": "US", "coord": {"lon": -91.168159, "lat": 30.58824}}, {"id": 4315342, "name": "Baldwin", "country": "US", "coord": {"lon": -91.544281, "lat": 29.83798}}, {"id": 4315350, "name": "Ball", "country": "US", "coord": {"lon": -92.411797, "lat": 31.415461}}, {"id": 4315392, "name": "Banks Springs", "country": "US", "coord": {"lon": -92.092911, "lat": 32.0821}}, {"id": 4315422, "name": "Barataria", "country": "US", "coord": {"lon": -90.123688, "lat": 29.72327}}, {"id": 4315514, "name": "Basile", "country": "US", "coord": {"lon": -92.59597, "lat": 30.485201}}, {"id": 4315535, "name": "Bastrop", "country": "US", "coord": {"lon": -91.872353, "lat": 32.756248}}, {"id": 4315611, "name": "Bawcomville", "country": "US", "coord": {"lon": -92.167358, "lat": 32.470421}}, {"id": 4315845, "name": "Bayou Gauche", "country": "US", "coord": {"lon": -90.413139, "lat": 29.78743}}, {"id": 4315955, "name": "Bayou Vista", "country": "US", "coord": {"lon": -91.270943, "lat": 29.68965}}, {"id": 4316329, "name": "Belle Chasse", "country": "US", "coord": {"lon": -89.990631, "lat": 29.854931}}, {"id": 4316362, "name": "Belle Rose", "country": "US", "coord": {"lon": -91.041489, "lat": 30.05048}}, {"id": 4316471, "name": "Benton", "country": "US", "coord": {"lon": -93.741852, "lat": 32.69487}}, {"id": 4316497, "name": "Bernice", "country": "US", "coord": {"lon": -92.657928, "lat": 32.82209}}, {"id": 4316523, "name": "Berwick", "country": "US", "coord": {"lon": -91.218987, "lat": 29.694651}}, {"id": 4317201, "name": "Blanchard", "country": "US", "coord": {"lon": -93.892677, "lat": 32.580978}}, {"id": 4317412, "name": "Bogalusa", "country": "US", "coord": {"lon": -89.848686, "lat": 30.791019}}, {"id": 4317709, "name": "Bourg", "country": "US", "coord": {"lon": -90.60231, "lat": 29.553551}}, {"id": 4317718, "name": "Boutte", "country": "US", "coord": {"lon": -90.388138, "lat": 29.90243}}, {"id": 4317734, "name": "Boyce", "country": "US", "coord": {"lon": -92.669312, "lat": 31.390459}}, {"id": 4317801, "name": "Breaux Bridge", "country": "US", "coord": {"lon": -91.899277, "lat": 30.273529}}, {"id": 4317864, "name": "Bridge City", "country": "US", "coord": {"lon": -90.170067, "lat": 29.93326}}, {"id": 4317985, "name": "Broussard", "country": "US", "coord": {"lon": -91.961227, "lat": 30.14715}}, {"id": 4318037, "name": "Brownsfield", "country": "US", "coord": {"lon": -91.120659, "lat": 30.546579}}, {"id": 4318055, "name": "Brownsville", "country": "US", "coord": {"lon": -92.154297, "lat": 32.487091}}, {"id": 4318163, "name": "Brusly", "country": "US", "coord": {"lon": -91.253723, "lat": 30.39436}}, {"id": 4318320, "name": "Bunkie", "country": "US", "coord": {"lon": -92.182632, "lat": 30.953251}}, {"id": 4318541, "name": "Cade", "country": "US", "coord": {"lon": -91.905403, "lat": 30.08742}}, {"id": 4318695, "name": "Cameron", "country": "US", "coord": {"lon": -93.32515, "lat": 29.79772}}, {"id": 4318812, "name": "Campti", "country": "US", "coord": {"lon": -93.118217, "lat": 31.893499}}, {"id": 4319030, "name": "Carencro", "country": "US", "coord": {"lon": -92.049011, "lat": 30.317141}}, {"id": 4319058, "name": "Carlyss", "country": "US", "coord": {"lon": -93.375992, "lat": 30.168819}}, {"id": 4319180, "name": "Carville", "country": "US", "coord": {"lon": -91.096207, "lat": 30.217421}}, {"id": 4319261, "name": "Catahoula", "country": "US", "coord": {"lon": -91.709, "lat": 30.21464}}, {"id": 4319339, "name": "Cecilia", "country": "US", "coord": {"lon": -91.853172, "lat": 30.337139}}, {"id": 4319507, "name": "Chackbay", "country": "US", "coord": {"lon": -90.797318, "lat": 29.883539}}, {"id": 4319589, "name": "Charenton", "country": "US", "coord": {"lon": -91.525108, "lat": 29.88159}}, {"id": 4319668, "name": "Chauvin", "country": "US", "coord": {"lon": -90.595367, "lat": 29.438551}}, {"id": 4319972, "name": "Church Point", "country": "US", "coord": {"lon": -92.215134, "lat": 30.402981}}, {"id": 4320107, "name": "Claiborne", "country": "US", "coord": {"lon": -92.191803, "lat": 32.51598}}, {"id": 4320154, "name": "Clarks", "country": "US", "coord": {"lon": -92.13903, "lat": 32.02655}}, {"id": 4320277, "name": "Clinton", "country": "US", "coord": {"lon": -91.015663, "lat": 30.86574}}, {"id": 4320425, "name": "Colfax", "country": "US", "coord": {"lon": -92.706818, "lat": 31.51906}}, {"id": 4320492, "name": "Columbia", "country": "US", "coord": {"lon": -92.077911, "lat": 32.10516}}, {"id": 4320643, "name": "Convent", "country": "US", "coord": {"lon": -90.829819, "lat": 30.02076}}, {"id": 4320871, "name": "Cotton Valley", "country": "US", "coord": {"lon": -93.417671, "lat": 32.819309}}, {"id": 4320874, "name": "Cottonport", "country": "US", "coord": {"lon": -92.053459, "lat": 30.984079}}, {"id": 4321005, "name": "Covington", "country": "US", "coord": {"lon": -90.100906, "lat": 30.47547}}, {"id": 4321014, "name": "Coushatta", "country": "US", "coord": {"lon": -93.342117, "lat": 32.014881}}, {"id": 4321310, "name": "Crowley", "country": "US", "coord": {"lon": -92.37458, "lat": 30.21409}}, {"id": 4321358, "name": "Cullen", "country": "US", "coord": {"lon": -93.450729, "lat": 32.969028}}, {"id": 4321399, "name": "Cut Off", "country": "US", "coord": {"lon": -90.338142, "lat": 29.542721}}, {"id": 4321770, "name": "DeQuincy", "country": "US", "coord": {"lon": -93.43322, "lat": 30.45048}}, {"id": 4321781, "name": "DeRidder", "country": "US", "coord": {"lon": -93.289047, "lat": 30.84631}}, {"id": 4321920, "name": "Delcambre", "country": "US", "coord": {"lon": -91.988731, "lat": 29.948259}}, {"id": 4321929, "name": "Delhi", "country": "US", "coord": {"lon": -91.493172, "lat": 32.457642}}, {"id": 4321988, "name": "Denham Springs", "country": "US", "coord": {"lon": -90.956207, "lat": 30.48686}}, {"id": 4322016, "name": "Des Allemands", "country": "US", "coord": {"lon": -90.475082, "lat": 29.82382}}, {"id": 4322034, "name": "Destrehan", "country": "US", "coord": {"lon": -90.351753, "lat": 29.94298}}, {"id": 4322048, "name": "Deville", "country": "US", "coord": {"lon": -92.165413, "lat": 31.357401}}, {"id": 4322811, "name": "Donaldsonville", "country": "US", "coord": {"lon": -90.992882, "lat": 30.10103}}, {"id": 4323131, "name": "Dulac", "country": "US", "coord": {"lon": -90.713982, "lat": 29.38883}}, {"id": 4323190, "name": "Duson", "country": "US", "coord": {"lon": -92.185402, "lat": 30.23576}}, {"id": 4323488, "name": "Eastwood", "country": "US", "coord": {"lon": -93.567123, "lat": 32.556259}}, {"id": 4323546, "name": "Eden Isle", "country": "US", "coord": {"lon": -89.798668, "lat": 30.228531}}, {"id": 4323551, "name": "Edgard", "country": "US", "coord": {"lon": -90.560089, "lat": 30.043261}}, {"id": 4323711, "name": "Elmwood", "country": "US", "coord": {"lon": -90.189796, "lat": 29.956591}}, {"id": 4323727, "name": "Elton", "country": "US", "coord": {"lon": -92.695702, "lat": 30.48131}}, {"id": 4323842, "name": "Erath", "country": "US", "coord": {"lon": -92.035957, "lat": 29.95826}}, {"id": 4323860, "name": "Erwinville", "country": "US", "coord": {"lon": -91.40789, "lat": 30.531019}}, {"id": 4324179, "name": "Farmerville", "country": "US", "coord": {"lon": -92.405701, "lat": 32.773472}}, {"id": 4324293, "name": "Ferriday", "country": "US", "coord": {"lon": -91.554558, "lat": 31.630171}}, {"id": 4325150, "name": "Franklin", "country": "US", "coord": {"lon": -91.501503, "lat": 29.79604}}, {"id": 4325165, "name": "Franklinton", "country": "US", "coord": {"lon": -90.153137, "lat": 30.84713}}, {"id": 4325242, "name": "French Settlement", "country": "US", "coord": {"lon": -90.795097, "lat": 30.2952}}, {"id": 4325424, "name": "Galliano", "country": "US", "coord": {"lon": -90.299248, "lat": 29.44216}}, {"id": 4325507, "name": "Gardere", "country": "US", "coord": {"lon": -91.140106, "lat": 30.345751}}, {"id": 4325516, "name": "Garyville", "country": "US", "coord": {"lon": -90.619263, "lat": 30.05604}}, {"id": 4325803, "name": "Glenmora", "country": "US", "coord": {"lon": -92.585136, "lat": 30.97658}}, {"id": 4325859, "name": "Golden Meadow", "country": "US", "coord": {"lon": -90.260078, "lat": 29.37911}}, {"id": 4325889, "name": "Gonzales", "country": "US", "coord": {"lon": -90.920097, "lat": 30.238529}}, {"id": 4326074, "name": "Grambling", "country": "US", "coord": {"lon": -92.714043, "lat": 32.527649}}, {"id": 4326081, "name": "Gramercy", "country": "US", "coord": {"lon": -90.689812, "lat": 30.047421}}, {"id": 4326198, "name": "Grand Isle", "country": "US", "coord": {"lon": -89.987289, "lat": 29.23662}}, {"id": 4326211, "name": "Grand Point", "country": "US", "coord": {"lon": -90.753433, "lat": 30.06131}}, {"id": 4326320, "name": "Gray", "country": "US", "coord": {"lon": -90.786484, "lat": 29.69771}}, {"id": 4326511, "name": "Greensburg", "country": "US", "coord": {"lon": -90.671761, "lat": 30.83074}}, {"id": 4326533, "name": "Greenwood", "country": "US", "coord": {"lon": -93.972961, "lat": 32.442928}}, {"id": 4326534, "name": "Greenwood", "country": "US", "coord": {"lon": -91.106773, "lat": 30.54491}}, {"id": 4326636, "name": "Gueydan", "country": "US", "coord": {"lon": -92.508469, "lat": 30.026039}}, {"id": 4326799, "name": "Hahnville", "country": "US", "coord": {"lon": -90.408974, "lat": 29.976589}}, {"id": 4326916, "name": "Harahan", "country": "US", "coord": {"lon": -90.203133, "lat": 29.940479}}, {"id": 4327024, "name": "Harrisonburg", "country": "US", "coord": {"lon": -91.821518, "lat": 31.77211}}, {"id": 4327084, "name": "Haughton", "country": "US", "coord": {"lon": -93.504059, "lat": 32.53265}}, {"id": 4327129, "name": "Haynesville", "country": "US", "coord": {"lon": -93.14016, "lat": 32.962078}}, {"id": 4327245, "name": "Henderson", "country": "US", "coord": {"lon": -91.79039, "lat": 30.31325}}, {"id": 4327785, "name": "Homer", "country": "US", "coord": {"lon": -93.055717, "lat": 32.791809}}, {"id": 4328319, "name": "Independence", "country": "US", "coord": {"lon": -90.500923, "lat": 30.635469}}, {"id": 4328435, "name": "Inniswold", "country": "US", "coord": {"lon": -91.083443, "lat": 30.404909}}, {"id": 4328671, "name": "Iota", "country": "US", "coord": {"lon": -92.495689, "lat": 30.33131}}, {"id": 4328676, "name": "Iowa", "country": "US", "coord": {"lon": -93.013763, "lat": 30.23687}}, {"id": 4328824, "name": "Jackson", "country": "US", "coord": {"lon": -91.217613, "lat": 30.8374}}, {"id": 4328931, "name": "Jean Lafitte", "country": "US", "coord": {"lon": -90.12674, "lat": 29.73604}}, {"id": 4328952, "name": "Jeanerette", "country": "US", "coord": {"lon": -91.663452, "lat": 29.911039}}, {"id": 4328973, "name": "Jefferson", "country": "US", "coord": {"lon": -90.15313, "lat": 29.96604}}, {"id": 4329021, "name": "Jena", "country": "US", "coord": {"lon": -92.133743, "lat": 31.683229}}, {"id": 4329037, "name": "Jennings", "country": "US", "coord": {"lon": -92.657082, "lat": 30.222429}}, {"id": 4329308, "name": "Jonesboro", "country": "US", "coord": {"lon": -92.715988, "lat": 32.241268}}, {"id": 4329317, "name": "Jonesville", "country": "US", "coord": {"lon": -91.818176, "lat": 31.62656}}, {"id": 4329775, "name": "Kentwood", "country": "US", "coord": {"lon": -90.50898, "lat": 30.93824}}, {"id": 4329820, "name": "Killian", "country": "US", "coord": {"lon": -90.586197, "lat": 30.35881}}, {"id": 4329849, "name": "Kinder", "country": "US", "coord": {"lon": -92.8507, "lat": 30.485479}}, {"id": 4330019, "name": "Krotz Springs", "country": "US", "coord": {"lon": -91.752892, "lat": 30.53686}}, {"id": 4330088, "name": "Labadieville", "country": "US", "coord": {"lon": -90.956207, "lat": 29.837429}}, {"id": 4330126, "name": "Lacombe", "country": "US", "coord": {"lon": -89.94313, "lat": 30.31353}}, {"id": 4330209, "name": "Lake Arthur", "country": "US", "coord": {"lon": -92.671532, "lat": 30.080759}}, {"id": 4330331, "name": "Lake Providence", "country": "US", "coord": {"lon": -91.170113, "lat": 32.804298}}, {"id": 4330389, "name": "Lakeshore", "country": "US", "coord": {"lon": -92.029579, "lat": 32.535141}}, {"id": 4330541, "name": "Larose", "country": "US", "coord": {"lon": -90.381752, "lat": 29.572439}}, {"id": 4330633, "name": "Lawtell", "country": "US", "coord": {"lon": -92.184853, "lat": 30.51853}}, {"id": 4330701, "name": "Lecompte", "country": "US", "coord": {"lon": -92.400414, "lat": 31.094629}}, {"id": 4330740, "name": "Leesville", "country": "US", "coord": {"lon": -93.261002, "lat": 31.14352}}, {"id": 4330809, "name": "Leonville", "country": "US", "coord": {"lon": -91.978447, "lat": 30.47047}}, {"id": 4331485, "name": "Livingston", "country": "US", "coord": {"lon": -90.747871, "lat": 30.502131}}, {"id": 4331493, "name": "Livonia", "country": "US", "coord": {"lon": -91.555939, "lat": 30.55908}}, {"id": 4331530, "name": "Lockport", "country": "US", "coord": {"lon": -90.539253, "lat": 29.646049}}, {"id": 4331531, "name": "Lockport Heights", "country": "US", "coord": {"lon": -90.546471, "lat": 29.65049}}, {"id": 4331567, "name": "Logansport", "country": "US", "coord": {"lon": -93.997971, "lat": 31.975439}}, {"id": 4332109, "name": "Luling", "country": "US", "coord": {"lon": -90.36647, "lat": 29.93215}}, {"id": 4332152, "name": "Lutcher", "country": "US", "coord": {"lon": -90.698982, "lat": 30.04048}}, {"id": 4332432, "name": "Mamou", "country": "US", "coord": {"lon": -92.419296, "lat": 30.63381}}, {"id": 4332455, "name": "Mandeville", "country": "US", "coord": {"lon": -90.065628, "lat": 30.35825}}, {"id": 4332494, "name": "Mansfield", "country": "US", "coord": {"lon": -93.70018, "lat": 32.037659}}, {"id": 4332507, "name": "Mansura", "country": "US", "coord": {"lon": -92.049011, "lat": 31.05797}}, {"id": 4332518, "name": "Many", "country": "US", "coord": {"lon": -93.484062, "lat": 31.568781}}, {"id": 4332582, "name": "Maringouin", "country": "US", "coord": {"lon": -91.519547, "lat": 30.491301}}, {"id": 4332604, "name": "Marksville", "country": "US", "coord": {"lon": -92.066238, "lat": 31.12797}}, {"id": 4332788, "name": "Mathews", "country": "US", "coord": {"lon": -90.546753, "lat": 29.686319}}, {"id": 4333095, "name": "Melville", "country": "US", "coord": {"lon": -91.744003, "lat": 30.69297}}, {"id": 4333126, "name": "Meraux", "country": "US", "coord": {"lon": -89.949791, "lat": 29.93298}}, {"id": 4333161, "name": "Merrydale", "country": "US", "coord": {"lon": -91.108437, "lat": 30.501301}}, {"id": 4333163, "name": "Merryville", "country": "US", "coord": {"lon": -93.540451, "lat": 30.75437}}, {"id": 4333277, "name": "Midway", "country": "US", "coord": {"lon": -92.152359, "lat": 31.69212}}, {"id": 4333500, "name": "Milton", "country": "US", "coord": {"lon": -92.076508, "lat": 30.103809}}, {"id": 4333533, "name": "Minden", "country": "US", "coord": {"lon": -93.286842, "lat": 32.615429}}, {"id": 4333548, "name": "Minorca", "country": "US", "coord": {"lon": -91.481781, "lat": 31.57933}}, {"id": 4333694, "name": "Montegut", "country": "US", "coord": {"lon": -90.502029, "lat": 30.070761}}, {"id": 4333695, "name": "Montegut", "country": "US", "coord": {"lon": -90.55703, "lat": 29.47439}}, {"id": 4333718, "name": "Monticello", "country": "US", "coord": {"lon": -91.048721, "lat": 30.48908}}, {"id": 4333725, "name": "Montz", "country": "US", "coord": {"lon": -90.468689, "lat": 30.00687}}, {"id": 4333811, "name": "Morgan City", "country": "US", "coord": {"lon": -91.206772, "lat": 29.699369}}, {"id": 4333961, "name": "Moss Bluff", "country": "US", "coord": {"lon": -93.190712, "lat": 30.3027}}, {"id": 4334696, "name": "Napoleonville", "country": "US", "coord": {"lon": -91.024818, "lat": 29.940479}}, {"id": 4334706, "name": "Natalbany", "country": "US", "coord": {"lon": -90.48481, "lat": 30.546301}}, {"id": 4335024, "name": "New Llano", "country": "US", "coord": {"lon": -93.271553, "lat": 31.11491}}, {"id": 4335096, "name": "New Roads", "country": "US", "coord": {"lon": -91.436218, "lat": 30.701571}}, {"id": 4335123, "name": "New Sarpy", "country": "US", "coord": {"lon": -90.387863, "lat": 29.97798}}, {"id": 4335212, "name": "Newellton", "country": "US", "coord": {"lon": -91.240952, "lat": 32.072651}}, {"id": 4335326, "name": "Norco", "country": "US", "coord": {"lon": -90.4123, "lat": 29.99909}}, {"id": 4335535, "name": "North Vacherie", "country": "US", "coord": {"lon": -90.70565, "lat": 29.99687}}, {"id": 4335690, "name": "Oak Grove", "country": "US", "coord": {"lon": -91.388451, "lat": 32.860958}}, {"id": 4335754, "name": "Oak Hills Place", "country": "US", "coord": {"lon": -91.087601, "lat": 30.359921}}, {"id": 4335796, "name": "Oakdale", "country": "US", "coord": {"lon": -92.660423, "lat": 30.816031}}, {"id": 4335797, "name": "Oakdale", "country": "US", "coord": {"lon": -92.621529, "lat": 30.80547}}, {"id": 4335887, "name": "Oberlin", "country": "US", "coord": {"lon": -92.76265, "lat": 30.620199}}, {"id": 4335921, "name": "Oil City", "country": "US", "coord": {"lon": -93.971573, "lat": 32.74403}}, {"id": 4335963, "name": "Old Jefferson", "country": "US", "coord": {"lon": -91.017052, "lat": 30.38269}}, {"id": 4336092, "name": "Olla", "country": "US", "coord": {"lon": -92.243187, "lat": 31.902941}}, {"id": 4336209, "name": "Ossun", "country": "US", "coord": {"lon": -92.11235, "lat": 30.27603}}, {"id": 4336492, "name": "Paradis", "country": "US", "coord": {"lon": -90.433968, "lat": 29.87965}}, {"id": 4336646, "name": "Patterson", "country": "US", "coord": {"lon": -91.302048, "lat": 29.69326}}, {"id": 4336678, "name": "Paulina", "country": "US", "coord": {"lon": -90.71315, "lat": 30.02631}}, {"id": 4336717, "name": "Pearl River", "country": "US", "coord": {"lon": -89.748398, "lat": 30.37603}}, {"id": 4337049, "name": "Pierre Part", "country": "US", "coord": {"lon": -91.203163, "lat": 29.9652}}, {"id": 4337272, "name": "Pine Prairie", "country": "US", "coord": {"lon": -92.425407, "lat": 30.78381}}, {"id": 4337291, "name": "Pineville", "country": "US", "coord": {"lon": -92.434303, "lat": 31.322399}}, {"id": 4337395, "name": "Plain Dealing", "country": "US", "coord": {"lon": -93.696838, "lat": 32.90514}}, {"id": 4337436, "name": "Plaquemine", "country": "US", "coord": {"lon": -91.234268, "lat": 30.28908}}, {"id": 4337775, "name": "Ponchatoula", "country": "US", "coord": {"lon": -90.441483, "lat": 30.438801}}, {"id": 4337823, "name": "Port Allen", "country": "US", "coord": {"lon": -91.210114, "lat": 30.452141}}, {"id": 4337836, "name": "Port Barre", "country": "US", "coord": {"lon": -91.95401, "lat": 30.5602}}, {"id": 4337859, "name": "Port Sulphur", "country": "US", "coord": {"lon": -89.693947, "lat": 29.48049}}, {"id": 4337963, "name": "Poydras", "country": "US", "coord": {"lon": -89.888947, "lat": 29.86937}}, {"id": 4338040, "name": "Presquille", "country": "US", "coord": {"lon": -90.646202, "lat": 29.563829}}, {"id": 4338068, "name": "Prien", "country": "US", "coord": {"lon": -93.273773, "lat": 30.18187}}, {"id": 4338298, "name": "Raceland", "country": "US", "coord": {"lon": -90.598984, "lat": 29.72743}}, {"id": 4338406, "name": "Rayne", "country": "US", "coord": {"lon": -92.268463, "lat": 30.234921}}, {"id": 4338415, "name": "Rayville", "country": "US", "coord": {"lon": -91.754852, "lat": 32.47736}}, {"id": 4338615, "name": "Reserve", "country": "US", "coord": {"lon": -90.55175, "lat": 30.05381}}, {"id": 4338720, "name": "Richwood", "country": "US", "coord": {"lon": -92.084862, "lat": 32.448761}}, {"id": 4338772, "name": "Ringgold", "country": "US", "coord": {"lon": -93.279892, "lat": 32.328491}}, {"id": 4338818, "name": "River Ridge", "country": "US", "coord": {"lon": -90.21563, "lat": 29.960199}}, {"id": 4339148, "name": "Roseland", "country": "US", "coord": {"lon": -90.511757, "lat": 30.76491}}, {"id": 4339179, "name": "Rosepine", "country": "US", "coord": {"lon": -93.282387, "lat": 30.91991}}, {"id": 4339684, "name": "Saint Francisville", "country": "US", "coord": {"lon": -91.376503, "lat": 30.7799}}, {"id": 4339690, "name": "Saint Gabriel", "country": "US", "coord": {"lon": -91.099274, "lat": 30.2577}}, {"id": 4339934, "name": "Saint Joseph", "country": "US", "coord": {"lon": -91.233452, "lat": 31.918489}}, {"id": 4340196, "name": "Saint Martinville", "country": "US", "coord": {"lon": -91.83345, "lat": 30.1252}}, {"id": 4340551, "name": "Saint Rose", "country": "US", "coord": {"lon": -90.323128, "lat": 29.946871}}, {"id": 4341007, "name": "Schriever", "country": "US", "coord": {"lon": -90.810371, "lat": 29.742149}}, {"id": 4341033, "name": "Scott", "country": "US", "coord": {"lon": -92.094566, "lat": 30.23576}}, {"id": 4341610, "name": "Simmesport", "country": "US", "coord": {"lon": -91.800117, "lat": 30.983521}}, {"id": 4341920, "name": "Sorrento", "country": "US", "coord": {"lon": -90.859261, "lat": 30.184361}}, {"id": 4342089, "name": "South Vacherie", "country": "US", "coord": {"lon": -90.699806, "lat": 29.927429}}, {"id": 4342429, "name": "Springhill", "country": "US", "coord": {"lon": -93.466843, "lat": 33.00597}}, {"id": 4342638, "name": "Sterlington", "country": "US", "coord": {"lon": -92.085968, "lat": 32.696251}}, {"id": 4342696, "name": "Stonewall", "country": "US", "coord": {"lon": -93.824074, "lat": 32.28183}}, {"id": 4342921, "name": "Sunset", "country": "US", "coord": {"lon": -92.068451, "lat": 30.41131}}, {"id": 4342949, "name": "Supreme", "country": "US", "coord": {"lon": -90.981209, "lat": 29.859369}}, {"id": 4342984, "name": "Swartz", "country": "US", "coord": {"lon": -91.98513, "lat": 32.568748}}, {"id": 4343103, "name": "Tallulah", "country": "US", "coord": {"lon": -91.186783, "lat": 32.408482}}, {"id": 4343429, "name": "Thibodaux", "country": "US", "coord": {"lon": -90.822868, "lat": 29.795759}}, {"id": 4343659, "name": "Timberlane", "country": "US", "coord": {"lon": -90.032021, "lat": 29.87743}}, {"id": 4344414, "name": "Urania", "country": "US", "coord": {"lon": -92.295967, "lat": 31.863779}}, {"id": 4344481, "name": "Varnado", "country": "US", "coord": {"lon": -89.829521, "lat": 30.893801}}, {"id": 4344599, "name": "Vidalia", "country": "US", "coord": {"lon": -91.425949, "lat": 31.565439}}, {"id": 4344623, "name": "Vienna Bend", "country": "US", "coord": {"lon": -93.041, "lat": 31.732389}}, {"id": 4344644, "name": "Village Saint George", "country": "US", "coord": {"lon": -91.067329, "lat": 30.362141}}, {"id": 4344651, "name": "Ville Platte", "country": "US", "coord": {"lon": -92.271523, "lat": 30.687969}}, {"id": 4344676, "name": "Vinton", "country": "US", "coord": {"lon": -93.581268, "lat": 30.19076}}, {"id": 4344684, "name": "Violet", "country": "US", "coord": {"lon": -89.897842, "lat": 29.89576}}, {"id": 4344697, "name": "Vivian", "country": "US", "coord": {"lon": -93.987396, "lat": 32.871529}}, {"id": 4344819, "name": "Waggaman", "country": "US", "coord": {"lon": -90.210907, "lat": 29.918539}}, {"id": 4344844, "name": "Walker", "country": "US", "coord": {"lon": -90.861488, "lat": 30.48797}}, {"id": 4345555, "name": "Watson", "country": "US", "coord": {"lon": -90.953163, "lat": 30.575741}}, {"id": 4345667, "name": "Welsh", "country": "US", "coord": {"lon": -92.822647, "lat": 30.23604}}, {"id": 4345780, "name": "West Ferriday", "country": "US", "coord": {"lon": -91.573181, "lat": 31.64044}}, {"id": 4345850, "name": "West Monroe", "country": "US", "coord": {"lon": -92.147636, "lat": 32.518478}}, {"id": 4345925, "name": "Westlake", "country": "US", "coord": {"lon": -93.25071, "lat": 30.242149}}, {"id": 4345968, "name": "Westwego", "country": "US", "coord": {"lon": -90.142303, "lat": 29.90604}}, {"id": 4346014, "name": "Westminster", "country": "US", "coord": {"lon": -91.087601, "lat": 30.413799}}, {"id": 4346053, "name": "White Castle", "country": "US", "coord": {"lon": -91.147049, "lat": 30.16992}}, {"id": 4346455, "name": "Winnfield", "country": "US", "coord": {"lon": -92.639587, "lat": 31.92544}}, {"id": 4346615, "name": "Woodmere", "country": "US", "coord": {"lon": -90.080353, "lat": 29.857981}}, {"id": 4346646, "name": "Woodworth", "country": "US", "coord": {"lon": -92.49736, "lat": 31.14658}}, {"id": 4346788, "name": "Zachary", "country": "US", "coord": {"lon": -91.156502, "lat": 30.64852}}, {"id": 4346810, "name": "Youngsville", "country": "US", "coord": {"lon": -91.99012, "lat": 30.099649}}, {"id": 4346884, "name": "Zwolle", "country": "US", "coord": {"lon": -93.644073, "lat": 31.631559}}, {"id": 4346913, "name": "Aberdeen", "country": "US", "coord": {"lon": -76.164124, "lat": 39.50956}}, {"id": 4346952, "name": "Accokeek", "country": "US", "coord": {"lon": -77.028313, "lat": 38.667622}}, {"id": 4346978, "name": "Adamstown", "country": "US", "coord": {"lon": -77.474709, "lat": 39.31094}}, {"id": 4347060, "name": "Algonquin", "country": "US", "coord": {"lon": -76.105766, "lat": 38.582901}}, {"id": 4347392, "name": "Arden on the Severn", "country": "US", "coord": {"lon": -76.57885, "lat": 39.065941}}, {"id": 4347708, "name": "Baden", "country": "US", "coord": {"lon": -76.777748, "lat": 38.659279}}, {"id": 4347800, "name": "Baltimore Highlands", "country": "US", "coord": {"lon": -76.636627, "lat": 39.233158}}, {"id": 4347947, "name": "Bartonsville", "country": "US", "coord": {"lon": -77.35804, "lat": 39.392601}}, {"id": 4348240, "name": "Bel Air", "country": "US", "coord": {"lon": -76.348289, "lat": 39.535938}}, {"id": 4348268, "name": "Bel Air", "country": "US", "coord": {"lon": -78.849739, "lat": 39.573139}}, {"id": 4348418, "name": "Bennsville", "country": "US", "coord": {"lon": -77.012199, "lat": 38.609291}}, {"id": 4348460, "name": "Berlin", "country": "US", "coord": {"lon": -75.21769, "lat": 38.32262}}, {"id": 4348485, "name": "Berwyn Heights", "country": "US", "coord": {"lon": -76.91053, "lat": 38.993999}}, {"id": 4348888, "name": "Bladensburg", "country": "US", "coord": {"lon": -76.933861, "lat": 38.939281}}, {"id": 4349107, "name": "Boonsboro", "country": "US", "coord": {"lon": -77.652489, "lat": 39.50621}}, {"id": 4349175, "name": "Bowleys Quarters", "country": "US", "coord": {"lon": -76.390244, "lat": 39.335388}}, {"id": 4349180, "name": "Bowling Green", "country": "US", "coord": {"lon": -78.804459, "lat": 39.623699}}, {"id": 4349228, "name": "Braddock Heights", "country": "US", "coord": {"lon": -77.503601, "lat": 39.418709}}, {"id": 4349283, "name": "Brandywine", "country": "US", "coord": {"lon": -76.847748, "lat": 38.696781}}, {"id": 4349337, "name": "Brentwood", "country": "US", "coord": {"lon": -76.956642, "lat": 38.943169}}, {"id": 4349551, "name": "Brock Hall", "country": "US", "coord": {"lon": -76.761078, "lat": 38.850109}}, {"id": 4349599, "name": "Brooklyn Park", "country": "US", "coord": {"lon": -76.616364, "lat": 39.228439}}, {"id": 4349611, "name": "Brookmont", "country": "US", "coord": {"lon": -77.120262, "lat": 38.942059}}, {"id": 4349706, "name": "Brunswick", "country": "US", "coord": {"lon": -77.627769, "lat": 39.31427}}, {"id": 4349727, "name": "Bryans Road", "country": "US", "coord": {"lon": -77.073029, "lat": 38.62706}}, {"id": 4349755, "name": "Buckeystown", "country": "US", "coord": {"lon": -77.431648, "lat": 39.33482}}, {"id": 4349903, "name": "Burtonsville", "country": "US", "coord": {"lon": -76.93248, "lat": 39.111221}}, {"id": 4350013, "name": "Cabin John", "country": "US", "coord": {"lon": -77.158028, "lat": 38.975391}}, {"id": 4350049, "name": "California", "country": "US", "coord": {"lon": -76.507446, "lat": 38.3004}}, {"id": 4350175, "name": "Cambridge", "country": "US", "coord": {"lon": -76.078827, "lat": 38.563171}}, {"id": 4350348, "name": "Cape Saint Claire", "country": "US", "coord": {"lon": -76.444962, "lat": 39.043171}}, {"id": 4350359, "name": "Capitol Heights", "country": "US", "coord": {"lon": -76.91581, "lat": 38.885109}}, {"id": 4350675, "name": "Cavetown", "country": "US", "coord": {"lon": -77.585823, "lat": 39.64426}}, {"id": 4350878, "name": "Centreville", "country": "US", "coord": {"lon": -76.06633, "lat": 39.041779}}, {"id": 4351037, "name": "Charlestown", "country": "US", "coord": {"lon": -76.705254, "lat": 39.268162}}, {"id": 4351038, "name": "Charlestown", "country": "US", "coord": {"lon": -75.974953, "lat": 39.57373}}, {"id": 4351048, "name": "Charlotte Hall", "country": "US", "coord": {"lon": -76.778023, "lat": 38.480961}}, {"id": 4351184, "name": "Chesapeake Beach", "country": "US", "coord": {"lon": -76.534683, "lat": 38.68623}}, {"id": 4351228, "name": "Chesapeake Ranch Estates", "country": "US", "coord": {"lon": -76.417732, "lat": 38.346241}}, {"id": 4351248, "name": "Chester", "country": "US", "coord": {"lon": -76.289398, "lat": 38.975391}}, {"id": 4351264, "name": "Chestertown", "country": "US", "coord": {"lon": -76.066612, "lat": 39.209}}, {"id": 4351327, "name": "Cheverly", "country": "US", "coord": {"lon": -76.91581, "lat": 38.928169}}, {"id": 4351335, "name": "Chevy Chase", "country": "US", "coord": {"lon": -77.07637, "lat": 38.971218}}, {"id": 4351352, "name": "Chevy Chase Village", "country": "US", "coord": {"lon": -77.078873, "lat": 38.96928}}, {"id": 4351708, "name": "Clarksburg", "country": "US", "coord": {"lon": -77.279427, "lat": 39.23872}}, {"id": 4351840, "name": "Clover Hill", "country": "US", "coord": {"lon": -77.428871, "lat": 39.456211}}, {"id": 4351951, "name": "Colesville", "country": "US", "coord": {"lon": -77.001923, "lat": 39.075661}}, {"id": 4352015, "name": "Colmar Manor", "country": "US", "coord": {"lon": -76.945808, "lat": 38.93317}}, {"id": 4352247, "name": "Coral Hills", "country": "US", "coord": {"lon": -76.921082, "lat": 38.870392}}, {"id": 4352287, "name": "Cottage City", "country": "US", "coord": {"lon": -76.948311, "lat": 38.938171}}, {"id": 4352502, "name": "Cresaptown", "country": "US", "coord": {"lon": -78.833351, "lat": 39.592869}}, {"id": 4352577, "name": "Crisfield", "country": "US", "coord": {"lon": -75.853821, "lat": 37.983459}}, {"id": 4352582, "name": "Croom", "country": "US", "coord": {"lon": -76.763863, "lat": 38.752621}}, {"id": 4352618, "name": "Crownsville", "country": "US", "coord": {"lon": -76.601349, "lat": 39.028439}}, {"id": 4352795, "name": "Darnestown", "country": "US", "coord": {"lon": -77.290817, "lat": 39.103439}}, {"id": 4352888, "name": "Deale", "country": "US", "coord": {"lon": -76.555237, "lat": 38.776508}}, {"id": 4353035, "name": "Delmar", "country": "US", "coord": {"lon": -75.577423, "lat": 38.455952}}, {"id": 4353075, "name": "Denton", "country": "US", "coord": {"lon": -75.827164, "lat": 38.88456}}, {"id": 4353084, "name": "Derwood", "country": "US", "coord": {"lon": -77.161087, "lat": 39.117329}}, {"id": 4353463, "name": "District Heights", "country": "US", "coord": {"lon": -76.88942, "lat": 38.857609}}, {"id": 4353667, "name": "Drum Point", "country": "US", "coord": {"lon": -76.426064, "lat": 38.32679}}, {"id": 4353798, "name": "Dunkirk", "country": "US", "coord": {"lon": -76.660522, "lat": 38.721779}}, {"id": 4353805, "name": "Dunkirk Town Center", "country": "US", "coord": {"lon": -76.658569, "lat": 38.72039}}, {"id": 4354060, "name": "Edgemere", "country": "US", "coord": {"lon": -76.448021, "lat": 39.24205}}, {"id": 4354072, "name": "Edgewater", "country": "US", "coord": {"lon": -76.549957, "lat": 38.957062}}, {"id": 4354121, "name": "Edmonston", "country": "US", "coord": {"lon": -76.931091, "lat": 38.946781}}, {"id": 4354352, "name": "Emmitsburg", "country": "US", "coord": {"lon": -77.326927, "lat": 39.70454}}, {"id": 4354593, "name": "Fairmount Heights", "country": "US", "coord": {"lon": -76.915527, "lat": 38.900951}}, {"id": 4354708, "name": "Fallston", "country": "US", "coord": {"lon": -76.411072, "lat": 39.514549}}, {"id": 4354775, "name": "Federalsburg", "country": "US", "coord": {"lon": -75.772163, "lat": 38.694279}}, {"id": 4355214, "name": "Forest Glen", "country": "US", "coord": {"lon": -77.054703, "lat": 39.014549}}, {"id": 4355230, "name": "Forest Heights", "country": "US", "coord": {"lon": -76.998032, "lat": 38.809559}}, {"id": 4355274, "name": "Forestville", "country": "US", "coord": {"lon": -76.874969, "lat": 38.845112}}, {"id": 4355322, "name": "Fort George G Mead Junction", "country": "US", "coord": {"lon": -76.789139, "lat": 39.125938}}, {"id": 4355400, "name": "Four Corners", "country": "US", "coord": {"lon": -77.012749, "lat": 39.02039}}, {"id": 4355670, "name": "Friendly", "country": "US", "coord": {"lon": -76.978592, "lat": 38.751781}}, {"id": 4355730, "name": "Friendship Village", "country": "US", "coord": {"lon": -77.088867, "lat": 38.962891}}, {"id": 4355756, "name": "Frostburg", "country": "US", "coord": {"lon": -78.92836, "lat": 39.658138}}, {"id": 4355780, "name": "Fruitland", "country": "US", "coord": {"lon": -75.620201, "lat": 38.32206}}, {"id": 4355809, "name": "Fulton", "country": "US", "coord": {"lon": -76.923027, "lat": 39.15094}}, {"id": 4355899, "name": "Gambrills", "country": "US", "coord": {"lon": -76.665237, "lat": 39.067051}}, {"id": 4355958, "name": "Garrison", "country": "US", "coord": {"lon": -76.760529, "lat": 39.405941}}, {"id": 4356242, "name": "Glenarden", "country": "US", "coord": {"lon": -76.861641, "lat": 38.929279}}, {"id": 4356280, "name": "Glenmont", "country": "US", "coord": {"lon": -77.049698, "lat": 39.057892}}, {"id": 4356289, "name": "Glenn Dale", "country": "US", "coord": {"lon": -76.820534, "lat": 38.98761}}, {"id": 4356341, "name": "Goddard", "country": "US", "coord": {"lon": -76.85331, "lat": 38.989552}}, {"id": 4356350, "name": "Golden Beach", "country": "US", "coord": {"lon": -76.682182, "lat": 38.489849}}, {"id": 4356634, "name": "Grasonville", "country": "US", "coord": {"lon": -76.210228, "lat": 38.958172}}, {"id": 4356836, "name": "Green Valley", "country": "US", "coord": {"lon": -77.297211, "lat": 39.309269}}, {"id": 4356953, "name": "Greensboro", "country": "US", "coord": {"lon": -75.804932, "lat": 38.973721}}, {"id": 4357176, "name": "Halfway", "country": "US", "coord": {"lon": -77.758881, "lat": 39.620651}}, {"id": 4357279, "name": "Hampstead", "country": "US", "coord": {"lon": -76.849983, "lat": 39.604832}}, {"id": 4357289, "name": "Hampton", "country": "US", "coord": {"lon": -76.584686, "lat": 39.422878}}, {"id": 4357310, "name": "Hancock", "country": "US", "coord": {"lon": -78.179733, "lat": 39.698978}}, {"id": 4357617, "name": "Havre de Grace", "country": "US", "coord": {"lon": -76.091621, "lat": 39.549278}}, {"id": 4357731, "name": "Hebron", "country": "US", "coord": {"lon": -75.687714, "lat": 38.42012}}, {"id": 4357794, "name": "Herald Harbor", "country": "US", "coord": {"lon": -76.56913, "lat": 39.053719}}, {"id": 4357991, "name": "Highfield-Cascade", "country": "US", "coord": {"lon": -77.482819, "lat": 39.71616}}, {"id": 4357998, "name": "Highland", "country": "US", "coord": {"lon": -76.957481, "lat": 39.179001}}, {"id": 4358066, "name": "Hillandale", "country": "US", "coord": {"lon": -76.974136, "lat": 39.026501}}, {"id": 4358144, "name": "Hillsmere Shores", "country": "US", "coord": {"lon": -76.494957, "lat": 38.940109}}, {"id": 4358671, "name": "Hughesville", "country": "US", "coord": {"lon": -76.783859, "lat": 38.532619}}, {"id": 4358772, "name": "Huntingtown", "country": "US", "coord": {"lon": -76.613022, "lat": 38.615952}}, {"id": 4358779, "name": "Huntingtown Town Center", "country": "US", "coord": {"lon": -76.616074, "lat": 38.620949}}, {"id": 4358790, "name": "Hurlock", "country": "US", "coord": {"lon": -75.854378, "lat": 38.624279}}, {"id": 4358916, "name": "Indian Head", "country": "US", "coord": {"lon": -77.162201, "lat": 38.600121}}, {"id": 4359359, "name": "Jarrettsville", "country": "US", "coord": {"lon": -76.477737, "lat": 39.604549}}, {"id": 4359377, "name": "Jefferson", "country": "US", "coord": {"lon": -77.531647, "lat": 39.362049}}, {"id": 4359619, "name": "Joppatowne", "country": "US", "coord": {"lon": -76.35524, "lat": 39.45789}}, {"id": 4359694, "name": "Keedysville", "country": "US", "coord": {"lon": -77.699707, "lat": 39.48621}}, {"id": 4359721, "name": "Kemp Mill", "country": "US", "coord": {"lon": -77.019142, "lat": 39.039001}}, {"id": 4359760, "name": "Kensington", "country": "US", "coord": {"lon": -77.07637, "lat": 39.025669}}, {"id": 4359858, "name": "Kettering", "country": "US", "coord": {"lon": -76.81469, "lat": 38.88456}}, {"id": 4359981, "name": "Kingstown", "country": "US", "coord": {"lon": -76.051331, "lat": 39.20483}}, {"id": 4359984, "name": "Kingsville", "country": "US", "coord": {"lon": -76.41774, "lat": 39.448719}}, {"id": 4360103, "name": "La Plata", "country": "US", "coord": {"lon": -76.97525, "lat": 38.529289}}, {"id": 4360113, "name": "La Vale", "country": "US", "coord": {"lon": -78.810577, "lat": 39.65564}}, {"id": 4360138, "name": "Lake Arbor", "country": "US", "coord": {"lon": -76.829689, "lat": 38.90789}}, {"id": 4360288, "name": "Landover Hills", "country": "US", "coord": {"lon": -76.892197, "lat": 38.943169}}, {"id": 4360321, "name": "Lanham", "country": "US", "coord": {"lon": -76.861923, "lat": 38.96706}}, {"id": 4360328, "name": "Lansdowne", "country": "US", "coord": {"lon": -76.660522, "lat": 39.24511}}, {"id": 4360345, "name": "Largo", "country": "US", "coord": {"lon": -76.830254, "lat": 38.89761}}, {"id": 4360443, "name": "Layhill", "country": "US", "coord": {"lon": -77.044418, "lat": 39.092331}}, {"id": 4360551, "name": "Leonardtown", "country": "US", "coord": {"lon": -76.635788, "lat": 38.291241}}, {"id": 4360592, "name": "Lexington Park", "country": "US", "coord": {"lon": -76.453842, "lat": 38.266788}}, {"id": 4360700, "name": "Linganore", "country": "US", "coord": {"lon": -77.208038, "lat": 39.44038}}, {"id": 4360713, "name": "Linthicum", "country": "US", "coord": {"lon": -76.652748, "lat": 39.205109}}, {"id": 4361085, "name": "Lonaconing", "country": "US", "coord": {"lon": -78.980301, "lat": 39.565922}}, {"id": 4361094, "name": "Londontowne", "country": "US", "coord": {"lon": -76.549408, "lat": 38.933449}}, {"id": 4361109, "name": "Long Beach", "country": "US", "coord": {"lon": -76.468842, "lat": 38.46096}}, {"id": 4361365, "name": "Lusby", "country": "US", "coord": {"lon": -76.455231, "lat": 38.410679}}, {"id": 4361379, "name": "Lutherville", "country": "US", "coord": {"lon": -76.626083, "lat": 39.421219}}, {"id": 4361547, "name": "Manchester", "country": "US", "coord": {"lon": -76.884979, "lat": 39.661209}}, {"id": 4361701, "name": "Marlboro Meadows", "country": "US", "coord": {"lon": -76.714973, "lat": 38.83622}},