[{"id": 665469, "name": "Tasnad", "country": "RO", "coord": {"lon": 22.58333, "lat": 47.48333}}, {"id": 1682765, "name": "Tasod", "country": "PH", "coord": {"lon": 120.533333, "lat": 18.183331}}, {"id": 739015, "name": "Tasova", "country": "TR", "coord": {"lon": 36.322498, "lat": 40.75972}}, {"id": 3064352, "name": "Tasovice", "country": "CZ", "coord": {"lon": 16.155581, "lat": 48.836102}}, {"id": 3516236, "name": "Tasquillo", "country": "MX", "coord": {"lon": -99.300003, "lat": 20.549999}}, {"id": 3044093, "name": "Tass", "country": "HU", "coord": {"lon": 19.029881, "lat": 47.02095}}, {"id": 6535061, "name": "Tassarolo", "country": "IT", "coord": {"lon": 8.77155, "lat": 44.72855}}, {"id": 6441798, "name": "Tassin-la-Demi-Lune", "country": "FR", "coord": {"lon": 4.78333, "lat": 45.76667}}, {"id": 2973317, "name": "Tassin-la-Demi-Lune", "country": "FR", "coord": {"lon": 4.78812, "lat": 45.75499}}, {"id": 2529374, "name": "Tassoumat", "country": "MA", "coord": {"lon": -6.92965, "lat": 30.9212}}, {"id": 3165904, "name": "Tassullo", "country": "IT", "coord": {"lon": 11.05053, "lat": 46.334599}}, {"id": 6552011, "name": "Tastrup", "country": "DE", "coord": {"lon": 9.48333, "lat": 54.766701}}, {"id": 2823953, "name": "Tastrup", "country": "DE", "coord": {"lon": 9.48333, "lat": 54.76667}}, {"id": 6549820, "name": "Tastungen", "country": "DE", "coord": {"lon": 10.3167, "lat": 51.466702}}, {"id": 2823951, "name": "Tastungen", "country": "DE", "coord": {"lon": 10.30964, "lat": 51.469189}}, {"id": 2464704, "name": "Tastur", "country": "TN", "coord": {"lon": 9.44307, "lat": 36.5513}}, {"id": 3044088, "name": "Taszar", "country": "HU", "coord": {"lon": 17.905939, "lat": 46.374668}}, {"id": 3044084, "name": "Tat", "country": "HU", "coord": {"lon": 18.64813, "lat": 47.741482}}, {"id": 3044083, "name": "Tata", "country": "HU", "coord": {"lon": 18.31838, "lat": 47.652889}}, {"id": 2529362, "name": "Tata", "country": "MA", "coord": {"lon": -7.973, "lat": 29.744089}}, {"id": 3044082, "name": "Tatabanya", "country": "HU", "coord": {"lon": 18.39325, "lat": 47.584942}}, {"id": 3516234, "name": "Tatahuicapan", "country": "MX", "coord": {"lon": -94.75, "lat": 18.23333}}, {"id": 6161860, "name": "Tatamagouche", "country": "CA", "coord": {"lon": -63.298679, "lat": 45.71685}}, {"id": 5215235, "name": "Tatamy", "country": "US", "coord": {"lon": -75.257118, "lat": 40.740929}}, {"id": 484180, "name": "Tatanovo", "country": "RU", "coord": {"lon": 41.49155, "lat": 52.859138}}, {"id": 2464701, "name": "Tataouine", "country": "TN", "coord": {"lon": 10.45177, "lat": 32.929668}}, {"id": 665459, "name": "Tatarani", "country": "RO", "coord": {"lon": 25.26667, "lat": 45}}, {"id": 665452, "name": "Tataranu", "country": "RO", "coord": {"lon": 27.316669, "lat": 45.51667}}, {"id": 691803, "name": "Tatarbunary", "country": "UA", "coord": {"lon": 29.614241, "lat": 45.837311}}, {"id": 704130, "name": "Tatariv", "country": "UA", "coord": {"lon": 24.57836, "lat": 48.345581}}, {"id": 484162, "name": "Tatarka", "country": "RU", "coord": {"lon": 41.95171, "lat": 44.9589}}, {"id": 484146, "name": "Tatarovo", "country": "RU", "coord": {"lon": 42.139442, "lat": 55.889168}}, {"id": 620955, "name": "Tatarsk", "country": "BY", "coord": {"lon": 30.333332, "lat": 54.5}}, {"id": 1490003, "name": "Tatarsk", "country": "RU", "coord": {"lon": 75.982841, "lat": 55.21904}}, {"id": 484138, "name": "Tatarskaya", "country": "RU", "coord": {"lon": 39.983334, "lat": 47.450001}}, {"id": 1490001, "name": "Tatarskaya", "country": "RU", "coord": {"lon": 93.214722, "lat": 56.315281}}, {"id": 484127, "name": "Tatarskaya Kargala", "country": "RU", "coord": {"lon": 55.173141, "lat": 51.94952}}, {"id": 484122, "name": "Tatarskaya Pishlya", "country": "RU", "coord": {"lon": 44.89978, "lat": 54.060848}}, {"id": 817984, "name": "Tatarskiye Khutora", "country": "RU", "coord": {"lon": 37.425282, "lat": 54.71611}}, {"id": 665434, "name": "Tataru", "country": "RO", "coord": {"lon": 26.33333, "lat": 45.099998}}, {"id": 665425, "name": "Tatarusi", "country": "RO", "coord": {"lon": 26.6, "lat": 47.349998}}, {"id": 2015470, "name": "Tataurovo", "country": "RU", "coord": {"lon": 107.440002, "lat": 52.137501}}, {"id": 1850559, "name": "Tatebayashi", "country": "JP", "coord": {"lon": 139.533325, "lat": 36.25}}, {"id": 2110812, "name": "Tateishi", "country": "JP", "coord": {"lon": 141.116669, "lat": 38.98333}}, {"id": 2823950, "name": "Tatenberg", "country": "DE", "coord": {"lon": 10.07661, "lat": 53.496422}}, {"id": 2110809, "name": "Tateno", "country": "JP", "coord": {"lon": 140.116669, "lat": 36.033329}}, {"id": 1850523, "name": "Tateyama", "country": "JP", "coord": {"lon": 139.866669, "lat": 34.98333}}, {"id": 2147281, "name": "Tatham", "country": "AU", "coord": {"lon": 153.166672, "lat": -28.933331}}, {"id": 2147280, "name": "Tathra", "country": "AU", "coord": {"lon": 149.966675, "lat": -36.73333}}, {"id": 7839461, "name": "Tatiara", "country": "AU", "coord": {"lon": 140.507477, "lat": -36.222321}}, {"id": 6551615, "name": "Tating", "country": "DE", "coord": {"lon": 8.71667, "lat": 54.333302}}, {"id": 2823936, "name": "Tating", "country": "DE", "coord": {"lon": 8.71667, "lat": 54.333328}}, {"id": 6439907, "name": "Tatinghem", "country": "FR", "coord": {"lon": 2.2, "lat": 50.75}}, {"id": 2973311, "name": "Tatinghem", "country": "FR", "coord": {"lon": 2.20724, "lat": 50.743172}}, {"id": 484034, "name": "Tatishchevo", "country": "RU", "coord": {"lon": 45.59528, "lat": 51.67028}}, {"id": 6161915, "name": "Tatla Lake", "country": "CA", "coord": {"lon": -124.60321, "lat": 51.899738}}, {"id": 6161924, "name": "Tatlayoko Lake", "country": "CA", "coord": {"lon": -124.436432, "lat": 51.71645}}, {"id": 2147276, "name": "Tatong", "country": "AU", "coord": {"lon": 146.100006, "lat": -36.73333}}, {"id": 1919695, "name": "Tatou", "country": "CN", "coord": {"lon": 116.06337, "lat": 23.490311}}, {"id": 1921204, "name": "Tatou", "country": "CN", "coord": {"lon": 118.523697, "lat": 24.61315}}, {"id": 484017, "name": "Tatsinskiy", "country": "RU", "coord": {"lon": 41.275581, "lat": 48.19677}}, {"id": 1850499, "name": "Tatsuno", "country": "JP", "coord": {"lon": 134.550003, "lat": 34.866669}}, {"id": 1850498, "name": "Tatsuno", "country": "JP", "coord": {"lon": 137.997208, "lat": 35.984261}}, {"id": 1254842, "name": "Tattayyangarpettai", "country": "IN", "coord": {"lon": 78.449997, "lat": 11.13333}}, {"id": 7872844, "name": "Tattendorf", "country": "AT", "coord": {"lon": 16.32896, "lat": 47.947392}}, {"id": 2763888, "name": "Tattendorf", "country": "AT", "coord": {"lon": 16.299999, "lat": 47.950001}}, {"id": 2636183, "name": "Tattenhall", "country": "GB", "coord": {"lon": -2.76746, "lat": 53.12188}}, {"id": 2649824, "name": "Tattenham Corner", "country": "GB", "coord": {"lon": -0.24307, "lat": 51.312801}}, {"id": 634829, "name": "Tattula", "country": "FI", "coord": {"lon": 23.25, "lat": 60.466671}}, {"id": 3446692, "name": "Tatui", "country": "BR", "coord": {"lon": -47.856941, "lat": -23.35556}}, {"id": 665413, "name": "Tatulesti", "country": "RO", "coord": {"lon": 24.633329, "lat": 44.633331}}, {"id": 4735674, "name": "Tatum", "country": "US", "coord": {"lon": -94.516586, "lat": 32.31599}}, {"id": 2147273, "name": "Tatura", "country": "AU", "coord": {"lon": 145.233337, "lat": -36.450001}}, {"id": 6322620, "name": "Tatu\u00ed", "country": "BR", "coord": {"lon": -47.856239, "lat": -23.354389}}, {"id": 299582, "name": "Tatvan", "country": "TR", "coord": {"lon": 42.28167, "lat": 38.506672}}, {"id": 2147272, "name": "Tatyoon", "country": "AU", "coord": {"lon": 142.949997, "lat": -37.51667}}, {"id": 7043934, "name": "Tat\u2019yanka", "country": "RU", "coord": {"lon": 44.606689, "lat": 48.54171}}, {"id": 809833, "name": "Tat\u2019yanovka", "country": "RU", "coord": {"lon": 37.504539, "lat": 50.76889}}, {"id": 5881165, "name": "Tau", "country": "AS", "coord": {"lon": -169.514435, "lat": -14.23361}}, {"id": 3134776, "name": "Tau", "country": "NO", "coord": {"lon": 5.9, "lat": 59.066669}}, {"id": 2823924, "name": "Taubach", "country": "DE", "coord": {"lon": 11.38333, "lat": 50.950001}}, {"id": 3446682, "name": "Taubate", "country": "BR", "coord": {"lon": -45.555279, "lat": -23.02639}}, {"id": 6322621, "name": "Taubat\u00e9", "country": "BR", "coord": {"lon": -45.497452, "lat": -23.071581}}, {"id": 2823916, "name": "Taubenbach", "country": "DE", "coord": {"lon": 12.95, "lat": 48.283329}}, {"id": 2823887, "name": "Taubenheim", "country": "DE", "coord": {"lon": 14.48333, "lat": 51.049999}}, {"id": 2823883, "name": "Taubenhof", "country": "DE", "coord": {"lon": 10.9, "lat": 49.48333}}, {"id": 2823854, "name": "Tauberbischofsheim", "country": "DE", "coord": {"lon": 9.66278, "lat": 49.624722}}, {"id": 2823853, "name": "Tauberfeld", "country": "DE", "coord": {"lon": 11.26667, "lat": 48.816669}}, {"id": 6557099, "name": "Tauberrettersheim", "country": "DE", "coord": {"lon": 9.93667, "lat": 49.4944}}, {"id": 2823851, "name": "Tauberrettersheim", "country": "DE", "coord": {"lon": 9.93667, "lat": 49.494438}}, {"id": 2823850, "name": "Tauberschallbach", "country": "DE", "coord": {"lon": 10.35, "lat": 49.200001}}, {"id": 2823849, "name": "Tauberscheckenbach", "country": "DE", "coord": {"lon": 10.13333, "lat": 49.433331}}, {"id": 2823844, "name": "Tauberzell", "country": "DE", "coord": {"lon": 10.11667, "lat": 49.450001}}, {"id": 2823842, "name": "Taubing", "country": "DE", "coord": {"lon": 13.66871, "lat": 48.586201}}, {"id": 2823836, "name": "Taucha", "country": "DE", "coord": {"lon": 12.48333, "lat": 51.383331}}, {"id": 6551105, "name": "Tauche", "country": "DE", "coord": {"lon": 14.1306, "lat": 52.1292}}, {"id": 2823835, "name": "Tauche", "country": "DE", "coord": {"lon": 14.16667, "lat": 52.150002}}, {"id": 2510589, "name": "Taucho", "country": "ES", "coord": {"lon": -16.716669, "lat": 28.15}}, {"id": 2823826, "name": "Tauchritz", "country": "DE", "coord": {"lon": 14.95, "lat": 51.066669}}, {"id": 6547718, "name": "Tauer", "country": "DE", "coord": {"lon": 14.45, "lat": 51.900002}}, {"id": 2823824, "name": "Tauer", "country": "DE", "coord": {"lon": 14.45, "lat": 51.900002}}, {"id": 2658417, "name": "Tauffelen", "country": "CH", "coord": {"lon": 7.19704, "lat": 47.065239}}, {"id": 6556327, "name": "Taufkirchen", "country": "DE", "coord": {"lon": 11.61478, "lat": 48.045731}}, {"id": 2823812, "name": "Taufkirchen", "country": "DE", "coord": {"lon": 11.61907, "lat": 48.043201}}, {"id": 2823810, "name": "Taufkirchen", "country": "DE", "coord": {"lon": 12.13333, "lat": 48.349998}}, {"id": 6556304, "name": "Taufkirchen", "country": "DE", "coord": {"lon": 12.45, "lat": 48.150002}}, {"id": 2823811, "name": "Taufkirchen", "country": "DE", "coord": {"lon": 12.45, "lat": 48.150002}}, {"id": 3600969, "name": "Taujica", "country": "HN", "coord": {"lon": -85.916672, "lat": 15.7}}, {"id": 3600966, "name": "Taulabe", "country": "HN", "coord": {"lon": -87.966667, "lat": 14.7}}, {"id": 5881150, "name": "Taulaga", "country": "AS", "coord": {"lon": -171.088333, "lat": -11.05528}}, {"id": 2973303, "name": "Taule", "country": "FR", "coord": {"lon": -3.9, "lat": 48.599998}}, {"id": 6430252, "name": "Taulignan", "country": "FR", "coord": {"lon": 4.98333, "lat": 44.450001}}, {"id": 2973301, "name": "Taulignan", "country": "FR", "coord": {"lon": 4.97971, "lat": 44.444248}}, {"id": 2611817, "name": "Taulov", "country": "DK", "coord": {"lon": 9.61553, "lat": 55.545818}}, {"id": 6431065, "name": "Taul\u00e9", "country": "FR", "coord": {"lon": -3.9, "lat": 48.599998}}, {"id": 6234582, "name": "Taumarunui", "country": "NZ", "coord": {"lon": 175.260193, "lat": -38.878231}}, {"id": 8058040, "name": "Taunan", "country": "ID", "coord": {"lon": 111.215897, "lat": -6.7751}}, {"id": 1294041, "name": "Taungdwingyi", "country": "MM", "coord": {"lon": 95.550003, "lat": 20.01667}}, {"id": 1293960, "name": "Taunggyi", "country": "MM", "coord": {"lon": 97.033333, "lat": 20.783331}}, {"id": 1682715, "name": "Taungoh", "country": "PH", "coord": {"lon": 119.493057, "lat": 4.70694}}, {"id": 1290596, "name": "Taungoo", "country": "MM", "coord": {"lon": 96.433327, "lat": 18.933331}}, {"id": 4033566, "name": "Taunoa", "country": "PF", "coord": {"lon": -149.350006, "lat": -17.75}}, {"id": 1163724, "name": "Taunsa", "country": "PK", "coord": {"lon": 70.650513, "lat": 30.70484}}, {"id": 5049737, "name": "Taunton", "country": "US", "coord": {"lon": -96.065872, "lat": 44.593571}}, {"id": 2636177, "name": "Taunton", "country": "GB", "coord": {"lon": -3.10472, "lat": 51.021111}}, {"id": 4952629, "name": "Taunton", "country": "US", "coord": {"lon": -71.089767, "lat": 41.900101}}, {"id": 7290626, "name": "Taunton Deane District", "country": "GB", "coord": {"lon": -3.14856, "lat": 51.004211}}, {"id": 2823799, "name": "Taunusstein", "country": "DE", "coord": {"lon": 8.15, "lat": 50.150002}}, {"id": 2823797, "name": "Taupadel", "country": "DE", "coord": {"lon": 11.7, "lat": 50.950001}}, {"id": 2823798, "name": "Taupadel", "country": "DE", "coord": {"lon": 12.4, "lat": 50.900002}}, {"id": 2823796, "name": "Tauperlitz", "country": "DE", "coord": {"lon": 11.95, "lat": 50.299999}}, {"id": 2181747, "name": "Taupiri", "country": "NZ", "coord": {"lon": 175.183334, "lat": -37.616669}}, {"id": 7873508, "name": "Tauplitz", "country": "AT", "coord": {"lon": 14.01444, "lat": 47.58876}}, {"id": 2763855, "name": "Tauplitz", "country": "AT", "coord": {"lon": 14.01293, "lat": 47.560051}}, {"id": 2181742, "name": "Taupo", "country": "NZ", "coord": {"lon": 176.083328, "lat": -38.683331}}, {"id": 6454345, "name": "Taupont", "country": "FR", "coord": {"lon": -2.43333, "lat": 47.950001}}, {"id": 2973297, "name": "Taupont", "country": "FR", "coord": {"lon": -2.43933, "lat": 47.95961}}, {"id": 6548571, "name": "Taura", "country": "DE", "coord": {"lon": 12.8313, "lat": 50.9179}}, {"id": 2823795, "name": "Taura", "country": "DE", "coord": {"lon": 12.85, "lat": 50.916672}}, {"id": 593959, "name": "Taurage", "country": "LT", "coord": {"lon": 22.289721, "lat": 55.25222}}, {"id": 864482, "name": "Taurag\u0117s Apskritis", "country": "LT", "coord": {"lon": 22.5, "lat": 55.333328}}, {"id": 3667355, "name": "Tauramena", "country": "CO", "coord": {"lon": -72.749191, "lat": 5.01831}}, {"id": 2208032, "name": "Tauranga", "country": "NZ", "coord": {"lon": 176.166672, "lat": -37.686111}}, {"id": 7910066, "name": "Tauranga City", "country": "NZ", "coord": {"lon": 176.244507, "lat": -37.69733}}, {"id": 3165901, "name": "Taurano", "country": "IT", "coord": {"lon": 14.63444, "lat": 40.883709}}, {"id": 3165900, "name": "Taurasi", "country": "IT", "coord": {"lon": 14.95864, "lat": 41.00872}}, {"id": 665398, "name": "Taureni", "country": "RO", "coord": {"lon": 25.25, "lat": 46.26667}}, {"id": 6432485, "name": "Tauriac", "country": "FR", "coord": {"lon": -0.48333, "lat": 45.049999}}, {"id": 2973293, "name": "Tauriac", "country": "FR", "coord": {"lon": -0.50048, "lat": 45.049149}}, {"id": 6537727, "name": "Taurianova", "country": "IT", "coord": {"lon": 16.0109, "lat": 38.35627}}, {"id": 2522971, "name": "Taurianova", "country": "IT", "coord": {"lon": 16.0109, "lat": 38.35627}}, {"id": 2522970, "name": "Taurisano", "country": "IT", "coord": {"lon": 18.21413, "lat": 39.956619}}, {"id": 6645566, "name": "Taurovo", "country": "RU", "coord": {"lon": 36.299686, "lat": 54.799103}}, {"id": 3667351, "name": "Tausa", "country": "CO", "coord": {"lon": -73.891281, "lat": 5.19903}}, {"id": 2823789, "name": "Tauscha", "country": "DE", "coord": {"lon": 12.71667, "lat": 50.916672}}, {"id": 6548662, "name": "Tauscha", "country": "DE", "coord": {"lon": 13.8, "lat": 51.266701}}, {"id": 2823788, "name": "Tauscha", "country": "DE", "coord": {"lon": 13.8, "lat": 51.26667}}, {"id": 2823776, "name": "Tauschwitz", "country": "DE", "coord": {"lon": 11.43333, "lat": 50.633331}}, {"id": 608053, "name": "Taushyq", "country": "KZ", "coord": {"lon": 51.353611, "lat": 44.35667}}, {"id": 6362938, "name": "Tauste", "country": "ES", "coord": {"lon": -1.18947, "lat": 41.923458}}, {"id": 3108269, "name": "Tauste", "country": "ES", "coord": {"lon": -1.25343, "lat": 41.918041}}, {"id": 665394, "name": "Taut", "country": "RO", "coord": {"lon": 21.91667, "lat": 46.283329}}, {"id": 6550411, "name": "Tautenburg", "country": "DE", "coord": {"lon": 11.7167, "lat": 51}}, {"id": 2823771, "name": "Tautenburg", "country": "DE", "coord": {"lon": 11.71667, "lat": 51}}, {"id": 6550412, "name": "Tautendorf", "country": "DE", "coord": {"lon": 11.9, "lat": 50.8167}}, {"id": 2823768, "name": "Tautendorf", "country": "DE", "coord": {"lon": 11.9, "lat": 50.816669}}, {"id": 6550413, "name": "Tautenhain", "country": "DE", "coord": {"lon": 11.9167, "lat": 50.9333}}, {"id": 2823764, "name": "Tautenhain", "country": "DE", "coord": {"lon": 11.91667, "lat": 50.933331}}, {"id": 665387, "name": "Tauteu", "country": "RO", "coord": {"lon": 22.33333, "lat": 47.26667}}, {"id": 665382, "name": "Tautii Magherus", "country": "RO", "coord": {"lon": 23.48333, "lat": 47.650002}}, {"id": 4033557, "name": "Tautira", "country": "PF", "coord": {"lon": -149.149994, "lat": -17.73333}}, {"id": 6440247, "name": "Tauves", "country": "FR", "coord": {"lon": 2.63333, "lat": 45.566669}}, {"id": 2973274, "name": "Tauves", "country": "FR", "coord": {"lon": 2.62441, "lat": 45.559891}}, {"id": 6433139, "name": "Tauxigny", "country": "FR", "coord": {"lon": 0.83333, "lat": 47.216671}}, {"id": 2973272, "name": "Tauxigny", "country": "FR", "coord": {"lon": 0.83479, "lat": 47.213371}}, {"id": 3386568, "name": "Tau\u00e1", "country": "BR", "coord": {"lon": -40.299999, "lat": -5.96667}}, {"id": 3165895, "name": "Tavagnasco", "country": "IT", "coord": {"lon": 7.82332, "lat": 45.54496}}, {"id": 2028983, "name": "Tavanbulag", "country": "MN", "coord": {"lon": 101.90815, "lat": 47.381851}}, {"id": 3189185, "name": "Tavankut", "country": "RS", "coord": {"lon": 19.48333, "lat": 46.033329}}, {"id": 7287284, "name": "Tavannes", "country": "CH", "coord": {"lon": 7.18376, "lat": 47.221359}}, {"id": 2658415, "name": "Tavannes", "country": "CH", "coord": {"lon": 7.19759, "lat": 47.220791}}, {"id": 6433140, "name": "Tavant", "country": "FR", "coord": {"lon": 0.38333, "lat": 47.116669}}, {"id": 2973269, "name": "Tavant", "country": "FR", "coord": {"lon": 0.38867, "lat": 47.12616}}, {"id": 8011830, "name": "Tavarede", "country": "PT", "coord": {"lon": -8.83856, "lat": 40.16993}}, {"id": 2733660, "name": "Tavarede", "country": "PT", "coord": {"lon": -8.84566, "lat": 40.170792}}, {"id": 2733659, "name": "Tavaredes", "country": "PT", "coord": {"lon": -8.75, "lat": 40.316669}}, {"id": 3386543, "name": "Tavares", "country": "BR", "coord": {"lon": -37.87833, "lat": -7.63583}}, {"id": 4174861, "name": "Tavares", "country": "US", "coord": {"lon": -81.725632, "lat": 28.804159}}, {"id": 6534685, "name": "Tavarnelle Val di Pesa", "country": "IT", "coord": {"lon": 11.17152, "lat": 43.56184}}, {"id": 299575, "name": "Tavas", "country": "TR", "coord": {"lon": 29.07058, "lat": 37.573509}}, {"id": 830705, "name": "Tavastland", "country": "FI", "coord": {"lon": 24.25, "lat": 60.833328}}, {"id": 6433772, "name": "Tavaux", "country": "FR", "coord": {"lon": 5.4125, "lat": 47.0439}}, {"id": 2973267, "name": "Tavaux", "country": "FR", "coord": {"lon": 5.405, "lat": 47.03376}}, {"id": 1489962, "name": "Tavda", "country": "RU", "coord": {"lon": 65.272583, "lat": 58.042542}}, {"id": 8011808, "name": "Taveiro", "country": "PT", "coord": {"lon": -8.50061, "lat": 40.198349}}, {"id": 2733657, "name": "Taveiro", "country": "PT", "coord": {"lon": -8.5038, "lat": 40.203529}}, {"id": 6431462, "name": "Tavel", "country": "FR", "coord": {"lon": 4.7, "lat": 44.01667}}, {"id": 2973264, "name": "Tavel", "country": "FR", "coord": {"lon": 4.69835, "lat": 44.012699}}, {"id": 3165890, "name": "Tavenna", "country": "IT", "coord": {"lon": 14.76253, "lat": 41.908642}}, {"id": 2522969, "name": "Taverna", "country": "IT", "coord": {"lon": 16.5818, "lat": 39.02179}}, {"id": 6535756, "name": "Tavernerio", "country": "IT", "coord": {"lon": 9.14054, "lat": 45.800678}}, {"id": 6362102, "name": "Tavernes Blanques", "country": "ES", "coord": {"lon": -0.36418, "lat": 39.50853}}, {"id": 2510744, "name": "Tavernes Blanques", "country": "ES", "coord": {"lon": -0.36667, "lat": 39.5}}, {"id": 6362103, "name": "Tavernes de la Valldigna", "country": "ES", "coord": {"lon": -0.25079, "lat": 39.086361}}, {"id": 2510743, "name": "Tavernes de la Valldigna", "country": "ES", "coord": {"lon": -0.26667, "lat": 39.066669}}, {"id": 4174870, "name": "Tavernier", "country": "US", "coord": {"lon": -80.51506, "lat": 25.01152}}, {"id": 3165874, "name": "Tavernola Bergamasca", "country": "IT", "coord": {"lon": 10.04626, "lat": 45.709381}}, {"id": 3165873, "name": "Tavernole sul Mella", "country": "IT", "coord": {"lon": 10.24056, "lat": 45.74699}}, {"id": 2636175, "name": "Tavernspite", "country": "GB", "coord": {"lon": -4.64111, "lat": 51.78194}}, {"id": 6446342, "name": "Taverny", "country": "FR", "coord": {"lon": 2.21667, "lat": 49.033329}}, {"id": 2973258, "name": "Taverny", "country": "FR", "coord": {"lon": 2.21691, "lat": 49.025421}}, {"id": 6434740, "name": "Tavers", "country": "FR", "coord": {"lon": 1.61667, "lat": 47.75}}, {"id": 2973257, "name": "Tavers", "country": "FR", "coord": {"lon": 1.61267, "lat": 47.759209}}, {"id": 6356299, "name": "Tavertet", "country": "ES", "coord": {"lon": 2.41173, "lat": 42.001629}}, {"id": 3108266, "name": "Tavertet", "country": "ES", "coord": {"lon": 2.4186, "lat": 41.99572}}, {"id": 179525, "name": "Taveta", "country": "KE", "coord": {"lon": 37.673618, "lat": -3.39632}}, {"id": 2522968, "name": "Taviano", "country": "IT", "coord": {"lon": 18.08683, "lat": 39.983521}}, {"id": 3165871, "name": "Taviano", "country": "IT", "coord": {"lon": 11, "lat": 44.099998}}, {"id": 6535341, "name": "Tavigliano", "country": "IT", "coord": {"lon": 8.05172, "lat": 45.622059}}, {"id": 2028972, "name": "Tavin", "country": "MN", "coord": {"lon": 105.735168, "lat": 46.391941}}, {"id": 2262744, "name": "Tavira", "country": "PT", "coord": {"lon": -7.64861, "lat": 37.127338}}, {"id": 1682699, "name": "Taviran", "country": "PH", "coord": {"lon": 124.319717, "lat": 7.12333}}, {"id": 6162007, "name": "Tavistock", "country": "CA", "coord": {"lon": -80.833023, "lat": 43.316792}}, {"id": 2636174, "name": "Tavistock", "country": "GB", "coord": {"lon": -4.14418, "lat": 50.549438}}, {"id": 3165865, "name": "Tavoleto", "country": "IT", "coord": {"lon": 12.59195, "lat": 43.844662}}, {"id": 2015455, "name": "Tavrichanka", "country": "RU", "coord": {"lon": 131.863892, "lat": 43.33778}}, {"id": 1489938, "name": "Tavricheskoye", "country": "RU", "coord": {"lon": 73.639503, "lat": 54.585079}}, {"id": 1518333, "name": "Tavricheskoye", "country": "KZ", "coord": {"lon": 82.056671, "lat": 50.173611}}, {"id": 865729, "name": "Tavriys\u2019k", "country": "UA", "coord": {"lon": 33.418411, "lat": 46.75285}}, {"id": 738965, "name": "Tavsancil", "country": "TR", "coord": {"lon": 29.571939, "lat": 40.770828}}, {"id": 299545, "name": "Tavsanli", "country": "TR", "coord": {"lon": 29.498659, "lat": 39.54237}}, {"id": 738962, "name": "Tavsanli", "country": "TR", "coord": {"lon": 29.51136, "lat": 40.81876}}, {"id": 3165862, "name": "Tavullia", "country": "IT", "coord": {"lon": 12.75485, "lat": 43.897861}}, {"id": 828265, "name": "Tavushi Marz", "country": "AM", "coord": {"lon": 45.166672, "lat": 40.916672}}, {"id": 7413342, "name": "Tawa", "country": "CN", "coord": {"lon": 102.281212, "lat": 35.494469}}, {"id": 1682694, "name": "Tawagan", "country": "PH", "coord": {"lon": 123.475281, "lat": 7.845}}, {"id": 1682732, "name": "Tawala", "country": "PH", "coord": {"lon": 123.769562, "lat": 9.55421}}, {"id": 7384423, "name": "Tawali", "country": "ID", "coord": {"lon": 118.914497, "lat": -8.3407}}, {"id": 1682689, "name": "Tawan tawan", "country": "PH", "coord": {"lon": 125.37278, "lat": 7.16917}}, {"id": 1254832, "name": "Tawang", "country": "IN", "coord": {"lon": 91.866669, "lat": 27.58333}}, {"id": 1965943, "name": "Tawangrejeni", "country": "ID", "coord": {"lon": 112.687599, "lat": -8.2226}}, {"id": 7579544, "name": "Tawangrejo", "country": "ID", "coord": {"lon": 111.993698, "lat": -8.0357}}, {"id": 8074689, "name": "Tawangrejo", "country": "ID", "coord": {"lon": 111.651604, "lat": -6.7934}}, {"id": 8075923, "name": "Tawangrejo", "country": "ID", "coord": {"lon": 111.843002, "lat": -6.8024}}, {"id": 8023859, "name": "Tawangsari", "country": "ID", "coord": {"lon": 108.220596, "lat": -7.3227}}, {"id": 8067906, "name": "Tawangsari", "country": "ID", "coord": {"lon": 111.343102, "lat": -6.9744}}, {"id": 8074385, "name": "Tawangsari", "country": "ID", "coord": {"lon": 108.804398, "lat": -7.3961}}, {"id": 8076050, "name": "Tawangsari", "country": "ID", "coord": {"lon": 111.774803, "lat": -6.9961}}, {"id": 1850472, "name": "Tawaramoto", "country": "JP", "coord": {"lon": 135.800003, "lat": 34.549999}}, {"id": 8074105, "name": "Tawaran", "country": "ID", "coord": {"lon": 111.610901, "lat": -6.9099}}, {"id": 5011900, "name": "Tawas City", "country": "US", "coord": {"lon": -83.514702, "lat": 44.269459}}, {"id": 6162016, "name": "Tawatinaw", "country": "CA", "coord": {"lon": -113.485352, "lat": 54.300159}}, {"id": 1734199, "name": "Tawau", "country": "MY", "coord": {"lon": 117.8871, "lat": 4.2498}}, {"id": 6554797, "name": "Tawern", "country": "DE", "coord": {"lon": 6.51667, "lat": 49.666698}}, {"id": 2823755, "name": "Tawern", "country": "DE", "coord": {"lon": 6.51667, "lat": 49.666672}}, {"id": 7780760, "name": "Tawingmuara", "country": "ID", "coord": {"lon": 105.854797, "lat": -6.1637}}, {"id": 1793064, "name": "Tawo", "country": "CN", "coord": {"lon": 109.958458, "lat": 29.194759}}, {"id": 2147265, "name": "Tawonga", "country": "AU", "coord": {"lon": 147.100006, "lat": -36.633331}}, {"id": 409051, "name": "Tawr al Bahah", "country": "YE", "coord": {"lon": 44.29966, "lat": 13.18179}}, {"id": 2636169, "name": "Tawstock", "country": "GB", "coord": {"lon": -4.06307, "lat": 51.049721}}, {"id": 7389150, "name": "Tawui", "country": "ID", "coord": {"lon": 120.072998, "lat": -10.143}}, {"id": 1624555, "name": "Tawun", "country": "ID", "coord": {"lon": 111.737801, "lat": -6.9148}}, {"id": 7582093, "name": "Tawun", "country": "ID", "coord": {"lon": 116.008102, "lat": -8.7526}}, {"id": 2823753, "name": "Taxa", "country": "DE", "coord": {"lon": 11.20949, "lat": 48.315971}}, {"id": 2973253, "name": "Taxat", "country": "FR", "coord": {"lon": 3.15655, "lat": 46.205399}}, {"id": 6425485, "name": "Taxat-Senat", "country": "FR", "coord": {"lon": 3.13333, "lat": 46.200001}}, {"id": 2973251, "name": "Taxat-Senat", "country": "FR", "coord": {"lon": 3.13898, "lat": 46.202862}}, {"id": 2823750, "name": "Taxberg", "country": "DE", "coord": {"lon": 11.15, "lat": 48.51667}}, {"id": 3516225, "name": "Taxco de Alarcon", "country": "MX", "coord": {"lon": -99.599998, "lat": 18.549999}}, {"id": 7873331, "name": "Taxenbach", "country": "AT", "coord": {"lon": 12.94291, "lat": 47.284939}}, {"id": 2763837, "name": "Taxenbach", "country": "AT", "coord": {"lon": 12.96667, "lat": 47.283329}}, {"id": 7690186, "name": "Taxia", "country": "CN", "coord": {"lon": 114.950829, "lat": 28.220421}}, {"id": 258757, "name": "Taxiarchai", "country": "GR", "coord": {"lon": 21.8925, "lat": 39.575001}}, {"id": 734108, "name": "Taxiarkhis", "country": "GR", "coord": {"lon": 23.51667, "lat": 40.433331}}, {"id": 2823747, "name": "Taxis", "country": "DE", "coord": {"lon": 10.36667, "lat": 48.700001}}, {"id": 3588491, "name": "Taxisco", "country": "GT", "coord": {"lon": -90.463058, "lat": 14.07083}}, {"id": 1512699, "name": "Taxtakopir", "country": "UZ", "coord": {"lon": 60.301109, "lat": 43.011711}}, {"id": 1566559, "name": "Tay Ninh", "country": "VN", "coord": {"lon": 106.099998, "lat": 11.3}}, {"id": 1682659, "name": "Tayabas", "country": "PH", "coord": {"lon": 121.59111, "lat": 14.02889}}, {"id": 1684645, "name": "Tayabas Ibaba", "country": "PH", "coord": {"lon": 122.26667, "lat": 13.61667}}, {"id": 1682653, "name": "Tayabo", "country": "PH", "coord": {"lon": 121.03083, "lat": 15.83417}}, {"id": 6616579, "name": "Tayac", "country": "FR", "coord": {"lon": -0.0091, "lat": 44.952301}}, {"id": 2973246, "name": "Tayac", "country": "FR", "coord": {"lon": 0, "lat": 44.950001}}, {"id": 1682649, "name": "Tayaman", "country": "PH", "coord": {"lon": 120.572601, "lat": 13.2295}}, {"id": 1885443, "name": "Tayang", "country": "CN", "coord": {"lon": 110.5047, "lat": 19.291349}}, {"id": 1682643, "name": "Tayasan", "country": "PH", "coord": {"lon": 123.169899, "lat": 9.924}}, {"id": 281623, "name": "Tayasir", "country": "PS", "coord": {"lon": 35.396042, "lat": 32.34042}}, {"id": 1159384, "name": "Taybad", "country": "IR", "coord": {"lon": 60.7756, "lat": 34.740002}}, {"id": 51299, "name": "Tayeeglow", "country": "SO", "coord": {"lon": 44.51112, "lat": 4.01897}}, {"id": 2147263, "name": "Tayene", "country": "AU", "coord": {"lon": 147.433334, "lat": -41.333328}}, {"id": 1489907, "name": "Tayga", "country": "RU", "coord": {"lon": 85.61972, "lat": 56.060001}}, {"id": 1515213, "name": "Taygan", "country": "MN", "coord": {"lon": 97.366333, "lat": 46.353561}}, {"id": 1489900, "name": "Tayginka", "country": "RU", "coord": {"lon": 60.507599, "lat": 55.624401}}, {"id": 865086, "name": "Tayirove", "country": "UA", "coord": {"lon": 30.648911, "lat": 46.363129}}, {"id": 6162051, "name": "Taylor", "country": "CA", "coord": {"lon": -120.691803, "lat": 56.15818}}, {"id": 4735702, "name": "Taylor", "country": "US", "coord": {"lon": -97.409439, "lat": 30.570761}}, {"id": 5011908, "name": "Taylor", "country": "US", "coord": {"lon": -83.269653, "lat": 42.240871}}, {"id": 4093048, "name": "Taylor", "country": "US", "coord": {"lon": -85.468269, "lat": 31.1649}}, {"id": 4093050, "name": "Taylor", "country": "US", "coord": {"lon": -86.233299, "lat": 31.97543}}, {"id": 5080066, "name": "Taylor", "country": "US", "coord": {"lon": -99.378723, "lat": 41.770279}}, {"id": 5215247, "name": "Taylor", "country": "US", "coord": {"lon": -75.706581, "lat": 41.394798}}, {"id": 5316960, "name": "Taylor", "country": "US", "coord": {"lon": -110.091232, "lat": 34.465038}}, {"id": 4735729, "name": "Taylor County", "country": "US", "coord": {"lon": -99.833702, "lat": 32.300129}}, {"id": 5275451, "name": "Taylor County", "country": "US", "coord": {"lon": -90.516808, "lat": 45.21664}}, {"id": 4174888, "name": "Taylor Creek", "country": "US", "coord": {"lon": -80.789497, "lat": 27.216709}}, {"id": 4735771, "name": "Taylor Lake Village", "country": "US", "coord": {"lon": -95.050209, "lat": 29.57523}}, {"id": 4310616, "name": "Taylor Mill", "country": "US", "coord": {"lon": -84.49633, "lat": 38.997559}}, {"id": 5493903, "name": "Taylor Springs", "country": "US", "coord": {"lon": -104.49221, "lat": 36.327251}}, {"id": 4598353, "name": "Taylors", "country": "US", "coord": {"lon": -82.296227, "lat": 34.920391}}, {"id": 2147251, "name": "Taylors Arm", "country": "AU", "coord": {"lon": 152.699997, "lat": -30.783331}}, {"id": 8219813, "name": "Taylors Beach", "country": "AU", "coord": {"lon": 146.324478, "lat": -18.632681}}, {"id": 2147245, "name": "Taylors Flat", "country": "AU", "coord": {"lon": 149.016663, "lat": -34.283329}}, {"id": 5782476, "name": "Taylorsville", "country": "US", "coord": {"lon": -111.938828, "lat": 40.667721}}, {"id": 4310638, "name": "Taylorsville", "country": "US", "coord": {"lon": -85.342453, "lat": 38.031731}}, {"id": 4448074, "name": "Taylorsville", "country": "US", "coord": {"lon": -89.428123, "lat": 31.829599}}, {"id": 4494650, "name": "Taylorsville", "country": "US", "coord": {"lon": -81.176468, "lat": 35.921799}}, {"id": 4251141, "name": "Taylorville", "country": "US", "coord": {"lon": -89.294533, "lat": 39.548939}}, {"id": 483904, "name": "Tayninskiy", "country": "RU", "coord": {"lon": 37.733334, "lat": 55.900002}}, {"id": 6607759, "name": "Taynovo", "country": "RU", "coord": {"lon": 43.970554, "lat": 56.41861}}, {"id": 483901, "name": "Taynoye", "country": "RU", "coord": {"lon": 36.151669, "lat": 53.055561}}, {"id": 2636159, "name": "Taynuilt", "country": "GB", "coord": {"lon": -5.23928, "lat": 56.42881}}, {"id": 3982292, "name": "Tayoltita", "country": "MX", "coord": {"lon": -105.933327, "lat": 24.08333}}, {"id": 7838983, "name": "Tayouneh", "country": "LB", "coord": {"lon": 35.514172, "lat": 33.870281}}, {"id": 1684361, "name": "Taypano", "country": "PH", "coord": {"lon": 124.559441, "lat": 8.37083}}, {"id": 2636158, "name": "Tayport", "country": "GB", "coord": {"lon": -2.87966, "lat": 56.446991}}, {"id": 1682618, "name": "Taysan", "country": "PH", "coord": {"lon": 121.097099, "lat": 13.8697}}, {"id": 1682619, "name": "Taysan", "country": "PH", "coord": {"lon": 121.189598, "lat": 13.7976}}, {"id": 1489870, "name": "Tayshet", "country": "RU", "coord": {"lon": 98.004402, "lat": 55.9342}}, {"id": 1682615, "name": "Taytay", "country": "PH", "coord": {"lon": 121.150002, "lat": 14.55}}, {"id": 1682598, "name": "Taytay", "country": "PH", "coord": {"lon": 121.139397, "lat": 14.5678}}, {"id": 1682600, "name": "Taytay", "country": "PH", "coord": {"lon": 121.415703, "lat": 14.1122}}, {"id": 1682606, "name": "Taytay", "country": "PH", "coord": {"lon": 119.516899, "lat": 10.82526}}, {"id": 1682613, "name": "Taytay", "country": "PH", "coord": {"lon": 124.539719, "lat": 8.54111}}, {"id": 1682594, "name": "Taytayan", "country": "PH", "coord": {"lon": 123.977097, "lat": 10.8787}}, {"id": 1682596, "name": "Taytayan", "country": "PH", "coord": {"lon": 126.501938, "lat": 7.73389}}, {"id": 483898, "name": "Taytsy", "country": "RU", "coord": {"lon": 30.114719, "lat": 59.66444}}, {"id": 2015428, "name": "Tayturka", "country": "RU", "coord": {"lon": 103.460831, "lat": 52.869171}}, {"id": 1624545, "name": "Tayu", "country": "ID", "coord": {"lon": 111.051804, "lat": -6.5397}}, {"id": 8056393, "name": "Tayu Kulon", "country": "ID", "coord": {"lon": 111.042542, "lat": -6.53517}}, {"id": 1682576, "name": "Tayud", "country": "PH", "coord": {"lon": 123.994003, "lat": 10.3782}}, {"id": 1682574, "name": "Tayug", "country": "PH", "coord": {"lon": 120.743401, "lat": 16.027399}}, {"id": 1682570, "name": "Tayum", "country": "PH", "coord": {"lon": 120.654198, "lat": 17.617201}}, {"id": 1682562, "name": "Taywanak Ilaya", "country": "PH", "coord": {"lon": 120.846542, "lat": 14.15759}}, {"id": 1122464, "name": "Taywarah", "country": "AF", "coord": {"lon": 64.416672, "lat": 33.349998}}, {"id": 163270, "name": "Tayyibat al Imam", "country": "SY", "coord": {"lon": 36.710621, "lat": 35.26548}}, {"id": 1489863, "name": "Tayzhina", "country": "RU", "coord": {"lon": 87.436203, "lat": 53.6679}}, {"id": 2529313, "name": "Taza", "country": "MA", "coord": {"lon": -3.75, "lat": 34.25}}, {"id": 6547088, "name": "Taza", "country": "MA", "coord": {"lon": -4.0088, "lat": 34.215}}, {"id": 2529317, "name": "Taza", "country": "MA", "coord": {"lon": -4.01, "lat": 34.209999}}, {"id": 6534196, "name": "Tazacorte", "country": "ES", "coord": {"lon": -17.9293, "lat": 28.629}}, {"id": 2510582, "name": "Tazacorte", "country": "ES", "coord": {"lon": -17.933941, "lat": 28.641859}}, {"id": 616174, "name": "Tazagyugh", "country": "AM", "coord": {"lon": 45.19096, "lat": 40.138199}}, {"id": 2529286, "name": "Tazarine", "country": "MA", "coord": {"lon": -4.1862, "lat": 33.88306}}, {"id": 2733652, "name": "Tazem", "country": "PT", "coord": {"lon": -7.72041, "lat": 40.496578}}, {"id": 2529251, "name": "Tazemmourt", "country": "MA", "coord": {"lon": -8.829, "lat": 30.408541}}, {"id": 4661964, "name": "Tazewell", "country": "US", "coord": {"lon": -83.569351, "lat": 36.45425}}, {"id": 4788966, "name": "Tazewell", "country": "US", "coord": {"lon": -81.519547, "lat": 37.114841}}, {"id": 4913271, "name": "Tazewell County", "country": "US", "coord": {"lon": -89.550102, "lat": 40.533371}}, {"id": 6438105, "name": "Tazilly", "country": "FR", "coord": {"lon": 3.91667, "lat": 46.76667}}, {"id": 2973239, "name": "Tazilly", "country": "FR", "coord": {"lon": 3.91357, "lat": 46.765831}}, {"id": 3044062, "name": "Tazlar", "country": "HU", "coord": {"lon": 19.51436, "lat": 46.548241}}, {"id": 665377, "name": "Tazlau", "country": "RO", "coord": {"lon": 26.466669, "lat": 46.716671}}, {"id": 2477537, "name": "Tazmalt", "country": "DZ", "coord": {"lon": 4.39886, "lat": 36.386822}}, {"id": 2529245, "name": "Taznakht", "country": "MA", "coord": {"lon": -7.20341, "lat": 30.57836}}, {"id": 2477528, "name": "Tazoult-Lambese", "country": "DZ", "coord": {"lon": 6.26074, "lat": 35.481709}}, {"id": 2529133, "name": "Tazouta", "country": "MA", "coord": {"lon": -4.63392, "lat": 33.66991}}, {"id": 1489853, "name": "Tazovskiy", "country": "RU", "coord": {"lon": 78.699997, "lat": 67.466667}}, {"id": 8011258, "name": "Ta\u00edde", "country": "PT", "coord": {"lon": -8.23068, "lat": 41.558472}}, {"id": 3108406, "name": "Ta\u00fcll", "country": "ES", "coord": {"lon": 0.84745, "lat": 42.52029}}, {"id": 739043, "name": "Ta\u015fl\u0131k", "country": "TR", "coord": {"lon": 28.3762, "lat": 40.243549}}, {"id": 70223, "name": "Ta\u2018izz", "country": "YE", "coord": {"lon": 44.033329, "lat": 14.78333}}, {"id": 2562465, "name": "Ta\u2019 Danieli", "country": "MT", "coord": {"lon": 14.48417, "lat": 35.85667}}, {"id": 611717, "name": "Tbilisi", "country": "GE", "coord": {"lon": 44.833679, "lat": 41.694111}}, {"id": 483883, "name": "Tbilisskaya", "country": "RU", "coord": {"lon": 40.189999, "lat": 45.363331}}, {"id": 1682560, "name": "Tboli", "country": "PH", "coord": {"lon": 124.833328, "lat": 6.2}}, {"id": 7789926, "name": "Tchahungo", "country": "AO", "coord": {"lon": 20.45376, "lat": -9.70944}}, {"id": 2363908, "name": "Tchamba", "country": "TG", "coord": {"lon": 1.41667, "lat": 9.03333}}, {"id": 2391377, "name": "Tchaourou", "country": "BJ", "coord": {"lon": 2.59752, "lat": 8.88649}}, {"id": 2396253, "name": "Tchibanga", "country": "GA", "coord": {"lon": 11.03333, "lat": -2.85}}, {"id": 2255148, "name": "Tchimbanmba", "country": "CG", "coord": {"lon": 11.87611, "lat": -4.82306}}, {"id": 2438974, "name": "Tchin Tabaraden", "country": "NE", "coord": {"lon": 5.7985, "lat": 15.8969}}, {"id": 2221607, "name": "Tchollire", "country": "CM", "coord": {"lon": 14.1698, "lat": 8.4022}}, {"id": 4448086, "name": "Tchula", "country": "US", "coord": {"lon": -90.222862, "lat": 33.182899}}, {"id": 7532586, "name": "Tczew", "country": "PL", "coord": {"lon": 18.781601, "lat": 54.090698}}, {"id": 3083426, "name": "Tczew", "country": "PL", "coord": {"lon": 18.77787, "lat": 54.092419}}, {"id": 756992, "name": "Tczow", "country": "PL", "coord": {"lon": 21.44677, "lat": 51.326}}, {"id": 2181625, "name": "Te Anau", "country": "NZ", "coord": {"lon": 167.716675, "lat": -45.416672}}, {"id": 2181511, "name": "Te Kauwhata", "country": "NZ", "coord": {"lon": 175.149994, "lat": -37.400002}}, {"id": 5232316, "name": "Tea", "country": "US", "coord": {"lon": -96.835876, "lat": 43.446369}}, {"id": 2147234, "name": "Tea Gardens", "country": "AU", "coord": {"lon": 152.149994, "lat": -32.666672}}, {"id": 2147229, "name": "Tea Tree", "country": "AU", "coord": {"lon": 147.316666, "lat": -42.683331}}, {"id": 7839462, "name": "Tea Tree Gully", "country": "AU", "coord": {"lon": 138.71994, "lat": -34.801708}}, {"id": 3516212, "name": "Teabo", "country": "MX", "coord": {"lon": -89.283333, "lat": 20.4}}, {"id": 665371, "name": "Teaca", "country": "RO", "coord": {"lon": 24.51667, "lat": 46.916672}}, {"id": 3815405, "name": "Teacalco", "country": "MX", "coord": {"lon": -98.306938, "lat": 19.24028}}, {"id": 3982287, "name": "Teacapan", "country": "MX", "coord": {"lon": -105.75, "lat": 22.549999}}, {"id": 4735813, "name": "Teague", "country": "US", "coord": {"lon": -96.283859, "lat": 31.62711}}, {"id": 5401254, "name": "Teagueville (historical)", "country": "US", "coord": {"lon": -119.082047, "lat": 34.408329}}, {"id": 4033543, "name": "Teahupoo", "country": "PF", "coord": {"lon": -149.266663, "lat": -17.83333}}, {"id": 2147231, "name": "Teal Point", "country": "AU", "coord": {"lon": 144.083328, "lat": -35.683331}}, {"id": 3165857, "name": "Teana", "country": "IT", "coord": {"lon": 16.151779, "lat": 40.124809}}, {"id": 5105262, "name": "Teaneck", "country": "US", "coord": {"lon": -74.015968, "lat": 40.897598}}, {"id": 3165856, "name": "Teano", "country": "IT", "coord": {"lon": 14.06652, "lat": 41.25132}}, {"id": 2110070, "name": "Teaoraereke Village", "country": "KI", "coord": {"lon": 173.011627, "lat": 1.33309}}, {"id": 3516210, "name": "Teapa", "country": "MX", "coord": {"lon": -92.949997, "lat": 17.549999}}, {"id": 785113, "name": "Tearce", "country": "MK", "coord": {"lon": 21.0525, "lat": 42.07444}}, {"id": 4952663, "name": "Teaticket", "country": "US", "coord": {"lon": -70.595863, "lat": 41.564548}}, {"id": 2060497, "name": "Teatree Gully", "country": "AU", "coord": {"lon": 138.733337, "lat": -34.816669}}, {"id": 4033514, "name": "Teavaro", "country": "PF", "coord": {"lon": -149.766663, "lat": -17.5}}, {"id": 4824451, "name": "Teays Farm", "country": "US", "coord": {"lon": -81.902634, "lat": 38.48592}}, {"id": 4824469, "name": "Teays Valley", "country": "US", "coord": {"lon": -81.929298, "lat": 38.450089}}, {"id": 6359493, "name": "Teba", "country": "ES", "coord": {"lon": -4.9059, "lat": 36.972481}}, {"id": 2510580, "name": "Teba", "country": "ES", "coord": {"lon": -4.91913, "lat": 36.983582}}, {"id": 1682559, "name": "Tebag East", "country": "PH", "coord": {"lon": 120.466003, "lat": 15.9678}}, {"id": 2510579, "name": "Tebar", "country": "ES", "coord": {"lon": -2.16667, "lat": 39.5}}, {"id": 7456058, "name": "Tebara", "country": "ID", "coord": {"lon": 119.430801, "lat": -9.6372}}, {"id": 7414947, "name": "Teber", "country": "ID", "coord": {"lon": 120.594101, "lat": -8.6562}}, {"id": 483873, "name": "Teberda", "country": "RU", "coord": {"lon": 41.744801, "lat": 43.445648}}, {"id": 2477462, "name": "Tebesbest", "country": "DZ", "coord": {"lon": 6.08333, "lat": 33.116669}}, {"id": 2477461, "name": "Tebessa", "country": "DZ", "coord": {"lon": 8.12417, "lat": 35.404171}}, {"id": 1213500, "name": "Tebingtinggi", "country": "ID", "coord": {"lon": 99.162498, "lat": 3.3285}}, {"id": 8080492, "name": "Tebluru", "country": "ID", "coord": {"lon": 112.320801, "lat": -6.9261}}, {"id": 7579474, "name": "Tebokan", "country": "ID", "coord": {"lon": 111.913696, "lat": -8.0056}}, {"id": 7035938, "name": "Tebon", "country": "ID", "coord": {"lon": 111.566803, "lat": -7.1883}}, {"id": 8011084, "name": "Tebosa", "country": "PT", "coord": {"lon": -8.48635, "lat": 41.483509}}, {"id": 2733649, "name": "Tebosa", "country": "PT", "coord": {"lon": -8.48399, "lat": 41.482521}}, {"id": 7429789, "name": "Tebuk", "country": "ID", "coord": {"lon": 122.170799, "lat": -8.6835}}, {"id": 8140982, "name": "Tebuwung", "country": "ID", "coord": {"lon": 112.439796, "lat": -6.9813}}, {"id": 3516191, "name": "Tecali de Herrera", "country": "MX", "coord": {"lon": -97.966667, "lat": 18.9}}, {"id": 3982269, "name": "Tecalitlan", "country": "MX", "coord": {"lon": -103.300003, "lat": 19.466669}}, {"id": 3516188, "name": "Tecamachalco", "country": "MX", "coord": {"lon": -97.73333, "lat": 18.883329}}, {"id": 4025707, "name": "Tecario", "country": "MX", "coord": {"lon": -101.148613, "lat": 18.70278}}, {"id": 3982266, "name": "Tecate", "country": "MX", "coord": {"lon": -116.633331, "lat": 32.566669}}, {"id": 6551927, "name": "Techelsdorf", "country": "DE", "coord": {"lon": 10.05, "lat": 54.216702}}, {"id": 2823740, "name": "Techelsdorf", "country": "DE", "coord": {"lon": 10.05, "lat": 54.216671}}, {"id": 2823738, "name": "Techentin", "country": "DE", "coord": {"lon": 11.5, "lat": 53.299999}}, {"id": 6548389, "name": "Techentin", "country": "DE", "coord": {"lon": 11.9833, "lat": 53.583302}}, {"id": 2823737, "name": "Techentin", "country": "DE", "coord": {"lon": 11.9878, "lat": 53.587311}}, {"id": 2294727, "name": "Techiman", "country": "GH", "coord": {"lon": -1.94137, "lat": 7.58616}}, {"id": 665359, "name": "Techirghiol", "country": "RO", "coord": {"lon": 28.6, "lat": 44.049999}}, {"id": 6269526, "name": "Technopark", "country": "IN", "coord": {"lon": 76.881271, "lat": 8.55836}}, {"id": 5840669, "name": "Teckla", "country": "US", "coord": {"lon": -105.349983, "lat": 43.5583}}, {"id": 2823728, "name": "Tecklenburg", "country": "DE", "coord": {"lon": 7.83333, "lat": 52.216671}}, {"id": 7287285, "name": "Tecknau", "country": "CH", "coord": {"lon": 7.88971, "lat": 47.4454}}, {"id": 2658411, "name": "Tecknau", "country": "CH", "coord": {"lon": 7.88399, "lat": 47.451321}}, {"id": 2669254, "name": "Teckomatorp", "country": "SE", "coord": {"lon": 13.08333, "lat": 55.866669}}, {"id": 3516171, "name": "Tecoanapa", "country": "MX", "coord": {"lon": -98.75, "lat": 16.51667}}, {"id": 3516168, "name": "Tecoh", "country": "MX", "coord": {"lon": -89.466667, "lat": 20.75}}, {"id": 5493952, "name": "Tecolote", "country": "US", "coord": {"lon": -105.663322, "lat": 34.017849}}, {"id": 3982217, "name": "Tecolotlan", "country": "MX", "coord": {"lon": -104.050003, "lat": 20.216669}}, {"id": 3982215, "name": "Tecolots", "country": "MX", "coord": {"lon": -114.98333, "lat": 32.566669}}, {"id": 3583009, "name": "Tecoluca", "country": "SV", "coord": {"lon": -89.00528, "lat": 13.78917}}, {"id": 3516149, "name": "Tecolutilla", "country": "MX", "coord": {"lon": -93.316673, "lat": 18.283331}}, {"id": 3516148, "name": "Tecolutla", "country": "MX", "coord": {"lon": -97.01667, "lat": 20.48333}}, {"id": 3982213, "name": "Tecoman", "country": "MX", "coord": {"lon": -103.883331, "lat": 18.91667}}, {"id": 3516139, "name": "Tecomatl\u00e1n", "country": "MX", "coord": {"lon": -98.300003, "lat": 18.1}}, {"id": 4028129, "name": "Tecom\u00e1n", "country": "MX", "coord": {"lon": -103.905563, "lat": 18.913891}}, {"id": 3064321, "name": "Tecovice", "country": "CZ", "coord": {"lon": 17.58733, "lat": 49.221069}}, {"id": 3516127, "name": "Tecozautla", "country": "MX", "coord": {"lon": -99.633331, "lat": 20.533331}}, {"id": 3588476, "name": "Tecpan Guatemala", "country": "GT", "coord": {"lon": -90.994171, "lat": 14.76694}}, {"id": 3982170, "name": "Tecpan de Galeana", "country": "MX", "coord": {"lon": -100.683327, "lat": 17.25}}, {"id": 3516125, "name": "Tecpatan", "country": "MX", "coord": {"lon": -93.300003, "lat": 17.133329}}, {"id": 3982168, "name": "Tecuala", "country": "MX", "coord": {"lon": -105.45694, "lat": 22.398609}}, {"id": 665355, "name": "Tecuci", "country": "RO", "coord": {"lon": 27.43441, "lat": 45.849731}}, {"id": 665353, "name": "Tecuciu Nou", "country": "RO", "coord": {"lon": 27.41667, "lat": 45.866669}}, {"id": 3588469, "name": "Teculutan", "country": "GT", "coord": {"lon": -89.716667, "lat": 14.98333}}, {"id": 6162416, "name": "Tecumseh", "country": "CA", "coord": {"lon": -82.899834, "lat": 42.31678}}, {"id": 6162417, "name": "Tecumseh", "country": "CA", "coord": {"lon": -82.916542, "lat": 42.25008}}, {"id": 4552820, "name": "Tecumseh", "country": "US", "coord": {"lon": -96.936691, "lat": 35.257851}}, {"id": 5011973, "name": "Tecumseh", "country": "US", "coord": {"lon": -83.944939, "lat": 42.003929}}, {"id": 5080098, "name": "Tecumseh", "country": "US", "coord": {"lon": -96.196121, "lat": 40.366669}}, {"id": 4174921, "name": "Tedder", "country": "US", "coord": {"lon": -80.122269, "lat": 26.28425}}, {"id": 2636147, "name": "Teddington", "country": "GB", "coord": {"lon": -0.33053, "lat": 51.422329}}, {"id": 6691859, "name": "Teekkarikylae", "country": "FI", "coord": {"lon": 24.83502, "lat": 60.18959}}, {"id": 2028961, "name": "Teel", "country": "MN", "coord": {"lon": 100.509171, "lat": 48.046391}}, {"id": 1489828, "name": "Teeli", "country": "RU", "coord": {"lon": 90.23333, "lat": 51.033329}}, {"id": 7779094, "name": "Teeriniemi", "country": "FI", "coord": {"lon": 21.685471, "lat": 63.096432}}, {"id": 2147197, "name": "Teesdale", "country": "AU", "coord": {"lon": 144.050003, "lat": -38.033329}}, {"id": 7872845, "name": "Teesdorf", "country": "AT", "coord": {"lon": 16.292669, "lat": 47.947849}}, {"id": 2763826, "name": "Teesdorf", "country": "AT", "coord": {"lon": 16.283331, "lat": 47.950001}}, {"id": 6162524, "name": "Teeswater", "country": "CA", "coord": {"lon": -81.286453, "lat": 43.995892}}, {"id": 3661944, "name": "Tefe", "country": "BR", "coord": {"lon": -64.711388, "lat": -3.35417}}, {"id": 2403513, "name": "Tefea", "country": "SL", "coord": {"lon": -11.21667, "lat": 8.7}}, {"id": 299499, "name": "Tefenni", "country": "TR", "coord": {"lon": 29.775379, "lat": 37.309681}}, {"id": 311708, "name": "Teffi", "country": "TR", "coord": {"lon": 41.095779, "lat": 37.55547}}, {"id": 4598379, "name": "Tega Cay", "country": "US", "coord": {"lon": -81.027847, "lat": 35.024311}}, {"id": 1624494, "name": "Tegal", "country": "ID", "coord": {"lon": 109.140198, "lat": -6.8694}}, {"id": 1624496, "name": "Tegal", "country": "ID", "coord": {"lon": 105.897202, "lat": -6.4046}}, {"id": 8078507, "name": "Tegalagung", "country": "ID", "coord": {"lon": 112.050201, "lat": -6.9137}}, {"id": 1624490, "name": "Tegalalang", "country": "ID", "coord": {"lon": 115.279198, "lat": -8.4366}}, {"id": 8056498, "name": "Tegalarum", "country": "ID", "coord": {"lon": 111.011002, "lat": -6.6103}}, {"id": 7406838, "name": "Tegalasih", "country": "ID", "coord": {"lon": 114.944901, "lat": -8.3156}}, {"id": 7852607, "name": "Tegalastana", "country": "ID", "coord": {"lon": 107.598503, "lat": -7.4866}}, {"id": 1624481, "name": "Tegalbuleud", "country": "ID", "coord": {"lon": 106.745102, "lat": -7.4259}}, {"id": 8073167, "name": "Tegaldowo", "country": "ID", "coord": {"lon": 111.503197, "lat": -6.8563}}, {"id": 7857654, "name": "Tegalgede", "country": "ID", "coord": {"lon": 107.653999, "lat": -7.4921}}, {"id": 8018847, "name": "Tegalgede", "country": "ID", "coord": {"lon": 108.001602, "lat": -7.1815}}, {"id": 8054333, "name": "Tegalgede", "country": "ID", "coord": {"lon": 108.479599, "lat": -7.1075}}, {"id": 7083111, "name": "Tegalgede Kulon", "country": "ID", "coord": {"lon": 113.722488, "lat": -8.15454}}, {"id": 8071145, "name": "Tegalgunung", "country": "ID", "coord": {"lon": 111.419502, "lat": -6.9609}}, {"id": 8058249, "name": "Tegalharjo", "country": "ID", "coord": {"lon": 111.026001, "lat": -6.6413}}, {"id": 7861214, "name": "Tegalheras", "country": "ID", "coord": {"lon": 107.065903, "lat": -7.2789}}, {"id": 7920968, "name": "Tegaljati", "country": "ID", "coord": {"lon": 107.929901, "lat": -7.1949}}, {"id": 7852800, "name": "Tegaljaya", "country": "ID", "coord": {"lon": 106.916603, "lat": -7.2124}}, {"id": 7921476, "name": "Tegallame", "country": "ID", "coord": {"lon": 107.937897, "lat": -7.0381}}, {"id": 1624470, "name": "Tegallega", "country": "ID", "coord": {"lon": 107.222397, "lat": -7.0463}}, {"id": 7852546, "name": "Tegallega", "country": "ID", "coord": {"lon": 107.560898, "lat": -7.4708}}, {"id": 7846457, "name": "Tegalloa", "country": "ID", "coord": {"lon": 106.635597, "lat": -7.277}}, {"id": 1624462, "name": "Tegalpanjang", "country": "ID", "coord": {"lon": 107.140404, "lat": -7.273}}, {"id": 7765981, "name": "Tegalpanjang", "country": "ID", "coord": {"lon": 105.829102, "lat": -6.4115}}, {"id": 7920475, "name": "Tegalpanjang", "country": "ID", "coord": {"lon": 107.983902, "lat": -7.1932}}, {"id": 7765995, "name": "Tegalpapak", "country": "ID", "coord": {"lon": 105.825401, "lat": -6.4396}}, {"id": 7034777, "name": "Tegalrejo", "country": "ID", "coord": {"lon": 112.066299, "lat": -8.1325}}, {"id": 7035370, "name": "Tegalrejo", "country": "ID", "coord": {"lon": 112.321297, "lat": -8.1125}}, {"id": 8180863, "name": "Tegalrejo", "country": "ID", "coord": {"lon": 112.951302, "lat": -8.3294}}, {"id": 1965653, "name": "Tegalsari", "country": "ID", "coord": {"lon": 112.576393, "lat": -8.16472}}, {"id": 7037726, "name": "Tegalsari", "country": "ID", "coord": {"lon": 114.287201, "lat": -8.5464}}, {"id": 7350503, "name": "Tegalsari", "country": "ID", "coord": {"lon": 113.286499, "lat": -8.1863}}, {"id": 7912108, "name": "Tegalsari", "country": "ID", "coord": {"lon": 107.831299, "lat": -7.2955}}, {"id": 8070875, "name": "Tegalsari", "country": "ID", "coord": {"lon": 111.3797, "lat": -6.8101}}, {"id": 8058079, "name": "Tegalwero", "country": "ID", "coord": {"lon": 111.167503, "lat": -6.7979}}, {"id": 6550475, "name": "Tegau", "country": "DE", "coord": {"lon": 11.8667, "lat": 50.650002}}, {"id": 2823710, "name": "Tegau", "country": "DE", "coord": {"lon": 11.86667, "lat": 50.650002}}, {"id": 2746504, "name": "Tegelen", "country": "NL", "coord": {"lon": 6.13611, "lat": 51.34417}}, {"id": 7287286, "name": "Tegerfelden", "country": "CH", "coord": {"lon": 8.28483, "lat": 47.561901}}, {"id": 2658410, "name": "Tegerfelden", "country": "CH", "coord": {"lon": 8.28914, "lat": 47.55809}}, {"id": 2823688, "name": "Tegernbach", "country": "DE", "coord": {"lon": 11.06667, "lat": 48.26667}}, {"id": 6556693, "name": "Tegernheim", "country": "DE", "coord": {"lon": 12.1833, "lat": 49.016701}}, {"id": 2823682, "name": "Tegernheim", "country": "DE", "coord": {"lon": 12.18333, "lat": 49.01667}}, {"id": 2823679, "name": "Tegernsee", "country": "DE", "coord": {"lon": 11.75271, "lat": 47.709671}}, {"id": 2823677, "name": "Tegernseeberg", "country": "DE", "coord": {"lon": 11.78333, "lat": 47.716671}}, {"id": 6537421, "name": "Teggiano", "country": "IT", "coord": {"lon": 15.54046, "lat": 40.379211}}, {"id": 3165851, "name": "Teggiano", "country": "IT", "coord": {"lon": 15.54046, "lat": 40.379211}}, {"id": 174743, "name": "Tegh", "country": "AM", "coord": {"lon": 46.47723, "lat": 39.557919}}, {"id": 1254813, "name": "Teghra", "country": "IN", "coord": {"lon": 85.949997, "lat": 25.48333}}, {"id": 2322263, "name": "Tegina", "country": "NG", "coord": {"lon": 6.1906, "lat": 10.0706}}, {"id": 1518304, "name": "Tegiszhol", "country": "KZ", "coord": {"lon": 72.75, "lat": 50.083328}}, {"id": 2823675, "name": "Tegkwitz", "country": "DE", "coord": {"lon": 12.35, "lat": 50.98333}}, {"id": 714914, "name": "Teglas", "country": "HU", "coord": {"lon": 21.683331, "lat": 47.716671}}, {"id": 3165848, "name": "Teglio", "country": "IT", "coord": {"lon": 10.06475, "lat": 46.172798}}, {"id": 3165847, "name": "Teglio Veneto", "country": "IT", "coord": {"lon": 12.88556, "lat": 45.81583}}, {"id": 3345153, "name": "Tegryn", "country": "GB", "coord": {"lon": -4.58194, "lat": 51.96833}}, {"id": 1515208, "name": "Tegsh", "country": "MN", "coord": {"lon": 95.999741, "lat": 48.75132}}, {"id": 3600951, "name": "Teguajinal", "country": "HN", "coord": {"lon": -86.599998, "lat": 15.36667}}, {"id": 3600949, "name": "Tegucigalpa", "country": "HN", "coord": {"lon": -87.20681, "lat": 14.0818}}, {"id": 6360645, "name": "Tegueste", "country": "ES", "coord": {"lon": -16.33782, "lat": 28.515369}}, {"id": 2510574, "name": "Tegueste", "country": "ES", "coord": {"lon": -16.316669, "lat": 28.51667}}, {"id": 6360194, "name": "Teguise", "country": "ES", "coord": {"lon": -13.52157, "lat": 29.182529}}, {"id": 2510573, "name": "Teguise", "country": "ES", "coord": {"lon": -13.56398, "lat": 29.06049}}, {"id": 1489822, "name": "Teguldet", "country": "RU", "coord": {"lon": 88.166672, "lat": 57.306389}}, {"id": 5401297, "name": "Tehachapi", "country": "US", "coord": {"lon": -118.448967, "lat": 35.132191}}, {"id": 5572575, "name": "Tehama County", "country": "US", "coord": {"lon": -122.301109, "lat": 40.133209}}, {"id": 112931, "name": "Tehran", "country": "IR", "coord": {"lon": 51.421509, "lat": 35.694389}}, {"id": 1254808, "name": "Tehri", "country": "IN", "coord": {"lon": 78.48333, "lat": 30.383329}}, {"id": 3516109, "name": "Tehuacan", "country": "MX", "coord": {"lon": -97.383331, "lat": 18.450001}}, {"id": 3516102, "name": "Tehuipango", "country": "MX", "coord": {"lon": -97.066673, "lat": 18.51667}}, {"id": 3516098, "name": "Tehuixtla", "country": "MX", "coord": {"lon": -99.26667, "lat": 18.549999}}, {"id": 3108116, "name": "Teia", "country": "ES", "coord": {"lon": 2.32206, "lat": 41.498039}}, {"id": 2823670, "name": "Teich", "country": "DE", "coord": {"lon": 6.96667, "lat": 52.5}}, {"id": 2823667, "name": "Teicha", "country": "DE", "coord": {"lon": 11.95, "lat": 51.566669}}, {"id": 2823653, "name": "Teichel", "country": "DE", "coord": {"lon": 11.31667, "lat": 50.783329}}, {"id": 2823636, "name": "Teichlosen", "country": "DE", "coord": {"lon": 11.01667, "lat": 53.033329}}, {"id": 2823629, "name": "Teichweiden", "country": "DE", "coord": {"lon": 11.35, "lat": 50.75}}, {"id": 6550523, "name": "Teichwitz", "country": "DE", "coord": {"lon": 12.0833, "lat": 50.75}}, {"id": 2823626, "name": "Teichwitz", "country": "DE", "coord": {"lon": 12.08333, "lat": 50.75}}, {"id": 6550524, "name": "Teichwolframsdorf", "country": "DE", "coord": {"lon": 12.25, "lat": 50.716702}}, {"id": 2823625, "name": "Teichwolframsdorf", "country": "DE", "coord": {"lon": 12.25, "lat": 50.716671}}, {"id": 7626326, "name": "Teigebyen", "country": "NO", "coord": {"lon": 11.01867, "lat": 60.22155}}, {"id": 7290678, "name": "Teignbridge District", "country": "GB", "coord": {"lon": -3.65167, "lat": 50.612}}, {"id": 2636132, "name": "Teignmouth", "country": "GB", "coord": {"lon": -3.49637, "lat": 50.54768}}, {"id": 3108246, "name": "Teijeira", "country": "ES", "coord": {"lon": -6.90908, "lat": 43.175171}}, {"id": 6440249, "name": "Teilhet", "country": "FR", "coord": {"lon": 2.81667, "lat": 46.099998}}, {"id": 2973226, "name": "Teilhet", "country": "FR", "coord": {"lon": 2.82287, "lat": 46.097481}}, {"id": 6440248, "name": "Teilh\u00e8de", "country": "FR", "coord": {"lon": 3.06667, "lat": 45.950001}}, {"id": 2973228, "name": "Teilh\u00e8de", "country": "FR", "coord": {"lon": 3.07268, "lat": 45.955299}}, {"id": 2973219, "name": "Teille", "country": "FR", "coord": {"lon": -1.2781, "lat": 47.4617}}, {"id": 6616818, "name": "Teill\u00e9", "country": "FR", "coord": {"lon": -1.279, "lat": 47.461498}}, {"id": 3108234, "name": "Teis", "country": "ES", "coord": {"lon": -8.66667, "lat": 42.26667}}, {"id": 665337, "name": "Teisani", "country": "RO", "coord": {"lon": 25.98333, "lat": 45.23333}}, {"id": 1846278, "name": "Teisen", "country": "KR", "coord": {"lon": 128.211945, "lat": 37.136108}}, {"id": 2823611, "name": "Teisendorf", "country": "DE", "coord": {"lon": 12.81667, "lat": 47.849998}}, {"id": 6556105, "name": "Teising", "country": "DE", "coord": {"lon": 12.6167, "lat": 48.233299}}, {"id": 2823608, "name": "Teising", "country": "DE", "coord": {"lon": 12.61667, "lat": 48.23333}}, {"id": 2823605, "name": "Teisnach", "country": "DE", "coord": {"lon": 13, "lat": 49.033329}}, {"id": 6427666, "name": "Teissi\u00e8res-l\u00e8s-Bouli\u00e8s", "country": "FR", "coord": {"lon": 2.55, "lat": 44.816669}}, {"id": 2973203, "name": "Teissi\u00e8res-l\u00e8s-Bouli\u00e8s", "country": "FR", "coord": {"lon": 2.54305, "lat": 44.822281}}, {"id": 6549833, "name": "Teistungen", "country": "DE", "coord": {"lon": 10.3433, "lat": 51.449902}}, {"id": 2823603, "name": "Teistungen", "country": "DE", "coord": {"lon": 10.26667, "lat": 51.466671}}, {"id": 3517801, "name": "Teitipac", "country": "MX", "coord": {"lon": -96.609169, "lat": 16.945829}}, {"id": 665328, "name": "Teiu", "country": "RO", "coord": {"lon": 25.1, "lat": 44.666672}}, {"id": 665318, "name": "Teius", "country": "RO", "coord": {"lon": 23.683331, "lat": 46.200001}}, {"id": 8011768, "name": "Teixeira", "country": "PT", "coord": {"lon": -7.93559, "lat": 40.185539}}, {"id": 2733644, "name": "Teixeira", "country": "PT", "coord": {"lon": -7.94676, "lat": 40.184292}}, {"id": 3386533, "name": "Teixeira", "country": "BR", "coord": {"lon": -37.254169, "lat": -7.22278}}, {"id": 3446665, "name": "Teixeira", "country": "BR", "coord": {"lon": -39.23333, "lat": -12.43333}}, {"id": 3446658, "name": "Teixeira Soares", "country": "BR", "coord": {"lon": -50.46056, "lat": -25.36833}}, {"id": 3969415, "name": "Teixeir\u00f3polis", "country": "BR", "coord": {"lon": -62.249439, "lat": -10.9175}}, {"id": 3108232, "name": "Teixido", "country": "ES", "coord": {"lon": -8.02699, "lat": 43.414742}}, {"id": 2733631, "name": "Teixogueira", "country": "PT", "coord": {"lon": -8.486, "lat": 40.98373}}, {"id": 8011676, "name": "Teixoso", "country": "PT", "coord": {"lon": -7.43166, "lat": 40.320332}}, {"id": 2733628, "name": "Teixoso", "country": "PT", "coord": {"lon": -7.45759, "lat": 40.31448}}, {"id": 6356300, "name": "Tei\u00e0", "country": "ES", "coord": {"lon": 2.32618, "lat": 41.499329}}, {"id": 6356613, "name": "Tejada", "country": "ES", "coord": {"lon": -3.5458, "lat": 41.950649}}, {"id": 3108228, "name": "Tejada", "country": "ES", "coord": {"lon": -3.53514, "lat": 41.952492}}, {"id": 3108225, "name": "Tejadilla", "country": "ES", "coord": {"lon": -3.82116, "lat": 41.169991}}, {"id": 6357535, "name": "Tejadillos", "country": "ES", "coord": {"lon": -1.61101, "lat": 40.142399}}, {"id": 3108222, "name": "Tejadillos", "country": "ES", "coord": {"lon": -1.63333, "lat": 40.133331}}, {"id": 6361212, "name": "Tejado", "country": "ES", "coord": {"lon": -2.3024, "lat": 41.58271}}, {"id": 3108219, "name": "Tejado", "country": "ES", "coord": {"lon": -2.26721, "lat": 41.588871}}, {"id": 8025618, "name": "Tejakalapa", "country": "ID", "coord": {"lon": 108.125198, "lat": -7.2324}}, {"id": 3516091, "name": "Tejalpa", "country": "MX", "coord": {"lon": -99.166672, "lat": 18.9}}, {"id": 3621335, "name": "Tejar", "country": "CR", "coord": {"lon": -84.233681, "lat": 9.74622}}, {"id": 3535431, "name": "Tejar la Palma", "country": "CU", "coord": {"lon": -80.416672, "lat": 22.133329}}, {"id": 3108214, "name": "Tejares", "country": "ES", "coord": {"lon": -5.69754, "lat": 40.954498}}, {"id": 2510558, "name": "Tejeda", "country": "ES", "coord": {"lon": -15.61543, "lat": 27.995081}}, {"id": 3108211, "name": "Tejeda de Tietar", "country": "ES", "coord": {"lon": -5.86953, "lat": 40.017899}}, {"id": 6356876, "name": "Tejeda de Ti\u00e9tar", "country": "ES", "coord": {"lon": -5.87045, "lat": 39.993931}}, {"id": 6360557, "name": "Tejeda y Segoyuela", "country": "ES", "coord": {"lon": -6.01434, "lat": 40.649269}}, {"id": 3108207, "name": "Tejeda y Segoyuela", "country": "ES", "coord": {"lon": -6.02311, "lat": 40.63155}}, {"id": 1218239, "name": "Tejen", "country": "TM", "coord": {"lon": 60.50544, "lat": 37.383381}}, {"id": 2510550, "name": "Tejina", "country": "ES", "coord": {"lon": -16.35873, "lat": 28.534781}}, {"id": 5493998, "name": "Tejon", "country": "US", "coord": {"lon": -105.28611, "lat": 34.58979}}, {"id": 3982121, "name": "Tejupilco de Hidalgo", "country": "MX", "coord": {"lon": -100.150002, "lat": 18.9}}, {"id": 3588460, "name": "Tejutla", "country": "GT", "coord": {"lon": -91.800003, "lat": 15.11667}}, {"id": 5080113, "name": "Tekamah", "country": "US", "coord": {"lon": -96.22113, "lat": 41.77832}}, {"id": 1254798, "name": "Tekanpur", "country": "IN", "coord": {"lon": 78.26667, "lat": 25.98333}}, {"id": 3516078, "name": "Tekanto", "country": "MX", "coord": {"lon": -89.099998, "lat": 21.01667}}, {"id": 1254797, "name": "Tekari", "country": "IN", "coord": {"lon": 84.833328, "lat": 24.933331}}, {"id": 3516076, "name": "Tekax de Alvaro Obregon", "country": "MX", "coord": {"lon": -89.283333, "lat": 20.200001}}, {"id": 1518296, "name": "Tekeli", "country": "KZ", "coord": {"lon": 78.823891, "lat": 44.830002}}, {"id": 7034673, "name": "Tekik Wetan", "country": "ID", "coord": {"lon": 111.957199, "lat": -8.2254}}, {"id": 7034674, "name": "Tekikbanyuurip", "country": "ID", "coord": {"lon": 111.950699, "lat": -8.2219}}, {"id": 738927, "name": "Tekirdag", "country": "TR", "coord": {"lon": 27.50852, "lat": 40.978008}}, {"id": 738926, "name": "Tekirda\u011f", "country": "TR", "coord": {"lon": 27.5, "lat": 41}}, {"id": 299445, "name": "Tekirova", "country": "TR", "coord": {"lon": 30.527229, "lat": 36.501701}}, {"id": 3516072, "name": "Tekit", "country": "MX", "coord": {"lon": -89.333328, "lat": 20.533331}}, {"id": 1254795, "name": "Tekkalakote", "country": "IN", "coord": {"lon": 76.883331, "lat": 15.53333}}, {"id": 1254794, "name": "Tekkali", "country": "IN", "coord": {"lon": 84.23333, "lat": 18.616671}}, {"id": 738907, "name": "Tekkekoy", "country": "TR", "coord": {"lon": 36.459999, "lat": 41.21167}}, {"id": 2823600, "name": "Teklenburg", "country": "DE", "coord": {"lon": 8.61667, "lat": 53.133331}}, {"id": 299413, "name": "Tekman", "country": "TR", "coord": {"lon": 41.507778, "lat": 39.643608}}, {"id": 1185095, "name": "Teknaf", "country": "BD", "coord": {"lon": 92.305817, "lat": 20.862431}}, {"id": 483828, "name": "Tekstil\u2019shchik", "country": "RU", "coord": {"lon": 37.844719, "lat": 55.94083}}, {"id": 1624415, "name": "Tekung", "country": "ID", "coord": {"lon": 113.279602, "lat": -8.1736}}, {"id": 293397, "name": "Tel Aviv", "country": "IL", "coord": {"lon": 34.780571, "lat": 32.080879}}, {"id": 293396, "name": "Tel Aviv District", "country": "IL", "coord": {"lon": 34.799999, "lat": 32.083328}}, {"id": 293371, "name": "Tel H\u0331anan", "country": "IL", "coord": {"lon": 35.03167, "lat": 32.774719}}, {"id": 293361, "name": "Tel Litwinsky", "country": "IL", "coord": {"lon": 34.848061, "lat": 32.05389}}, {"id": 293354, "name": "Tel Mond", "country": "IL", "coord": {"lon": 34.91737, "lat": 32.24995}}, {"id": 3600931, "name": "Tela", "country": "HN", "coord": {"lon": -87.449997, "lat": 15.78333}}, {"id": 1682537, "name": "Telabastagan", "country": "PH", "coord": {"lon": 120.616669, "lat": 15.11667}}, {"id": 7764720, "name": "Teladan", "country": "ID", "coord": {"lon": 105.8246, "lat": -6.5224}}, {"id": 1682535, "name": "Telafas", "country": "PH", "coord": {"lon": 124.974998, "lat": 6.63528}}, {"id": 7406769, "name": "Telaga", "country": "ID", "coord": {"lon": 114.9506, "lat": -8.2675}}, {"id": 8076371, "name": "Telagasari", "country": "ID", "coord": {"lon": 108.832802, "lat": -7.3065}}, {"id": 2147181, "name": "Telangatuk East", "country": "AU", "coord": {"lon": 141.966675, "lat": -37.083328}}, {"id": 2147180, "name": "Telarah", "country": "AU", "coord": {"lon": 151.533325, "lat": -32.73333}}, {"id": 756980, "name": "Telatyn", "country": "PL", "coord": {"lon": 23.83956, "lat": 50.527119}}, {"id": 611694, "name": "Telavi", "country": "GE", "coord": {"lon": 45.473148, "lat": 41.919781}}, {"id": 7667581, "name": "Telavi", "country": "GE", "coord": {"lon": 45.48333, "lat": 41.916672}}, {"id": 1682528, "name": "Telbang", "country": "PH", "coord": {"lon": 120.059174, "lat": 16.17222}}, {"id": 3064316, "name": "Telc", "country": "CZ", "coord": {"lon": 15.45275, "lat": 49.184181}}, {"id": 3516066, "name": "Telchac", "country": "MX", "coord": {"lon": -89.26667, "lat": 21.200001}}, {"id": 665304, "name": "Telciu", "country": "RO", "coord": {"lon": 24.4, "lat": 47.433331}}, {"id": 6360196, "name": "Telde", "country": "ES", "coord": {"lon": -15.41367, "lat": 27.9778}}, {"id": 2510542, "name": "Telde", "country": "ES", "coord": {"lon": -15.41915, "lat": 27.99242}}, {"id": 665290, "name": "Telega", "country": "RO", "coord": {"lon": 25.783331, "lat": 45.133331}}, {"id": 2147172, "name": "Telegraph Point", "country": "AU", "coord": {"lon": 152.800003, "lat": -31.33333}}, {"id": 3446652, "name": "Telemaco Borba", "country": "BR", "coord": {"lon": -50.615559, "lat": -24.323891}}, {"id": 3134723, "name": "Telemark fylke", "country": "NO", "coord": {"lon": 8.66667, "lat": 59.5}}, {"id": 3834542, "name": "Telen", "country": "AR", "coord": {"lon": -65.510178, "lat": -36.26429}}, {"id": 617254, "name": "Telenesti", "country": "MD", "coord": {"lon": 28.365561, "lat": 47.499722}}, {"id": 7083175, "name": "Telengsari", "country": "ID", "coord": {"lon": 113.691704, "lat": -8.1814}}, {"id": 2477255, "name": "Telerghma", "country": "DZ", "coord": {"lon": 6.35434, "lat": 36.116531}}, {"id": 6542190, "name": "Telese Terme", "country": "IT", "coord": {"lon": 14.52773, "lat": 41.217319}}, {"id": 3165842, "name": "Telese Terme", "country": "IT", "coord": {"lon": 14.52773, "lat": 41.217319}}, {"id": 665277, "name": "Telesti", "country": "RO", "coord": {"lon": 23.08333, "lat": 45}}, {"id": 483775, "name": "Telezhinka", "country": "RU", "coord": {"lon": 37.616669, "lat": 54.516666}}, {"id": 617252, "name": "Tele\u015feu", "country": "MD", "coord": {"lon": 28.708059, "lat": 47.266109}}, {"id": 7872550, "name": "Telfes im Stubai", "country": "AT", "coord": {"lon": 11.33041, "lat": 47.167511}}, {"id": 2763811, "name": "Telfes im Stubai", "country": "AT", "coord": {"lon": 11.36667, "lat": 47.166672}}, {"id": 3345439, "name": "Telford", "country": "GB", "coord": {"lon": -2.44926, "lat": 52.67659}}, {"id": 5215317, "name": "Telford", "country": "US", "coord": {"lon": -75.32795, "lat": 40.322048}}, {"id": 7872551, "name": "Telfs", "country": "AT", "coord": {"lon": 11.09741, "lat": 47.323769}}, {"id": 2763810, "name": "Telfs", "country": "AT", "coord": {"lon": 11.06667, "lat": 47.299999}}, {"id": 3165840, "name": "Telgate", "country": "IT", "coord": {"lon": 9.85166, "lat": 45.62888}}, {"id": 8070887, "name": "Telgawah", "country": "ID", "coord": {"lon": 111.454498, "lat": -6.8129}}, {"id": 6431066, "name": "Telgruc-sur-Mer", "country": "FR", "coord": {"lon": -4.35, "lat": 48.23333}}, {"id": 2973197, "name": "Telgruc-sur-Mer", "country": "FR", "coord": {"lon": -4.35, "lat": 48.23333}}, {"id": 2823590, "name": "Telgte", "country": "DE", "coord": {"lon": 7.78333, "lat": 51.98333}}, {"id": 2262725, "name": "Telhadouro", "country": "PT", "coord": {"lon": -9.31994, "lat": 39.08519}}, {"id": 2262724, "name": "Telhais", "country": "PT", "coord": {"lon": -9.05, "lat": 39.316669}}, {"id": 1254787, "name": "Telhara", "country": "IN", "coord": {"lon": 76.83889, "lat": 21.026939}}, {"id": 441867, "name": "Telharzem", "country": "TR", "coord": {"lon": 40.630562, "lat": 37.2425}}, {"id": 3616092, "name": "Telica", "country": "NI", "coord": {"lon": -86.859383, "lat": 12.522}}, {"id": 691743, "name": "Telichka", "country": "UA", "coord": {"lon": 30.566668, "lat": 50.400002}}, {"id": 2414926, "name": "Telimele", "country": "GN", "coord": {"lon": -13.03333, "lat": 10.9}}, {"id": 665268, "name": "Teliucu Inferior", "country": "RO", "coord": {"lon": 22.883329, "lat": 45.716671}}, {"id": 665267, "name": "Teliucu Mic", "country": "RO", "coord": {"lon": 22.9, "lat": 45.75}}, {"id": 3516063, "name": "Telixtac", "country": "MX", "coord": {"lon": -98.76667, "lat": 18.566669}}, {"id": 617251, "name": "Teli\u0163a", "country": "MD", "coord": {"lon": 29.30389, "lat": 46.95694}}, {"id": 3044004, "name": "Telki", "country": "HU", "coord": {"lon": 18.828159, "lat": 47.547901}}, {"id": 4265717, "name": "Tell City", "country": "US", "coord": {"lon": -86.767769, "lat": 37.951439}}, {"id": 6544066, "name": "Tellaro", "country": "IT", "coord": {"lon": 9.9458, "lat": 44.056808}}, {"id": 3108189, "name": "Telledo", "country": "ES", "coord": {"lon": -5.84505, "lat": 43.0233}}, {"id": 5875969, "name": "Teller", "country": "US", "coord": {"lon": -166.360825, "lat": 65.263611}}, {"id": 5441188, "name": "Teller County", "country": "US", "coord": {"lon": -105.167213, "lat": 38.866661}}, {"id": 6553727, "name": "Tellig", "country": "DE", "coord": {"lon": 7.25, "lat": 50.033298}}, {"id": 2823579, "name": "Tellig", "country": "DE", "coord": {"lon": 7.25, "lat": 50.033329}}, {"id": 2785794, "name": "Tellin", "country": "BE", "coord": {"lon": 5.21667, "lat": 50.083328}}, {"id": 2785793, "name": "Tellin", "country": "BE", "coord": {"lon": 5.21638, "lat": 50.080379}}, {"id": 6551384, "name": "Tellingstedt", "country": "DE", "coord": {"lon": 9.2831, "lat": 54.219799}}, {"id": 2823578, "name": "Tellingstedt", "country": "DE", "coord": {"lon": 9.28333, "lat": 54.216671}}, {"id": 6439321, "name": "Telli\u00e8res-le-Plessis", "country": "FR", "coord": {"lon": 0.4, "lat": 48.633331}}, {"id": 2973194, "name": "Telli\u00e8res-le-Plessis", "country": "FR", "coord": {"lon": 0.39345, "lat": 48.625641}}, {"id": 2823575, "name": "Tellmer", "country": "DE", "coord": {"lon": 10.30204, "lat": 53.110981}}, {"id": 3667323, "name": "Tello", "country": "CO", "coord": {"lon": -75.137779, "lat": 3.06694}}, {"id": 5441199, "name": "Telluride", "country": "US", "coord": {"lon": -107.812286, "lat": 37.937489}}, {"id": 147059, "name": "Telmankend", "country": "AZ", "coord": {"lon": 48.399021, "lat": 39.87867}}, {"id": 1515405, "name": "Telmin Suma", "country": "MN", "coord": {"lon": 97.618607, "lat": 48.64278}}, {"id": 299272, "name": "Telminar", "country": "TR", "coord": {"lon": 41.383961, "lat": 37.11092}}, {"id": 3064307, "name": "Telnice", "country": "CZ", "coord": {"lon": 16.717739, "lat": 49.101871}}, {"id": 2973192, "name": "Teloche", "country": "FR", "coord": {"lon": 0.27086, "lat": 47.888191}}, {"id": 6442752, "name": "Teloch\u00e9", "country": "FR", "coord": {"lon": 0.26667, "lat": 47.883331}}, {"id": 2733601, "name": "Teloes", "country": "PT", "coord": {"lon": -8.11101, "lat": 41.310539}}, {"id": 1735237, "name": "Telok Baharu", "country": "MY", "coord": {"lon": 103.333328, "lat": 3.8}}, {"id": 3516060, "name": "Teloloapan", "country": "MX", "coord": {"lon": -99.849998, "lat": 18.35}}, {"id": 2529019, "name": "Telouet", "country": "MA", "coord": {"lon": -7.23789, "lat": 31.28924}}, {"id": 3616088, "name": "Telpaneca", "country": "NI", "coord": {"lon": -86.287102, "lat": 13.53166}}, {"id": 593926, "name": "Telsiai", "country": "LT", "coord": {"lon": 22.247219, "lat": 55.981392}}, {"id": 3165835, "name": "Telti", "country": "IT", "coord": {"lon": 9.35283, "lat": 40.876369}}, {"id": 2823567, "name": "Teltow", "country": "DE", "coord": {"lon": 13.26667, "lat": 52.400002}}, {"id": 7780041, "name": "Teluk", "country": "ID", "coord": {"lon": 105.825203, "lat": -6.3722}}, {"id": 1735459, "name": "Teluk Intan", "country": "MY", "coord": {"lon": 101.021301, "lat": 4.0259}}, {"id": 1213493, "name": "Teluk Nibung", "country": "ID", "coord": {"lon": 99.816399, "lat": 3.001}}, {"id": 1990589, "name": "Teluknaga", "country": "ID", "coord": {"lon": 106.638062, "lat": -6.09889}}, {"id": 7036082, "name": "Telumbung", "country": "ID", "coord": {"lon": 111.708099, "lat": -7.1375}}, {"id": 6540969, "name": "Telve", "country": "IT", "coord": {"lon": 11.47959, "lat": 46.071308}}, {"id": 3165834, "name": "Telve", "country": "IT", "coord": {"lon": 11.47959, "lat": 46.071308}}, {"id": 6535568, "name": "Telve di Sopra", "country": "IT", "coord": {"lon": 11.47179, "lat": 46.071308}}, {"id": 8012660, "name": "Tel\u00f5es", "country": "PT", "coord": {"lon": -8.10445, "lat": 41.311779}}, {"id": 864483, "name": "Tel\u0161i\u0173 Apskritis", "country": "LT", "coord": {"lon": 22.16667, "lat": 56.083328}}, {"id": 2015400, "name": "Tel\u2019ma", "country": "RU", "coord": {"lon": 103.709717, "lat": 52.69833}}, {"id": 2015399, "name": "Tel\u2019mama", "country": "RU", "coord": {"lon": 113.98333, "lat": 57.633331}}, {"id": 691741, "name": "Tel\u2019manove", "country": "UA", "coord": {"lon": 38.024761, "lat": 47.409939}}, {"id": 2294700, "name": "Tema", "country": "GH", "coord": {"lon": -0.01657, "lat": 5.66698}}, {"id": 7601770, "name": "Temaiku Village", "country": "KI", "coord": {"lon": 173.162262, "lat": 1.36292}}, {"id": 3516056, "name": "Temamatla", "country": "MX", "coord": {"lon": -98.883331, "lat": 19.200001}}, {"id": 8077644, "name": "Temandangjero", "country": "ID", "coord": {"lon": 111.933502, "lat": -6.8626}}, {"id": 7333265, "name": "Temanjang", "country": "ID", "coord": {"lon": 111.392899, "lat": -7.0931}}, {"id": 3516053, "name": "Temapache", "country": "MX", "coord": {"lon": -97.633331, "lat": 21.066669}}, {"id": 6545720, "name": "Temara", "country": "MA", "coord": {"lon": -6.90704, "lat": 33.927799}}, {"id": 2529013, "name": "Temara", "country": "MA", "coord": {"lon": -6.90656, "lat": 33.928661}}, {"id": 3516050, "name": "Temascalapa", "country": "MX", "coord": {"lon": -98.900002, "lat": 19.83333}}, {"id": 3516049, "name": "Temascalcingo", "country": "MX", "coord": {"lon": -100, "lat": 19.91667}}, {"id": 3982098, "name": "Temascaltepec de Gonz\u00e1lez", "country": "MX", "coord": {"lon": -100.050003, "lat": 19.033331}}, {"id": 3516048, "name": "Temax", "country": "MX", "coord": {"lon": -88.933327, "lat": 21.15}}, {"id": 8076509, "name": "Temayang", "country": "ID", "coord": {"lon": 111.889702, "lat": -6.9039}}, {"id": 7035295, "name": "Tembalang", "country": "ID", "coord": {"lon": 112.334999, "lat": -8.0701}}, {"id": 7039034, "name": "Tembau", "country": "ID", "coord": {"lon": 115.168297, "lat": -8.4692}}, {"id": 7036130, "name": "Tembeling", "country": "ID", "coord": {"lon": 111.650703, "lat": -7.164}}, {"id": 949880, "name": "Tembisa", "country": "ZA", "coord": {"lon": 28.226801, "lat": -25.996361}}, {"id": 3626352, "name": "Temblador", "country": "VE", "coord": {"lon": -62.73333, "lat": 8.98333}}, {"id": 3778348, "name": "Temblador", "country": "VE", "coord": {"lon": -62.642159, "lat": 9.00716}}, {"id": 6361826, "name": "Tembleque", "country": "ES", "coord": {"lon": -3.52643, "lat": 39.675461}}, {"id": 2510540, "name": "Tembleque", "country": "ES", "coord": {"lon": -3.50429, "lat": 39.695412}}, {"id": 7779947, "name": "Tembol", "country": "ID", "coord": {"lon": 105.842697, "lat": -6.3221}}, {"id": 1624215, "name": "Tembong", "country": "ID", "coord": {"lon": 108.513199, "lat": -7.0039}}, {"id": 1624214, "name": "Tembongraja", "country": "ID", "coord": {"lon": 108.760002, "lat": -7.1499}}, {"id": 5401395, "name": "Temecula", "country": "US", "coord": {"lon": -117.148361, "lat": 33.493641}}, {"id": 1529144, "name": "Temeke", "country": "CN", "coord": {"lon": 89.699997, "lat": 47.23333}}, {"id": 5401408, "name": "Temelec", "country": "US", "coord": {"lon": -122.49276, "lat": 38.266579}}, {"id": 3064305, "name": "Temel\u00edn", "country": "CZ", "coord": {"lon": 14.34874, "lat": 49.192829}}, {"id": 7579480, "name": "Temenggungan", "country": "ID", "coord": {"lon": 111.982697, "lat": -8.0015}}, {"id": 253003, "name": "Temeni", "country": "GR", "coord": {"lon": 22.116671, "lat": 38.23333}}, {"id": 483710, "name": "Temenichi", "country": "RU", "coord": {"lon": 34.155819, "lat": 53.219681}}, {"id": 3189166, "name": "Temerin", "country": "RS", "coord": {"lon": 19.88917, "lat": 45.408611}}, {"id": 1735022, "name": "Temerluh", "country": "MY", "coord": {"lon": 102.417603, "lat": 3.4506}}, {"id": 7115017, "name": "Temernik", "country": "RU", "coord": {"lon": 39.74493, "lat": 47.297859}}, {"id": 3044001, "name": "Temet\u0151d\u0171l\u0151", "country": "HU", "coord": {"lon": 17.799999, "lat": 46.049999}}, {"id": 1518156, "name": "Temir", "country": "KZ", "coord": {"lon": 68.432503, "lat": 42.82}}, {"id": 608036, "name": "Temir", "country": "KZ", "coord": {"lon": 57.130001, "lat": 49.141392}}, {"id": 483699, "name": "Temiraul", "country": "RU", "coord": {"lon": 46.825401, "lat": 43.25322}}, {"id": 483696, "name": "Temirgoyevskaya", "country": "RU", "coord": {"lon": 40.28027, "lat": 45.11414}}, {"id": 1518266, "name": "Temirlanovka", "country": "KZ", "coord": {"lon": 69.263329, "lat": 42.599442}}, {"id": 1489779, "name": "Temirtau", "country": "RU", "coord": {"lon": 87.453796, "lat": 53.137699}}, {"id": 1518262, "name": "Temirtau", "country": "KZ", "coord": {"lon": 72.948334, "lat": 50.05444}}, {"id": 6162654, "name": "Temiscaming", "country": "CA", "coord": {"lon": -79.097122, "lat": 46.721218}}, {"id": 6162659, "name": "Temiskaming Shores", "country": "CA", "coord": {"lon": -79.715286, "lat": 47.493759}}, {"id": 3516035, "name": "Temixco", "country": "MX", "coord": {"lon": -99.23333, "lat": 18.85}}, {"id": 483691, "name": "Temizhbekskaya", "country": "RU", "coord": {"lon": 41.038658, "lat": 45.450779}}, {"id": 483692, "name": "Temizhbekskaya", "country": "RU", "coord": {"lon": 40.845001, "lat": 45.44556}}, {"id": 483689, "name": "Temkino", "country": "RU", "coord": {"lon": 35.013889, "lat": 55.109169}}, {"id": 6554798, "name": "Temmels", "country": "DE", "coord": {"lon": 6.46667, "lat": 49.6833}}, {"id": 2823561, "name": "Temmels", "country": "DE", "coord": {"lon": 6.46667, "lat": 49.683331}}, {"id": 3189163, "name": "Temnica", "country": "SI", "coord": {"lon": 13.6775, "lat": 45.846668}}, {"id": 483684, "name": "Temnikov", "country": "RU", "coord": {"lon": 43.214828, "lat": 54.63023}}, {"id": 726485, "name": "Temnisko", "country": "BG", "coord": {"lon": 25.66667, "lat": 43.150002}}, {"id": 3516031, "name": "Temoac", "country": "MX", "coord": {"lon": -98.783333, "lat": 18.76667}}, {"id": 3516030, "name": "Temoaya", "country": "MX", "coord": {"lon": -99.59111, "lat": 19.470831}}, {"id": 2147150, "name": "Temora", "country": "AU", "coord": {"lon": 147.533325, "lat": -34.433331}}, {"id": 2147149, "name": "Temora Municipality", "country": "AU", "coord": {"lon": 147.479172, "lat": -34.383141}}, {"id": 3516022, "name": "Temozon", "country": "MX", "coord": {"lon": -88.216667, "lat": 20.799999}}, {"id": 8070828, "name": "Tempaling", "country": "ID", "coord": {"lon": 111.447403, "lat": -6.7755}}, {"id": 5317058, "name": "Tempe", "country": "US", "coord": {"lon": -111.909309, "lat": 33.414768}}, {"id": 5317071, "name": "Tempe Junction", "country": "US", "coord": {"lon": -111.943481, "lat": 33.414211}}, {"id": 1624182, "name": "Tempeh Tengah", "country": "ID", "coord": {"lon": 113.175797, "lat": -8.2055}}, {"id": 2823553, "name": "Tempel", "country": "DE", "coord": {"lon": 12.51369, "lat": 54.264469}}, {"id": 8070844, "name": "Tempel", "country": "ID", "coord": {"lon": 111.448402, "lat": -6.7854}}, {"id": 8071179, "name": "Tempel", "country": "ID", "coord": {"lon": 111.496101, "lat": -6.9773}}, {"id": 8071144, "name": "Tempelan", "country": "ID", "coord": {"lon": 111.415604, "lat": -6.9656}}, {"id": 2823546, "name": "Tempelberg", "country": "DE", "coord": {"lon": 14.16667, "lat": 52.450001}}, {"id": 2823544, "name": "Tempelfelde", "country": "DE", "coord": {"lon": 13.71918, "lat": 52.7089}}, {"id": 8074564, "name": "Temperak", "country": "ID", "coord": {"lon": 111.679398, "lat": -6.7452}}, {"id": 5011989, "name": "Temperance", "country": "US", "coord": {"lon": -83.568817, "lat": 41.779209}}, {"id": 6539586, "name": "Tempio Pausania", "country": "IT", "coord": {"lon": 9.10352, "lat": 40.897369}}, {"id": 3165828, "name": "Tempio Pausania", "country": "IT", "coord": {"lon": 9.10352, "lat": 40.897369}}, {"id": 4735966, "name": "Temple", "country": "US", "coord": {"lon": -97.342781, "lat": 31.09823}}, {"id": 4225973, "name": "Temple", "country": "US", "coord": {"lon": -85.03244, "lat": 33.737049}}, {"id": 4552840, "name": "Temple", "country": "US", "coord": {"lon": -98.235878, "lat": 34.27203}}, {"id": 5093508, "name": "Temple", "country": "US", "coord": {"lon": -71.851471, "lat": 42.818138}}, {"id": 5215325, "name": "Temple", "country": "US", "coord": {"lon": -75.9216, "lat": 40.408699}}, {"id": 5401469, "name": "Temple City", "country": "US", "coord": {"lon": -118.057854, "lat": 34.107231}}, {"id": 4371053, "name": "Temple Hills", "country": "US", "coord": {"lon": -76.945534, "lat": 38.813999}}, {"id": 4174969, "name": "Temple Terrace", "country": "US", "coord": {"lon": -82.389259, "lat": 28.035299}}, {"id": 3306235, "name": "Templederry", "country": "IE", "coord": {"lon": -8.06167, "lat": 52.77528}}, {"id": 6438514, "name": "Templemars", "country": "FR", "coord": {"lon": 3.05, "lat": 50.566669}}, {"id": 2973188, "name": "Templemars", "country": "FR", "coord": {"lon": 3.05436, "lat": 50.573872}}, {"id": 3294131, "name": "Templemartin", "country": "IE", "coord": {"lon": -8.77972, "lat": 51.821671}}, {"id": 2961237, "name": "Templemore", "country": "IE", "coord": {"lon": -7.83389, "lat": 52.79472}}, {"id": 3315404, "name": "Templeogue", "country": "IE", "coord": {"lon": -6.30889, "lat": 53.29528}}, {"id": 3313943, "name": "Templeoran", "country": "IE", "coord": {"lon": -7.38333, "lat": 53.400829}}, {"id": 2636113, "name": "Templepatrick", "country": "GB", "coord": {"lon": -6.08333, "lat": 54.683331}}, {"id": 2060455, "name": "Templers", "country": "AU", "coord": {"lon": 138.75, "lat": -34.466671}}, {"id": 2147140, "name": "Templestowe", "country": "AU", "coord": {"lon": 145.116669, "lat": -37.75}}, {"id": 2147139, "name": "Templestowe Lower", "country": "AU", "coord": {"lon": 145.116669, "lat": -37.76667}}, {"id": 6162698, "name": "Templeton", "country": "CA", "coord": {"lon": -75.60434, "lat": 45.492901}}, {"id": 2636110, "name": "Templeton", "country": "GB", "coord": {"lon": -4.73778, "lat": 51.771938}}, {"id": 4952731, "name": "Templeton", "country": "US", "coord": {"lon": -72.067581, "lat": 42.555641}}, {"id": 5401516, "name": "Templeton", "country": "US", "coord": {"lon": -120.706001, "lat": 35.54969}}, {"id": 6438515, "name": "Templeuve", "country": "FR", "coord": {"lon": 3.16667, "lat": 50.533329}}, {"id": 2973187, "name": "Templeuve", "country": "FR", "coord": {"lon": 3.17809, "lat": 50.523361}}, {"id": 2823533, "name": "Templin", "country": "DE", "coord": {"lon": 13.5022, "lat": 53.118649}}, {"id": 3516019, "name": "Tempoal de Sanchez", "country": "MX", "coord": {"lon": -98.383331, "lat": 21.51667}}, {"id": 2636106, "name": "Tempsford", "country": "GB", "coord": {"lon": -0.29586, "lat": 52.170509}}, {"id": 8071053, "name": "Tempuran", "country": "ID", "coord": {"lon": 111.461197, "lat": -6.9116}}, {"id": 7406213, "name": "Tempurejo", "country": "ID", "coord": {"lon": 113.679298, "lat": -8.2994}}, {"id": 8180829, "name": "Tempursari", "country": "ID", "coord": {"lon": 112.979103, "lat": -8.2864}}, {"id": 7035524, "name": "Tempursari Wetan", "country": "ID", "coord": {"lon": 112.488503, "lat": -8.0522}}, {"id": 8080047, "name": "Tempursarikrajan", "country": "ID", "coord": {"lon": 112.439796, "lat": -8.3016}}, {"id": 483661, "name": "Temryuk", "country": "RU", "coord": {"lon": 37.381111, "lat": 45.272221}}, {"id": 2785779, "name": "Temse", "country": "BE", "coord": {"lon": 4.2085, "lat": 51.134541}}, {"id": 2785778, "name": "Temse", "country": "BE", "coord": {"lon": 4.21372, "lat": 51.127941}}, {"id": 483657, "name": "Temta", "country": "RU", "coord": {"lon": 45.878151, "lat": 57.489761}}, {"id": 3165826, "name": "Temu", "country": "IT", "coord": {"lon": 10.46796, "lat": 46.248699}}, {"id": 3870011, "name": "Temuco", "country": "CL", "coord": {"lon": -72.599998, "lat": -38.73333}}, {"id": 8077633, "name": "Temuji", "country": "ID", "coord": {"lon": 111.9161, "lat": -6.7919}}, {"id": 1793049, "name": "Temuli", "country": "CN", "coord": {"lon": 102.807678, "lat": 27.707951}}, {"id": 7035727, "name": "Temulus", "country": "ID", "coord": {"lon": 111.422096, "lat": -7.2185}}, {"id": 483652, "name": "Temyash\u00ebvo", "country": "RU", "coord": {"lon": 41.682499, "lat": 53.6875}}, {"id": 483650, "name": "Temyasovo", "country": "RU", "coord": {"lon": 58.101391, "lat": 52.993328}}, {"id": 483654, "name": "Tem\u2019yan\u2019", "country": "RU", "coord": {"lon": 37.357849, "lat": 54.72929}}, {"id": 4093194, "name": "Ten Broeck", "country": "US", "coord": {"lon": -85.986923, "lat": 34.41787}}, {"id": 5105296, "name": "Ten Mile Run", "country": "US", "coord": {"lon": -74.602226, "lat": 40.41301}}, {"id": 3650721, "name": "Tena", "country": "EC", "coord": {"lon": -77.816673, "lat": -0.98333}}, {"id": 3516017, "name": "Tenabo", "country": "MX", "coord": {"lon": -90.23333, "lat": 20.049999}}, {"id": 5105300, "name": "Tenafly", "country": "US", "coord": {"lon": -73.962921, "lat": 40.925381}}, {"id": 4735964, "name": "Tenaha", "country": "US", "coord": {"lon": -94.244087, "lat": 31.943781}}, {"id": 3982065, "name": "Tenamaxtlan", "country": "MX", "coord": {"lon": -104.166672, "lat": 20.216669}}, {"id": 1845759, "name": "Tenan", "country": "KR", "coord": {"lon": 127.152199, "lat": 36.806499}}, {"id": 3815451, "name": "Tenancingo", "country": "MX", "coord": {"lon": -98.180557, "lat": 19.147221}}, {"id": 3582987, "name": "Tenancingo", "country": "SV", "coord": {"lon": -88.98333, "lat": 13.83333}}, {"id": 3516006, "name": "Tenancingo de Degollado", "country": "MX", "coord": {"lon": -99.599998, "lat": 18.966669}}, {"id": 3516003, "name": "Tenango", "country": "MX", "coord": {"lon": -98.183327, "lat": 18.65}}, {"id": 3516005, "name": "Tenango", "country": "MX", "coord": {"lon": -92.416672, "lat": 16.966669}}, {"id": 3515993, "name": "Tenango de Arista", "country": "MX", "coord": {"lon": -99.593063, "lat": 19.101669}}, {"id": 3515992, "name": "Tenango de Doria", "country": "MX", "coord": {"lon": -98.216667, "lat": 20.35}}, {"id": 3515991, "name": "Tenango del Aire", "country": "MX", "coord": {"lon": -98.85128, "lat": 19.16629}}, {"id": 3492477, "name": "Tenares", "country": "DO", "coord": {"lon": -70.350868, "lat": 19.37439}}, {"id": 6424713, "name": "Tenay", "country": "FR", "coord": {"lon": 5.5, "lat": 45.916672}}, {"id": 2973183, "name": "Tenay", "country": "FR", "coord": {"lon": 5.51041, "lat": 45.918999}}, {"id": 2636105, "name": "Tenbury Wells", "country": "GB", "coord": {"lon": -2.58333, "lat": 52.299999}}, {"id": 2636104, "name": "Tenby", "country": "GB", "coord": {"lon": -4.70263, "lat": 51.67268}}, {"id": 6454150, "name": "Tence", "country": "FR", "coord": {"lon": 4.28333, "lat": 45.116669}}, {"id": 2973182, "name": "Tence", "country": "FR", "coord": {"lon": 4.29166, "lat": 45.115028}}, {"id": 6433427, "name": "Tencin", "country": "FR", "coord": {"lon": 5.96667, "lat": 45.316669}}, {"id": 2973181, "name": "Tencin", "country": "FR", "coord": {"lon": 5.95818, "lat": 45.309528}}, {"id": 3083410, "name": "Tenczynek", "country": "PL", "coord": {"lon": 19.613079, "lat": 50.119862}}, {"id": 8013791, "name": "Tendais", "country": "PT", "coord": {"lon": -8.05061, "lat": 41.016151}}, {"id": 7380413, "name": "Tendaleo", "country": "ID", "coord": {"lon": 121.7005, "lat": -8.6477}}, {"id": 6453571, "name": "Tende", "country": "FR", "coord": {"lon": 7.6, "lat": 44.083328}}, {"id": 2973180, "name": "Tende", "country": "FR", "coord": {"lon": 7.5934, "lat": 44.085709}}, {"id": 2785762, "name": "Tenderlo", "country": "BE", "coord": {"lon": 5.15, "lat": 51.166672}}, {"id": 6358033, "name": "Tendilla", "country": "ES", "coord": {"lon": -2.9513, "lat": 40.54752}}, {"id": 3108172, "name": "Tendilla", "country": "ES", "coord": {"lon": -2.95782, "lat": 40.543789}}, {"id": 2110793, "name": "Tendo", "country": "JP", "coord": {"lon": 140.36972, "lat": 38.353611}}, {"id": 7290546, "name": "Tendring District", "country": "GB", "coord": {"lon": 1.11561, "lat": 51.86311}}, {"id": 1254751, "name": "Tendukheda", "country": "IN", "coord": {"lon": 79.550003, "lat": 23.4}}, {"id": 3108169, "name": "Tenebron", "country": "ES", "coord": {"lon": -6.3545, "lat": 40.624489}}, {"id": 6360558, "name": "Tenebr\u00f3n", "country": "ES", "coord": {"lon": -6.35006, "lat": 40.601921}}, {"id": 2449938, "name": "Tenenkou", "country": "ML", "coord": {"lon": -4.9169, "lat": 14.45722}}, {"id": 3386513, "name": "Tenente Ananias", "country": "BR", "coord": {"lon": -38.179722, "lat": -6.465}}, {"id": 3446634, "name": "Tenente Portela", "country": "BR", "coord": {"lon": -53.758331, "lat": -27.371111}}, {"id": 3483503, "name": "Tenepango", "country": "MX", "coord": {"lon": -98.966667, "lat": 21.33333}}, {"id": 3982051, "name": "Teneria", "country": "MX", "coord": {"lon": -100.76667, "lat": 20.58333}}, {"id": 6385755, "name": "Tengah", "country": "ID", "coord": {"lon": 109.11306, "lat": -7.55528}}, {"id": 7377907, "name": "Tengah Satu", "country": "ID", "coord": {"lon": 117.130798, "lat": -8.4183}}, {"id": 3043984, "name": "Tengelic", "country": "HU", "coord": {"lon": 18.71117, "lat": 46.528782}}, {"id": 2823515, "name": "Tengen", "country": "DE", "coord": {"lon": 8.66117, "lat": 47.821281}}, {"id": 2823512, "name": "Tengern", "country": "DE", "coord": {"lon": 8.69894, "lat": 52.257019}}, {"id": 8073151, "name": "Tengger", "country": "ID", "coord": {"lon": 111.5438, "lat": -6.8371}}, {"id": 8074728, "name": "Tengger", "country": "ID", "coord": {"lon": 111.711502, "lat": -6.7954}}, {"id": 8076071, "name": "Tengger", "country": "ID", "coord": {"lon": 111.848602, "lat": -6.9183}}, {"id": 1985980, "name": "Tenggilis Lama", "country": "ID", "coord": {"lon": 112.762802, "lat": -7.3166}}, {"id": 7034827, "name": "Tenggong", "country": "ID", "coord": {"lon": 112.026299, "lat": -8.1567}}, {"id": 7081654, "name": "Tenggong", "country": "ID", "coord": {"lon": 112.132599, "lat": -8.1539}}, {"id": 8080497, "name": "Tenggulun", "country": "ID", "coord": {"lon": 112.336098, "lat": -6.9345}}, {"id": 7034774, "name": "Tenggur", "country": "ID", "coord": {"lon": 112.045601, "lat": -8.1322}}, {"id": 483645, "name": "Tenginka", "country": "RU", "coord": {"lon": 38.783329, "lat": 44.325829}}, {"id": 1624106, "name": "Tengirang", "country": "ID", "coord": {"lon": 113.966667, "lat": -0.98333}}, {"id": 2823509, "name": "Tengling", "country": "DE", "coord": {"lon": 12.73333, "lat": 48}}, {"id": 1793041, "name": "Tengqiao", "country": "CN", "coord": {"lon": 116.509583, "lat": 27.76149}}, {"id": 2280589, "name": "Tengrela", "country": "CI", "coord": {"lon": -6.40972, "lat": 10.48694}}, {"id": 1793039, "name": "Tengtian", "country": "CN", "coord": {"lon": 115.658669, "lat": 27.07872}}, {"id": 483642, "name": "Tengushevo", "country": "RU", "coord": {"lon": 42.718891, "lat": 54.768608}}, {"id": 1279891, "name": "Tengyue", "country": "CN", "coord": {"lon": 98.512756, "lat": 24.994921}}, {"id": 1793036, "name": "Tengzhou", "country": "CN", "coord": {"lon": 117.151756, "lat": 35.077061}}, {"id": 1793048, "name": "Tengzhou", "country": "CN", "coord": {"lon": 110.891159, "lat": 23.38806}}, {"id": 2669193, "name": "Tenhult", "country": "SE", "coord": {"lon": 14.31667, "lat": 57.716671}}, {"id": 1254745, "name": "Teni", "country": "IN", "coord": {"lon": 77.48333, "lat": 10}}, {"id": 3650709, "name": "Teniente Hugo Ortiz", "country": "EC", "coord": {"lon": -77.949997, "lat": -1.4}}, {"id": 3834514, "name": "Teniente Origone", "country": "AR", "coord": {"lon": -62.569408, "lat": -39.058689}}, {"id": 2658406, "name": "Tenigerbad", "country": "CH", "coord": {"lon": 8.95701, "lat": 46.690319}}, {"id": 6555772, "name": "Teningen", "country": "DE", "coord": {"lon": 7.81667, "lat": 48.133301}}, {"id": 2823504, "name": "Teningen", "country": "DE", "coord": {"lon": 7.81205, "lat": 48.12952}}, {"id": 5813207, "name": "Tenino", "country": "US", "coord": {"lon": -122.852913, "lat": 46.85677}}, {"id": 3189161, "name": "Tenja", "country": "HR", "coord": {"lon": 18.747219, "lat": 45.498058}}, {"id": 1850420, "name": "Tenjimmae", "country": "JP", "coord": {"lon": 134.050003, "lat": 34.333328}}, {"id": 1850418, "name": "Tenjinch\u014d", "country": "JP", "coord": {"lon": 130.399994, "lat": 33.583328}}, {"id": 3667290, "name": "Tenjo", "country": "CO", "coord": {"lon": -74.144348, "lat": 4.8727}}, {"id": 1624100, "name": "Tenjolahang Timur", "country": "ID", "coord": {"lon": 105.856102, "lat": -6.3557}}, {"id": 8052620, "name": "Tenjolaya", "country": "ID", "coord": {"lon": 108.446701, "lat": -7.7158}}, {"id": 8053668, "name": "Tenjolaya", "country": "ID", "coord": {"lon": 108.492104, "lat": -7.3235}}, {"id": 8021492, "name": "Tenjosari", "country": "ID", "coord": {"lon": 108.157303, "lat": -7.6031}}, {"id": 2354675, "name": "Tenkodogo", "country": "BF", "coord": {"lon": -0.36972, "lat": 11.78}}, {"id": 6534645, "name": "Tenna", "country": "IT", "coord": {"lon": 11.26428, "lat": 46.015701}}, {"id": 2060436, "name": "Tennant Creek", "country": "AU", "coord": {"lon": 134.199997, "lat": -19.65}}, {"id": 2823497, "name": "Tennenbronn", "country": "DE", "coord": {"lon": 8.35176, "lat": 48.190411}}, {"id": 4662168, "name": "Tennessee", "country": "US", "coord": {"lon": -86.250267, "lat": 35.750351}}, {"id": 4662170, "name": "Tennessee Ridge", "country": "US", "coord": {"lon": -87.773361, "lat": 36.312}}, {"id": 2785746, "name": "Tenneville", "country": "BE", "coord": {"lon": 5.48333, "lat": 50.083328}}, {"id": 2785745, "name": "Tenneville", "country": "BE", "coord": {"lon": 5.52894, "lat": 50.095009}}, {"id": 7626402, "name": "Tennevoll", "country": "NO", "coord": {"lon": 17.80621, "lat": 68.747101}}, {"id": 6442753, "name": "Tennie", "country": "FR", "coord": {"lon": -0.06667, "lat": 48.116669}}, {"id": 2973166, "name": "Tennie", "country": "FR", "coord": {"lon": -0.07626, "lat": 48.107689}}, {"id": 7287290, "name": "Tenniken", "country": "CH", "coord": {"lon": 7.81486, "lat": 47.432571}}, {"id": 4226031, "name": "Tennille", "country": "US", "coord": {"lon": -82.811531, "lat": 32.935989}}, {"id": 6162830, "name": "Tennion", "country": "CA", "coord": {"lon": -112.585129, "lat": 49.96674}}, {"id": 1850405, "name": "Tenno", "country": "JP", "coord": {"lon": 139.966675, "lat": 39.900002}}, {"id": 3165817, "name": "Tenno", "country": "IT", "coord": {"lon": 10.83278, "lat": 45.9188}}, {"id": 6162831, "name": "Tennycape", "country": "CA", "coord": {"lon": -63.882019, "lat": 45.26685}}, {"id": 2147091, "name": "Tennyson", "country": "AU", "coord": {"lon": 144.433334, "lat": -36.283329}}, {"id": 2147092, "name": "Tennyson", "country": "AU", "coord": {"lon": 153.016663, "lat": -27.533331}}, {"id": 3869979, "name": "Teno", "country": "CL", "coord": {"lon": -71.183327, "lat": -34.866669}}, {"id": 3515956, "name": "Tenosique de Pino Suarez", "country": "MX", "coord": {"lon": -91.433327, "lat": 17.48333}}, {"id": 1850396, "name": "Tenri", "country": "JP", "coord": {"lon": 135.833328, "lat": 34.583328}}, {"id": 3208572, "name": "Tensbuttel-Rost", "country": "DE", "coord": {"lon": 9.23333, "lat": 54.099998}}, {"id": 2823487, "name": "Tensb\u00fcttel", "country": "DE", "coord": {"lon": 9.23333, "lat": 54.116669}}, {"id": 6551400, "name": "Tensb\u00fcttel-R\u00f6st", "country": "DE", "coord": {"lon": 9.23333, "lat": 54.099998}}, {"id": 6552145, "name": "Tensfeld", "country": "DE", "coord": {"lon": 10.3167, "lat": 54.049999}}, {"id": 2823486, "name": "Tensfeld", "country": "DE", "coord": {"lon": 10.31667, "lat": 54.049999}}, {"id": 6437887, "name": "Tenteling", "country": "FR", "coord": {"lon": 6.93333, "lat": 49.116669}}, {"id": 2973164, "name": "Tenteling", "country": "FR", "coord": {"lon": 6.93692, "lat": 49.124249}}, {"id": 2510524, "name": "Tenteniguada", "country": "ES", "coord": {"lon": -15.52488, "lat": 27.98208}}, {"id": 2060433, "name": "Tenterden", "country": "AU", "coord": {"lon": 117.566673, "lat": -34.383331}}, {"id": 2636101, "name": "Tenterden", "country": "GB", "coord": {"lon": 0.68776, "lat": 51.068451}}, {"id": 2147085, "name": "Tenterfield", "country": "AU", "coord": {"lon": 152.016663, "lat": -29.049999}}, {"id": 2147083, "name": "Tenterfield Municipality", "country": "AU", "coord": {"lon": 151.998413, "lat": -28.83836}}, {"id": 7287291, "name": "Tentlingen", "country": "CH", "coord": {"lon": 7.20001, "lat": 46.76767}}, {"id": 8011859, "name": "Tent\u00fagal", "country": "PT", "coord": {"lon": -8.59381, "lat": 40.236832}}, {"id": 2733592, "name": "Tent\u00fagal", "country": "PT", "coord": {"lon": -8.58405, "lat": 40.223309}}, {"id": 3667288, "name": "Tenza", "country": "CO", "coord": {"lon": -73.420769, "lat": 5.07664}}, {"id": 1254757, "name": "Ten\u0101li", "country": "IN", "coord": {"lon": 80.639816, "lat": 16.242531}}, {"id": 6357350, "name": "Teo", "country": "ES", "coord": {"lon": -8.55973, "lat": 42.793369}}, {"id": 3108165, "name": "Teo", "country": "ES", "coord": {"lon": -8.5, "lat": 42.75}}, {"id": 3982034, "name": "Teocaltiche", "country": "MX", "coord": {"lon": -102.583328, "lat": 21.433331}}, {"id": 3515946, "name": "Teocelo", "country": "MX", "coord": {"lon": -96.966667, "lat": 19.383329}}, {"id": 3982028, "name": "Teocuitatlan de Corona", "country": "MX", "coord": {"lon": -103.400002, "lat": 20.116671}}, {"id": 3834513, "name": "Teodelina", "country": "AR", "coord": {"lon": -61.528809, "lat": -34.186878}}, {"id": 3446625, "name": "Teodoro Sampaio", "country": "BR", "coord": {"lon": -52.1675, "lat": -22.532499}}, {"id": 3446621, "name": "Teofilo Otoni", "country": "BR", "coord": {"lon": -41.50528, "lat": -17.8575}}, {"id": 691715, "name": "Teofipol\u2019", "country": "UA", "coord": {"lon": 26.41433, "lat": 49.838181}},