[{"id": 3120923, "name": "Guiz\u00e1n", "country": "ES", "coord": {"lon": -8.61667, "lat": 42.216671}}, {"id": 3108189, "name": "Telledo", "country": "ES", "coord": {"lon": -5.84505, "lat": 43.0233}}, {"id": 6360255, "name": "Vilaboa", "country": "ES", "coord": {"lon": -8.6447, "lat": 42.334911}}, {"id": 3124896, "name": "Cobres", "country": "ES", "coord": {"lon": -8.63333, "lat": 42.333328}}, {"id": 6357626, "name": "Sant Hilari Sacalm", "country": "ES", "coord": {"lon": 2.49175, "lat": 41.910938}}, {"id": 3114828, "name": "Osor", "country": "ES", "coord": {"lon": 2.55535, "lat": 41.945961}}, {"id": 3108666, "name": "Sorripas", "country": "ES", "coord": {"lon": -0.34749, "lat": 42.55397}}, {"id": 3128319, "name": "Beloso", "country": "ES", "coord": {"lon": -8.75, "lat": 42.316669}}, {"id": 2519528, "name": "Chelva", "country": "ES", "coord": {"lon": -0.99684, "lat": 39.749298}}, {"id": 6356728, "name": "Botija", "country": "ES", "coord": {"lon": -6.08623, "lat": 39.343651}}, {"id": 2520819, "name": "Botija", "country": "ES", "coord": {"lon": -6.07318, "lat": 39.344978}}, {"id": 3111019, "name": "Salinas de Ibargoiti", "country": "ES", "coord": {"lon": -1.4864, "lat": 42.692219}}, {"id": 3129592, "name": "Argote", "country": "ES", "coord": {"lon": -2.67431, "lat": 42.702621}}, {"id": 6362638, "name": "San Vitero", "country": "ES", "coord": {"lon": -6.36221, "lat": 41.779629}}, {"id": 3110530, "name": "San Juan del Rebollar", "country": "ES", "coord": {"lon": -6.35237, "lat": 41.747898}}, {"id": 2519390, "name": "Cobatillas", "country": "ES", "coord": {"lon": -1.06667, "lat": 38.049999}}, {"id": 3107312, "name": "Ulibarri", "country": "ES", "coord": {"lon": -2.24493, "lat": 42.723221}}, {"id": 6355773, "name": "Ojos-Albos", "country": "ES", "coord": {"lon": -4.51504, "lat": 40.721931}}, {"id": 3115214, "name": "Ojos-Albos", "country": "ES", "coord": {"lon": -4.51633, "lat": 40.705959}}, {"id": 3118749, "name": "La V\u00e1lgoma", "country": "ES", "coord": {"lon": -6.6666, "lat": 42.59277}}, {"id": 3115135, "name": "Olleros de Tera", "country": "ES", "coord": {"lon": -6.10165, "lat": 41.9837}}, {"id": 6356415, "name": "Cogollos", "country": "ES", "coord": {"lon": -3.70066, "lat": 42.200802}}, {"id": 3120498, "name": "Humienta", "country": "ES", "coord": {"lon": -3.67986, "lat": 42.227001}}, {"id": 6361664, "name": "Albarreal de Tajo", "country": "ES", "coord": {"lon": -4.21994, "lat": 39.88702}}, {"id": 2522231, "name": "Albarreal de Tajo", "country": "ES", "coord": {"lon": -4.22895, "lat": 39.89698}}, {"id": 3128085, "name": "Besi\u00e1ns", "country": "ES", "coord": {"lon": 0.35433, "lat": 42.282108}}, {"id": 6359846, "name": "Cualedro", "country": "ES", "coord": {"lon": -7.58193, "lat": 41.977638}}, {"id": 3124219, "name": "Cualedro", "country": "ES", "coord": {"lon": -7.59464, "lat": 41.988972}}, {"id": 3130250, "name": "Alperiz", "country": "ES", "coord": {"lon": -8.03155, "lat": 42.712051}}, {"id": 6355243, "name": "Alegr\u00eda-Dulantzi", "country": "ES", "coord": {"lon": -2.50897, "lat": 42.825851}}, {"id": 3123713, "name": "Eguileta", "country": "ES", "coord": {"lon": -2.53466, "lat": 42.809582}}, {"id": 3129562, "name": "Ar\u00ed\u00f1ez", "country": "ES", "coord": {"lon": -2.75416, "lat": 42.828018}}, {"id": 3104329, "name": "Zapar\u00edn", "country": "ES", "coord": {"lon": -8.11667, "lat": 42.216671}}, {"id": 6362859, "name": "Monreal de Ariza", "country": "ES", "coord": {"lon": -2.11157, "lat": 41.287441}}, {"id": 3116455, "name": "Monreal de Ariza", "country": "ES", "coord": {"lon": -2.10492, "lat": 41.291649}}, {"id": 3113477, "name": "Pi\u00f1eiros", "country": "ES", "coord": {"lon": -9.08909, "lat": 42.849072}}, {"id": 3116639, "name": "Moeche", "country": "ES", "coord": {"lon": -7.95, "lat": 43.549999}}, {"id": 3113434, "name": "Pino", "country": "ES", "coord": {"lon": -7.61667, "lat": 43.216671}}, {"id": 3115379, "name": "Noheda", "country": "ES", "coord": {"lon": -2.25399, "lat": 40.179741}}, {"id": 3110949, "name": "Samboal", "country": "ES", "coord": {"lon": -4.41726, "lat": 41.25758}}, {"id": 2516070, "name": "La Chica Carlota", "country": "ES", "coord": {"lon": -4.95007, "lat": 37.69875}}, {"id": 6361927, "name": "Benig\u00e1nim", "country": "ES", "coord": {"lon": -0.44535, "lat": 38.953571}}, {"id": 2522198, "name": "Alboy", "country": "ES", "coord": {"lon": -0.48838, "lat": 38.972591}}, {"id": 3109722, "name": "Santa Marta de Tera", "country": "ES", "coord": {"lon": -5.97371, "lat": 41.995178}}, {"id": 3108584, "name": "Sotopalacios", "country": "ES", "coord": {"lon": -3.6785, "lat": 42.438171}}, {"id": 6358694, "name": "Santa Marina del Rey", "country": "ES", "coord": {"lon": -5.83967, "lat": 42.493149}}, {"id": 3104765, "name": "Villavante", "country": "ES", "coord": {"lon": -5.83589, "lat": 42.46228}}, {"id": 3105481, "name": "Villal\u00eds", "country": "ES", "coord": {"lon": -6.03333, "lat": 42.316669}}, {"id": 6356342, "name": "Anguix", "country": "ES", "coord": {"lon": -3.92406, "lat": 41.752869}}, {"id": 3130014, "name": "Anguix", "country": "ES", "coord": {"lon": -3.93125, "lat": 41.753311}}, {"id": 6359007, "name": "Arnedillo", "country": "ES", "coord": {"lon": -2.23614, "lat": 42.215401}}, {"id": 3129477, "name": "Arnedillo", "country": "ES", "coord": {"lon": -2.23602, "lat": 42.212212}}, {"id": 3105695, "name": "Villacondide", "country": "ES", "coord": {"lon": -6.74699, "lat": 43.500839}}, {"id": 6357309, "name": "Laxe", "country": "ES", "coord": {"lon": -9.01299, "lat": 43.20924}}, {"id": 3125343, "name": "Cernado", "country": "ES", "coord": {"lon": -9.03333, "lat": 43.183331}}, {"id": 2514479, "name": "Los Romeros", "country": "ES", "coord": {"lon": -6.74709, "lat": 37.894718}}, {"id": 3107194, "name": "Urraca-Miguel", "country": "ES", "coord": {"lon": -4.52299, "lat": 40.67271}}, {"id": 6358715, "name": "Valdepolo", "country": "ES", "coord": {"lon": -5.21108, "lat": 42.56424}}, {"id": 3111247, "name": "Rueda del Almirante", "country": "ES", "coord": {"lon": -5.28752, "lat": 42.587372}}, {"id": 6545104, "name": "Hostafrancs", "country": "ES", "coord": {"lon": 2.14306, "lat": 41.376942}}, {"id": 6362677, "name": "Villan\u00e1zar", "country": "ES", "coord": {"lon": -5.78082, "lat": 41.968819}}, {"id": 3105327, "name": "Villanazar", "country": "ES", "coord": {"lon": -5.78043, "lat": 41.97398}}, {"id": 3107805, "name": "Torre de Obato", "country": "ES", "coord": {"lon": 0.34442, "lat": 42.233261}}, {"id": 3123983, "name": "Dad\u00edn", "country": "ES", "coord": {"lon": -8.81799, "lat": 42.438221}}, {"id": 3121720, "name": "Gallartu", "country": "ES", "coord": {"lon": -2.83714, "lat": 43.099331}}, {"id": 3104230, "name": "Zubillaga", "country": "ES", "coord": {"lon": -2.43938, "lat": 43.06078}}, {"id": 3110107, "name": "San Prudentzio", "country": "ES", "coord": {"lon": -2.44718, "lat": 43.081169}}, {"id": 3123889, "name": "Dima", "country": "ES", "coord": {"lon": -2.73333, "lat": 43.133331}}, {"id": 3107326, "name": "Ugarana", "country": "ES", "coord": {"lon": -2.75157, "lat": 43.143291}}, {"id": 6359878, "name": "Pi\u00f1or", "country": "ES", "coord": {"lon": -8.00149, "lat": 42.526772}}, {"id": 3113424, "name": "Pinor", "country": "ES", "coord": {"lon": -8.00151, "lat": 42.501202}}, {"id": 3112151, "name": "Redondo", "country": "ES", "coord": {"lon": -4.44899, "lat": 42.989471}}, {"id": 6357828, "name": "Alustante", "country": "ES", "coord": {"lon": -1.63964, "lat": 40.613579}}, {"id": 3116020, "name": "Motos", "country": "ES", "coord": {"lon": -1.6141, "lat": 40.590679}}, {"id": 3113604, "name": "Piedrafita", "country": "ES", "coord": {"lon": -6.60449, "lat": 43.01944}}, {"id": 3105380, "name": "Villamediana de la Vega", "country": "ES", "coord": {"lon": -5.8787, "lat": 42.38377}}, {"id": 6362506, "name": "Faramontanos de T\u00e1bara", "country": "ES", "coord": {"lon": -5.86447, "lat": 41.860859}}, {"id": 3109870, "name": "Santa Eulalia de T\u00e1bara", "country": "ES", "coord": {"lon": -5.84613, "lat": 41.807072}}, {"id": 6362396, "name": "Larrabetzu", "country": "ES", "coord": {"lon": -2.79343, "lat": 43.265572}}, {"id": 3118257, "name": "Llerana", "country": "ES", "coord": {"lon": -2.8, "lat": 43.26667}}, {"id": 3106360, "name": "Vecilla de Trasmonte", "country": "ES", "coord": {"lon": -5.79393, "lat": 41.994499}}, {"id": 3129338, "name": "Artavia", "country": "ES", "coord": {"lon": -2.08304, "lat": 42.73317}}, {"id": 3129345, "name": "Artaiz", "country": "ES", "coord": {"lon": -1.47033, "lat": 42.74807}}, {"id": 3123003, "name": "Escard\u00e9n", "country": "ES", "coord": {"lon": -6.55444, "lat": 43.44529}}, {"id": 3111443, "name": "Rodilana", "country": "ES", "coord": {"lon": -4.87798, "lat": 41.37059}}, {"id": 3110075, "name": "San Rom\u00e1n de la Vega", "country": "ES", "coord": {"lon": -6.02214, "lat": 42.470169}}, {"id": 6356627, "name": "Tubilla del Lago", "country": "ES", "coord": {"lon": -3.58873, "lat": 41.803322}}, {"id": 3107424, "name": "Tubilla del Lago", "country": "ES", "coord": {"lon": -3.58626, "lat": 41.80154}}, {"id": 6362524, "name": "Galende", "country": "ES", "coord": {"lon": -6.70304, "lat": 42.119251}}, {"id": 3121744, "name": "Galende", "country": "ES", "coord": {"lon": -6.66252, "lat": 42.104401}}, {"id": 3109602, "name": "Santib\u00e1\u00f1ez del Toral", "country": "ES", "coord": {"lon": -6.4, "lat": 42.633331}}, {"id": 3125917, "name": "Castellanos de Villiquera", "country": "ES", "coord": {"lon": -5.69477, "lat": 41.051392}}, {"id": 6358366, "name": "Laspa\u00fales", "country": "ES", "coord": {"lon": 0.59859, "lat": 42.482521}}, {"id": 3105876, "name": "Vilaplana", "country": "ES", "coord": {"lon": 0.60225, "lat": 42.466801}}, {"id": 2509593, "name": "Villagarcia del Llano", "country": "ES", "coord": {"lon": -1.83333, "lat": 39.316669}}, {"id": 2518149, "name": "El Romero", "country": "ES", "coord": {"lon": -1.36974, "lat": 37.714142}}, {"id": 3127869, "name": "Bolea", "country": "ES", "coord": {"lon": -0.55229, "lat": 42.259171}}, {"id": 2515133, "name": "La Vegueta", "country": "ES", "coord": {"lon": -13.65063, "lat": 29.05057}}, {"id": 2521842, "name": "Alomartes", "country": "ES", "coord": {"lon": -3.91302, "lat": 37.263531}}, {"id": 6359095, "name": "Oc\u00f3n", "country": "ES", "coord": {"lon": -2.19728, "lat": 42.305611}}, {"id": 3118846, "name": "Las Ruedas de Oc\u00f3n", "country": "ES", "coord": {"lon": -2.22103, "lat": 42.292252}}, {"id": 2509563, "name": "Villanueva de Cauche", "country": "ES", "coord": {"lon": -4.44179, "lat": 36.953629}}, {"id": 3129467, "name": "Arnois", "country": "ES", "coord": {"lon": -8.4, "lat": 42.76667}}, {"id": 3121284, "name": "Gornazo", "country": "ES", "coord": {"lon": -3.98332, "lat": 43.41309}}, {"id": 3112100, "name": "Regueral", "country": "ES", "coord": {"lon": -5.79095, "lat": 43.582821}}, {"id": 2515935, "name": "La Garapacha", "country": "ES", "coord": {"lon": -1.18399, "lat": 38.249279}}, {"id": 6360722, "name": "Santiurde de Reinosa", "country": "ES", "coord": {"lon": -4.08948, "lat": 43.064621}}, {"id": 3109562, "name": "Santiurde de Reinosa", "country": "ES", "coord": {"lon": -4.08351, "lat": 43.06144}}, {"id": 6358732, "name": "Vegas del Condado", "country": "ES", "coord": {"lon": -5.38523, "lat": 42.684669}}, {"id": 3116202, "name": "Moral del Condado", "country": "ES", "coord": {"lon": -5.39792, "lat": 42.62965}}, {"id": 3128786, "name": "Barbenuta", "country": "ES", "coord": {"lon": -0.29594, "lat": 42.59745}}, {"id": 2518677, "name": "El Bueno", "country": "ES", "coord": {"lon": -16.48506, "lat": 28.20784}}, {"id": 3115197, "name": "Ol\u00e1s", "country": "ES", "coord": {"lon": -8.3, "lat": 43.099998}}, {"id": 3104234, "name": "Zubielqui", "country": "ES", "coord": {"lon": -2.06766, "lat": 42.678902}}, {"id": 6360021, "name": "Cervatos de la Cueza", "country": "ES", "coord": {"lon": -4.78217, "lat": 42.312408}}, {"id": 3126939, "name": "Calzadilla de la Cueza", "country": "ES", "coord": {"lon": -4.80372, "lat": 42.32938}}, {"id": 3128899, "name": "Bando", "country": "ES", "coord": {"lon": -8.46667, "lat": 42.883331}}, {"id": 6357785, "name": "V\u00e1lor", "country": "ES", "coord": {"lon": -3.09421, "lat": 37.029411}}, {"id": 2509853, "name": "Valor", "country": "ES", "coord": {"lon": -3.08287, "lat": 36.996181}}, {"id": 3117033, "name": "Medeiros", "country": "ES", "coord": {"lon": -7.54383, "lat": 41.903679}}, {"id": 6359722, "name": "Morentin", "country": "ES", "coord": {"lon": -1.99378, "lat": 42.59716}}, {"id": 3116116, "name": "Morentin", "country": "ES", "coord": {"lon": -2.01393, "lat": 42.612862}}, {"id": 3111632, "name": "R\u00edoseco", "country": "ES", "coord": {"lon": -5.88298, "lat": 43.186291}}, {"id": 3125057, "name": "Zildotz", "country": "ES", "coord": {"lon": -1.66667, "lat": 42.883331}}, {"id": 3111963, "name": "Restande", "country": "ES", "coord": {"lon": -8.58333, "lat": 43.033329}}, {"id": 3130145, "name": "Amil", "country": "ES", "coord": {"lon": -8.58015, "lat": 42.53474}}, {"id": 6355524, "name": "Alcolea", "country": "ES", "coord": {"lon": -3.01237, "lat": 36.931309}}, {"id": 2519805, "name": "Caser\u00edo R\u00edo Ugijar", "country": "ES", "coord": {"lon": -3.05, "lat": 36.950001}}, {"id": 3129055, "name": "Azqueta", "country": "ES", "coord": {"lon": -2.08698, "lat": 42.635521}}, {"id": 6358585, "name": "Cand\u00edn", "country": "ES", "coord": {"lon": -6.74631, "lat": 42.836349}}, {"id": 3126616, "name": "Candin", "country": "ES", "coord": {"lon": -6.72848, "lat": 42.816952}}, {"id": 3130813, "name": "Aguillo", "country": "ES", "coord": {"lon": -2.63767, "lat": 42.737942}}, {"id": 6357325, "name": "Negreira", "country": "ES", "coord": {"lon": -8.8051, "lat": 42.91095}}, {"id": 3104283, "name": "Z\u00e1s", "country": "ES", "coord": {"lon": -8.76667, "lat": 42.916672}}, {"id": 6358751, "name": "Villarejo de \u00d3rbigo", "country": "ES", "coord": {"lon": -5.9126, "lat": 42.43285}}, {"id": 3104648, "name": "Villor\u00eda de \u00d3rbigo", "country": "ES", "coord": {"lon": -5.88075, "lat": 42.410561}}, {"id": 3123461, "name": "El Herrad\u00f3n", "country": "ES", "coord": {"lon": -4.55921, "lat": 40.56485}}, {"id": 3124419, "name": "Cos", "country": "ES", "coord": {"lon": -4.22395, "lat": 43.289532}}, {"id": 6360820, "name": "Fuente el Olmo de Fuentidue\u00f1a", "country": "ES", "coord": {"lon": -3.98607, "lat": 41.401981}}, {"id": 3121929, "name": "Fuente el Olmo de Fuentiduena", "country": "ES", "coord": {"lon": -4.00086, "lat": 41.379292}}, {"id": 3121425, "name": "Gijano", "country": "ES", "coord": {"lon": -3.24509, "lat": 43.16087}}, {"id": 6358354, "name": "Igri\u00e9s", "country": "ES", "coord": {"lon": -0.43026, "lat": 42.20705}}, {"id": 3104421, "name": "Y\u00e9queda", "country": "ES", "coord": {"lon": -0.43578, "lat": 42.184399}}, {"id": 3106046, "name": "Vicolozano", "country": "ES", "coord": {"lon": -4.63259, "lat": 40.681561}}, {"id": 6356603, "name": "Sasam\u00f3n", "country": "ES", "coord": {"lon": -4.04142, "lat": 42.4175}}, {"id": 3109344, "name": "Sasamon", "country": "ES", "coord": {"lon": -4.04288, "lat": 42.41687}}, {"id": 6359825, "name": "Ba\u00f1os de Molgas", "country": "ES", "coord": {"lon": -7.68168, "lat": 42.231159}}, {"id": 3106030, "name": "Vide", "country": "ES", "coord": {"lon": -7.66, "lat": 42.225658}}, {"id": 6360226, "name": "Lama (A)", "country": "ES", "coord": {"lon": -8.41513, "lat": 42.41328}}, {"id": 3128726, "name": "Barcia", "country": "ES", "coord": {"lon": -8.36282, "lat": 42.468891}}, {"id": 3114764, "name": "Oto", "country": "ES", "coord": {"lon": -0.12815, "lat": 42.5989}}, {"id": 3113575, "name": "Pieragullano", "country": "ES", "coord": {"lon": -3.43333, "lat": 43.349998}}, {"id": 6355274, "name": "Pe\u00f1acerrada-Urizaharra", "country": "ES", "coord": {"lon": -2.7029, "lat": 42.642078}}, {"id": 3114178, "name": "Payueta", "country": "ES", "coord": {"lon": -2.72701, "lat": 42.65176}}, {"id": 3108673, "name": "Sorriba", "country": "ES", "coord": {"lon": -6.45143, "lat": 43.28582}}, {"id": 2514152, "name": "Marchuquera", "country": "ES", "coord": {"lon": -0.24273, "lat": 38.991241}}, {"id": 3107343, "name": "Uchara\u00edn", "country": "ES", "coord": {"lon": -2.81572, "lat": 43.201431}}, {"id": 6360677, "name": "Guriezo", "country": "ES", "coord": {"lon": -3.2906, "lat": 43.3283}}, {"id": 3119350, "name": "Landeral", "country": "ES", "coord": {"lon": -3.33212, "lat": 43.335838}}, {"id": 6358156, "name": "Leintz-Gatzaga", "country": "ES", "coord": {"lon": -2.56855, "lat": 42.976231}}, {"id": 3120348, "name": "Inurrieta", "country": "ES", "coord": {"lon": -2.57808, "lat": 42.970661}}, {"id": 6325014, "name": "Goiherri", "country": "ES", "coord": {"lon": -2.57167, "lat": 42.972191}}, {"id": 3109215, "name": "Sela", "country": "ES", "coord": {"lon": -8.35, "lat": 42.099998}}, {"id": 3115911, "name": "Mu\u00f1ecas", "country": "ES", "coord": {"lon": -3.17004, "lat": 41.771099}}, {"id": 3110163, "name": "San Pedro de las Due\u00f1as", "country": "ES", "coord": {"lon": -4.31628, "lat": 40.85672}}, {"id": 3120250, "name": "Iturgoyen", "country": "ES", "coord": {"lon": -1.95436, "lat": 42.776131}}, {"id": 6360315, "name": "Cabaco (El)", "country": "ES", "coord": {"lon": -6.14535, "lat": 40.566368}}, {"id": 3123617, "name": "El Cabaco", "country": "ES", "coord": {"lon": -6.12848, "lat": 40.565521}}, {"id": 3105491, "name": "Villaldav\u00edn", "country": "ES", "coord": {"lon": -4.57209, "lat": 42.15976}}, {"id": 6358512, "name": "Montiz\u00f3n", "country": "ES", "coord": {"lon": -3.09823, "lat": 38.373539}}, {"id": 2522069, "name": "Aldeahermosa", "country": "ES", "coord": {"lon": -3.12694, "lat": 38.32901}}, {"id": 3117085, "name": "Mazaira", "country": "ES", "coord": {"lon": -7.37318, "lat": 42.403919}}, {"id": 2522378, "name": "Aguamansa", "country": "ES", "coord": {"lon": -16.49634, "lat": 28.358669}}, {"id": 3105993, "name": "Viella", "country": "ES", "coord": {"lon": -5.7801, "lat": 43.393139}}, {"id": 3118428, "name": "Lillo", "country": "ES", "coord": {"lon": -5.86667, "lat": 43.383331}}, {"id": 3123933, "name": "D\u00e9lica", "country": "ES", "coord": {"lon": -2.98794, "lat": 42.969608}}, {"id": 3109444, "name": "San Vicente del Monte", "country": "ES", "coord": {"lon": -4.30578, "lat": 43.287231}}, {"id": 3112396, "name": "Quireza", "country": "ES", "coord": {"lon": -8.43333, "lat": 42.566669}}, {"id": 3129852, "name": "Arans\u00eds", "country": "ES", "coord": {"lon": 0.95521, "lat": 42.086159}}, {"id": 3112569, "name": "Quil\u00f3s", "country": "ES", "coord": {"lon": -6.72243, "lat": 42.631691}}, {"id": 3123304, "name": "El Raso", "country": "ES", "coord": {"lon": -5.33926, "lat": 40.17062}}, {"id": 2565176, "name": "El Torviscal", "country": "ES", "coord": {"lon": -5.85628, "lat": 37.08419}}, {"id": 3115942, "name": "Mugares", "country": "ES", "coord": {"lon": -7.93337, "lat": 42.325809}}, {"id": 3110352, "name": "San Mart\u00edn de Lod\u00f3n", "country": "ES", "coord": {"lon": -6.2, "lat": 43.349998}}, {"id": 6358176, "name": "Gaztelu", "country": "ES", "coord": {"lon": -2.02041, "lat": 43.100689}}, {"id": 3121498, "name": "Gaztelu", "country": "ES", "coord": {"lon": -2.02439, "lat": 43.116219}}, {"id": 3126064, "name": "Casas de Maripedro", "country": "ES", "coord": {"lon": -5.57675, "lat": 40.310799}}, {"id": 2521911, "name": "Almayate Bajo", "country": "ES", "coord": {"lon": -4.12919, "lat": 36.731461}}, {"id": 3124701, "name": "Conchel", "country": "ES", "coord": {"lon": 0.14407, "lat": 41.883141}}, {"id": 6356609, "name": "Sotresgudo", "country": "ES", "coord": {"lon": -4.2101, "lat": 42.600231}}, {"id": 3130189, "name": "Amaya", "country": "ES", "coord": {"lon": -4.16279, "lat": 42.642799}}, {"id": 6360778, "name": "Caba\u00f1as de Polendos", "country": "ES", "coord": {"lon": -4.10385, "lat": 41.047321}}, {"id": 3117199, "name": "Mata de Quintanar", "country": "ES", "coord": {"lon": -4.11113, "lat": 41.027031}}, {"id": 3120430, "name": "Igeldo", "country": "ES", "coord": {"lon": -2.03643, "lat": 43.308819}}, {"id": 6325033, "name": "Igara", "country": "ES", "coord": {"lon": -2.0126, "lat": 43.301552}}, {"id": 6359990, "name": "Astudillo", "country": "ES", "coord": {"lon": -4.29256, "lat": 42.193039}}, {"id": 3129225, "name": "Astudillo", "country": "ES", "coord": {"lon": -4.29394, "lat": 42.193298}}, {"id": 3109437, "name": "San Vicente de Villamez\u00e1n", "country": "ES", "coord": {"lon": -3.92932, "lat": 42.979801}}, {"id": 6358741, "name": "Villama\u00f1\u00e1n", "country": "ES", "coord": {"lon": -5.60159, "lat": 42.339649}}, {"id": 3128299, "name": "Benamariel", "country": "ES", "coord": {"lon": -5.5661, "lat": 42.363499}}, {"id": 3117541, "name": "Manjoya", "country": "ES", "coord": {"lon": -5.83333, "lat": 43.349998}}, {"id": 3115066, "name": "Onamio", "country": "ES", "coord": {"lon": -6.49862, "lat": 42.55862}}, {"id": 6355566, "name": "Illar", "country": "ES", "coord": {"lon": -2.64056, "lat": 36.986881}}, {"id": 2516456, "name": "Illar", "country": "ES", "coord": {"lon": -2.63871, "lat": 36.985619}}, {"id": 6358614, "name": "Ercina (La)", "country": "ES", "coord": {"lon": -5.22964, "lat": 42.792301}}, {"id": 3119781, "name": "La Ercina", "country": "ES", "coord": {"lon": -5.2184, "lat": 42.81348}}, {"id": 6358662, "name": "Puebla de Lillo", "country": "ES", "coord": {"lon": -5.28063, "lat": 43.033272}}, {"id": 3112786, "name": "Puebla de Lillo", "country": "ES", "coord": {"lon": -5.27387, "lat": 43.006908}}, {"id": 6358411, "name": "Santa Cruz de la Ser\u00f3s", "country": "ES", "coord": {"lon": -0.68367, "lat": 42.535938}}, {"id": 3109929, "name": "Santa Cruz de la Seros", "country": "ES", "coord": {"lon": -0.67515, "lat": 42.522701}}, {"id": 6361586, "name": "Perales del Alfambra", "country": "ES", "coord": {"lon": -0.9591, "lat": 40.632381}}, {"id": 3113805, "name": "Perales del Alfambra", "country": "ES", "coord": {"lon": -1.00181, "lat": 40.633831}}, {"id": 6355389, "name": "Algue\u00f1a", "country": "ES", "coord": {"lon": -0.99899, "lat": 38.35281}}, {"id": 2518154, "name": "El Rodriguillo", "country": "ES", "coord": {"lon": -1.04759, "lat": 38.365452}}, {"id": 6356623, "name": "T\u00f3rtoles de Esgueva", "country": "ES", "coord": {"lon": -4.02093, "lat": 41.82777}}, {"id": 3107680, "name": "T\u00f3rtoles del Esgueva", "country": "ES", "coord": {"lon": -4.024, "lat": 41.816109}}, {"id": 6356670, "name": "Villang\u00f3mez", "country": "ES", "coord": {"lon": -3.76954, "lat": 42.190472}}, {"id": 3105321, "name": "Villangomez", "country": "ES", "coord": {"lon": -3.77419, "lat": 42.179611}}, {"id": 6358431, "name": "Torres de Alcanadre", "country": "ES", "coord": {"lon": -0.10178, "lat": 41.95499}}, {"id": 3113798, "name": "Peralta de Alcofea", "country": "ES", "coord": {"lon": -0.0677, "lat": 41.93153}}, {"id": 3127764, "name": "Bostronizo", "country": "ES", "coord": {"lon": -4.04765, "lat": 43.205528}}, {"id": 3125999, "name": "Caso", "country": "ES", "coord": {"lon": -5.35, "lat": 43.183331}}, {"id": 3126777, "name": "Campo de Caso", "country": "ES", "coord": {"lon": -5.34476, "lat": 43.183102}}, {"id": 2516821, "name": "Hacienda de Tarazona", "country": "ES", "coord": {"lon": -5.82328, "lat": 37.423309}}, {"id": 6358575, "name": "Bur\u00f3n", "country": "ES", "coord": {"lon": -5.04985, "lat": 43.06786}}, {"id": 3124133, "name": "Cu\u00e9nabres", "country": "ES", "coord": {"lon": -4.98909, "lat": 43.066181}}, {"id": 3114951, "name": "Oricin", "country": "ES", "coord": {"lon": -1.61825, "lat": 42.64444}}, {"id": 3114160, "name": "Pazos de Borben", "country": "ES", "coord": {"lon": -8.53333, "lat": 42.283329}}, {"id": 3116050, "name": "Moscoso", "country": "ES", "coord": {"lon": -8.5, "lat": 42.316669}}, {"id": 6358480, "name": "Chiclana de Segura", "country": "ES", "coord": {"lon": -2.96956, "lat": 38.351768}}, {"id": 2519512, "name": "Chiclana de Segura", "country": "ES", "coord": {"lon": -3.04219, "lat": 38.311871}}, {"id": 3108452, "name": "Tabeir\u00f3s", "country": "ES", "coord": {"lon": -8.45938, "lat": 42.659359}}, {"id": 2510882, "name": "Silillos", "country": "ES", "coord": {"lon": -5.12791, "lat": 37.694439}}, {"id": 6360337, "name": "Carrascal del Obispo", "country": "ES", "coord": {"lon": -5.99921, "lat": 40.771332}}, {"id": 3117156, "name": "Matas Altas", "country": "ES", "coord": {"lon": -5.93242, "lat": 40.807529}}, {"id": 3109198, "name": "Sello", "country": "ES", "coord": {"lon": -8.11667, "lat": 42.716671}}, {"id": 6359692, "name": "Larraun", "country": "ES", "coord": {"lon": -1.90171, "lat": 43.00383}}, {"id": 3130534, "name": "Aldatz", "country": "ES", "coord": {"lon": -1.86004, "lat": 43.00935}}, {"id": 6358944, "name": "Talavera", "country": "ES", "coord": {"lon": 1.35438, "lat": 41.593079}}, {"id": 3109713, "name": "Sant Antol\u00ed i Vilanova", "country": "ES", "coord": {"lon": 1.35, "lat": 41.616669}}, {"id": 3127593, "name": "Brull\u00e9s", "country": "ES", "coord": {"lon": -3.92343, "lat": 42.566029}}, {"id": 2518085, "name": "El Tejar", "country": "ES", "coord": {"lon": -4.5462, "lat": 37.237999}}, {"id": 6269610, "name": "Yerri", "country": "ES", "coord": {"lon": -1.93806, "lat": 42.701611}}, {"id": 3111482, "name": "Rocamundo", "country": "ES", "coord": {"lon": -3.94033, "lat": 42.806412}}, {"id": 3128446, "name": "Beade", "country": "ES", "coord": {"lon": -8.7, "lat": 42.200001}}, {"id": 3111140, "name": "Sagides", "country": "ES", "coord": {"lon": -2.27748, "lat": 41.149681}}, {"id": 6355808, "name": "San Juan de la Encinilla", "country": "ES", "coord": {"lon": -4.82928, "lat": 40.822529}}, {"id": 3111691, "name": "Riocavado", "country": "ES", "coord": {"lon": -4.8043, "lat": 40.831402}}, {"id": 3122815, "name": "Espu\u00e9ndolas", "country": "ES", "coord": {"lon": -0.43087, "lat": 42.562851}}, {"id": 3130882, "name": "Aguascaldas", "country": "ES", "coord": {"lon": 0.44364, "lat": 42.413921}}, {"id": 3129933, "name": "Aparral", "country": "ES", "coord": {"lon": -7.81667, "lat": 43.416672}}, {"id": 3109210, "name": "Sel de la Carrera", "country": "ES", "coord": {"lon": -3.92658, "lat": 43.14473}}, {"id": 3120758, "name": "Hijona", "country": "ES", "coord": {"lon": -2.5469, "lat": 42.815601}}, {"id": 6361515, "name": "Formiche Alto", "country": "ES", "coord": {"lon": -0.87968, "lat": 40.319939}}, {"id": 3122223, "name": "Formiche Alto", "country": "ES", "coord": {"lon": -0.89241, "lat": 40.323669}}, {"id": 2516105, "name": "La Ca\u00f1ada de San Urbano", "country": "ES", "coord": {"lon": -2.40601, "lat": 36.840199}}, {"id": 3105460, "name": "Villalquite", "country": "ES", "coord": {"lon": -5.31333, "lat": 42.538952}}, {"id": 3122962, "name": "Escuadra", "country": "ES", "coord": {"lon": -8.41667, "lat": 42.433331}}, {"id": 3124005, "name": "Curro", "country": "ES", "coord": {"lon": -8.67594, "lat": 42.506649}}, {"id": 3112089, "name": "Regules", "country": "ES", "coord": {"lon": -3.50395, "lat": 43.202259}}, {"id": 6534087, "name": "Mont-ras", "country": "ES", "coord": {"lon": 3.15932, "lat": 41.889778}}, {"id": 3116248, "name": "Mont-ras", "country": "ES", "coord": {"lon": 3.15, "lat": 41.900002}}, {"id": 6358373, "name": "Montanuy", "country": "ES", "coord": {"lon": 0.68843, "lat": 42.552719}}, {"id": 3116422, "name": "Montanui", "country": "ES", "coord": {"lon": 0.6942, "lat": 42.46545}}, {"id": 3123195, "name": "Empalme", "country": "ES", "coord": {"lon": -7.86667, "lat": 42.416672}}, {"id": 3125679, "name": "Castrocontrigo", "country": "ES", "coord": {"lon": -6.19022, "lat": 42.183632}}, {"id": 6358260, "name": "Aisa", "country": "ES", "coord": {"lon": -0.58998, "lat": 42.719219}}, {"id": 3130768, "name": "A\u00edsa", "country": "ES", "coord": {"lon": -0.62038, "lat": 42.679661}}, {"id": 6357351, "name": "Tordoia", "country": "ES", "coord": {"lon": -8.54182, "lat": 43.086182}}, {"id": 3118534, "name": "Leobalde", "country": "ES", "coord": {"lon": -8.46667, "lat": 43.033329}}, {"id": 3122998, "name": "Escarrilla", "country": "ES", "coord": {"lon": -0.3132, "lat": 42.735352}}, {"id": 6362319, "name": "Villabr\u00e1gima", "country": "ES", "coord": {"lon": -5.10587, "lat": 41.840698}}, {"id": 3105738, "name": "Villabragima", "country": "ES", "coord": {"lon": -5.11546, "lat": 41.821781}}, {"id": 3129088, "name": "Azadinos", "country": "ES", "coord": {"lon": -5.61661, "lat": 42.637211}}, {"id": 6359053, "name": "Fonzaleche", "country": "ES", "coord": {"lon": -3.00067, "lat": 42.58971}}, {"id": 3104833, "name": "Villaseca", "country": "ES", "coord": {"lon": -2.97863, "lat": 42.598438}}, {"id": 3111013, "name": "Salinas de Pamplona", "country": "ES", "coord": {"lon": -1.65024, "lat": 42.753422}}, {"id": 3119937, "name": "Labrada", "country": "ES", "coord": {"lon": -7.88333, "lat": 43.299999}}, {"id": 3118425, "name": "Limanes", "country": "ES", "coord": {"lon": -5.78333, "lat": 43.366669}}, {"id": 3129112, "name": "Ayera", "country": "ES", "coord": {"lon": -0.29954, "lat": 42.175381}}, {"id": 3109435, "name": "San Victori\u00e1n", "country": "ES", "coord": {"lon": 0.23333, "lat": 42.466671}}, {"id": 2516346, "name": "J\u00e1tar", "country": "ES", "coord": {"lon": -3.91149, "lat": 36.93499}}, {"id": 3129078, "name": "Azarrulla", "country": "ES", "coord": {"lon": -3.0315, "lat": 42.265911}}, {"id": 2517414, "name": "Galiana", "country": "ES", "coord": {"lon": -2.76358, "lat": 36.771069}}, {"id": 3129250, "name": "Aspuru", "country": "ES", "coord": {"lon": -2.44761, "lat": 42.91153}}, {"id": 2517924, "name": "Esfiliana", "country": "ES", "coord": {"lon": -3.10218, "lat": 37.2672}}, {"id": 3119807, "name": "Lada", "country": "ES", "coord": {"lon": -5.70733, "lat": 43.302429}}, {"id": 3118427, "name": "Lillo del Bierzo", "country": "ES", "coord": {"lon": -6.61251, "lat": 42.785259}}, {"id": 3107981, "name": "Toral de Fondo", "country": "ES", "coord": {"lon": -5.95042, "lat": 42.353298}}, {"id": 3130763, "name": "Aizarna", "country": "ES", "coord": {"lon": -2.22613, "lat": 43.23447}}, {"id": 3572374, "name": "City of Freeport District", "country": "BS", "coord": {"lon": -78.645279, "lat": 26.520281}}, {"id": 3572375, "name": "Freeport", "country": "BS", "coord": {"lon": -78.699997, "lat": 26.533331}}, {"id": 3571912, "name": "Marsh Harbour District", "country": "BS", "coord": {"lon": -77.166672, "lat": 26.4}}, {"id": 3571913, "name": "Marsh Harbour", "country": "BS", "coord": {"lon": -77.063599, "lat": 26.541241}}, {"id": 8030559, "name": "West Grand Bahama District", "country": "BS", "coord": {"lon": -78.600563, "lat": 26.59333}}, {"id": 3571224, "name": "West End", "country": "BS", "coord": {"lon": -78.966667, "lat": 26.683331}}, {"id": 8030555, "name": "South Abaco District", "country": "BS", "coord": {"lon": -77.243607, "lat": 26.04694}}, {"id": 3571500, "name": "Sandy Point", "country": "BS", "coord": {"lon": -77.400002, "lat": 26.01667}}, {"id": 3572154, "name": "Inagua District", "country": "BS", "coord": {"lon": -73.311668, "lat": 21.076941}}, {"id": 3571898, "name": "Matthew Town", "country": "BS", "coord": {"lon": -73.666672, "lat": 20.950001}}, {"id": 3577815, "name": "Saint Vincent and the Grenadines", "country": "VC", "coord": {"lon": -61.200001, "lat": 13.08333}}, {"id": 3870011, "name": "Temuco", "country": "CL", "coord": {"lon": -72.599998, "lat": -38.73333}}, {"id": 3882434, "name": "Los Andes", "country": "CL", "coord": {"lon": -70.598267, "lat": -32.833691}}, {"id": 3870282, "name": "Talcahuano", "country": "CL", "coord": {"lon": -73.116669, "lat": -36.716671}}, {"id": 3897347, "name": "Calama", "country": "CL", "coord": {"lon": -68.933327, "lat": -22.466669}}, {"id": 3899539, "name": "Antofagasta", "country": "CL", "coord": {"lon": -70.400002, "lat": -23.65}}, {"id": 3890484, "name": "El Rosal", "country": "CL", "coord": {"lon": -72.333328, "lat": -35.916672}}, {"id": 3893623, "name": "Regi\u00f3n de Coquimbo", "country": "CL", "coord": {"lon": -71, "lat": -30.75}}, {"id": 3884373, "name": "La Serena", "country": "CL", "coord": {"lon": -71.254173, "lat": -29.90778}}, {"id": 3888214, "name": "Hacienda La Calera", "country": "CL", "coord": {"lon": -71.216667, "lat": -32.783329}}, {"id": 3868623, "name": "Provincia de Valpara\u00edso", "country": "CL", "coord": {"lon": -71.416672, "lat": -33.166672}}, {"id": 3874096, "name": "Quilpue", "country": "CL", "coord": {"lon": -71.44944, "lat": -33.044998}}, {"id": 3872255, "name": "San Felipe", "country": "CL", "coord": {"lon": -70.73333, "lat": -32.75}}, {"id": 3893629, "name": "Coquimbo", "country": "CL", "coord": {"lon": -71.343613, "lat": -29.953329}}, {"id": 3882428, "name": "Los Angeles", "country": "CL", "coord": {"lon": -72.349998, "lat": -37.466671}}, {"id": 3872240, "name": "San Fernando", "country": "CL", "coord": {"lon": -70.650002, "lat": -32.75}}, {"id": 3893656, "name": "Copiapo", "country": "CL", "coord": {"lon": -70.333328, "lat": -27.366671}}, {"id": 3874787, "name": "Punta Arenas", "country": "CL", "coord": {"lon": -70.916672, "lat": -53.150002}}, {"id": 3877949, "name": "Osorno", "country": "CL", "coord": {"lon": -73.150002, "lat": -40.566669}}, {"id": 3899629, "name": "Angol", "country": "CL", "coord": {"lon": -72.716667, "lat": -37.799999}}, {"id": 3874612, "name": "Pur\u00e9n", "country": "CL", "coord": {"lon": -73.083328, "lat": -38.01667}}, {"id": 3868158, "name": "Villarrica", "country": "CL", "coord": {"lon": -72.227898, "lat": -39.28569}}, {"id": 3891085, "name": "El Manzano", "country": "CL", "coord": {"lon": -71.400002, "lat": -34.183331}}, {"id": 3883167, "name": "Linares", "country": "CL", "coord": {"lon": -71.599998, "lat": -35.849998}}, {"id": 3892454, "name": "Diego de Almagro", "country": "CL", "coord": {"lon": -70.050003, "lat": -26.366671}}, {"id": 3876682, "name": "Pe\u00f1alol\u00e9n", "country": "CL", "coord": {"lon": -70.533333, "lat": -33.48333}}, {"id": 3894242, "name": "Colina", "country": "CL", "coord": {"lon": -70.683327, "lat": -33.200001}}, {"id": 3868044, "name": "Vitacura", "country": "CL", "coord": {"lon": -70.599998, "lat": -33.400002}}, {"id": 3874212, "name": "Quilicura", "country": "CL", "coord": {"lon": -70.75, "lat": -33.366669}}, {"id": 3881068, "name": "Macul", "country": "CL", "coord": {"lon": -70.566673, "lat": -33.5}}, {"id": 3893865, "name": "Conc\u00f3n", "country": "CL", "coord": {"lon": -71.51619, "lat": -32.922031}}, {"id": 3893726, "name": "Constitucion", "country": "CL", "coord": {"lon": -72.416672, "lat": -35.333328}}, {"id": 3879708, "name": "Miramar", "country": "CL", "coord": {"lon": -71.566673, "lat": -33.033329}}, {"id": 3899695, "name": "Ancud", "country": "CL", "coord": {"lon": -73.820282, "lat": -41.86972}}, {"id": 3897774, "name": "Buin", "country": "CL", "coord": {"lon": -70.75, "lat": -33.73333}}, {"id": 3877739, "name": "Paine", "country": "CL", "coord": {"lon": -70.75, "lat": -33.816669}}, {"id": 3873775, "name": "Rancagua", "country": "CL", "coord": {"lon": -70.744438, "lat": -34.17083}}, {"id": 3885273, "name": "Lampa", "country": "CL", "coord": {"lon": -70.900002, "lat": -33.283329}}, {"id": 3900333, "name": "Regi\u00f3n Ais\u00e9n del General Carlos Ib\u00e1\u00f1ez del Campo", "country": "CL", "coord": {"lon": -73.5, "lat": -46.5}}, {"id": 3894426, "name": "Coihaique", "country": "CL", "coord": {"lon": -72.066193, "lat": -45.575241}}, {"id": 3877348, "name": "Panguipulli", "country": "CL", "coord": {"lon": -72.333328, "lat": -39.633331}}, {"id": 3868192, "name": "Villa Alemana", "country": "CL", "coord": {"lon": -71.373329, "lat": -33.042221}}, {"id": 3897595, "name": "Cabildo", "country": "CL", "coord": {"lon": -71.133614, "lat": -32.432781}}, {"id": 3874930, "name": "Puerto Varas", "country": "CL", "coord": {"lon": -72.985382, "lat": -41.319462}}, {"id": 3893532, "name": "Coronel", "country": "CL", "coord": {"lon": -73.133331, "lat": -37.01667}}, {"id": 3895138, "name": "Chiguayante", "country": "CL", "coord": {"lon": -73.01667, "lat": -36.916672}}, {"id": 3874119, "name": "Quillota", "country": "CL", "coord": {"lon": -71.26667, "lat": -32.883331}}, {"id": 3881276, "name": "Lota", "country": "CL", "coord": {"lon": -73.166672, "lat": -37.083328}}, {"id": 3869381, "name": "Traiguen", "country": "CL", "coord": {"lon": -72.683327, "lat": -38.25}}, {"id": 3876664, "name": "Penco", "country": "CL", "coord": {"lon": -72.98333, "lat": -36.73333}}, {"id": 3876685, "name": "Penaflor", "country": "CL", "coord": {"lon": -70.916672, "lat": -33.616669}}, {"id": 3885509, "name": "La Laja", "country": "CL", "coord": {"lon": -72.699997, "lat": -37.26667}}, {"id": 3892870, "name": "Curico", "country": "CL", "coord": {"lon": -71.23333, "lat": -34.98333}}, {"id": 3877146, "name": "Parral", "country": "CL", "coord": {"lon": -71.833328, "lat": -36.150002}}, {"id": 3870306, "name": "Talagante", "country": "CL", "coord": {"lon": -70.933327, "lat": -33.666672}}, {"id": 3867625, "name": "Yumbel", "country": "CL", "coord": {"lon": -72.566673, "lat": -37.083328}}, {"id": 3899462, "name": "Arauco", "country": "CL", "coord": {"lon": -73.31752, "lat": -37.2463}}, {"id": 3872206, "name": "San Francisco de Limache", "country": "CL", "coord": {"lon": -71.283333, "lat": -32.98333}}, {"id": 3883035, "name": "Llaillay", "country": "CL", "coord": {"lon": -70.966667, "lat": -32.849998}}, {"id": 3872154, "name": "San Javier", "country": "CL", "coord": {"lon": -71.75, "lat": -35.599998}}, {"id": 3895061, "name": "Chimbarongo", "country": "CL", "coord": {"lon": -71.050003, "lat": -34.700001}}, {"id": 3870212, "name": "Tambillo", "country": "CL", "coord": {"lon": -71.283333, "lat": -30.116671}}, {"id": 3877918, "name": "Ovalle", "country": "CL", "coord": {"lon": -71.200279, "lat": -30.59833}}, {"id": 3874579, "name": "Purranque", "country": "CL", "coord": {"lon": -73.166672, "lat": -40.916672}}, {"id": 3873145, "name": "Rio Bueno", "country": "CL", "coord": {"lon": -72.966667, "lat": -40.316669}}, {"id": 3882582, "name": "Loncoche", "country": "CL", "coord": {"lon": -72.633331, "lat": -39.366669}}, {"id": 3872079, "name": "San Jos\u00e9 de la Mariquina", "country": "CL", "coord": {"lon": -72.965698, "lat": -39.53635}}, {"id": 3884524, "name": "Las Cardas", "country": "CL", "coord": {"lon": -71.26667, "lat": -30.283331}}, {"id": 3883615, "name": "Lautaro", "country": "CL", "coord": {"lon": -72.449997, "lat": -38.51667}}, {"id": 3873441, "name": "Rengo", "country": "CL", "coord": {"lon": -70.866669, "lat": -34.416672}}, {"id": 3879627, "name": "Molina", "country": "CL", "coord": {"lon": -71.283333, "lat": -35.116669}}, {"id": 3882559, "name": "Longavi", "country": "CL", "coord": {"lon": -71.683327, "lat": -35.966671}}, {"id": 3884806, "name": "La Reina", "country": "CL", "coord": {"lon": -70.550003, "lat": -33.450001}}, {"id": 3885471, "name": "La Leonera", "country": "CL", "coord": {"lon": -72.916672, "lat": -36.950001}}, {"id": 3897322, "name": "Caldera", "country": "CL", "coord": {"lon": -70.833328, "lat": -27.066669}}, {"id": 3873369, "name": "Retulemus", "country": "CL", "coord": {"lon": -72.349998, "lat": -35.950001}}, {"id": 3874958, "name": "Puerto Natales", "country": "CL", "coord": {"lon": -72.48745, "lat": -51.723629}}, {"id": 3882957, "name": "Llanquihue", "country": "CL", "coord": {"lon": -73.003441, "lat": -41.258579}}, {"id": 3897557, "name": "Cabrero", "country": "CL", "coord": {"lon": -72.400002, "lat": -37.033329}}, {"id": 3894177, "name": "Collipulli", "country": "CL", "coord": {"lon": -72.433327, "lat": -37.950001}}, {"id": 3888749, "name": "Graneros", "country": "CL", "coord": {"lon": -70.73333, "lat": -34.066669}}, {"id": 3881607, "name": "Los Pellines", "country": "CL", "coord": {"lon": -73.066727, "lat": -41.189781}}, {"id": 3868326, "name": "Victoria", "country": "CL", "coord": {"lon": -72.333328, "lat": -38.216671}}, {"id": 3869657, "name": "Tome", "country": "CL", "coord": {"lon": -72.949997, "lat": -36.616669}}, {"id": 3878456, "name": "Nueva Imperial", "country": "CL", "coord": {"lon": -72.949997, "lat": -38.73333}}, {"id": 3897724, "name": "Bulnes", "country": "CL", "coord": {"lon": -72.298538, "lat": -36.742321}}, {"id": 3872326, "name": "San Carlos", "country": "CL", "coord": {"lon": -71.958, "lat": -36.42477}}, {"id": 3889317, "name": "Freirina", "country": "CL", "coord": {"lon": -71.076111, "lat": -28.50556}}, {"id": 3884607, "name": "Las Barrancas", "country": "CL", "coord": {"lon": -71.25, "lat": -30.200001}}, {"id": 3868633, "name": "Vallenar", "country": "CL", "coord": {"lon": -70.758057, "lat": -28.570829}}, {"id": 3874606, "name": "Purey", "country": "CL", "coord": {"lon": -72.883331, "lat": -39.816669}}, {"id": 3877744, "name": "Paillaco", "country": "CL", "coord": {"lon": -72.879349, "lat": -40.068218}}, {"id": 3873464, "name": "Re\u00f1aca", "country": "CL", "coord": {"lon": -71.544724, "lat": -32.96611}}, {"id": 3870116, "name": "Regi\u00f3n de Tarapac\u00e1", "country": "CL", "coord": {"lon": -69.333328, "lat": -20}}, {"id": 3899887, "name": "Alto Hospicio", "country": "CL", "coord": {"lon": -70.116669, "lat": -20.25}}, {"id": 3889262, "name": "Frutillar Alto", "country": "CL", "coord": {"lon": -73.058609, "lat": -41.120468}}, {"id": 3872065, "name": "San Jos\u00e9 de Tango", "country": "CL", "coord": {"lon": -70.800003, "lat": -33.616669}}, {"id": 3892934, "name": "Curacav\u00ed", "country": "CL", "coord": {"lon": -71.150002, "lat": -33.400002}}, {"id": 3890212, "name": "El Trebolar", "country": "CL", "coord": {"lon": -71.150002, "lat": -33.25}}, {"id": 3886292, "name": "La Chacrita", "country": "CL", "coord": {"lon": -71.116669, "lat": -30.15}}, {"id": 3887136, "name": "Ipinco", "country": "CL", "coord": {"lon": -73.066673, "lat": -38.066669}}, {"id": 3878253, "name": "Oficina Mar\u00eda Elena", "country": "CL", "coord": {"lon": -69.666672, "lat": -22.35}}, {"id": 3889332, "name": "Francke", "country": "CL", "coord": {"lon": -69.849998, "lat": -25.83333}}, {"id": 3874997, "name": "Puerto Aisen", "country": "CL", "coord": {"lon": -72.699997, "lat": -45.400002}}, {"id": 3879429, "name": "Monte Patria", "country": "CL", "coord": {"lon": -70.946671, "lat": -30.69194}}, {"id": 3890771, "name": "El Pe\u00f1\u00f3n", "country": "CL", "coord": {"lon": -71.219719, "lat": -30.13694}}, {"id": 3889146, "name": "Gamboa", "country": "CL", "coord": {"lon": -73.803329, "lat": -42.473331}}, {"id": 3885456, "name": "La Ligua", "country": "CL", "coord": {"lon": -71.231056, "lat": -32.452419}}, {"id": 3875070, "name": "Pucon", "country": "CL", "coord": {"lon": -71.954269, "lat": -39.28223}}, {"id": 3875746, "name": "Pitrufquen", "country": "CL", "coord": {"lon": -72.650002, "lat": -38.98333}}, {"id": 3896410, "name": "Casablanca", "country": "CL", "coord": {"lon": -71.416672, "lat": -33.316669}}, {"id": 3869644, "name": "Tongoicillo", "country": "CL", "coord": {"lon": -71.300003, "lat": -30.16667}}, {"id": 3874951, "name": "Puerto Octay", "country": "CL", "coord": {"lon": -72.900002, "lat": -40.966671}}, {"id": 3880827, "name": "Malloa", "country": "CL", "coord": {"lon": -70.949997, "lat": -34.450001}}, {"id": 3882797, "name": "Lo Barnechea", "country": "CL", "coord": {"lon": -70.51667, "lat": -33.349998}}, {"id": 3895711, "name": "Chacra Valpara\u00edso", "country": "CL", "coord": {"lon": -70.599998, "lat": -33.466671}}, {"id": 3878431, "name": "\u00d1u\u00f1oa", "country": "CL", "coord": {"lon": -70.599998, "lat": -33.466671}}, {"id": 3890596, "name": "El Quisco", "country": "CL", "coord": {"lon": -71.699997, "lat": -33.400002}}, {"id": 3884322, "name": "Las Hijuelas", "country": "CL", "coord": {"lon": -70.98333, "lat": -34.349998}}, {"id": 3873983, "name": "Quintero", "country": "CL", "coord": {"lon": -71.533333, "lat": -32.783329}}, {"id": 3892892, "name": "Curanilahue", "country": "CL", "coord": {"lon": -73.349998, "lat": -37.466671}}, {"id": 3887072, "name": "Isla de Maipo", "country": "CL", "coord": {"lon": -70.900002, "lat": -33.75}}, {"id": 3873414, "name": "Requ\u00ednoa", "country": "CL", "coord": {"lon": -70.833328, "lat": -34.283329}}, {"id": 3868210, "name": "Vilcun", "country": "CL", "coord": {"lon": -72.23333, "lat": -38.650002}}, {"id": 3876367, "name": "Peumos", "country": "CL", "coord": {"lon": -72.216667, "lat": -35.216671}}, {"id": 3892760, "name": "Dalcahue", "country": "CL", "coord": {"lon": -73.702217, "lat": -42.362782}}, {"id": 3875023, "name": "Puente Alto", "country": "CL", "coord": {"lon": -71.349998, "lat": -35.133331}}, {"id": 3881102, "name": "Machali", "country": "CL", "coord": {"lon": -70.666672, "lat": -34.183331}}, {"id": 3900700, "name": "Achao", "country": "CL", "coord": {"lon": -73.520828, "lat": -42.46389}}, {"id": 3892929, "name": "Curaco", "country": "CL", "coord": {"lon": -73.58194, "lat": -42.43417}}, {"id": 3879062, "name": "Nancagua", "country": "CL", "coord": {"lon": -71.216667, "lat": -34.666672}}, {"id": 3880143, "name": "Mejillones", "country": "CL", "coord": {"lon": -70.449997, "lat": -23.1}}, {"id": 3873454, "name": "Renca", "country": "CL", "coord": {"lon": -70.73333, "lat": -33.400002}}, {"id": 3889221, "name": "Futrono", "country": "CL", "coord": {"lon": -72.400002, "lat": -40.133331}}, {"id": 3894871, "name": "Chonchi", "country": "CL", "coord": {"lon": -73.809174, "lat": -42.612782}}, {"id": 3950116, "name": "Ca\u00f1ete", "country": "CL", "coord": {"lon": -73.383331, "lat": -37.799999}}, {"id": 3874122, "name": "Quill\u00f3n", "country": "CL", "coord": {"lon": -72.466667, "lat": -36.73333}}, {"id": 3969858, "name": "Quell\u00f3n", "country": "CL", "coord": {"lon": -73.596107, "lat": -43.099171}}, {"id": 3875080, "name": "Puchuncav\u00ed", "country": "CL", "coord": {"lon": -71.412216, "lat": -32.727501}}, {"id": 3892935, "name": "Curacaut\u00edn", "country": "CL", "coord": {"lon": -71.883331, "lat": -38.433331}}, {"id": 3896847, "name": "Capellan\u00eda", "country": "CL", "coord": {"lon": -71.366669, "lat": -34.633331}}, {"id": 3896774, "name": "Carahue", "country": "CL", "coord": {"lon": -73.166672, "lat": -38.700001}}, {"id": 3875367, "name": "Porvenir", "country": "CL", "coord": {"lon": -70.366669, "lat": -53.299999}}, {"id": 3895763, "name": "Chacarilla de Macul", "country": "CL", "coord": {"lon": -70.583328, "lat": -33.5}}, {"id": 3872139, "name": "San Joaqu\u00edn", "country": "CL", "coord": {"lon": -70.616669, "lat": -33.5}}, {"id": 3878075, "name": "Olmu\u00e9", "country": "CL", "coord": {"lon": -71.199997, "lat": -33}}, {"id": 3890485, "name": "El Rosal", "country": "CL", "coord": {"lon": -70.666672, "lat": -33.566669}}, {"id": 3886243, "name": "La Cisterna", "country": "CL", "coord": {"lon": -70.683327, "lat": -33.549999}}, {"id": 3885982, "name": "La Estancilla", "country": "CL", "coord": {"lon": -70.666672, "lat": -34.033329}}, {"id": 3886406, "name": "La Calera", "country": "CL", "coord": {"lon": -69.383331, "lat": -20.366671}}, {"id": 3882854, "name": "Llolleo", "country": "CL", "coord": {"lon": -71.603607, "lat": -33.616669}}, {"id": 3879200, "name": "Mulchen", "country": "CL", "coord": {"lon": -72.23333, "lat": -37.716671}}, {"id": 3868194, "name": "Villa Alegre", "country": "CL", "coord": {"lon": -71.75, "lat": -35.666672}}, {"id": 3893962, "name": "Combarbal\u00e1", "country": "CL", "coord": {"lon": -71.000557, "lat": -31.17556}}, {"id": 3874367, "name": "Quepe", "country": "CL", "coord": {"lon": -72.616669, "lat": -38.849998}}, {"id": 3883457, "name": "Lebu", "country": "CL", "coord": {"lon": -73.650002, "lat": -37.616669}}, {"id": 3885704, "name": "La Herradura", "country": "CL", "coord": {"lon": -71.366669, "lat": -29.98333}}, {"id": 3894446, "name": "Coelemu", "country": "CL", "coord": {"lon": -72.699997, "lat": -36.48333}}, {"id": 3888892, "name": "Gorbea", "country": "CL", "coord": {"lon": -72.683327, "lat": -39.099998}}, {"id": 3869640, "name": "Tongoy", "country": "CL", "coord": {"lon": -71.492783, "lat": -30.253059}}, {"id": 3900190, "name": "Alerce", "country": "CL", "coord": {"lon": -72.917397, "lat": -41.397732}}, {"id": 3888011, "name": "Hijuelas", "country": "CL", "coord": {"lon": -71.166672, "lat": -32.799999}}, {"id": 3878575, "name": "Nogales", "country": "CL", "coord": {"lon": -71.23333, "lat": -32.716671}}, {"id": 3894318, "name": "Colb\u00fan Alto", "country": "CL", "coord": {"lon": -71.216667, "lat": -35.75}}, {"id": 3950062, "name": "Loncura", "country": "CL", "coord": {"lon": -71.505562, "lat": -32.787781}}, {"id": 3872073, "name": "San Jos\u00e9 de Maipo", "country": "CL", "coord": {"lon": -70.366669, "lat": -33.633331}}, {"id": 3884580, "name": "Las Cabras", "country": "CL", "coord": {"lon": -71.30616, "lat": -34.290272}}, {"id": 3880302, "name": "Maull\u00edn", "country": "CL", "coord": {"lon": -73.598328, "lat": -41.617779}}, {"id": 3876272, "name": "Pichidegua", "country": "CL", "coord": {"lon": -71.300003, "lat": -34.349998}}, {"id": 3887344, "name": "Illapel", "country": "CL", "coord": {"lon": -71.165283, "lat": -31.630831}}, {"id": 3881895, "name": "Los Loros", "country": "CL", "coord": {"lon": -70.099998, "lat": -27.83333}}, {"id": 3873636, "name": "Recoleta", "country": "CL", "coord": {"lon": -71.166672, "lat": -30.48333}}, {"id": 3873116, "name": "R\u00edo Negro", "country": "CL", "coord": {"lon": -73.23333, "lat": -40.783329}}, {"id": 3868308, "name": "Vicuna", "country": "CL", "coord": {"lon": -70.708061, "lat": -30.03194}}, {"id": 3885251, "name": "Lanco", "country": "CL", "coord": {"lon": -72.783333, "lat": -39.450001}}, {"id": 3868191, "name": "Villa Alhu\u00e9", "country": "CL", "coord": {"lon": -71.099998, "lat": -34.033329}}, {"id": 3893999, "name": "Coltauco", "country": "CL", "coord": {"lon": -71.099998, "lat": -34.299999}}, {"id": 3877793, "name": "Padre Las Casas", "country": "CL", "coord": {"lon": -72.599998, "lat": -38.76667}}, {"id": 3874453, "name": "Queil\u00e9n", "country": "CL", "coord": {"lon": -73.474159, "lat": -42.88905}}, {"id": 3881703, "name": "Los Muermos", "country": "CL", "coord": {"lon": -73.48333, "lat": -41.400002}}, {"id": 3895553, "name": "Cha\u00f1aral", "country": "CL", "coord": {"lon": -71.433327, "lat": -29.033331}}, {"id": 4030754, "name": "Hanga Roa", "country": "CL", "coord": {"lon": -109.433327, "lat": -27.15}}, {"id": 3878898, "name": "Negrete", "country": "CL", "coord": {"lon": -72.51667, "lat": -37.583328}}, {"id": 3873630, "name": "Recreo", "country": "CL", "coord": {"lon": -71.573517, "lat": -33.027409}}, {"id": 3869979, "name": "Teno", "country": "CL", "coord": {"lon": -71.183327, "lat": -34.866669}}, {"id": 3895113, "name": "Chile Chico", "country": "CL", "coord": {"lon": -71.73333, "lat": -46.549999}}, {"id": 3871865, "name": "San Pablo", "country": "CL", "coord": {"lon": -73.01667, "lat": -40.400002}}, {"id": 3879476, "name": "Monte \u00c1guila", "country": "CL", "coord": {"lon": -72.449997, "lat": -37.066669}}, {"id": 3889322, "name": "Freire", "country": "CL", "coord": {"lon": -72.633331, "lat": -38.950001}}, {"id": 3867554, "name": "Zapallar", "country": "CL", "coord": {"lon": -70.758614, "lat": -31.70056}}, {"id": 3890566, "name": "El Retamo", "country": "CL", "coord": {"lon": -70.716667, "lat": -33.450001}}, {"id": 3873992, "name": "Quinta Normal", "country": "CL", "coord": {"lon": -70.699997, "lat": -33.450001}}, {"id": 3892272, "name": "Do\u00f1ihue", "country": "CL", "coord": {"lon": -70.966667, "lat": -34.23333}}, {"id": 3872594, "name": "Salamanca", "country": "CL", "coord": {"lon": -70.972221, "lat": -31.775}}, {"id": 3890121, "name": "Empedrado", "country": "CL", "coord": {"lon": -72.283333, "lat": -35.599998}}, {"id": 3888523, "name": "Hualqui", "country": "CL", "coord": {"lon": -72.933327, "lat": -36.966671}}, {"id": 3881046, "name": "M\u00e1fil", "country": "CL", "coord": {"lon": -72.949997, "lat": -39.650002}}, {"id": 3889586, "name": "Farellones", "country": "CL", "coord": {"lon": -70.25, "lat": -33.299999}}, {"id": 3876416, "name": "Petorca", "country": "CL", "coord": {"lon": -70.933327, "lat": -32.25}}, {"id": 3875235, "name": "Pozo Almonte", "country": "CL", "coord": {"lon": -69.800003, "lat": -20.26667}}, {"id": 3874570, "name": "Putaendo", "country": "CL", "coord": {"lon": -70.73333, "lat": -32.633331}}, {"id": 3872205, "name": "San Francisco de Mostazal", "country": "CL", "coord": {"lon": -70.716667, "lat": -33.98333}}, {"id": 3869821, "name": "Tiltil", "country": "CL", "coord": {"lon": -70.933327, "lat": -33.083328}}, {"id": 3882460, "name": "Los \u00c1lamos", "country": "CL", "coord": {"lon": -73.466667, "lat": -37.616669}}, {"id": 3872306, "name": "San Clemente", "country": "CL", "coord": {"lon": -71.48333, "lat": -35.549999}}, {"id": 3878743, "name": "Neltume", "country": "CL", "coord": {"lon": -71.939163, "lat": -39.844131}}, {"id": 3871715, "name": "San Rosendo", "country": "CL", "coord": {"lon": -72.716667, "lat": -37.26667}}, {"id": 3873958, "name": "Quirihue", "country": "CL", "coord": {"lon": -72.533333, "lat": -36.283329}}, {"id": 3878100, "name": "Olivar Bajo", "country": "CL", "coord": {"lon": -70.883331, "lat": -34.23333}}, {"id": 3885137, "name": "La Palmilla", "country": "CL", "coord": {"lon": -71.316673, "lat": -34.883331}}, {"id": 3877770, "name": "Paiguano", "country": "CL", "coord": {"lon": -70.533333, "lat": -30.01667}}, {"id": 3896161, "name": "Catemu", "country": "CL", "coord": {"lon": -71.033333, "lat": -32.633331}}, {"id": 3892878, "name": "Curepto", "country": "CL", "coord": {"lon": -72.01667, "lat": -35.083328}}, {"id": 3868339, "name": "Vichuqu\u00e9n", "country": "CL", "coord": {"lon": -72, "lat": -34.883331}}, {"id": 3895018, "name": "Chincolco", "country": "CL", "coord": {"lon": -70.833328, "lat": -32.216671}}, {"id": 3874141, "name": "Quilleco", "country": "CL", "coord": {"lon": -71.966667, "lat": -37.466671}}, {"id": 3894483, "name": "Cochrane", "country": "CL", "coord": {"lon": -72.569504, "lat": -47.255699}}, {"id": 3883093, "name": "Lirqu\u00e9n", "country": "CL", "coord": {"lon": -72.966667, "lat": -36.716671}}, {"id": 3874982, "name": "Puerto Cisnes", "country": "CL", "coord": {"lon": -72.699997, "lat": -44.75}}, {"id": 3876353, "name": "Pica", "country": "CL", "coord": {"lon": -69.349998, "lat": -20.5}}, {"id": 3892470, "name": "Dichato", "country": "CL", "coord": {"lon": -72.933327, "lat": -36.549999}}, {"id": 3893690, "name": "Contulmo", "country": "CL", "coord": {"lon": -73.23333, "lat": -38}}, {"id": 3896946, "name": "Canela Baja", "country": "CL", "coord": {"lon": -71.454437, "lat": -31.40056}}, {"id": 3887758, "name": "Huasco", "country": "CL", "coord": {"lon": -71.21917, "lat": -28.466391}}, {"id": 3875654, "name": "Playa Ancha", "country": "CL", "coord": {"lon": -71.650002, "lat": -33.033329}}, {"id": 3871524, "name": "Santa Juana", "country": "CL", "coord": {"lon": -72.933327, "lat": -37.166672}}, {"id": 3881450, "name": "Los Quilos", "country": "CL", "coord": {"lon": -71.133331, "lat": -33.48333}}, {"id": 3880992, "name": "Maipo", "country": "CL", "coord": {"lon": -70.783333, "lat": -33.73333}}, {"id": 3882519, "name": "Lo Ovalle", "country": "CL", "coord": {"lon": -71.116669, "lat": -33.466671}}, {"id": 3894423, "name": "Coihaique Alto", "country": "CL", "coord": {"lon": -71.599998, "lat": -45.48333}}, {"id": 3872175, "name": "San Ignacio", "country": "CL", "coord": {"lon": -72.033333, "lat": -36.799999}}, {"id": 3880825, "name": "Malloco", "country": "CL", "coord": {"lon": -70.866669, "lat": -33.616669}}, {"id": 3876713, "name": "Pe\u00f1ablanca", "country": "CL", "coord": {"lon": -71.349998, "lat": -33.049999}}, {"id": 3882589, "name": "Lo Miranda", "country": "CL", "coord": {"lon": -70.900002, "lat": -34.183331}}, {"id": 3896361, "name": "Casas de Chacabuco", "country": "CL", "coord": {"lon": -70.683327, "lat": -33.033329}}, {"id": 3885974, "name": "La Estrella", "country": "CL", "coord": {"lon": -71.666672, "lat": -34.200001}}, {"id": 3874937, "name": "Puerto Saavedra", "country": "CL", "coord": {"lon": -73.400002, "lat": -38.783329}}, {"id": 3873372, "name": "Retiro", "country": "CL", "coord": {"lon": -71.76667, "lat": -36.049999}}, {"id": 3899680, "name": "Andacollo", "country": "CL", "coord": {"lon": -71.085831, "lat": -30.23028}}, {"id": 3899611, "name": "Angostura", "country": "CL", "coord": {"lon": -70.73333, "lat": -33.900002}}, {"id": 3884827, "name": "La Rana", "country": "CL", "coord": {"lon": -70.666672, "lat": -33.816669}}, {"id": 3875124, "name": "P\u00faa", "country": "CL", "coord": {"lon": -72.383331, "lat": -38.316669}}, {"id": 3896281, "name": "Casma", "country": "CL", "coord": {"lon": -73.12442, "lat": -41.008221}}, {"id": 3879681, "name": "Misquihu\u00e9", "country": "CL", "coord": {"lon": -73.449997, "lat": -41.533329}}, {"id": 3879436, "name": "Montemar", "country": "CL", "coord": {"lon": -71.48333, "lat": -32.966671}}, {"id": 3874926, "name": "Puerto Williams", "country": "CL", "coord": {"lon": -67.616669, "lat": -54.933331}}, {"id": 3884823, "name": "Laraquete", "country": "CL", "coord": {"lon": -73.183327, "lat": -37.166672}}, {"id": 3882530, "name": "Lontu\u00e9", "country": "CL", "coord": {"lon": -71.26667, "lat": -35.066669}}, {"id": 3873868, "name": "Radal", "country": "CL", "coord": {"lon": -72.400002, "lat": -38.98333}}, {"id": 3880952, "name": "Maitencillo", "country": "CL", "coord": {"lon": -71.116669, "lat": -30.16667}}, {"id": 3870243, "name": "Taltal", "country": "CL", "coord": {"lon": -70.48333, "lat": -25.4}}, {"id": 3877251, "name": "Papudo", "country": "CL", "coord": {"lon": -71.443619, "lat": -32.507992}}, {"id": 3875407, "name": "Portezuelo", "country": "CL", "coord": {"lon": -72.433327, "lat": -36.533329}}, {"id": 3887736, "name": "Huech\u00fan", "country": "CL", "coord": {"lon": -70.75, "lat": -33.083328}}, {"id": 3881433, "name": "Los Ranchillos", "country": "CL", "coord": {"lon": -70.699997, "lat": -32.950001}}, {"id": 3891046, "name": "Mel\u00f3n", "country": "CL", "coord": {"lon": -71.213333, "lat": -32.698891}}, {"id": 3887788, "name": "Huala\u00f1\u00e9", "country": "CL", "coord": {"lon": -71.816673, "lat": -34.98333}}, {"id": 3871781, "name": "San Pedro de Atacama", "country": "CL", "coord": {"lon": -68.216667, "lat": -22.91667}}, {"id": 3871276, "name": "San Vicente de Taguatagua", "country": "CL", "coord": {"lon": -71.133331, "lat": -34.5}}, {"id": 3895823, "name": "Cerro Viejo", "country": "CL", "coord": {"lon": -71.166672, "lat": -33.216671}}, {"id": 3878678, "name": "Nielol", "country": "CL", "coord": {"lon": -72.716667, "lat": -38.466671}}, {"id": 3889867, "name": "Espejo", "country": "CL", "coord": {"lon": -70.716667, "lat": -33.533329}}, {"id": 3891536, "name": "El Crucero", "country": "CL", "coord": {"lon": -72.800003, "lat": -40.416672}}, {"id": 3898803, "name": "Ba\u00f1os de Colina", "country": "CL", "coord": {"lon": -70.633331, "lat": -33.200001}}, {"id": 3889153, "name": "Galvarino", "country": "CL", "coord": {"lon": -72.783333, "lat": -38.400002}}, {"id": 3880108, "name": "Melipeuco", "country": "CL", "coord": {"lon": -71.699997, "lat": -38.849998}}, {"id": 3875986, "name": "Pillanlelbun", "country": "CL", "coord": {"lon": -72.466667, "lat": -38.616669}}, {"id": 3868700, "name": "Valdivia de Paine", "country": "CL", "coord": {"lon": -70.866669, "lat": -33.816669}}, {"id": 6693593, "name": "Brisas del Sol", "country": "CL", "coord": {"lon": -73.077957, "lat": -36.773891}}, {"id": 2137776, "name": "Vall\u00e9e du Tir", "country": "NC", "coord": {"lon": 166.449997, "lat": -22.26667}}, {"id": 2140066, "name": "Mont-Dore", "country": "NC", "coord": {"lon": 166.583328, "lat": -22.283331}}, {"id": 2141986, "name": "Bakouya", "country": "NC", "coord": {"lon": 165.483337, "lat": -21.566669}}, {"id": 2140464, "name": "Province Sud", "country": "NC", "coord": {"lon": 165.833328, "lat": -21.75}}, {"id": 2141721, "name": "Bouloupari", "country": "NC", "coord": {"lon": 166.051315, "lat": -21.860701}}, {"id": 2141722, "name": "Bouloupari", "country": "NC", "coord": {"lon": 166.050003, "lat": -21.866671}}, {"id": 2141390, "name": "Dumb\u00e9a", "country": "NC", "coord": {"lon": 166.447327, "lat": -22.14957}}, {"id": 2141394, "name": "Dumbea", "country": "NC", "coord": {"lon": 166.449997, "lat": -22.15}}, {"id": 2140556, "name": "Koumac", "country": "NC", "coord": {"lon": 164.271698, "lat": -20.55501}}, {"id": 2140558, "name": "Koumac", "country": "NC", "coord": {"lon": 164.283325, "lat": -20.566669}}, {"id": 2138354, "name": "Sarram\u00e9a", "country": "NC", "coord": {"lon": 165.845154, "lat": -21.642111}}, {"id": 2138356, "name": "Sarram\u00e9a", "country": "NC", "coord": {"lon": 165.850006, "lat": -21.65}}, {"id": 2138101, "name": "Thio", "country": "NC", "coord": {"lon": 166.214554, "lat": -21.60573}}, {"id": 2138103, "name": "Thio", "country": "NC", "coord": {"lon": 166.216675, "lat": -21.616671}}, {"id": 2138590, "name": "Pouembout", "country": "NC", "coord": {"lon": 164.983414, "lat": -21.107559}}, {"id": 2138592, "name": "Pouembout", "country": "NC", "coord": {"lon": 164.899994, "lat": -21.133329}}, {"id": 2139230, "name": "Ou\u00e9na", "country": "NC", "coord": {"lon": 165.816666, "lat": -21.41667}}, {"id": 2138410, "name": "Saint-Joseph", "country": "NC", "coord": {"lon": 164.566666, "lat": -20.4}}, {"id": 2138679, "name": "Pont des Fran\u00e7ais", "country": "NC", "coord": {"lon": 166.483337, "lat": -22.216669}}, {"id": 2140914, "name": "Kaala-Gom\u00e9n", "country": "NC", "coord": {"lon": 164.397705, "lat": -20.669411}}, {"id": 2140915, "name": "Kaala-Gomen", "country": "NC", "coord": {"lon": 164.399994, "lat": -20.66667}}, {"id": 2138685, "name": "Pon\u00e9rihouen", "country": "NC", "coord": {"lon": 165.400543, "lat": -21.07649}}, {"id": 2138687, "name": "Ponerihouen", "country": "NC", "coord": {"lon": 165.399994, "lat": -21.08333}}, {"id": 2140438, "name": "Le Caillou", "country": "NC", "coord": {"lon": 164.433334, "lat": -20.35}}, {"id": 2137643, "name": "Yat\u00e9-Village", "country": "NC", "coord": {"lon": 166.899994, "lat": -22.15}}, {"id": 2141314, "name": "Farino", "country": "NC", "coord": {"lon": 165.77597, "lat": -21.665091}}, {"id": 2141316, "name": "Farino", "country": "NC", "coord": {"lon": 165.766663, "lat": -21.66667}}, {"id": 2137869, "name": "Touho", "country": "NC", "coord": {"lon": 165.242264, "lat": -20.785971}}, {"id": 2137873, "name": "Touho", "country": "NC", "coord": {"lon": 165.233337, "lat": -20.783331}}, {"id": 2140471, "name": "La Coul\u00e9e", "country": "NC", "coord": {"lon": 166.566666, "lat": -22.23333}}, {"id": 2141004, "name": "Houa\u00eflou", "country": "NC", "coord": {"lon": 165.634354, "lat": -21.286501}}, {"id": 2141006, "name": "Houailou", "country": "NC", "coord": {"lon": 165.616669, "lat": -21.283331}}, {"id": 2138519, "name": "Poya", "country": "NC", "coord": {"lon": 165.163986, "lat": -21.34487}}, {"id": 2138522, "name": "Poya", "country": "NC", "coord": {"lon": 165.149994, "lat": -21.35}}, {"id": 3427414, "name": "Villa Leloir", "country": "AR", "coord": {"lon": -58.678341, "lat": -34.612179}}, {"id": 3437923, "name": "Departamento de Itap\u00faa", "country": "PY", "coord": {"lon": -55.833328, "lat": -26.83333}}, {"id": 3437370, "name": "Puerto Mayor Otano", "country": "PY", "coord": {"lon": -54.700001, "lat": -26.4}}, {"id": 3853404, "name": "Provincia de Jujuy", "country": "AR", "coord": {"lon": -66, "lat": -23}}, {"id": 3836564, "name": "San Salvador de Jujuy", "country": "AR", "coord": {"lon": -65.297119, "lat": -24.194559}}, {"id": 3832932, "name": "Departamento de Victoria", "country": "AR", "coord": {"lon": -60.333328, "lat": -32.666672}}, {"id": 3832934, "name": "Victoria", "country": "AR", "coord": {"lon": -60.154781, "lat": -32.618408}}, {"id": 3862744, "name": "Departamento de Capital", "country": "AR", "coord": {"lon": -64.199997, "lat": -31.41667}}, {"id": 3860259, "name": "Cordoba", "country": "AR", "coord": {"lon": -64.181053, "lat": -31.4135}}, {"id": 3866169, "name": "Alta C\u00f3rdoba", "country": "AR", "coord": {"lon": -64.175659, "lat": -31.38945}}, {"id": 3838574, "name": "Departamento de Rosario", "country": "AR", "coord": {"lon": -60.75, "lat": -33.166672}}, {"id": 3864364, "name": "Bella Vista", "country": "AR", "coord": {"lon": -60.675301, "lat": -32.953918}}, {"id": 3836277, "name": "Santa Fe de la Vera Cruz", "country": "AR", "coord": {"lon": -60.700001, "lat": -31.633329}}, {"id": 3833578, "name": "Provincia de Tucum\u00e1n", "country": "AR", "coord": {"lon": -65.5, "lat": -27}}, {"id": 3836873, "name": "San Miguel de Tucuman", "country": "AR", "coord": {"lon": -65.222603, "lat": -26.824141}}, {"id": 3435719, "name": "Canning", "country": "AR", "coord": {"lon": -58.51054, "lat": -34.878342}}, {"id": 3837576, "name": "San Guillermo", "country": "AR", "coord": {"lon": -61.917881, "lat": -30.35976}}, {"id": 3844421, "name": "Mendoza", "country": "AR", "coord": {"lon": -68.827171, "lat": -32.890839}}, {"id": 3838902, "name": "Rio Ceballos", "country": "AR", "coord": {"lon": -64.322411, "lat": -31.16486}}, {"id": 3430863, "name": "Mar del Plata", "country": "AR", "coord": {"lon": -57.557541, "lat": -38.002281}}, {"id": 3837213, "name": "San Juan", "country": "AR", "coord": {"lon": -68.536392, "lat": -31.5375}}, {"id": 3841956, "name": "Parana", "country": "AR", "coord": {"lon": -60.5238, "lat": -31.73197}}, {"id": 3435214, "name": "Provincia de Corrientes", "country": "AR", "coord": {"lon": -58, "lat": -29}}, {"id": 3435217, "name": "Corrientes", "country": "AR", "coord": {"lon": -58.834099, "lat": -27.4806}}, {"id": 3433896, "name": "Provincia de Formosa", "country": "AR", "coord": {"lon": -60, "lat": -25}}, {"id": 3433899, "name": "Formosa", "country": "AR", "coord": {"lon": -58.178139, "lat": -26.17753}}, {"id": 3837029, "name": "Provincia de San Luis", "country": "AR", "coord": {"lon": -66, "lat": -34}}, {"id": 3837056, "name": "San Luis", "country": "AR", "coord": {"lon": -66.335632, "lat": -33.29501}}, {"id": 3838233, "name": "Salta", "country": "AR", "coord": {"lon": -65.411659, "lat": -24.7859}}, {"id": 3832899, "name": "Viedma", "country": "AR", "coord": {"lon": -62.996681, "lat": -40.81345}}, {"id": 3840092, "name": "Puerto Madryn", "country": "AR", "coord": {"lon": -65.038513, "lat": -42.769199}}, {"id": 3861039, "name": "Ciudad Universitaria", "country": "AR", "coord": {"lon": -65.349998, "lat": -26.783331}}, {"id": 3436033, "name": "Bernal", "country": "AR", "coord": {"lon": -58.271801, "lat": -34.707279}}, {"id": 3432039, "name": "Partido de La Plata", "country": "AR", "coord": {"lon": -58, "lat": -35}}, {"id": 3432043, "name": "La Plata", "country": "AR", "coord": {"lon": -57.954529, "lat": -34.921452}}, {"id": 3853331, "name": "Justiniano Posse", "country": "AR", "coord": {"lon": -62.677879, "lat": -32.884109}}, {"id": 3849574, "name": "Provincia de La Pampa", "country": "AR", "coord": {"lon": -66, "lat": -37}}, {"id": 3835994, "name": "Santa Rosa", "country": "AR", "coord": {"lon": -64.283333, "lat": -36.616669}}, {"id": 3427504, "name": "Partido de Vicente L\u00f3pez", "country": "AR", "coord": {"lon": -58.474388, "lat": -34.523529}}, {"id": 3427478, "name": "Villa Adelina", "country": "AR", "coord": {"lon": -58.5476, "lat": -34.529751}}, {"id": 3833857, "name": "Partido de Tres Arroyos", "country": "AR", "coord": {"lon": -60.25, "lat": -38.5}}, {"id": 3833859, "name": "Tres Arroyos", "country": "AR", "coord": {"lon": -60.279781, "lat": -38.37394}}, {"id": 3435261, "name": "Concordia", "country": "AR", "coord": {"lon": -58.020889, "lat": -31.39296}}, {"id": 3435087, "name": "Del Viso", "country": "AR", "coord": {"lon": -58.787811, "lat": -34.45013}}, {"id": 3839479, "name": "Rafaela", "country": "AR", "coord": {"lon": -61.486698, "lat": -31.25033}}, {"id": 3836992, "name": "San Martin", "country": "AR", "coord": {"lon": -68.46814, "lat": -33.081032}}, {"id": 3845406, "name": "Lugones", "country": "AR", "coord": {"lon": -63.339821, "lat": -28.33588}}, {"id": 3431270, "name": "Partido de Lomas de Zamora", "country": "AR", "coord": {"lon": -58.416672, "lat": -34.75}}, {"id": 3431271, "name": "Lomas de Zamora", "country": "AR", "coord": {"lon": -58.406319, "lat": -34.76088}}, {"id": 3427367, "name": "Villa Sarmiento", "country": "AR", "coord": {"lon": -58.38319, "lat": -34.701248}}, {"id": 3861887, "name": "Provincia del Chaco", "country": "AR", "coord": {"lon": -60.5, "lat": -26}}, {"id": 3840300, "name": "Presidencia Roque Saenz Pena", "country": "AR", "coord": {"lon": -60.438759, "lat": -26.785219}}, {"id": 3838759, "name": "Rivadavia", "country": "AR", "coord": {"lon": -68.460808, "lat": -33.19051}}, {"id": 3839281, "name": "Departamento de Realic\u00f3", "country": "AR", "coord": {"lon": -64.25, "lat": -35.25}}, {"id": 3839282, "name": "Realico", "country": "AR", "coord": {"lon": -64.244698, "lat": -35.036579}}, {"id": 3855061, "name": "Departamento de General Roca", "country": "AR", "coord": {"lon": -67.5, "lat": -38.5}}, {"id": 3855065, "name": "General Roca", "country": "AR", "coord": {"lon": -67.583328, "lat": -39.033329}}, {"id": 3855665, "name": "Departamento de Famaill\u00e1", "country": "AR", "coord": {"lon": -65.5, "lat": -26.91667}}, {"id": 3855666, "name": "Famailla", "country": "AR", "coord": {"lon": -65.40329, "lat": -27.054131}}, {"id": 3832822, "name": "Villa Aberastain", "country": "AR", "coord": {"lon": -68.583328, "lat": -31.65}}, {"id": 3835869, "name": "Santiago del Estero", "country": "AR", "coord": {"lon": -64.26149, "lat": -27.795111}}, {"id": 3436197, "name": "Partido de Azul", "country": "AR", "coord": {"lon": -59.666672, "lat": -36.75}}, {"id": 3436199, "name": "Azul", "country": "AR", "coord": {"lon": -59.85854, "lat": -36.776981}}, {"id": 3833883, "name": "Trelew", "country": "AR", "coord": {"lon": -65.305054, "lat": -43.248951}}, {"id": 3836350, "name": "Provincia de Santa Cruz", "country": "AR", "coord": {"lon": -70, "lat": -49}}, {"id": 3838859, "name": "Rio Gallegos", "country": "AR", "coord": {"lon": -69.218132, "lat": -51.622608}}, {"id": 3854294, "name": "Hilario Ascasubi", "country": "AR", "coord": {"lon": -62.648151, "lat": -39.376598}}, {"id": 3863938, "name": "Bordenave", "country": "AR", "coord": {"lon": -63.041199, "lat": -37.803421}}, {"id": 3844994, "name": "Manfredi", "country": "AR", "coord": {"lon": -63.747211, "lat": -31.844339}}, {"id": 3842653, "name": "Oliveros", "country": "AR", "coord": {"lon": -60.85236, "lat": -32.575611}}, {"id": 3429594, "name": "Reconquista", "country": "AR", "coord": {"lon": -59.650002, "lat": -29.15}}, {"id": 3841488, "name": "Partido de Pergamino", "country": "AR", "coord": {"lon": -60.583328, "lat": -33.75}}, {"id": 3841490, "name": "Pergamino", "country": "AR", "coord": {"lon": -60.57357, "lat": -33.88995}}, {"id": 3844899, "name": "Marcos Juarez", "country": "AR", "coord": {"lon": -62.10672, "lat": -32.6978}}, {"id": 3436176, "name": "Partido de Balcarce", "country": "AR", "coord": {"lon": -58.25, "lat": -37.75}}, {"id": 3436177, "name": "Balcarce", "country": "AR", "coord": {"lon": -58.255219, "lat": -37.846161}}, {"id": 3859110, "name": "Drabble", "country": "AR", "coord": {"lon": -62.76582, "lat": -34.920391}}, {"id": 3846484, "name": "Los Antiguos", "country": "AR", "coord": {"lon": -71.630859, "lat": -46.549721}}, {"id": 3854296, "name": "Hilario", "country": "AR", "coord": {"lon": -69.407661, "lat": -31.48167}}, {"id": 3841039, "name": "Piquete Cabado", "country": "AR", "coord": {"lon": -64.179169, "lat": -24.81922}}, {"id": 3862738, "name": "Capitan Bermudez", "country": "AR", "coord": {"lon": -60.718521, "lat": -32.82262}}, {"id": 3863881, "name": "Partido de Bragado", "country": "AR", "coord": {"lon": -60.666672, "lat": -35}}, {"id": 3863882, "name": "Bragado", "country": "AR", "coord": {"lon": -60.489658, "lat": -35.119122}}, {"id": 3860801, "name": "Colonia Caroya", "country": "AR", "coord": {"lon": -64.065193, "lat": -31.019779}}, {"id": 3847328, "name": "Lavalle", "country": "AR", "coord": {"lon": -65.108513, "lat": -28.19635}}, {"id": 3843122, "name": "Provincia del Neuqu\u00e9n", "country": "AR", "coord": {"lon": -70, "lat": -39}}, {"id": 3843123, "name": "Neuquen", "country": "AR", "coord": {"lon": -68.059097, "lat": -38.951611}}, {"id": 3855041, "name": "General Villegas", "country": "AR", "coord": {"lon": -63.01252, "lat": -35.032848}}, {"id": 3861944, "name": "Partido de Chacabuco", "country": "AR", "coord": {"lon": -60.333328, "lat": -34.666672}}, {"id": 3861953, "name": "Chacabuco", "country": "AR", "coord": {"lon": -60.473888, "lat": -34.64167}}, {"id": 3838793, "name": "Rio Tercero", "country": "AR", "coord": {"lon": -64.114059, "lat": -32.173012}}, {"id": 7932535, "name": "Pueblo General Belgrano", "country": "AR", "coord": {"lon": -58.51416, "lat": -33.010281}}, {"id": 3429088, "name": "Partido de San Fernando", "country": "AR", "coord": {"lon": -58.542019, "lat": -34.445419}}, {"id": 3429095, "name": "San Fernando", "country": "AR", "coord": {"lon": -58.56279, "lat": -34.44104}}, {"id": 3841610, "name": "Partido de Pellegrini", "country": "AR", "coord": {"lon": -63, "lat": -36.333328}}, {"id": 3841614, "name": "Pellegrini", "country": "AR", "coord": {"lon": -63.165501, "lat": -36.265839}}, {"id": 3433424, "name": "Isidro Casanova", "country": "AR", "coord": {"lon": -58.590408, "lat": -34.699329}}, {"id": 3836846, "name": "San Nicolas de los Arroyos", "country": "AR", "coord": {"lon": -60.225231, "lat": -33.335781}}, {"id": 3435809, "name": "Partido de Campana", "country": "AR", "coord": {"lon": -58.916672, "lat": -34.166672}}, {"id": 3435810, "name": "Campana", "country": "AR", "coord": {"lon": -58.959141, "lat": -34.168739}}, {"id": 3434261, "name": "El Talar", "country": "AR", "coord": {"lon": -58.65086, "lat": -34.470901}}, {"id": 3837607, "name": "San Genaro", "country": "AR", "coord": {"lon": -61.356812, "lat": -32.369572}}, {"id": 3840403, "name": "Pozo Herrera", "country": "AR", "coord": {"lon": -62.345829, "lat": -28.3873}}, {"id": 3430867, "name": "Partido de Marcos Paz", "country": "AR", "coord": {"lon": -58.833328, "lat": -34.833328}}, {"id": 3430868, "name": "Marcos Paz", "country": "AR", "coord": {"lon": -58.837399, "lat": -34.780628}}, {"id": 3848355, "name": "Las Heras", "country": "AR", "coord": {"lon": -63.916672, "lat": -31.566669}}, {"id": 3429577, "name": "Resistencia", "country": "AR", "coord": {"lon": -58.983891, "lat": -27.46056}}, {"id": 3833367, "name": "Ushuaia", "country": "AR", "coord": {"lon": -68.300003, "lat": -54.799999}}, {"id": 3434003, "name": "Partido de Esteban Echeverr\u00eda", "country": "AR", "coord": {"lon": -58.465832, "lat": -34.819172}}, {"id": 3480738, "name": "Barrio Esteban Echeverr\u00eda", "country": "AR", "coord": {"lon": -58.475281, "lat": -34.813332}}, {"id": 3863379, "name": "Caleta Olivia", "country": "AR", "coord": {"lon": -67.528137, "lat": -46.439289}}, {"id": 3834826, "name": "Tacuar\u00ed", "country": "AR", "coord": {"lon": -60.308559, "lat": -34.211491}}, {"id": 3838880, "name": "R\u00edo Colorado", "country": "AR", "coord": {"lon": -64.093842, "lat": -38.99176}}, {"id": 3427896, "name": "Partido de Suipacha", "country": "AR", "coord": {"lon": -59.75, "lat": -34.75}}, {"id": 3427897, "name": "Suipacha", "country": "AR", "coord": {"lon": -59.689579, "lat": -34.770039}}, {"id": 3430992, "name": "Luis Guill\u00f3n", "country": "AR", "coord": {"lon": -58.449471, "lat": -34.79882}}, {"id": 3431366, "name": "Libertad", "country": "AR", "coord": {"lon": -58.680099, "lat": -34.688911}}, {"id": 3429244, "name": "San Antonio de Padua", "country": "AR", "coord": {"lon": -58.707691, "lat": -34.664459}}, {"id": 3832640, "name": "Partido de Villarino", "country": "AR", "coord": {"lon": -62.75, "lat": -39}}, {"id": 3949834, "name": "M\u00e9danos", "country": "AR", "coord": {"lon": -62.683331, "lat": -38.816669}}, {"id": 3864639, "name": "Barrio Comandante Piedrabuena", "country": "AR", "coord": {"lon": -62.092789, "lat": -38.884571}}, {"id": 3833874, "name": "Partido de Trenque Lauquen", "country": "AR", "coord": {"lon": -62.666672, "lat": -36}}, {"id": 3833875, "name": "Trenque Lauquen", "country": "AR", "coord": {"lon": -62.734322, "lat": -35.970348}}, {"id": 3435486, "name": "Chajari", "country": "AR", "coord": {"lon": -57.979622, "lat": -30.750481}}, {"id": 3848950, "name": "La Rioja", "country": "AR", "coord": {"lon": -66.85067, "lat": -29.411051}}, {"id": 3433708, "name": "Grand Bourg", "country": "AR", "coord": {"lon": -58.72913, "lat": -34.482361}}, {"id": 3833062, "name": "Venado Tuerto", "country": "AR", "coord": {"lon": -61.968842, "lat": -33.74556}}, {"id": 3863430, "name": "Departamento de Calamuchita", "country": "AR", "coord": {"lon": -64.583328, "lat": -32.25}}, {"id": 3856235, "name": "Embalse", "country": "AR", "coord": {"lon": -64.418091, "lat": -32.18}}, {"id": 3838300, "name": "Departamento de Salavina", "country": "AR", "coord": {"lon": -63.299999, "lat": -28.91667}}, {"id": 3836198, "name": "Santa Luc\u00eda", "country": "AR", "coord": {"lon": -63.51329, "lat": -28.725731}}, {"id": 3433787, "name": "General Pacheco", "country": "AR", "coord": {"lon": -58.64296, "lat": -34.448818}}, {"id": 3433715, "name": "Goya", "country": "AR", "coord": {"lon": -59.262562, "lat": -29.14003}}, {"id": 3430657, "name": "Provincia de Misiones", "country": "AR", "coord": {"lon": -55, "lat": -27}}, {"id": 3427365, "name": "Villa Svea", "country": "AR", "coord": {"lon": -55.146332, "lat": -27.48617}}, {"id": 3855302, "name": "Funes", "country": "AR", "coord": {"lon": -60.809952, "lat": -32.91568}}, {"id": 3429886, "name": "Posadas", "country": "AR", "coord": {"lon": -55.89608, "lat": -27.367081}}, {"id": 3433756, "name": "Gobernador Castro", "country": "AR", "coord": {"lon": -59.867802, "lat": -33.65802}}, {"id": 3866935, "name": "Adelia Maria", "country": "AR", "coord": {"lon": -64.020973, "lat": -33.631519}}, {"id": 3845575, "name": "Los Surgentes", "country": "AR", "coord": {"lon": -62.021912, "lat": -32.984539}}, {"id": 3858133, "name": "El Dorado", "country": "AR", "coord": {"lon": -61.58252, "lat": -34.650379}}, {"id": 3859904, "name": "Crespo", "country": "AR", "coord": {"lon": -60.30658, "lat": -32.028728}}, {"id": 3855353, "name": "Fr\u00edas", "country": "AR", "coord": {"lon": -65.13102, "lat": -28.635929}}, {"id": 3436309, "name": "Departamento de Ap\u00f3stoles", "country": "AR", "coord": {"lon": -55.75, "lat": -27.91667}}, {"id": 3436311, "name": "Apostoles", "country": "AR", "coord": {"lon": -55.753551, "lat": -27.914209}}, {"id": 3452720, "name": "P\u00f4rto Meira", "country": "BR", "coord": {"lon": -54.583328, "lat": -25.566669}}, {"id": 3428983, "name": "Partido de San Isidro", "country": "AR", "coord": {"lon": -58.583328, "lat": -34.5}}, {"id": 3436508, "name": "Acassuso", "country": "AR", "coord": {"lon": -58.50177, "lat": -34.477058}}, {"id": 3861329, "name": "Choele Choel", "country": "AR", "coord": {"lon": -65.683327, "lat": -39.26667}}, {"id": 3436091, "name": "Bat\u00e1n", "country": "AR", "coord": {"lon": -57.709671, "lat": -38.008499}}, {"id": 3430310, "name": "Olivos", "country": "AR", "coord": {"lon": -58.487019, "lat": -34.507469}}, {"id": 3427212, "name": "Partido de Z\u00e1rate", "country": "AR", "coord": {"lon": -59.166672, "lat": -34}}, {"id": 3427213, "name": "Zarate", "country": "AR", "coord": {"lon": -59.02858, "lat": -34.098141}}, {"id": 3429168, "name": "Partido de San Cayetano", "country": "AR", "coord": {"lon": -59.666672, "lat": -38.416672}}, {"id": 3429171, "name": "San Cayetano", "country": "AR", "coord": {"lon": -59.609539, "lat": -38.346531}}, {"id": 3838646, "name": "Partido de Rojas", "country": "AR", "coord": {"lon": -60.75, "lat": -34.25}}, {"id": 3838650, "name": "Rojas", "country": "AR", "coord": {"lon": -60.735001, "lat": -34.195278}}, {"id": 3433816, "name": "Partido de General Belgrano", "country": "AR", "coord": {"lon": -58.75, "lat": -35.75}}, {"id": 3433817, "name": "General Belgrano", "country": "AR", "coord": {"lon": -58.493408, "lat": -35.76952}}, {"id": 3860129, "name": "Corral de Bustos", "country": "AR", "coord": {"lon": -62.184631, "lat": -33.282051}}, {"id": 3837855, "name": "San Carlos de Bol\u00edvar", "country": "AR", "coord": {"lon": -61.099998, "lat": -36.25}}, {"id": 3865084, "name": "Partido de Bah\u00eda Blanca", "country": "AR", "coord": {"lon": -62.333328, "lat": -38.666672}}, {"id": 3865086, "name": "Bahia Blanca", "country": "AR", "coord": {"lon": -62.27243, "lat": -38.719601}}, {"id": 3856047, "name": "Esmeralda", "country": "AR", "coord": {"lon": -61.93256, "lat": -31.61689}}, {"id": 3845359, "name": "Luro", "country": "AR", "coord": {"lon": -62.133331, "lat": -36.633331}}, {"id": 3860443, "name": "Comodoro Rivadavia", "country": "AR", "coord": {"lon": -67.5, "lat": -45.866669}}, {"id": 3857887, "name": "El Hoyo", "country": "AR", "coord": {"lon": -63.231972, "lat": -27.028721}}, {"id": 3834971, "name": "Sunchales", "country": "AR", "coord": {"lon": -61.561481, "lat": -30.94404}}, {"id": 3837125, "name": "San Justo", "country": "AR", "coord": {"lon": -64.73333, "lat": -28.15}}, {"id": 8050985, "name": "Juana Koslay", "country": "AR", "coord": {"lon": -66.265282, "lat": -33.28944}}, {"id": 3848687, "name": "Las Brenas", "country": "AR", "coord": {"lon": -61.081612, "lat": -27.089661}}, {"id": 3864692, "name": "Barraquero", "country": "AR", "coord": {"lon": -68.831177, "lat": -32.90559}}, {"id": 3436219, "name": "Partido de Ayacucho", "country": "AR", "coord": {"lon": -58.5, "lat": -37}}, {"id": 3436221, "name": "Ayacucho", "country": "AR", "coord": {"lon": -58.486912, "lat": -37.151852}}, {"id": 3435976, "name": "Bosch", "country": "AR", "coord": {"lon": -58.243622, "lat": -37.64703}}, {"id": 3436521, "name": "Abasto", "country": "AR", "coord": {"lon": -58.089218, "lat": -34.985149}}, {"id": 3847911, "name": "Las Perdices", "country": "AR", "coord": {"lon": -63.706341, "lat": -32.697941}}, {"id": 3862351, "name": "Casilda", "country": "AR", "coord": {"lon": -61.16806, "lat": -33.04417}}, {"id": 3860822, "name": "Partido de Col\u00f3n", "country": "AR", "coord": {"lon": -61, "lat": -33.833328}}, {"id": 3860828, "name": "Col\u00f3n", "country": "AR", "coord": {"lon": -61.101101, "lat": -33.895119}}, {"id": 3859429, "name": "Despenaderos", "country": "AR", "coord": {"lon": -64.289886, "lat": -31.816259}}, {"id": 3838222, "name": "Partido de Salto", "country": "AR", "coord": {"lon": -60.25, "lat": -34.25}}, {"id": 3838227, "name": "Salto", "country": "AR", "coord": {"lon": -60.254551, "lat": -34.292919}}, {"id": 3853351, "name": "Partido de Jun\u00edn", "country": "AR", "coord": {"lon": -61, "lat": -34.5}}, {"id": 3853354, "name": "Junin", "country": "AR", "coord": {"lon": -60.943321, "lat": -34.58382}}, {"id": 3841159, "name": "Pig\u00fc\u00e9", "country": "AR", "coord": {"lon": -62.403332, "lat": -37.605091}}, {"id": 3431309, "name": "Partido de Lobos", "country": "AR", "coord": {"lon": -59.166672, "lat": -35.25}}, {"id": 3431313, "name": "Lobos", "country": "AR", "coord": {"lon": -59.089748, "lat": -35.182861}}, {"id": 3841612, "name": "Departamento de Pellegrini", "country": "AR", "coord": {"lon": -64.25, "lat": -26.16667}}, {"id": 3864419, "name": "Belgrano", "country": "AR", "coord": {"lon": -63.933331, "lat": -25.883329}}, {"id": 3436388, "name": "Alsina", "country": "AR", "coord": {"lon": -59.38866, "lat": -33.908981}}, {"id": 3427326, "name": "Wilde", "country": "AR", "coord": {"lon": -58.31287, "lat": -34.694672}}, {"id": 3864851, "name": "Banda del R\u00edo Sal\u00ed", "country": "AR", "coord": {"lon": -65.166672, "lat": -26.83333}}, {"id": 3435010, "name": "Don Torcuato", "country": "AR", "coord": {"lon": -58.639149, "lat": -34.496738}}, {"id": 3430876, "name": "Manzone", "country": "AR", "coord": {"lon": -58.868252, "lat": -34.484619}}, {"id": 3865884, "name": "Amen\u00e1bar", "country": "AR", "coord": {"lon": -62.421452, "lat": -34.133228}}, {"id": 3430813, "name": "Mart\u00ednez", "country": "AR", "coord": {"lon": -58.516788, "lat": -34.493969}}, {"id": 3841493, "name": "P\u00e9rez Mill\u00e1n", "country": "AR", "coord": {"lon": -60.094158, "lat": -33.76936}}, {"id": 3859522, "name": "Darregueira", "country": "AR", "coord": {"lon": -63.160759, "lat": -37.688919}}, {"id": 3427453, "name": "Villa de Mayo", "country": "AR", "coord": {"lon": -58.67952, "lat": -34.504719}}, {"id": 3866417, "name": "Departamento de Alberdi", "country": "AR", "coord": {"lon": -62.75, "lat": -26.5}}, {"id": 3832666, "name": "Villa Nueva", "country": "AR", "coord": {"lon": -63.666672, "lat": -26.549999}}, {"id": 3836669, "name": "San Rafael", "country": "AR", "coord": {"lon": -68.33007, "lat": -34.617722}}, {"id": 3840762, "name": "Portena", "country": "AR", "coord": {"lon": -62.066502, "lat": -31.01391}}, {"id": 3862254, "name": "Catriel", "country": "AR", "coord": {"lon": -67.795601, "lat": -37.87907}}, {"id": 3860431, "name": "Concaran", "country": "AR", "coord": {"lon": -65.242699, "lat": -32.560089}}, {"id": 3433910, "name": "Floresta", "country": "AR", "coord": {"lon": -58.46619, "lat": -34.63335}}, {"id": 3428609, "name": "San Miguel del Monte", "country": "AR", "coord": {"lon": -58.806751, "lat": -35.439621}}, {"id": 3841684, "name": "Pedro Luro", "country": "AR", "coord": {"lon": -62.68169, "lat": -39.502541}}, {"id": 3430102, "name": "Paso del Rey", "country": "AR", "coord": {"lon": -58.75898, "lat": -34.656219}}, {"id": 3843392, "name": "Navarro", "country": "AR", "coord": {"lon": -63.220119, "lat": -29.179609}}, {"id": 3840253, "name": "Puan", "country": "AR", "coord": {"lon": -62.767231, "lat": -37.545761}}, {"id": 3855607, "name": "Fern\u00e1ndez", "country": "AR", "coord": {"lon": -63.89349, "lat": -27.92038}}, {"id": 3862599, "name": "Partido de Carlos Tejedor", "country": "AR", "coord": {"lon": -62.416672, "lat": -35.416672}}, {"id": 3862600, "name": "Carlos Tejedor", "country": "AR", "coord": {"lon": -62.421459, "lat": -35.392651}}, {"id": 3427753, "name": "Partido de Tigre", "country": "AR", "coord": {"lon": -58.58279, "lat": -34.420582}}, {"id": 3427761, "name": "Tigre", "country": "AR", "coord": {"lon": -58.57962, "lat": -34.426029}}, {"id": 3859910, "name": "Cr\u00e1mer", "country": "AR", "coord": {"lon": -65.357368, "lat": -33.699951}}, {"id": 3863395, "name": "Calder\u00f3n", "country": "AR", "coord": {"lon": -62.054909, "lat": -38.72271}}, {"id": 3433661, "name": "Departamento de Gualeguay", "country": "AR", "coord": {"lon": -59.583328, "lat": -33}}, {"id": 3433663, "name": "Gualeguay", "country": "AR", "coord": {"lon": -59.309662, "lat": -33.14156}}, {"id": 3861056, "name": "Cipolletti", "country": "AR", "coord": {"lon": -67.990318, "lat": -38.933922}}, {"id": 3837441, "name": "San Jorge", "country": "AR", "coord": {"lon": -61.85984, "lat": -31.896179}}, {"id": 3427426, "name": "Departamento de Villaguay", "country": "AR", "coord": {"lon": -59, "lat": -31.58333}}, {"id": 3427428, "name": "Villaguay", "country": "AR", "coord": {"lon": -59.02689, "lat": -31.865299}}, {"id": 3855974, "name": "Esquel", "country": "AR", "coord": {"lon": -71.316673, "lat": -42.900002}}, {"id": 3838506, "name": "Rufino", "country": "AR", "coord": {"lon": -62.71262, "lat": -34.268269}}, {"id": 3860163, "name": "Partido de Coronel Su\u00e1rez", "country": "AR", "coord": {"lon": -61.833328, "lat": -37.5}}, {"id": 3860164, "name": "Coronel Suarez", "country": "AR", "coord": {"lon": -61.93343, "lat": -37.45467}}, {"id": 3435971, "name": "Boulogne", "country": "AR", "coord": {"lon": -58.565811, "lat": -34.50732}}, {"id": 3434146, "name": "Energ\u00eda", "country": "AR", "coord": {"lon": -59.35519, "lat": -38.558601}}, {"id": 3427430, "name": "Villa Giambruno", "country": "AR", "coord": {"lon": -58.209499, "lat": -34.80336}}, {"id": 3433975, "name": "Ezeiza", "country": "AR", "coord": {"lon": -58.52869, "lat": -34.84787}}, {"id": 3434509, "name": "El Palomar", "country": "AR", "coord": {"lon": -58.61528, "lat": -34.541672}}, {"id": 3436022, "name": "Billinghurst", "country": "AR", "coord": {"lon": -58.58559, "lat": -34.579762}}, {"id": 3436080, "name": "Beccar", "country": "AR", "coord": {"lon": -58.534809, "lat": -34.46312}}, {"id": 3427413, "name": "Villa Le\u00f3n", "country": "AR", "coord": {"lon": -58.702599, "lat": -34.631969}}, {"id": 3429316, "name": "San Andr\u00e9s", "country": "AR", "coord": {"lon": -58.545292, "lat": -34.563091}}, {"id": 3430513, "name": "Mu\u00f1iz", "country": "AR", "coord": {"lon": -58.698399, "lat": -34.546749}}, {"id": 3427602, "name": "Turdera", "country": "AR", "coord": {"lon": -58.402771, "lat": -34.790451}}, {"id": 3427464, "name": "Villa Basso", "country": "AR", "coord": {"lon": -58.591759, "lat": -34.63377}}, {"id": 3433522, "name": "Hurlingham", "country": "AR", "coord": {"lon": -58.63905, "lat": -34.58831}}, {"id": 3435376, "name": "Ciudadela", "country": "AR", "coord": {"lon": -58.540779, "lat": -34.637718}}, {"id": 3431333, "name": "Liniers", "country": "AR", "coord": {"lon": -58.523861, "lat": -34.64286}}, {"id": 3430544, "name": "Partido de Mor\u00f3n", "country": "AR", "coord": {"lon": -58.621941, "lat": -34.65139}}, {"id": 3430545, "name": "Moron", "country": "AR", "coord": {"lon": -58.619751, "lat": -34.653439}}, {"id": 3427397, "name": "Villa Mart\u00ednez de Hoz", "country": "AR", "coord": {"lon": -58.575951, "lat": -34.62307}}, {"id": 3428075, "name": "Santos Lugares", "country": "AR", "coord": {"lon": -58.545921, "lat": -34.600159}}, {"id": 3428775, "name": "San Justo", "country": "AR", "coord": {"lon": -58.560581, "lat": -34.676601}}, {"id": 3433293, "name": "Juan Mar\u00eda Guti\u00e9rrez", "country": "AR", "coord": {"lon": -58.190182, "lat": -34.840092}}, {"id": 3435375, "name": "Ciudad General Belgrano", "country": "AR", "coord": {"lon": -58.529789, "lat": -34.722961}}, {"id": 3427417, "name": "Villa Insuperable", "country": "AR", "coord": {"lon": -58.511051, "lat": -34.67083}}, {"id": 3430787, "name": "Mataderos", "country": "AR", "coord": {"lon": -58.5, "lat": -34.666672}}, {"id": 3427470, "name": "Villa Ansaldi", "country": "AR", "coord": {"lon": -58.51445, "lat": -34.6796}}, {"id": 3427373, "name": "Villa San Francisco", "country": "AR", "coord": {"lon": -58.203659, "lat": -34.772331}}, {"id": 3436038, "name": "Partido de Berisso", "country": "AR", "coord": {"lon": -57.833328, "lat": -34.916672}}, {"id": 3436040, "name": "Berisso", "country": "AR", "coord": {"lon": -57.88303, "lat": -34.873501}}, {"id": 3434155, "name": "Empalme San Vicente", "country": "AR", "coord": {"lon": -58.376171, "lat": -34.982639}}, {"id": 3855075, "name": "General Pico", "country": "AR", "coord": {"lon": -63.756821, "lat": -35.65662}}, {"id": 3846861, "name": "Partido de Lincoln", "country": "AR", "coord": {"lon": -61.75, "lat": -35}}, {"id": 3846864, "name": "Lincoln", "country": "AR", "coord": {"lon": -61.530201, "lat": -34.866489}}, {"id": 3435406, "name": "Partido de Chivilcoy", "country": "AR", "coord": {"lon": -59.916672, "lat": -34.916672}}, {"id": 3861344, "name": "Chivilcoy", "country": "AR", "coord": {"lon": -60.01667, "lat": -34.89566}}, {"id": 3837857, "name": "San Carlos Centro", "country": "AR", "coord": {"lon": -61.091919, "lat": -31.72864}}, {"id": 3864331, "name": "Bell Ville", "country": "AR", "coord": {"lon": -62.688728, "lat": -32.625912}}, {"id": 3832734, "name": "Villa General Belgrano", "country": "AR", "coord": {"lon": -64.555901, "lat": -31.97542}}, {"id": 3430834, "name": "Mariano Moreno", "country": "AR", "coord": {"lon": -58.929169, "lat": -34.463329}}, {"id": 3832780, "name": "Villa Colonia Italiana", "country": "AR", "coord": {"lon": -62.17894, "lat": -33.312199}}, {"id": 3859839, "name": "Cruz Alta", "country": "AR", "coord": {"lon": -61.807461, "lat": -33.008869}}, {"id": 3864307, "name": "Berabev\u00fa", "country": "AR", "coord": {"lon": -61.861542, "lat": -33.339458}}, {"id": 3427582, "name": "Urdinarrain", "country": "AR", "coord": {"lon": -58.893242, "lat": -32.68573}}, {"id": 3866395, "name": "Aldea Brava", "country": "AR", "coord": {"lon": -60.581421, "lat": -32.117939}}, {"id": 3832778, "name": "Villa Constitucion", "country": "AR", "coord": {"lon": -60.3297, "lat": -33.227779}}, {"id": 3855357, "name": "Freyre", "country": "AR", "coord": {"lon": -62.09861, "lat": -31.16448}}, {"id": 3436434, "name": "Aldea Asunci\u00f3n", "country": "AR", "coord": {"lon": -59.239262, "lat": -32.821861}}, {"id": 3845676, "name": "Los Quebrachos", "country": "AR", "coord": {"lon": -61.206879, "lat": -31.6031}}, {"id": 3435264, "name": "Concepcion del Uruguay", "country": "AR", "coord": {"lon": -58.237221, "lat": -32.482491}}, {"id": 3866163, "name": "Alta Gracia", "country": "AR", "coord": {"lon": -64.428261, "lat": -31.65292}}, {"id": 3832665, "name": "Villa Nueva", "country": "AR", "coord": {"lon": -64.833328, "lat": -26.633329}}, {"id": 3429635, "name": "Rafael Castillo", "country": "AR", "coord": {"lon": -58.62706, "lat": -34.69857}}, {"id": 3427406, "name": "Villa Luzuriaga", "country": "AR", "coord": {"lon": -58.582191, "lat": -34.656818}}, {"id": 3842258, "name": "Palmitas", "country": "AR", "coord": {"lon": -64.954582, "lat": -27.234591}}, {"id": 3862655, "name": "Carcarana", "country": "AR", "coord": {"lon": -61.153309, "lat": -32.856789}}, {"id": 3427687, "name": "Tortuguitas", "country": "AR", "coord": {"lon": -58.759171, "lat": -34.469681}}, {"id": 3436079, "name": "Bel\u00e9n de Escobar", "country": "AR", "coord": {"lon": -58.793079, "lat": -34.349049}}, {"id": 3433461, "name": "Ingeniero Maschwitz", "country": "AR", "coord": {"lon": -58.737621, "lat": -34.38839}}, {"id": 3850929, "name": "Laguna Larga", "country": "AR", "coord": {"lon": -63.801041, "lat": -31.77652}}, {"id": 3427411, "name": "Villa Libertad", "country": "AR", "coord": {"lon": -58.567268, "lat": -34.5835}}, {"id": 3435417, "name": "Chillar", "country": "AR", "coord": {"lon": -59.98436, "lat": -37.312328}}, {"id": 3430982, "name": "Partido de Luj\u00e1n", "country": "AR", "coord": {"lon": -59.166672, "lat": -34.583328}}, {"id": 3430988, "name": "Lujan", "country": "AR", "coord": {"lon": -59.105, "lat": -34.570278}}, {"id": 3427465, "name": "Villa Barilari", "country": "AR", "coord": {"lon": -58.331501, "lat": -34.702759}}, {"id": 3436152, "name": "Banfield", "country": "AR", "coord": {"lon": -58.404099, "lat": -34.744709}}, {"id": 3433922, "name": "Partido de Florencio Varela", "country": "AR", "coord": {"lon": -58.25, "lat": -34.833328}}, {"id": 3433923, "name": "Florencio Varela", "country": "AR", "coord": {"lon": -58.395561, "lat": -34.827221}}, {"id": 3433321, "name": "Jos\u00e9 M\u00e1rmol", "country": "AR", "coord": {"lon": -58.374889, "lat": -34.787998}}, {"id": 3429636, "name": "Rafael Calzada", "country": "AR", "coord": {"lon": -58.354019, "lat": -34.791908}}, {"id": 3431325, "name": "Llavallol", "country": "AR", "coord": {"lon": -58.43092, "lat": -34.789558}}, {"id": 3845310, "name": "Maciel", "country": "AR", "coord": {"lon": -60.88736, "lat": -32.455742}}, {"id": 3428759, "name": "San Lorenzo", "country": "AR", "coord": {"lon": -58.76733, "lat": -28.13306}}, {"id": 3429651, "name": "Partido de Quilmes", "country": "AR", "coord": {"lon": -58.25, "lat": -34.75}}, {"id": 3429652, "name": "Quilmes", "country": "AR", "coord": {"lon": -58.252651, "lat": -34.724178}}, {"id": 3865385, "name": "Arroyo Seco", "country": "AR", "coord": {"lon": -60.508629, "lat": -33.154888}}, {"id": 3435962, "name": "Partido de Brandsen", "country": "AR", "coord": {"lon": -58.166672, "lat": -35.25}}, {"id": 3435963, "name": "Brandsen", "country": "AR", "coord": {"lon": -58.234268, "lat": -35.168419}}, {"id": 3859966, "name": "Cosme Sud", "country": "AR", "coord": {"lon": -64.116669, "lat": -31.883329}}, {"id": 3832260, "name": "Yerba Buena", "country": "AR", "coord": {"lon": -65.316673, "lat": -26.816669}}, {"id": 3838725, "name": "Departamento de Robles", "country": "AR", "coord": {"lon": -63.916672, "lat": -27.83333}}, {"id": 3846649, "name": "Lomitas", "country": "AR", "coord": {"lon": -63.872429, "lat": -27.88883}}, {"id": 3832936, "name": "Viclos", "country": "AR", "coord": {"lon": -64.900002, "lat": -27.16667}}, {"id": 3859384, "name": "Diamante", "country": "AR", "coord": {"lon": -60.638359, "lat": -32.06641}}, {"id": 3856022, "name": "Esperanza", "country": "AR", "coord": {"lon": -60.931728, "lat": -31.448799}}, {"id": 3832768, "name": "Villa del Lago", "country": "AR", "coord": {"lon": -64.50666, "lat": -31.416479}}, {"id": 3833266, "name": "Valenzuela", "country": "AR", "coord": {"lon": -65.403313, "lat": -27.4139}}, {"id": 3865373, "name": "Arteaga", "country": "AR", "coord": {"lon": -61.790039, "lat": -33.087879}}, {"id": 3840222, "name": "Pueblo Elisa", "country": "AR", "coord": {"lon": -61.519081, "lat": -32.680672}}, {"id": 3865449, "name": "Armstrong", "country": "AR", "coord": {"lon": -61.602219, "lat": -32.78215}}, {"id": 3832694, "name": "Villa Maria", "country": "AR", "coord": {"lon": -63.240162, "lat": -32.407509}}, {"id": 3864054, "name": "Bobadal", "country": "AR", "coord": {"lon": -64.39576, "lat": -26.718809}}, {"id": 3832781, "name": "Villa Colanchanga", "country": "AR", "coord": {"lon": -64.354927, "lat": -31.1462}}, {"id": 3859965, "name": "Cosquin", "country": "AR", "coord": {"lon": -64.46563, "lat": -31.245081}}, {"id": 3864043, "name": "Boca del Tigre", "country": "AR", "coord": {"lon": -64.716667, "lat": -27.25}}, {"id": 3861528, "name": "Chichinales", "country": "AR", "coord": {"lon": -66.927139, "lat": -39.115051}}, {"id": 3431608, "name": "Las Toninas", "country": "AR", "coord": {"lon": -56.700001, "lat": -36.48333}}, {"id": 3848894, "name": "Larrechea", "country": "AR", "coord": {"lon": -61.0466, "lat": -31.93548}}, {"id": 3832745, "name": "Villa Estela", "country": "AR", "coord": {"lon": -61.311958, "lat": -33.709141}}, {"id": 3436124, "name": "Barranqueras", "country": "AR", "coord": {"lon": -58.935791, "lat": -27.48299}}, {"id": 3436430, "name": "Aldea San Juan", "country": "AR", "coord": {"lon": -58.768822, "lat": -32.69767}}, {"id": 3433822, "name": "General Almada", "country": "AR", "coord": {"lon": -58.804729, "lat": -32.836899}}, {"id": 3436159, "name": "Bancalari", "country": "AR", "coord": {"lon": -58.600899, "lat": -34.476559}}, {"id": 3842621, "name": "Oncativo", "country": "AR", "coord": {"lon": -63.682011, "lat": -31.91353}}, {"id": 3837675, "name": "San Francisco", "country": "AR", "coord": {"lon": -62.082661, "lat": -31.427971}}, {"id": 3835767, "name": "San Vicente", "country": "AR", "coord": {"lon": -65.087601, "lat": -26.97653}}, {"id": 3863887, "name": "Bowen", "country": "AR", "coord": {"lon": -67.508987, "lat": -34.99889}}, {"id": 3865810, "name": "Anchoris", "country": "AR", "coord": {"lon": -68.914658, "lat": -33.321129}}, {"id": 3833520, "name": "Tunuy\u00e1n", "country": "AR", "coord": {"lon": -69.015381, "lat": -33.57653}}, {"id": 3840082, "name": "San Julian", "country": "AR", "coord": {"lon": -67.727432, "lat": -49.305538}}, {"id": 3432555, "name": "Laferrere", "country": "AR", "coord": {"lon": -58.58791, "lat": -34.748299}}, {"id": 3864759, "name": "Departamento de Bariloche", "country": "AR", "coord": {"lon": -71.5, "lat": -41.5}}, {"id": 3837856, "name": "San Carlos de Bariloche", "country": "AR", "coord": {"lon": -71.300003, "lat": -41.150002}}, {"id": 7647007, "name": "San Carlos de Bariloche", "country": "AR", "coord": {"lon": -71.30822, "lat": -41.145569}}, {"id": 3855114, "name": "General Fernandez Oro", "country": "AR", "coord": {"lon": -67.924889, "lat": -38.952969}}, {"id": 3832711, "name": "Villa La Angostura", "country": "AR", "coord": {"lon": -71.646309, "lat": -40.76173}}, {"id": 3840896, "name": "Plaza Huincul", "country": "AR", "coord": {"lon": -69.208633, "lat": -38.92598}}, {"id": 3841363, "name": "Pichi Leuf\u00fa", "country": "AR", "coord": {"lon": -70.849998, "lat": -41.133331}}, {"id": 3435280, "name": "Comandante Nicanor Otamendi", "country": "AR", "coord": {"lon": -57.838089, "lat": -38.114151}}, {"id": 3427832, "name": "Partido de Tandil", "country": "AR", "coord": {"lon": -59.25, "lat": -37.333328}}, {"id": 3427833, "name": "Tandil", "country": "AR", "coord": {"lon": -59.13316, "lat": -37.321671}}, {"id": 3434189, "name": "El Verano", "country": "AR", "coord": {"lon": -58.542309, "lat": -37.740841}},