[{"id": 725623, "name": "Vurshets", "country": "BG", "coord": {"lon": 23.28611, "lat": 43.195278}}, {"id": 781171, "name": "Vushnic\u00eb", "country": "AL", "coord": {"lon": 20.066669, "lat": 42.349998}}, {"id": 784097, "name": "Vushtrri", "country": "XK", "coord": {"lon": 20.967501, "lat": 42.823059}}, {"id": 662376, "name": "Vutcani", "country": "RO", "coord": {"lon": 27.966669, "lat": 46.466671}}, {"id": 1253077, "name": "Vuyyuru", "country": "IN", "coord": {"lon": 80.849998, "lat": 16.366671}}, {"id": 3187020, "name": "Vuzenica", "country": "SI", "coord": {"lon": 15.16722, "lat": 46.59639}}, {"id": 784091, "name": "Vu\u010dje", "country": "RS", "coord": {"lon": 21.91139, "lat": 42.86528}}, {"id": 688805, "name": "Vvedenka", "country": "UA", "coord": {"lon": 36.507469, "lat": 49.824409}}, {"id": 470819, "name": "Vvedenskoye", "country": "RU", "coord": {"lon": 36.894444, "lat": 55.695278}}, {"id": 1486677, "name": "Vvedenskoye", "country": "RU", "coord": {"lon": 65.084717, "lat": 55.475281}}, {"id": 470820, "name": "Vvedenskoye", "country": "RU", "coord": {"lon": 38.013332, "lat": 55.285557}}, {"id": 470817, "name": "Vvedenskoye", "country": "RU", "coord": {"lon": 35.636551, "lat": 56.375381}}, {"id": 148942, "name": "Vwawa", "country": "TZ", "coord": {"lon": 32.933331, "lat": -9.11667}}, {"id": 629986, "name": "Vyalikaya Byerastavitsa", "country": "BY", "coord": {"lon": 24.0166, "lat": 53.195999}}, {"id": 629829, "name": "Vyaliki Trastsyanets", "country": "BY", "coord": {"lon": 27.7139, "lat": 53.851002}}, {"id": 470782, "name": "Vyalovskaya", "country": "RU", "coord": {"lon": 43.650002, "lat": 56.599998}}, {"id": 470783, "name": "Vyal\u2019kovo", "country": "RU", "coord": {"lon": 37.837223, "lat": 55.473888}}, {"id": 1253074, "name": "Vyara", "country": "IN", "coord": {"lon": 73.400002, "lat": 21.116671}}, {"id": 470762, "name": "Vyartsilya", "country": "RU", "coord": {"lon": 30.692961, "lat": 62.176449}}, {"id": 470743, "name": "Vyatkino", "country": "RU", "coord": {"lon": 37.361668, "lat": 55.264721}}, {"id": 470734, "name": "Vyatskiye Polyany", "country": "RU", "coord": {"lon": 51.065571, "lat": 56.226021}}, {"id": 2013229, "name": "Vyazemskiy", "country": "RU", "coord": {"lon": 134.752502, "lat": 47.537777}}, {"id": 470676, "name": "Vyazma", "country": "RU", "coord": {"lon": 34.295078, "lat": 55.210388}}, {"id": 470666, "name": "Vyazniki", "country": "RU", "coord": {"lon": 42.166672, "lat": 56.25}}, {"id": 470653, "name": "Vyazovaya", "country": "RU", "coord": {"lon": 58.35611, "lat": 54.904999}}, {"id": 470566, "name": "Vyazovskoye", "country": "RU", "coord": {"lon": 41.086666, "lat": 57.180832}}, {"id": 470549, "name": "Vybor", "country": "RU", "coord": {"lon": 29.1663, "lat": 57.227161}}, {"id": 470546, "name": "Vyborg", "country": "RU", "coord": {"lon": 28.752831, "lat": 60.70763}}, {"id": 470530, "name": "Vychegodskiy", "country": "RU", "coord": {"lon": 46.898418, "lat": 61.247021}}, {"id": 2013226, "name": "Vydreno", "country": "RU", "coord": {"lon": 104.643333, "lat": 51.465279}}, {"id": 470499, "name": "Vydropuzhsk", "country": "RU", "coord": {"lon": 34.842869, "lat": 57.3647}}, {"id": 470494, "name": "Vydumki", "country": "RU", "coord": {"lon": 37.318699, "lat": 54.726643}}, {"id": 942360, "name": "Vyekraal", "country": "ZA", "coord": {"lon": 23.342501, "lat": -34.10078}}, {"id": 620255, "name": "Vyerkhnyadzvinsk", "country": "BY", "coord": {"lon": 27.944281, "lat": 55.781502}}, {"id": 620214, "name": "Vyetka", "country": "BY", "coord": {"lon": 31.179399, "lat": 52.559101}}, {"id": 470473, "name": "Vygonichi", "country": "RU", "coord": {"lon": 34.06728, "lat": 53.098549}}, {"id": 470451, "name": "Vykhino-Zhulebino", "country": "RU", "coord": {"lon": 37.821945, "lat": 55.701389}}, {"id": 470444, "name": "Vyksa", "country": "RU", "coord": {"lon": 42.174438, "lat": 55.317501}}, {"id": 688750, "name": "Vylkove", "country": "UA", "coord": {"lon": 29.585951, "lat": 45.402142}}, {"id": 688749, "name": "Vylok", "country": "UA", "coord": {"lon": 22.83865, "lat": 48.10915}}, {"id": 470437, "name": "Vyl\u2019gort", "country": "RU", "coord": {"lon": 50.757301, "lat": 61.622829}}, {"id": 688746, "name": "Vynohradiv", "country": "UA", "coord": {"lon": 22.76667, "lat": 48.150002}}, {"id": 689543, "name": "Vynohradivka", "country": "UA", "coord": {"lon": 28.571381, "lat": 45.68119}}, {"id": 689531, "name": "Vynohradove", "country": "UA", "coord": {"lon": 32.9398, "lat": 46.369572}}, {"id": 470390, "name": "Vypolzovo", "country": "RU", "coord": {"lon": 33.698608, "lat": 57.876671}}, {"id": 6608309, "name": "Vypolzovo", "country": "RU", "coord": {"lon": 43.337776, "lat": 56.641945}}, {"id": 470400, "name": "Vypolzovo", "country": "RU", "coord": {"lon": 40.182499, "lat": 54.526112}}, {"id": 470368, "name": "Vyritsa", "country": "RU", "coord": {"lon": 30.348061, "lat": 59.40778}}, {"id": 6610533, "name": "Vyrokino", "country": "RU", "coord": {"lon": 41.795277, "lat": 58.176388}}, {"id": 251948, "name": "Vyronas", "country": "GR", "coord": {"lon": 23.75, "lat": 37.966671}}, {"id": 6417680, "name": "Vyrubovo", "country": "RU", "coord": {"lon": 37.304443, "lat": 55.675835}}, {"id": 6417433, "name": "Vyrubovo", "country": "RU", "coord": {"lon": 37.624168, "lat": 55.567501}}, {"id": 470346, "name": "Vyrypayevka", "country": "RU", "coord": {"lon": 47.033333, "lat": 54.116669}}, {"id": 470338, "name": "Vyselki", "country": "RU", "coord": {"lon": 39.659721, "lat": 45.579445}}, {"id": 817048, "name": "Vyselki", "country": "RU", "coord": {"lon": 39.785561, "lat": 54.036671}}, {"id": 470304, "name": "Vysha", "country": "RU", "coord": {"lon": 42.377659, "lat": 53.847679}}, {"id": 688663, "name": "Vyshchetarasivka", "country": "UA", "coord": {"lon": 34.880959, "lat": 47.568501}}, {"id": 470299, "name": "Vyshegorod", "country": "RU", "coord": {"lon": 36.181389, "lat": 55.238056}}, {"id": 688726, "name": "Vyshegrad", "country": "UA", "coord": {"lon": 29.933332, "lat": 50.450001}}, {"id": 797083, "name": "Vyshestebliyevskaya", "country": "RU", "coord": {"lon": 37.018059, "lat": 45.19611}}, {"id": 688723, "name": "Vyshhorod", "country": "UA", "coord": {"lon": 30.489799, "lat": 50.584759}}, {"id": 470274, "name": "Vyshkov", "country": "RU", "coord": {"lon": 31.6873, "lat": 52.476398}}, {"id": 688717, "name": "Vyshkovo", "country": "UA", "coord": {"lon": 23.421129, "lat": 48.04911}}, {"id": 689488, "name": "Vyshneve", "country": "UA", "coord": {"lon": 33.91618, "lat": 48.436611}}, {"id": 689487, "name": "Vyshneve", "country": "UA", "coord": {"lon": 30.370501, "lat": 50.38913}}, {"id": 470268, "name": "Vyshneye Dolgoye", "country": "RU", "coord": {"lon": 37.405182, "lat": 52.063019}}, {"id": 470252, "name": "Vyshniy Volochek", "country": "RU", "coord": {"lon": 34.564529, "lat": 57.591251}}, {"id": 3062283, "name": "Vyskov", "country": "CZ", "coord": {"lon": 16.99897, "lat": 49.27747}}, {"id": 723143, "name": "Vysne Ruzbachy", "country": "SK", "coord": {"lon": 20.56558, "lat": 49.303871}}, {"id": 3062257, "name": "Vysocany", "country": "CZ", "coord": {"lon": 14.51667, "lat": 50.116669}}, {"id": 470218, "name": "Vysokaya", "country": "RU", "coord": {"lon": 43.866943, "lat": 60.189999}}, {"id": 470212, "name": "Vysokaya Gora", "country": "RU", "coord": {"lon": 49.30167, "lat": 55.912781}}, {"id": 619818, "name": "Vysokaye", "country": "BY", "coord": {"lon": 23.370831, "lat": 52.370911}}, {"id": 688681, "name": "Vysoke", "country": "UA", "coord": {"lon": 35.403889, "lat": 47.231388}}, {"id": 3062214, "name": "Vysoke Myto", "country": "CZ", "coord": {"lon": 16.16169, "lat": 49.953201}}, {"id": 723119, "name": "Vysoke Tatry", "country": "SK", "coord": {"lon": 20.24386, "lat": 49.136372}}, {"id": 3062213, "name": "Vysoke nad Jizerou", "country": "CZ", "coord": {"lon": 15.40152, "lat": 50.685589}}, {"id": 1486604, "name": "Vysokiy", "country": "RU", "coord": {"lon": 60.049999, "lat": 58.349998}}, {"id": 619822, "name": "Vysokiye Lyady", "country": "BY", "coord": {"lon": 28.200001, "lat": 54.066666}}, {"id": 2013216, "name": "Vysokogornyy", "country": "RU", "coord": {"lon": 139.149994, "lat": 50.116669}}, {"id": 688689, "name": "Vysokopillya", "country": "UA", "coord": {"lon": 33.530609, "lat": 47.491871}}, {"id": 470151, "name": "Vysokova", "country": "RU", "coord": {"lon": 42.166668, "lat": 58.116669}}, {"id": 470135, "name": "Vysokovo", "country": "RU", "coord": {"lon": 36.200001, "lat": 56.383331}}, {"id": 470144, "name": "Vysokovo", "country": "RU", "coord": {"lon": 38.466946, "lat": 55.801945}}, {"id": 470042, "name": "Vysokovo", "country": "RU", "coord": {"lon": 37.180557, "lat": 55.103611}}, {"id": 470142, "name": "Vysokovo", "country": "RU", "coord": {"lon": 36.930557, "lat": 55.906944}}, {"id": 470118, "name": "Vysokovo", "country": "RU", "coord": {"lon": 43.895279, "lat": 57.38028}}, {"id": 6608861, "name": "Vysokovo", "country": "RU", "coord": {"lon": 43.68972, "lat": 56.922501}}, {"id": 470148, "name": "Vysokovo", "country": "RU", "coord": {"lon": 41.933334, "lat": 55.349998}}, {"id": 470128, "name": "Vysokovo", "country": "RU", "coord": {"lon": 42.400002, "lat": 56.766666}}, {"id": 573202, "name": "Vysokovo", "country": "RU", "coord": {"lon": 41.416111, "lat": 56.482224}}, {"id": 470012, "name": "Vysokovo", "country": "RU", "coord": {"lon": 44.02306, "lat": 56.310001}}, {"id": 470083, "name": "Vysokovsk", "country": "RU", "coord": {"lon": 36.549999, "lat": 56.316669}}, {"id": 816883, "name": "Vysokoye", "country": "RU", "coord": {"lon": 35.531666, "lat": 54.224445}}, {"id": 688675, "name": "Vysokoye", "country": "UA", "coord": {"lon": 29.516666, "lat": 50.383331}}, {"id": 803498, "name": "Vysokoye", "country": "RU", "coord": {"lon": 39.965832, "lat": 43.460556}}, {"id": 688696, "name": "Vysokyy", "country": "UA", "coord": {"lon": 36.119999, "lat": 49.89056}}, {"id": 3062224, "name": "Vysok\u00e1 \u0160tola", "country": "CZ", "coord": {"lon": 12.76989, "lat": 50.323002}}, {"id": 1486594, "name": "Vysotinka", "country": "RU", "coord": {"lon": 60.116669, "lat": 60.166672}}, {"id": 469995, "name": "Vysotsk", "country": "RU", "coord": {"lon": 28.57048, "lat": 60.628792}}, {"id": 469991, "name": "Vysotskoye", "country": "RU", "coord": {"lon": 42.906391, "lat": 45.025002}}, {"id": 3062184, "name": "Vyssi Brod", "country": "CZ", "coord": {"lon": 14.31183, "lat": 48.615978}}, {"id": 469960, "name": "Vytegra", "country": "RU", "coord": {"lon": 36.448109, "lat": 61.006359}}, {"id": 6610077, "name": "Vyyezd", "country": "RU", "coord": {"lon": 42.696388, "lat": 56.164722}}, {"id": 469933, "name": "Vyyezdnoye", "country": "RU", "coord": {"lon": 43.786381, "lat": 55.381538}}, {"id": 619805, "name": "Vyzhary Pervyye", "country": "BY", "coord": {"lon": 29.516666, "lat": 53.316666}}, {"id": 619803, "name": "Vyzhary Vtoryye", "country": "BY", "coord": {"lon": 29.533333, "lat": 53.316666}}, {"id": 689434, "name": "Vyzhnytsya", "country": "UA", "coord": {"lon": 25.194521, "lat": 48.248009}}, {"id": 2610816, "name": "V\u00e1ga S\u00fdsla", "country": "FO", "coord": {"lon": -7.25, "lat": 62.083328}}, {"id": 8010834, "name": "V\u00e1lega", "country": "PT", "coord": {"lon": -8.59028, "lat": 40.837872}}, {"id": 6357785, "name": "V\u00e1lor", "country": "ES", "coord": {"lon": -3.09421, "lat": 37.029411}}, {"id": 714258, "name": "V\u00e1raditag", "country": "HU", "coord": {"lon": 22.133329, "lat": 47.833328}}, {"id": 3043117, "name": "V\u00e1rkonyitanya", "country": "HU", "coord": {"lon": 18.98333, "lat": 46.916672}}, {"id": 3043096, "name": "V\u00e1rosr\u00e9tid\u0171l\u0151", "country": "HU", "coord": {"lon": 18.933331, "lat": 46.98333}}, {"id": 2261835, "name": "V\u00e1rzea", "country": "PT", "coord": {"lon": -8.33333, "lat": 39.51667}}, {"id": 2732929, "name": "V\u00e1rzea", "country": "PT", "coord": {"lon": -8.04546, "lat": 40.523079}}, {"id": 3445453, "name": "V\u00e1rzea do Po\u00e7o", "country": "BR", "coord": {"lon": -40.320278, "lat": -11.52917}}, {"id": 632924, "name": "V\u00e4h\u00e4kyr\u00f6", "country": "FI", "coord": {"lon": 22.08333, "lat": 63.083328}}, {"id": 7522485, "name": "V\u00e4ike-Maarja vald", "country": "EE", "coord": {"lon": 26.314171, "lat": 59.065559}}, {"id": 7522486, "name": "V\u00e4ndra vald", "country": "EE", "coord": {"lon": 25.04941, "lat": 58.622509}}, {"id": 7522487, "name": "V\u00e4ndra vald (alev)", "country": "EE", "coord": {"lon": 25.037889, "lat": 58.655472}}, {"id": 2665174, "name": "V\u00e4ne \u00c5saka", "country": "SE", "coord": {"lon": 12.41667, "lat": 58.25}}, {"id": 2665170, "name": "V\u00e4nersborgs Kommun", "country": "SE", "coord": {"lon": 12.23333, "lat": 58.416672}}, {"id": 2664880, "name": "V\u00e4rmd\u00f6 Kommun", "country": "SE", "coord": {"lon": 18.58333, "lat": 59.299999}}, {"id": 2664870, "name": "V\u00e4rmlands L\u00e4n", "country": "SE", "coord": {"lon": 13.25, "lat": 59.75}}, {"id": 2664852, "name": "V\u00e4rnamo Kommun", "country": "SE", "coord": {"lon": 14.08333, "lat": 57.200001}}, {"id": 2664529, "name": "V\u00e4stansj\u00f6", "country": "SE", "coord": {"lon": 15.51667, "lat": 60.416672}}, {"id": 2664415, "name": "V\u00e4sterbottens L\u00e4n", "country": "SE", "coord": {"lon": 17.5, "lat": 65}}, {"id": 2664330, "name": "V\u00e4sterhus", "country": "SE", "coord": {"lon": 14.46667, "lat": 63.200001}}, {"id": 2664315, "name": "V\u00e4sterlo", "country": "SE", "coord": {"lon": 16.683331, "lat": 62.416672}}, {"id": 2664292, "name": "V\u00e4sternorrlands L\u00e4n", "country": "SE", "coord": {"lon": 17.5, "lat": 63}}, {"id": 2664201, "name": "V\u00e4sterviks Kommun", "country": "SE", "coord": {"lon": 16.38306, "lat": 57.799721}}, {"id": 2664441, "name": "V\u00e4ster\u00e5s Kommun", "country": "SE", "coord": {"lon": 16.58333, "lat": 59.616669}}, {"id": 2664194, "name": "V\u00e4sthammar", "country": "SE", "coord": {"lon": 17.76667, "lat": 63.033329}}, {"id": 2664179, "name": "V\u00e4stmanlands L\u00e4n", "country": "SE", "coord": {"lon": 16.33333, "lat": 59.75}}, {"id": 2664129, "name": "V\u00e4stra B\u00f6ckestad", "country": "SE", "coord": {"lon": 15.66667, "lat": 58.400002}}, {"id": 3337386, "name": "V\u00e4stra G\u00f6talands L\u00e4n", "country": "SE", "coord": {"lon": 13, "lat": 58}}, {"id": 2658183, "name": "V\u00e4ttis", "country": "CH", "coord": {"lon": 9.44275, "lat": 46.909698}}, {"id": 2663548, "name": "V\u00e4vle", "country": "SE", "coord": {"lon": 16.700001, "lat": 59.450001}}, {"id": 2663535, "name": "V\u00e4xj\u00f6 Kommun", "country": "SE", "coord": {"lon": 14.81667, "lat": 56.866669}}, {"id": 587977, "name": "V\u00e4\u00e4nikvere", "country": "EE", "coord": {"lon": 26.398331, "lat": 58.513611}}, {"id": 3133027, "name": "V\u00e5ge", "country": "NO", "coord": {"lon": 5.51778, "lat": 60.04694}}, {"id": 6453385, "name": "V\u00e5ler", "country": "NO", "coord": {"lon": 10.86551, "lat": 59.488701}}, {"id": 632425, "name": "V\u00e5rd\u00f6", "country": "AX", "coord": {"lon": 20.41667, "lat": 60.25}}, {"id": 3337383, "name": "V\u00e6rl\u00f8se", "country": "DK", "coord": {"lon": 12.375, "lat": 55.724998}}, {"id": 2244122, "name": "V\u00e8ndou S\u00e9no", "country": "SN", "coord": {"lon": -15.0865, "lat": 15.2707}}, {"id": 6613430, "name": "V\u00e8ze", "country": "FR", "coord": {"lon": 3, "lat": 45.26667}}, {"id": 2969479, "name": "V\u00e8ze", "country": "FR", "coord": {"lon": 3, "lat": 45.26667}}, {"id": 2970250, "name": "V\u00e9drenne", "country": "FR", "coord": {"lon": 2.31667, "lat": 45.433331}}, {"id": 2970248, "name": "V\u00e9drines", "country": "FR", "coord": {"lon": 3.38915, "lat": 45.245762}}, {"id": 714144, "name": "V\u00e9ghtanya", "country": "HU", "coord": {"lon": 22.566669, "lat": 47.883331}}, {"id": 3427528, "name": "V\u00e9lez Sarsfield", "country": "AR", "coord": {"lon": -58.48333, "lat": -34.633331}}, {"id": 6357786, "name": "V\u00e9lez de Benaudalla", "country": "ES", "coord": {"lon": -3.49026, "lat": 36.831161}}, {"id": 6355610, "name": "V\u00e9lez-Blanco", "country": "ES", "coord": {"lon": -2.09012, "lat": 37.770081}}, {"id": 6359498, "name": "V\u00e9lez-M\u00e1laga", "country": "ES", "coord": {"lon": -4.12321, "lat": 36.760712}}, {"id": 6355611, "name": "V\u00e9lez-Rubio", "country": "ES", "coord": {"lon": -2.05476, "lat": 37.594849}}, {"id": 6612375, "name": "V\u00e9lines", "country": "FR", "coord": {"lon": 0.11667, "lat": 44.849998}}, {"id": 6444093, "name": "V\u00e9lizy-Villacoublay", "country": "FR", "coord": {"lon": 2.1887, "lat": 48.7836}}, {"id": 6446350, "name": "V\u00e9mars", "country": "FR", "coord": {"lon": 2.56667, "lat": 49.066669}}, {"id": 6441809, "name": "V\u00e9nissieux", "country": "FR", "coord": {"lon": 4.8869, "lat": 45.697498}}, {"id": 6431477, "name": "V\u00e9n\u00e9jan", "country": "FR", "coord": {"lon": 4.66667, "lat": 44.200001}}, {"id": 6432496, "name": "V\u00e9rac", "country": "FR", "coord": {"lon": -0.33333, "lat": 44.98333}}, {"id": 2970023, "name": "V\u00e9rac", "country": "FR", "coord": {"lon": -0.33333, "lat": 44.98333}}, {"id": 6433148, "name": "V\u00e9retz", "country": "FR", "coord": {"lon": 0.8, "lat": 47.366669}}, {"id": 6428168, "name": "V\u00e9rines", "country": "FR", "coord": {"lon": -0.96667, "lat": 46.200001}}, {"id": 6446066, "name": "V\u00e9ron", "country": "FR", "coord": {"lon": 3.3, "lat": 48.133331}}, {"id": 3063011, "name": "V\u00e9sky", "country": "CZ", "coord": {"lon": 17.500401, "lat": 49.043819}}, {"id": 6443074, "name": "V\u00e9traz-Monthoux", "country": "FR", "coord": {"lon": 6.25912, "lat": 46.17424}}, {"id": 7287443, "name": "V\u00e9troz", "country": "CH", "coord": {"lon": 7.27066, "lat": 46.225842}}, {"id": 6436908, "name": "V\u00e9zelise", "country": "FR", "coord": {"lon": 6.08333, "lat": 48.48333}}, {"id": 6431481, "name": "V\u00e9z\u00e9nobres", "country": "FR", "coord": {"lon": 4.15, "lat": 44.049999}}, {"id": 6434470, "name": "V\u00e9z\u00e9zoux", "country": "FR", "coord": {"lon": 3.35, "lat": 45.400002}}, {"id": 2969470, "name": "V\u00e9z\u00e9zoux", "country": "FR", "coord": {"lon": 3.34812, "lat": 45.40432}}, {"id": 474203, "name": "V\u00ebrtnoye", "country": "RU", "coord": {"lon": 35.190834, "lat": 53.949165}}, {"id": 3980302, "name": "V\u00edcam", "country": "MX", "coord": {"lon": -110.333328, "lat": 27.58333}}, {"id": 6355614, "name": "V\u00edcar", "country": "ES", "coord": {"lon": -2.67696, "lat": 36.819248}}, {"id": 2625252, "name": "V\u00edk", "country": "IS", "coord": {"lon": -19.00831, "lat": 63.419701}}, {"id": 8145341, "name": "V\u00edla N\u00f3va", "country": "GR", "coord": {"lon": 28.081079, "lat": 36.405811}}, {"id": 3062806, "name": "V\u00edtkovice", "country": "CZ", "coord": {"lon": 15.5312, "lat": 50.67902}}, {"id": 6357790, "name": "V\u00edznar", "country": "ES", "coord": {"lon": -3.54482, "lat": 37.232529}}, {"id": 7522481, "name": "V\u00f5hma linn", "country": "EE", "coord": {"lon": 25.55481, "lat": 58.63102}}, {"id": 7522484, "name": "V\u00f5ru linn", "country": "EE", "coord": {"lon": 27.00119, "lat": 57.835529}}, {"id": 587448, "name": "V\u00f5rumaa", "country": "EE", "coord": {"lon": 27.049999, "lat": 57.847221}}, {"id": 587445, "name": "V\u00f5su", "country": "EE", "coord": {"lon": 25.975281, "lat": 59.572498}}, {"id": 7872178, "name": "V\u00f6cklabruck", "country": "AT", "coord": {"lon": 13.65411, "lat": 48.012291}}, {"id": 7873270, "name": "V\u00f6cklamarkt", "country": "AT", "coord": {"lon": 13.48969, "lat": 47.991009}}, {"id": 6552698, "name": "V\u00f6gelsen", "country": "DE", "coord": {"lon": 10.35, "lat": 53.283298}}, {"id": 6553286, "name": "V\u00f6hl", "country": "DE", "coord": {"lon": 8.8878, "lat": 51.181499}}, {"id": 6558129, "name": "V\u00f6hrenbach", "country": "DE", "coord": {"lon": 8.3, "lat": 48.049999}}, {"id": 6555817, "name": "V\u00f6hringen", "country": "DE", "coord": {"lon": 8.66396, "lat": 48.3344}}, {"id": 2816688, "name": "V\u00f6lkenroth", "country": "DE", "coord": {"lon": 7.4, "lat": 50.033329}}, {"id": 7872806, "name": "V\u00f6lkermarkt", "country": "AT", "coord": {"lon": 14.60618, "lat": 46.673168}}, {"id": 2816667, "name": "V\u00f6lkersen", "country": "DE", "coord": {"lon": 9.23333, "lat": 53}}, {"id": 6549900, "name": "V\u00f6lkershausen", "country": "DE", "coord": {"lon": 10.05, "lat": 50.799999}}, {"id": 2816653, "name": "V\u00f6lkersleier", "country": "DE", "coord": {"lon": 9.78333, "lat": 50.183331}}, {"id": 6555225, "name": "V\u00f6lkersweiler", "country": "DE", "coord": {"lon": 7.93333, "lat": 49.166698}}, {"id": 2816600, "name": "V\u00f6lkshagen", "country": "DE", "coord": {"lon": 12.39043, "lat": 54.15937}}, {"id": 2816582, "name": "V\u00f6llenerfehn", "country": "DE", "coord": {"lon": 7.41667, "lat": 53.099998}}, {"id": 2816574, "name": "V\u00f6lling", "country": "DE", "coord": {"lon": 12.5, "lat": 49.099998}}, {"id": 3207392, "name": "V\u00f6llinghausen", "country": "DE", "coord": {"lon": 8.2, "lat": 51.466671}}, {"id": 6549313, "name": "V\u00f6lpke", "country": "DE", "coord": {"lon": 11.1, "lat": 52.133301}}, {"id": 7873627, "name": "V\u00f6ls", "country": "AT", "coord": {"lon": 11.32245, "lat": 47.25227}}, {"id": 6547857, "name": "V\u00f6lschow", "country": "DE", "coord": {"lon": 13.3333, "lat": 53.883301}}, {"id": 6555773, "name": "V\u00f6rstetten", "country": "DE", "coord": {"lon": 7.85, "lat": 48.0667}}, {"id": 7872983, "name": "V\u00f6sendorf", "country": "AT", "coord": {"lon": 16.33753, "lat": 48.119122}}, {"id": 8128759, "name": "V\u00f6yri", "country": "FI", "coord": {"lon": 22.249371, "lat": 63.13047}}, {"id": 112311, "name": "V\u0101l\u0101njerd", "country": "IR", "coord": {"lon": 48.8339, "lat": 33.860901}}, {"id": 461225, "name": "V\u0101rpas", "country": "LV", "coord": {"lon": 24.35194, "lat": 56.70694}}, {"id": 1517443, "name": "V\u012bshnevka", "country": "KZ", "coord": {"lon": 72.178329, "lat": 50.83778}}, {"id": 6615119, "name": "V\u0153uil-et-Giget", "country": "FR", "coord": {"lon": 0.15, "lat": 45.583328}}, {"id": 725639, "name": "V\u016drbovo", "country": "BG", "coord": {"lon": 25.866671, "lat": 41.76667}}, {"id": 725615, "name": "V\u016drzulitsa", "country": "BG", "coord": {"lon": 25.466669, "lat": 43.433331}}, {"id": 2294206, "name": "Wa", "country": "GH", "coord": {"lon": -2.50192, "lat": 10.06069}}, {"id": 4281083, "name": "WaKeeney", "country": "US", "coord": {"lon": -99.87957, "lat": 39.025009}}, {"id": 6551933, "name": "Waabs", "country": "DE", "coord": {"lon": 9.98333, "lat": 54.533298}}, {"id": 2815812, "name": "Waabs", "country": "DE", "coord": {"lon": 9.98333, "lat": 54.533329}}, {"id": 2145141, "name": "Waaia", "country": "AU", "coord": {"lon": 145.350006, "lat": -36.049999}}, {"id": 50814, "name": "Waajid", "country": "SO", "coord": {"lon": 43.246281, "lat": 3.80958}}, {"id": 6552350, "name": "Waake", "country": "DE", "coord": {"lon": 10.05, "lat": 51.549999}}, {"id": 2815807, "name": "Waake", "country": "DE", "coord": {"lon": 10.05713, "lat": 51.55637}}, {"id": 6556282, "name": "Waakirchen", "country": "DE", "coord": {"lon": 11.6894, "lat": 47.765301}}, {"id": 2815804, "name": "Waakirchen", "country": "DE", "coord": {"lon": 11.67315, "lat": 47.772499}}, {"id": 2815803, "name": "Waal", "country": "DE", "coord": {"lon": 10.78333, "lat": 48}}, {"id": 2815800, "name": "Waalhaupten", "country": "DE", "coord": {"lon": 10.78333, "lat": 47.966671}}, {"id": 2745127, "name": "Waalre", "country": "NL", "coord": {"lon": 5.44444, "lat": 51.386669}}, {"id": 2745123, "name": "Waalwijk", "country": "NL", "coord": {"lon": 5.07083, "lat": 51.682499}}, {"id": 2145140, "name": "Waanyarra", "country": "AU", "coord": {"lon": 143.800003, "lat": -36.799999}}, {"id": 2784238, "name": "Waarschoot", "country": "BE", "coord": {"lon": 3.60726, "lat": 51.15329}}, {"id": 2784237, "name": "Waarschoot", "country": "BE", "coord": {"lon": 3.605, "lat": 51.1525}}, {"id": 2784234, "name": "Waasdonk", "country": "BE", "coord": {"lon": 4.45, "lat": 51.183331}}, {"id": 2815795, "name": "Waase", "country": "DE", "coord": {"lon": 13.18333, "lat": 54.466671}}, {"id": 2784232, "name": "Waasmunster", "country": "BE", "coord": {"lon": 4.07734, "lat": 51.118839}}, {"id": 2784231, "name": "Waasmunster", "country": "BE", "coord": {"lon": 4.08573, "lat": 51.105721}}, {"id": 2815794, "name": "Waaswitz", "country": "DE", "coord": {"lon": 12.16667, "lat": 50.916672}}, {"id": 2815793, "name": "Waat", "country": "DE", "coord": {"lon": 6.49575, "lat": 51.145432}}, {"id": 2084246, "name": "Wabag", "country": "PG", "coord": {"lon": 143.702148, "lat": -5.47808}}, {"id": 6174727, "name": "Wabana", "country": "CA", "coord": {"lon": -52.948059, "lat": 47.63319}}, {"id": 4927746, "name": "Wabash", "country": "US", "coord": {"lon": -85.820541, "lat": 40.797821}}, {"id": 5051594, "name": "Wabasha", "country": "US", "coord": {"lon": -92.032944, "lat": 44.383862}}, {"id": 5051601, "name": "Wabasha County", "country": "US", "coord": {"lon": -92.216843, "lat": 44.283298}}, {"id": 4177270, "name": "Wabasso Beach", "country": "US", "coord": {"lon": -80.398941, "lat": 27.76475}}, {"id": 4281087, "name": "Wabaunsee County", "country": "US", "coord": {"lon": -95.996101, "lat": 39.129169}}, {"id": 2815785, "name": "Wabern", "country": "DE", "coord": {"lon": 7.15, "lat": 50.400002}}, {"id": 6553281, "name": "Wabern", "country": "DE", "coord": {"lon": 9.35, "lat": 51.099998}}, {"id": 2815784, "name": "Wabern", "country": "DE", "coord": {"lon": 9.35, "lat": 51.099998}}, {"id": 6174790, "name": "Wabigoon", "country": "CA", "coord": {"lon": -92.583611, "lat": 49.71674}}, {"id": 6174830, "name": "Wabowden", "country": "CA", "coord": {"lon": -98.63031, "lat": 54.909031}}, {"id": 3082734, "name": "Wabrzezno", "country": "PL", "coord": {"lon": 18.947729, "lat": 53.279888}}, {"id": 1912209, "name": "Wabu", "country": "KR", "coord": {"lon": 127.220284, "lat": 37.589722}}, {"id": 6174844, "name": "Wabush", "country": "CA", "coord": {"lon": -66.86541, "lat": 52.90015}}, {"id": 2137735, "name": "Wacamadra", "country": "NC", "coord": {"lon": 168.033325, "lat": -21.466669}}, {"id": 6548735, "name": "Wachau", "country": "DE", "coord": {"lon": 13.9, "lat": 51.166698}}, {"id": 2815782, "name": "Wachau", "country": "DE", "coord": {"lon": 13.9, "lat": 51.166672}}, {"id": 2815748, "name": "Wachenbuchen", "country": "DE", "coord": {"lon": 8.86667, "lat": 50.166672}}, {"id": 2815744, "name": "Wachendorf", "country": "DE", "coord": {"lon": 6.73333, "lat": 50.599998}}, {"id": 6554879, "name": "Wachenheim", "country": "DE", "coord": {"lon": 8.2282, "lat": 49.607601}}, {"id": 2815740, "name": "Wachenheim", "country": "DE", "coord": {"lon": 8.16667, "lat": 49.636669}}, {"id": 2815739, "name": "Wachenheim an der Weinstrasse", "country": "DE", "coord": {"lon": 8.17722, "lat": 49.44722}}, {"id": 2815735, "name": "Wachenroth", "country": "DE", "coord": {"lon": 10.71667, "lat": 49.75}}, {"id": 2815717, "name": "Wachholz", "country": "DE", "coord": {"lon": 8.80988, "lat": 53.438969}}, {"id": 7510908, "name": "Wachira Barami", "country": "TH", "coord": {"lon": 100.144638, "lat": 16.52314}}, {"id": 756258, "name": "Wachock", "country": "PL", "coord": {"lon": 21.01243, "lat": 51.07391}}, {"id": 2815696, "name": "Wachow", "country": "DE", "coord": {"lon": 12.75736, "lat": 52.533661}}, {"id": 7287512, "name": "Wachseldorn", "country": "CH", "coord": {"lon": 7.73712, "lat": 46.820099}}, {"id": 2658083, "name": "Wachseldorn", "country": "CH", "coord": {"lon": 7.72507, "lat": 46.822048}}, {"id": 2815694, "name": "Wachsenberg", "country": "DE", "coord": {"lon": 10.23333, "lat": 49.383331}}, {"id": 6549825, "name": "Wachstedt", "country": "DE", "coord": {"lon": 10.25, "lat": 51.299999}}, {"id": 2815689, "name": "Wachstedt", "country": "DE", "coord": {"lon": 10.25, "lat": 51.299999}}, {"id": 6553084, "name": "Wachtberg", "country": "DE", "coord": {"lon": 7.1259, "lat": 50.6213}}, {"id": 2815678, "name": "Wachtberg", "country": "DE", "coord": {"lon": 7.1, "lat": 50.633331}}, {"id": 2784228, "name": "Wachtebeke", "country": "BE", "coord": {"lon": 3.87247, "lat": 51.17881}}, {"id": 2784227, "name": "Wachtebeke", "country": "BE", "coord": {"lon": 3.87183, "lat": 51.168522}}, {"id": 6553036, "name": "Wachtendonk", "country": "DE", "coord": {"lon": 6.2919, "lat": 51.3974}}, {"id": 2815651, "name": "Wachtendonk", "country": "DE", "coord": {"lon": 6.33894, "lat": 51.409161}}, {"id": 2815642, "name": "Wachtersbach", "country": "DE", "coord": {"lon": 9.29564, "lat": 50.255112}}, {"id": 2815627, "name": "Wachtnitz", "country": "DE", "coord": {"lon": 13.35, "lat": 51.183331}}, {"id": 2815626, "name": "Wachtum", "country": "DE", "coord": {"lon": 7.71667, "lat": 52.783329}}, {"id": 6552251, "name": "Wacken", "country": "DE", "coord": {"lon": 9.37619, "lat": 54.020809}}, {"id": 2815623, "name": "Wacken", "country": "DE", "coord": {"lon": 9.37597, "lat": 54.020779}}, {"id": 2815606, "name": "Wackerling", "country": "DE", "coord": {"lon": 12.65, "lat": 49.25}}, {"id": 6555305, "name": "Wackernheim", "country": "DE", "coord": {"lon": 8.11667, "lat": 49.9744}}, {"id": 2815605, "name": "Wackernheim", "country": "DE", "coord": {"lon": 8.11667, "lat": 49.974442}}, {"id": 2815604, "name": "Wackerow", "country": "DE", "coord": {"lon": 12.98333, "lat": 53.683331}}, {"id": 6548326, "name": "Wackerow", "country": "DE", "coord": {"lon": 13.35, "lat": 54.099998}}, {"id": 2815603, "name": "Wackerow", "country": "DE", "coord": {"lon": 13.34513, "lat": 54.1035}}, {"id": 6556132, "name": "Wackersberg", "country": "DE", "coord": {"lon": 11.55, "lat": 47.733299}}, {"id": 2815600, "name": "Wackersberg", "country": "DE", "coord": {"lon": 11.55, "lat": 47.73333}}, {"id": 6556712, "name": "Wackersdorf", "country": "DE", "coord": {"lon": 12.1833, "lat": 49.3167}}, {"id": 2815598, "name": "Wackersdorf", "country": "DE", "coord": {"lon": 12.18333, "lat": 49.316669}}, {"id": 2815594, "name": "Wackersleben", "country": "DE", "coord": {"lon": 11.01667, "lat": 52.066669}}, {"id": 4739526, "name": "Waco", "country": "US", "coord": {"lon": -97.146667, "lat": 31.54933}}, {"id": 2145135, "name": "Wacol", "country": "AU", "coord": {"lon": 152.933334, "lat": -27.58333}}, {"id": 5051640, "name": "Waconia", "country": "US", "coord": {"lon": -93.786911, "lat": 44.8508}}, {"id": 5013849, "name": "Wacousta", "country": "US", "coord": {"lon": -84.700821, "lat": 42.827808}}, {"id": 2634930, "name": "Wacton", "country": "GB", "coord": {"lon": -2.56667, "lat": 52.216671}}, {"id": 364103, "name": "Wad Medani", "country": "SD", "coord": {"lon": 33.51989, "lat": 14.40118}}, {"id": 364071, "name": "Wad Rawah", "country": "SD", "coord": {"lon": 33.139721, "lat": 15.16028}}, {"id": 364216, "name": "Wad az Zaki", "country": "SD", "coord": {"lon": 32.206501, "lat": 14.4619}}, {"id": 2110608, "name": "Wada", "country": "JP", "coord": {"lon": 140.216675, "lat": 39.650002}}, {"id": 34846, "name": "Wadarah", "country": "YE", "coord": {"lon": 43.483212, "lat": 15.71073}}, {"id": 1848991, "name": "Wadayama", "country": "JP", "coord": {"lon": 134.866669, "lat": 35.316669}}, {"id": 2145131, "name": "Wadbilliga", "country": "AU", "coord": {"lon": 149.649994, "lat": -36.25}}, {"id": 2145129, "name": "Waddamana", "country": "AU", "coord": {"lon": 146.75, "lat": -42.133331}}, {"id": 2209055, "name": "Waddan", "country": "LY", "coord": {"lon": 16.13904, "lat": 29.1614}}, {"id": 2634925, "name": "Waddesdon", "country": "GB", "coord": {"lon": -0.92105, "lat": 51.846748}}, {"id": 2815580, "name": "Waddewarden", "country": "DE", "coord": {"lon": 7.95, "lat": 53.599998}}, {"id": 6558470, "name": "Waddeweitz", "country": "DE", "coord": {"lon": 10.971, "lat": 53.006401}}, {"id": 2815579, "name": "Waddeweitz", "country": "DE", "coord": {"lon": 10.96667, "lat": 53}}, {"id": 2059400, "name": "Waddington", "country": "AU", "coord": {"lon": 116.25, "lat": -30.85}}, {"id": 2634923, "name": "Waddington", "country": "GB", "coord": {"lon": -0.53333, "lat": 53.166672}}, {"id": 2745096, "name": "Waddinxveen", "country": "NL", "coord": {"lon": 4.65139, "lat": 52.044998}}, {"id": 4449994, "name": "Wade", "country": "US", "coord": {"lon": -88.56974, "lat": 30.64242}}, {"id": 4599937, "name": "Wade Hampton", "country": "US", "coord": {"lon": -82.333168, "lat": 34.903728}}, {"id": 5877533, "name": "Wade Hampton Census Area", "country": "US", "coord": {"lon": -163.000565, "lat": 62.250561}}, {"id": 2634920, "name": "Wadebridge", "country": "GB", "coord": {"lon": -4.83633, "lat": 50.517342}}, {"id": 2815574, "name": "Wadelsdorf", "country": "DE", "coord": {"lon": 14.48333, "lat": 51.616669}}, {"id": 6174914, "name": "Wadena", "country": "CA", "coord": {"lon": -103.801018, "lat": 51.949989}}, {"id": 5051659, "name": "Wadena", "country": "US", "coord": {"lon": -95.136139, "lat": 46.442459}}, {"id": 2815568, "name": "Wadendorf", "country": "DE", "coord": {"lon": 12.18333, "lat": 51.683331}}, {"id": 8142610, "name": "Wadeng", "country": "ID", "coord": {"lon": 112.513901, "lat": -6.9664}}, {"id": 2658082, "name": "Wadenswil", "country": "CH", "coord": {"lon": 8.6687, "lat": 47.22683}}, {"id": 2815565, "name": "Wadern", "country": "DE", "coord": {"lon": 6.88333, "lat": 49.533329}}, {"id": 6553116, "name": "Wadersloh", "country": "DE", "coord": {"lon": 8.2329, "lat": 51.751701}}, {"id": 2815563, "name": "Wadersloh", "country": "DE", "coord": {"lon": 8.25, "lat": 51.73333}}, {"id": 4497244, "name": "Wadesboro", "country": "US", "coord": {"lon": -80.076729, "lat": 34.968208}}, {"id": 2180482, "name": "Wadestown", "country": "NZ", "coord": {"lon": 174.766663, "lat": -41.26667}}, {"id": 2145116, "name": "Wadeville", "country": "AU", "coord": {"lon": 153.133331, "lat": -28.566669}}, {"id": 1253052, "name": "Wadgaon", "country": "IN", "coord": {"lon": 73.650002, "lat": 18.73333}}, {"id": 6547528, "name": "Wadgassen", "country": "DE", "coord": {"lon": 6.78333, "lat": 49.266701}}, {"id": 2815559, "name": "Wadgassen", "country": "DE", "coord": {"lon": 6.78333, "lat": 49.26667}}, {"id": 6174926, "name": "Wadhams", "country": "CA", "coord": {"lon": -127.50322, "lat": 51.51635}}, {"id": 2634918, "name": "Wadhurst", "country": "GB", "coord": {"lon": 0.33929, "lat": 51.062302}}, {"id": 1253041, "name": "Wadi", "country": "IN", "coord": {"lon": 76.98333, "lat": 17.066669}}, {"id": 281356, "name": "Wadi Fukin", "country": "PS", "coord": {"lon": 35.103661, "lat": 31.70702}}, {"id": 2464157, "name": "Wadi Maliz", "country": "TN", "coord": {"lon": 8.54951, "lat": 36.468128}}, {"id": 7890385, "name": "Wadi Rahhal", "country": "PS", "coord": {"lon": 35.167271, "lat": 31.665159}}, {"id": 162706, "name": "Wadi al Uyun", "country": "SY", "coord": {"lon": 36.186829, "lat": 35.00119}}, {"id": 6968055, "name": "Wadi as Salqa", "country": "PS", "coord": {"lon": 34.33754, "lat": 31.40048}}, {"id": 246013, "name": "Wadi as Sir", "country": "JO", "coord": {"lon": 35.81979, "lat": 31.95126}}, {"id": 5143022, "name": "Wading River", "country": "US", "coord": {"lon": -72.8209, "lat": 40.945549}}, {"id": 4229079, "name": "Wadley", "country": "US", "coord": {"lon": -82.404022, "lat": 32.866821}}, {"id": 1848988, "name": "Wadomari", "country": "JP", "coord": {"lon": 128.649994, "lat": 27.383329}}, {"id": 7533264, "name": "Wadowice", "country": "PL", "coord": {"lon": 19.495399, "lat": 49.884201}}, {"id": 3082722, "name": "Wadowice", "country": "PL", "coord": {"lon": 19.49292, "lat": 49.88335}}, {"id": 756246, "name": "Wadowice Gorne", "country": "PL", "coord": {"lon": 21.302151, "lat": 50.263119}}, {"id": 5175496, "name": "Wadsworth", "country": "US", "coord": {"lon": -81.729851, "lat": 41.025612}}, {"id": 4915294, "name": "Wadsworth", "country": "US", "coord": {"lon": -87.923973, "lat": 42.428631}}, {"id": 1965337, "name": "Wadung", "country": "ID", "coord": {"lon": 112.5923, "lat": -8.0454}}, {"id": 8077627, "name": "Wadung", "country": "ID", "coord": {"lon": 111.985298, "lat": -6.8144}}, {"id": 1906562, "name": "Wadungasri", "country": "ID", "coord": {"lon": 112.768303, "lat": -7.3451}}, {"id": 7382002, "name": "Wadusari", "country": "ID", "coord": {"lon": 118.907997, "lat": -8.5736}}, {"id": 7610642, "name": "Waebela", "country": "ID", "coord": {"lon": 120.973099, "lat": -8.9426}}, {"id": 6293106, "name": "Waedenswil / Boller-Giessen", "country": "CH", "coord": {"lon": 8.68385, "lat": 47.221149}}, {"id": 6293102, "name": "Waedenswil / Bueelen", "country": "CH", "coord": {"lon": 8.66346, "lat": 47.233952}}, {"id": 6293096, "name": "Waedenswil / Dorf (Waedenswil)", "country": "CH", "coord": {"lon": 8.6722, "lat": 47.229229}}, {"id": 6293105, "name": "Waedenswil / Eichweid", "country": "CH", "coord": {"lon": 8.6744, "lat": 47.218472}}, {"id": 6293101, "name": "Waedenswil / Hangenmoos", "country": "CH", "coord": {"lon": 8.65251, "lat": 47.233669}}, {"id": 6293104, "name": "Waedenswil / Leihof-Muehlebach", "country": "CH", "coord": {"lon": 8.67149, "lat": 47.22364}}, {"id": 6293103, "name": "Waedenswil / Untermosen-Fuhr", "country": "CH", "coord": {"lon": 8.66303, "lat": 47.227718}}, {"id": 1833514, "name": "Waegwan", "country": "KR", "coord": {"lon": 128.397324, "lat": 35.991749}}, {"id": 7458786, "name": "Waekolong", "country": "ID", "coord": {"lon": 120.729301, "lat": -8.7581}}, {"id": 4740533, "name": "Waelder", "country": "US", "coord": {"lon": -97.299156, "lat": 29.693291}}, {"id": 7566994, "name": "Waelengga", "country": "ID", "coord": {"lon": 120.807297, "lat": -8.8261}}, {"id": 7389915, "name": "Waenenda", "country": "ID", "coord": {"lon": 120.635902, "lat": -8.4539}}, {"id": 1604597, "name": "Waeng", "country": "TH", "coord": {"lon": 101.88382, "lat": 5.928}}, {"id": 1607600, "name": "Waeng", "country": "TH", "coord": {"lon": 103.977859, "lat": 16.30006}}, {"id": 1605179, "name": "Waeng Noi", "country": "TH", "coord": {"lon": 102.416138, "lat": 15.8035}}, {"id": 1605176, "name": "Waeng Yai", "country": "TH", "coord": {"lon": 102.546898, "lat": 15.95547}}, {"id": 7610721, "name": "Waepana", "country": "ID", "coord": {"lon": 121.037697, "lat": -8.6926}}, {"id": 7379258, "name": "Waepau", "country": "ID", "coord": {"lon": 120.2258, "lat": -8.8058}}, {"id": 7414475, "name": "Waepitak", "country": "ID", "coord": {"lon": 120.249901, "lat": -8.55}}, {"id": 7458820, "name": "Waerana", "country": "ID", "coord": {"lon": 120.715202, "lat": -8.7818}}, {"id": 7570445, "name": "Waetuwa", "country": "ID", "coord": {"lon": 120.606201, "lat": -8.3796}}, {"id": 7567989, "name": "Waewaso", "country": "ID", "coord": {"lon": 119.896698, "lat": -8.4905}}, {"id": 1792260, "name": "Wafangdian", "country": "CN", "coord": {"lon": 122.008057, "lat": 39.618328}}, {"id": 7408556, "name": "Wafanggou", "country": "CN", "coord": {"lon": 106.728088, "lat": 33.282902}}, {"id": 6547505, "name": "Waffenbrunn", "country": "DE", "coord": {"lon": 12.6667, "lat": 49.266701}}, {"id": 2815552, "name": "Waffenbrunn", "country": "DE", "coord": {"lon": 12.66667, "lat": 49.26667}}, {"id": 2815544, "name": "Waffenschmiede", "country": "DE", "coord": {"lon": 12.38333, "lat": 49.01667}}, {"id": 2815543, "name": "Waffensen", "country": "DE", "coord": {"lon": 9.31667, "lat": 53.116669}}, {"id": 2448705, "name": "Wagaman", "country": "ML", "coord": {"lon": 2.0368, "lat": 15.45}}, {"id": 3082718, "name": "Waganiec", "country": "PL", "coord": {"lon": 18.875891, "lat": 52.801201}}, {"id": 364027, "name": "Wagar", "country": "SD", "coord": {"lon": 36.203201, "lat": 16.1525}}, {"id": 8018557, "name": "Wage Cibahayu", "country": "ID", "coord": {"lon": 108.111099, "lat": -7.1206}}, {"id": 2815535, "name": "Wagenbach", "country": "DE", "coord": {"lon": 13.2, "lat": 50.633331}}, {"id": 2815524, "name": "Wagenfeld", "country": "DE", "coord": {"lon": 8.58333, "lat": 52.549999}}, {"id": 2815523, "name": "Wagenfeld", "country": "DE", "coord": {"lon": 8.58333, "lat": 52.549999}}, {"id": 7287514, "name": "Wagenhausen", "country": "CH", "coord": {"lon": 8.82718, "lat": 47.658009}}, {"id": 6553732, "name": "Wagenhausen", "country": "DE", "coord": {"lon": 6.98333, "lat": 50.150002}}, {"id": 2815513, "name": "Wagenhausen", "country": "DE", "coord": {"lon": 6.98333, "lat": 50.150002}}, {"id": 2658081, "name": "Wagenhausen", "country": "CH", "coord": {"lon": 8.8479, "lat": 47.659691}}, {"id": 2815509, "name": "Wagenhofen", "country": "DE", "coord": {"lon": 10.45, "lat": 48.683331}}, {"id": 6552328, "name": "Wagenhoff", "country": "DE", "coord": {"lon": 10.5167, "lat": 52.533298}}, {"id": 2815507, "name": "Wagenhoff", "country": "DE", "coord": {"lon": 10.51667, "lat": 52.533329}}, {"id": 2745088, "name": "Wageningen", "country": "NL", "coord": {"lon": 5.66667, "lat": 51.970001}}, {"id": 3382783, "name": "Wageningen", "country": "SR", "coord": {"lon": -56.683331, "lat": 5.76667}}, {"id": 6174961, "name": "Wager Bay", "country": "CA", "coord": {"lon": -90.816589, "lat": 65.934196}}, {"id": 6552007, "name": "Wagersrott", "country": "DE", "coord": {"lon": 9.8, "lat": 54.666698}}, {"id": 2815491, "name": "Wagersrott", "country": "DE", "coord": {"lon": 9.8, "lat": 54.666672}}, {"id": 2059380, "name": "Wagerup", "country": "AU", "coord": {"lon": 115.883331, "lat": -32.916672}}, {"id": 2815490, "name": "Wagesenberg", "country": "DE", "coord": {"lon": 11.06667, "lat": 48.566669}}, {"id": 7839778, "name": "Wagga Wagga", "country": "AU", "coord": {"lon": 147.355087, "lat": -35.185871}}, {"id": 2145110, "name": "Wagga Wagga", "country": "AU", "coord": {"lon": 147.366669, "lat": -35.116669}}, {"id": 4344819, "name": "Waggaman", "country": "US", "coord": {"lon": -90.210907, "lat": 29.918539}}, {"id": 2059372, "name": "Waggrakine", "country": "AU", "coord": {"lon": 114.616669, "lat": -28.716669}}, {"id": 2815488, "name": "Waggum", "country": "DE", "coord": {"lon": 10.55803, "lat": 52.326321}}, {"id": 7570121, "name": "Wagha", "country": "ID", "coord": {"lon": 121.158859, "lat": -8.86785}}, {"id": 1253024, "name": "Waghai", "country": "IN", "coord": {"lon": 73.48333, "lat": 20.76667}}, {"id": 2815487, "name": "Waghausel", "country": "DE", "coord": {"lon": 8.50722, "lat": 49.25639}}, {"id": 7839845, "name": "Wagin", "country": "AU", "coord": {"lon": 117.385536, "lat": -33.275009}}, {"id": 2059371, "name": "Wagin", "country": "AU", "coord": {"lon": 117.349998, "lat": -33.299999}}, {"id": 2815484, "name": "Waging am See", "country": "DE", "coord": {"lon": 12.73333, "lat": 47.933331}}, {"id": 2319345, "name": "Wagini", "country": "NG", "coord": {"lon": 7.19579, "lat": 12.68781}}, {"id": 1622392, "name": "Wagir", "country": "ID", "coord": {"lon": 112.5942, "lat": -8.0132}}, {"id": 7036926, "name": "Wagir", "country": "ID", "coord": {"lon": 112.5942, "lat": -8.0132}}, {"id": 7873478, "name": "Wagna", "country": "AT", "coord": {"lon": 15.5634, "lat": 46.772671}}, {"id": 2762109, "name": "Wagna", "country": "AT", "coord": {"lon": 15.55, "lat": 46.75}}, {"id": 5814838, "name": "Wagner", "country": "US", "coord": {"lon": -121.936508, "lat": 47.87899}}, {"id": 6174976, "name": "Wagner", "country": "CA", "coord": {"lon": -114.985588, "lat": 55.350128}}, {"id": 5232661, "name": "Wagner", "country": "US", "coord": {"lon": -98.293129, "lat": 43.07972}}, {"id": 2762104, "name": "Wagnitz", "country": "AT", "coord": {"lon": 15.46667, "lat": 46.98333}}, {"id": 5684708, "name": "Wagon Wheel Trailer Court", "country": "US", "coord": {"lon": -104.161331, "lat": 47.709461}}, {"id": 4554548, "name": "Wagoner", "country": "US", "coord": {"lon": -95.369408, "lat": 35.959541}}, {"id": 7873316, "name": "Wagrain", "country": "AT", "coord": {"lon": 13.31491, "lat": 47.333431}}, {"id": 2762102, "name": "Wagrain", "country": "AT", "coord": {"lon": 13.29889, "lat": 47.335281}}, {"id": 3334894, "name": "Wagram", "country": "AT", "coord": {"lon": 15.43333, "lat": 47.033329}}, {"id": 3082712, "name": "Wagrowiec", "country": "PL", "coord": {"lon": 17.19961, "lat": 52.808418}}, {"id": 2784211, "name": "Waha", "country": "BE", "coord": {"lon": 5.34174, "lat": 50.209148}}, {"id": 6438554, "name": "Wahagnies", "country": "FR", "coord": {"lon": 3.03333, "lat": 50.48333}}, {"id": 2967516, "name": "Wahagnies", "country": "FR", "coord": {"lon": 3.03448, "lat": 50.486649}}, {"id": 2056910, "name": "Wahang Dua", "country": "ID", "coord": {"lon": 120.028, "lat": -10.095}}, {"id": 2180471, "name": "Waharoa", "country": "NZ", "coord": {"lon": 175.766663, "lat": -37.76667}}, {"id": 2145098, "name": "Wahgunyah", "country": "AU", "coord": {"lon": 146.399994, "lat": -36.01667}}, {"id": 5853992, "name": "Wahiawa", "country": "US", "coord": {"lon": -158.023605, "lat": 21.502781}}, {"id": 6693321, "name": "Wahl", "country": "LU", "coord": {"lon": 5.90639, "lat": 49.83667}}, {"id": 2960017, "name": "Wahl", "country": "LU", "coord": {"lon": 5.90639, "lat": 49.83667}}, {"id": 6553979, "name": "Wahlbach", "country": "DE", "coord": {"lon": 7.6, "lat": 50}}, {"id": 2815456, "name": "Wahlbach", "country": "DE", "coord": {"lon": 7.6, "lat": 50}}, {"id": 2815444, "name": "Wahle", "country": "DE", "coord": {"lon": 10.36182, "lat": 52.270889}}, {"id": 7287515, "name": "Wahlen", "country": "CH", "coord": {"lon": 7.51145, "lat": 47.397991}}, {"id": 2815440, "name": "Wahlen", "country": "DE", "coord": {"lon": 6.56667, "lat": 50.48333}}, {"id": 2815441, "name": "Wahlen", "country": "DE", "coord": {"lon": 8.85722, "lat": 49.615559}}, {"id": 2658078, "name": "Wahlen", "country": "CH", "coord": {"lon": 7.56504, "lat": 46.75087}}, {"id": 2658077, "name": "Wahlen", "country": "CH", "coord": {"lon": 7.51511, "lat": 47.40226}}, {"id": 6553980, "name": "Wahlenau", "country": "DE", "coord": {"lon": 7.25, "lat": 49.900002}}, {"id": 2815436, "name": "Wahlenau", "country": "DE", "coord": {"lon": 7.25, "lat": 49.900002}}, {"id": 7287516, "name": "Wahlern", "country": "CH", "coord": {"lon": 7.35735, "lat": 46.819248}}, {"id": 2658076, "name": "Wahlern", "country": "CH", "coord": {"lon": 7.35318, "lat": 46.82806}}, {"id": 2815421, "name": "Wahles", "country": "DE", "coord": {"lon": 10.38333, "lat": 50.76667}}, {"id": 6549826, "name": "Wahlhausen", "country": "DE", "coord": {"lon": 9.98333, "lat": 51.299999}}, {"id": 2815419, "name": "Wahlhausen", "country": "DE", "coord": {"lon": 9.98333, "lat": 51.299999}}, {"id": 2960016, "name": "Wahlhausen", "country": "LU", "coord": {"lon": 6.12667, "lat": 49.985279}}, {"id": 6554880, "name": "Wahlheim", "country": "DE", "coord": {"lon": 8.10611, "lat": 49.7178}}, {"id": 2815418, "name": "Wahlheim", "country": "DE", "coord": {"lon": 8.10611, "lat": 49.717781}}, {"id": 2815417, "name": "Wahlheimer Hof", "country": "DE", "coord": {"lon": 8.23333, "lat": 49.866669}}, {"id": 2815412, "name": "Wahlitz", "country": "DE", "coord": {"lon": 11.78333, "lat": 52.099998}}, {"id": 7285000, "name": "Wahlkreis Rheintal", "country": "CH", "coord": {"lon": 9.57903, "lat": 47.377689}}, {"id": 6458838, "name": "Wahlkreis Rorschach", "country": "CH", "coord": {"lon": 9.44246, "lat": 47.466469}}, {"id": 2658792, "name": "Wahlkreis Sargans", "country": "CH", "coord": {"lon": 9.43333, "lat": 47.049999}}, {"id": 7285010, "name": "Wahlkreis See-Gaster", "country": "CH", "coord": {"lon": 9.0168, "lat": 47.22459}}, {"id": 6458770, "name": "Wahlkreis St. Gallen", "country": "CH", "coord": {"lon": 9.39052, "lat": 47.463421}}, {"id": 7285001, "name": "Wahlkreis Toggenburg", "country": "CH", "coord": {"lon": 9.17283, "lat": 47.294529}}, {"id": 6458880, "name": "Wahlkreis Werdenberg", "country": "CH", "coord": {"lon": 9.46299, "lat": 47.177429}}, {"id": 6458840, "name": "Wahlkreis Wil", "country": "CH", "coord": {"lon": 9.12451, "lat": 47.425911}}, {"id": 6554276, "name": "Wahlrod", "country": "DE", "coord": {"lon": 7.71667, "lat": 50.650002}}, {"id": 2815410, "name": "Wahlrod", "country": "DE", "coord": {"lon": 7.71667, "lat": 50.650002}}, {"id": 2815399, "name": "Wahlsdorf", "country": "DE", "coord": {"lon": 13.33333, "lat": 51.950001}}, {"id": 2815392, "name": "Wahlstedt", "country": "DE", "coord": {"lon": 10.21667, "lat": 53.950001}}, {"id": 6548392, "name": "Wahlstorf", "country": "DE", "coord": {"lon": 12.0833, "lat": 53.366699}}, {"id": 2815391, "name": "Wahlstorf", "country": "DE", "coord": {"lon": 12.09629, "lat": 53.361309}}, {"id": 6551783, "name": "Wahlstorf (Dorf)", "country": "DE", "coord": {"lon": 10.29513, "lat": 54.178261}}, {"id": 2815390, "name": "Wahlstorf (Dorf)", "country": "DE", "coord": {"lon": 10.29462, "lat": 54.17836}}, {"id": 3209161, "name": "Wahlstorf (Hof)", "country": "DE", "coord": {"lon": 10.30985, "lat": 54.195511}}, {"id": 2815382, "name": "Wahn", "country": "DE", "coord": {"lon": 7.3, "lat": 50.833328}}, {"id": 2815378, "name": "Wahnebergen", "country": "DE", "coord": {"lon": 9.23333, "lat": 52.900002}}, {"id": 4177308, "name": "Wahneta", "country": "US", "coord": {"lon": -81.72702, "lat": 27.952801}}, {"id": 6550053, "name": "Wahns", "country": "DE", "coord": {"lon": 10.3, "lat": 50.633301}}, {"id": 2815373, "name": "Wahns", "country": "DE", "coord": {"lon": 10.3, "lat": 50.633331}}, {"id": 2815372, "name": "Wahnscheid", "country": "DE", "coord": {"lon": 7.93333, "lat": 50.51667}}, {"id": 6555156, "name": "Wahnwegen", "country": "DE", "coord": {"lon": 7.38333, "lat": 49.483299}}, {"id": 2815369, "name": "Wahnwegen", "country": "DE", "coord": {"lon": 7.38333, "lat": 49.48333}}, {"id": 5081245, "name": "Wahoo", "country": "US", "coord": {"lon": -96.6203, "lat": 41.211391}}, {"id": 5062355, "name": "Wahpeton", "country": "US", "coord": {"lon": -96.605911, "lat": 46.26524}}, {"id": 2815353, "name": "Wahren", "country": "DE", "coord": {"lon": 12.33333, "lat": 51.366669}}, {"id": 2815350, "name": "Wahrenberg", "country": "DE", "coord": {"lon": 11.66667, "lat": 52.98333}}, {"id": 6552329, "name": "Wahrenholz", "country": "DE", "coord": {"lon": 10.6, "lat": 52.616699}}, {"id": 2815345, "name": "Wahrenholz", "country": "DE", "coord": {"lon": 10.6, "lat": 52.616669}}, {"id": 2145093, "name": "Wahring", "country": "AU", "coord": {"lon": 145.216675, "lat": -36.716671}}, {"id": 1253013, "name": "Wai", "country": "IN", "coord": {"lon": 73.900002, "lat": 17.933331}}, {"id": 5854171, "name": "Waialua", "country": "US", "coord": {"lon": -158.13028, "lat": 21.57667}}, {"id": 5854173, "name": "Waialua", "country": "US", "coord": {"lon": -156.761383, "lat": 21.100281}}, {"id": 5854189, "name": "Waianae", "country": "US", "coord": {"lon": -158.185867, "lat": 21.443399}}, {"id": 2180456, "name": "Waiareka Junction", "country": "NZ", "coord": {"lon": 170.933334, "lat": -45.099998}}, {"id": 2180448, "name": "Waiatarua", "country": "NZ", "coord": {"lon": 174.583328, "lat": -36.933331}}, {"id": 1622372, "name": "Waibakul", "country": "ID", "coord": {"lon": 119.572197, "lat": -9.5958}}, {"id": 2815331, "name": "Waibling", "country": "DE", "coord": {"lon": 12.63333, "lat": 48.716671}}, {"id": 2815330, "name": "Waiblingen", "country": "DE", "coord": {"lon": 9.31641, "lat": 48.832409}}, {"id": 2815328, "name": "Waibstadt", "country": "DE", "coord": {"lon": 8.91917, "lat": 49.298061}}, {"id": 2815321, "name": "Waidach", "country": "DE", "coord": {"lon": 11.41667, "lat": 49.73333}}, {"id": 2815317, "name": "Waidhaus", "country": "DE", "coord": {"lon": 12.49523, "lat": 49.642181}}, {"id": 6556342, "name": "Waidhofen", "country": "DE", "coord": {"lon": 11.3333, "lat": 48.583302}}, {"id": 2815315, "name": "Waidhofen", "country": "DE", "coord": {"lon": 11.33333, "lat": 48.583328}}, {"id": 7873049, "name": "Waidhofen an der Thaya", "country": "AT", "coord": {"lon": 15.32207, "lat": 48.81728}}, {"id": 2762079, "name": "Waidhofen an der Thaya", "country": "AT", "coord": {"lon": 15.28333, "lat": 48.816669}}, {"id": 2762077, "name": "Waidhofen an der Ybbs", "country": "AT", "coord": {"lon": 14.77361, "lat": 47.960041}}, {"id": 6621168, "name": "Waidhofen an der Ybbs", "country": "AT", "coord": {"lon": 14.77438, "lat": 47.959991}}, {"id": 7871490, "name": "Waidhofen an der Ybbs", "country": "AT", "coord": {"lon": 14.77996, "lat": 47.956299}}, {"id": 6545296, "name": "Waidmannlust", "country": "DE", "coord": {"lon": 13.32401, "lat": 52.607868}}, {"id": 7871942, "name": "Waidmannsfeld", "country": "AT", "coord": {"lon": 15.95067, "lat": 47.871052}}, {"id": 2762071, "name": "Waidmannsfeld", "country": "AT", "coord": {"lon": 15.98116, "lat": 47.870419}}, {"id": 7873643, "name": "Waidring", "country": "AT", "coord": {"lon": 12.57701, "lat": 47.586498}}, {"id": 2762070, "name": "Waidring", "country": "AT", "coord": {"lon": 12.56667, "lat": 47.583328}}, {"id": 6554277, "name": "Waigandshain", "country": "DE", "coord": {"lon": 8.08333, "lat": 50.650002}}, {"id": 2815305, "name": "Waigandshain", "country": "DE", "coord": {"lon": 8.08333, "lat": 50.650002}}, {"id": 6557073, "name": "Waigolshausen", "country": "DE", "coord": {"lon": 10.1333, "lat": 49.950001}}, {"id": 2815303, "name": "Waigolshausen", "country": "DE", "coord": {"lon": 10.13333, "lat": 49.950001}}, {"id": 7556085, "name": "Waiha", "country": "ID", "coord": {"lon": 119.042999, "lat": -9.6356}}, {"id": 7262796, "name": "Waihee-Waiehu", "country": "US", "coord": {"lon": -156.507584, "lat": 20.92494}}, {"id": 2208328, "name": "Waihi", "country": "NZ", "coord": {"lon": 175.833328, "lat": -37.383331}}, {"id": 2180393, "name": "Waihi Beach", "country": "NZ", "coord": {"lon": 175.933334, "lat": -37.400002}}, {"id": 7563856, "name": "Waihibar", "country": "ID", "coord": {"lon": 119.623703, "lat": -9.6099}}, {"id": 7411632, "name": "Waiholo", "country": "ID", "coord": {"lon": 119.084396, "lat": -9.5179}}, {"id": 1622351, "name": "Waikabubak", "country": "ID", "coord": {"lon": 119.388901, "lat": -9.6475}}, {"id": 2180340, "name": "Waikaia", "country": "NZ", "coord": {"lon": 168.850006, "lat": -45.73333}}, {"id": 7565022, "name": "Waikambila", "country": "ID", "coord": {"lon": 119.668999, "lat": -9.5324}}, {"id": 2180320, "name": "Waikanae", "country": "NZ", "coord": {"lon": 175.066666, "lat": -40.883331}}, {"id": 5854354, "name": "Waikapu", "country": "US", "coord": {"lon": -156.506943, "lat": 20.858061}}, {"id": 2180293, "name": "Waikato", "country": "NZ", "coord": {"lon": 175.333328, "lat": -37.5}}, {"id": 7910068, "name": "Waikato District", "country": "NZ", "coord": {"lon": 175.100952, "lat": -37.515781}}, {"id": 2059362, "name": "Waikerie", "country": "AU", "coord": {"lon": 139.983337, "lat": -34.183331}}, {"id": 5854410, "name": "Waikoloa", "country": "US", "coord": {"lon": -155.790283, "lat": 19.94306}}, {"id": 5854421, "name": "Waikoloa Village", "country": "US", "coord": {"lon": -155.827774, "lat": 19.932501}}, {"id": 2180219, "name": "Waikuku", "country": "NZ", "coord": {"lon": 172.683334, "lat": -43.299999}}, {"id": 7456076, "name": "Wailiang", "country": "ID", "coord": {"lon": 119.406998, "lat": -9.6355}}, {"id": 2967510, "name": "Wailly", "country": "FR", "coord": {"lon": 2.06792, "lat": 50.522869}}, {"id": 7563835, "name": "Wailolung", "country": "ID", "coord": {"lon": 119.581596, "lat": -9.5875}}, {"id": 5854469, "name": "Wailua", "country": "US", "coord": {"lon": -159.33522, "lat": 22.049219}}, {"id": 5854471, "name": "Wailua", "country": "US", "coord": {"lon": -156.136383, "lat": 20.84861}}, {"id": 7262802, "name": "Wailua Homesteads", "country": "US", "coord": {"lon": -159.378021, "lat": 22.066931}}, {"id": 5854496, "name": "Wailuku", "country": "US", "coord": {"lon": -156.504715, "lat": 20.891109}}, {"id": 7456223, "name": "Waimadaka", "country": "ID", "coord": {"lon": 119.410797, "lat": -9.7083}}, {"id": 7910069, "name": "Waimakariri District", "country": "NZ", "coord": {"lon": 172.332855, "lat": -43.2075}}, {"id": 5854530, "name": "Waimalu", "country": "US", "coord": {"lon": -157.943329, "lat": 21.40472}}, {"id": 2180197, "name": "Waimana", "country": "NZ", "coord": {"lon": 177.083328, "lat": -38.150002}}, {"id": 5854532, "name": "Waimanalo", "country": "US", "coord": {"lon": -157.720825, "lat": 21.35}}, {"id": 5854535, "name": "Waimanalo Beach", "country": "US", "coord": {"lon": -157.702774, "lat": 21.340281}}, {"id": 1622333, "name": "Waimangura", "country": "ID", "coord": {"lon": 119.237701, "lat": -9.5098}}, {"id": 2180190, "name": "Waimarama", "country": "NZ", "coord": {"lon": 176.983337, "lat": -39.799999}}, {"id": 2180177, "name": "Waimate District", "country": "NZ", "coord": {"lon": 171.033325, "lat": -44.75}}, {"id": 2180173, "name": "Waimate North", "country": "NZ", "coord": {"lon": 173.883331, "lat": -35.316669}}, {"id": 2180169, "name": "Waimatuku", "country": "NZ", "coord": {"lon": 168.166672, "lat": -46.299999}}, {"id": 2180167, "name": "Waimauku", "country": "NZ", "coord": {"lon": 174.5, "lat": -36.75}}, {"id": 5854564, "name": "Waimea", "country": "US", "coord": {"lon": -159.66893, "lat": 21.957069}}, {"id": 5854571, "name": "Waimea", "country": "US", "coord": {"lon": -155.671677, "lat": 20.02306}}, {"id": 2784199, "name": "Waimes", "country": "BE", "coord": {"lon": 6.11207, "lat": 50.414879}}, {"id": 2784200, "name": "Waimes", "country": "BE", "coord": {"lon": 6.11667, "lat": 50.416672}}, {"id": 6556034, "name": "Wain", "country": "DE", "coord": {"lon": 10.0161, "lat": 48.187099}}, {"id": 2815300, "name": "Wain", "country": "DE", "coord": {"lon": 10.0209, "lat": 48.189041}}, {"id": 1792232, "name": "Waina", "country": "CN", "coord": {"lon": 105.049721, "lat": 33.20639}}, {"id": 5854599, "name": "Wainaku", "country": "US", "coord": {"lon": -155.095001, "lat": 19.74472}}, {"id": 2634914, "name": "Wainfleet All Saints", "country": "GB", "coord": {"lon": 0.23583, "lat": 53.105701}}, {"id": 1622318, "name": "Waingapu", "country": "ID", "coord": {"lon": 120.264099, "lat": -9.6567}}, {"id": 6175059, "name": "Wainwright", "country": "CA", "coord": {"lon": -110.857231, "lat": 52.839039}}, {"id": 5877543, "name": "Wainwright", "country": "US", "coord": {"lon": -160.03833, "lat": 70.63694}}, {"id": 1622310, "name": "Waioti", "country": "ID", "coord": {"lon": 122.241302, "lat": -8.6308}}, {"id": 2180063, "name": "Waiouru", "country": "NZ", "coord": {"lon": 175.666672, "lat": -39.48333}}, {"id": 7910070, "name": "Waipa District", "country": "NZ", "coord": {"lon": 175.358185, "lat": -37.983849}}, {"id": 5854686, "name": "Waipahu", "country": "US", "coord": {"lon": -158.009171, "lat": 21.386669}}, {"id": 2180048, "name": "Waipapa", "country": "NZ", "coord": {"lon": 173.916672, "lat": -35.200001}}, {"id": 7574263, "name": "Waipare", "country": "ID", "coord": {"lon": 122.278702, "lat": -8.6374}}, {"id": 2206874, "name": "Waipawa", "country": "NZ", "coord": {"lon": 175.515274, "lat": -41.41222}}, {"id": 5854717, "name": "Waipio", "country": "US", "coord": {"lon": -158.000565, "lat": 21.418329}}, {"id": 5854718, "name": "Waipio Acres", "country": "US", "coord": {"lon": -158.016388, "lat": 21.467501}}, {"id": 2179985, "name": "Waipu", "country": "NZ", "coord": {"lon": 174.449997, "lat": -35.98333}}, {"id": 6247603, "name": "Wairoa", "country": "NZ", "coord": {"lon": 177.420227, "lat": -39.038231}}, {"id": 2206808, "name": "Wairoa", "country": "NZ", "coord": {"lon": 177.366669, "lat": -39.033329}}, {"id": 2179921, "name": "Wairoa District", "country": "NZ", "coord": {"lon": 177.433334, "lat": -39.033329}}, {"id": 2815297, "name": "Waischenfeld", "country": "DE", "coord": {"lon": 11.3481, "lat": 49.846451}}, {"id": 1919715, "name": "Waisha", "country": "CN", "coord": {"lon": 116.754768, "lat": 23.44165}}, {"id": 7302484, "name": "Waitakere", "country": "NZ", "coord": {"lon": 174.65773, "lat": -36.917542}}, {"id": 2179867, "name": "Waitakere", "country": "NZ", "coord": {"lon": 174.544769, "lat": -36.851261}}, {"id": 2179862, "name": "Waitaki", "country": "NZ", "coord": {"lon": 171.100006, "lat": -44.933331}}, {"id": 4032804, "name": "Waitangi", "country": "NZ", "coord": {"lon": -176.559723, "lat": -43.953529}}, {"id": 6223705, "name": "Waitara", "country": "NZ", "coord": {"lon": 174.210205, "lat": -38.988239}}, {"id": 2145079, "name": "Waitara", "country": "AU", "coord": {"lon": 151.116669, "lat": -33.716671}}, {"id": 2208091, "name": "Waitara", "country": "NZ", "coord": {"lon": 174.25, "lat": -38.924999}}, {"id": 2179825, "name": "Waitati", "country": "NZ", "coord": {"lon": 170.566666, "lat": -45.75}}, {"id": 5051694, "name": "Waite Park", "country": "US", "coord": {"lon": -94.224159, "lat": 45.55719}}, {"id": 2179794, "name": "Waitoa", "country": "NZ", "coord": {"lon": 175.633331, "lat": -37.616669}}, {"id": 2179780, "name": "Waitomo Caves", "country": "NZ", "coord": {"lon": 175.100006, "lat": -38.26667}}, {"id": 2059350, "name": "Waitpinga", "country": "AU", "coord": {"lon": 138.533325, "lat": -35.599998}}, {"id": 5814871, "name": "Waitsburg", "country": "US", "coord": {"lon": -118.15329, "lat": 46.27042}}, {"id": 5242428, "name": "Waitsfield", "country": "US", "coord": {"lon": -72.824837, "lat": 44.19006}}, {"id": 6175088, "name": "Waitville", "country": "CA", "coord": {"lon": -105.401039, "lat": 52.86676}}, {"id": 2179756, "name": "Waiuku", "country": "NZ", "coord": {"lon": 174.75, "lat": -37.25}}, {"id": 2815279, "name": "Waizendorf", "country": "DE", "coord": {"lon": 10.53333, "lat": 49.166672}}, {"id": 2815272, "name": "Waizenhofen", "country": "DE", "coord": {"lon": 11.23333, "lat": 49.066669}}, {"id": 2815270, "name": "Waizenried", "country": "DE", "coord": {"lon": 10.4, "lat": 47.816669}}, {"id": 1622272, "name": "Wajak", "country": "ID", "coord": {"lon": 112.731201, "lat": -8.102}}, {"id": 7037082, "name": "Wajak", "country": "ID", "coord": {"lon": 112.731201, "lat": -8.102}}, {"id": 7579706, "name": "Wajak", "country": "ID", "coord": {"lon": 111.915298, "lat": -8.1087}}, {"id": 1848976, "name": "Wajima", "country": "JP", "coord": {"lon": 136.899994, "lat": 37.400002}}, {"id": 178443, "name": "Wajir", "country": "KE", "coord": {"lon": 40.05732, "lat": 1.7471}}, {"id": 7928479, "name": "Wakap", "country": "ID", "coord": {"lon": 108.083801, "lat": -7.5241}}, {"id": 4927773, "name": "Wakarusa", "country": "US", "coord": {"lon": -86.020828, "lat": 41.53616}}, {"id": 1848949, "name": "Wakasa", "country": "JP", "coord": {"lon": 134.399994, "lat": 35.333328}}, {"id": 7336876, "name": "Wakaseko", "country": "ID", "coord": {"lon": 121.470398, "lat": -8.6376}}, {"id": 6175101, "name": "Wakaw", "country": "CA", "coord": {"lon": -105.734398, "lat": 52.65007}}, {"id": 1848938, "name": "Wakayama-ken", "country": "JP", "coord": {"lon": 135.511124, "lat": 33.914581}}, {"id": 1926004, "name": "Wakayama-shi", "country": "JP", "coord": {"lon": 135.167496, "lat": 34.226109}}, {"id": 1848935, "name": "Wake", "country": "JP", "coord": {"lon": 134.133331, "lat": 34.799999}}, {"id": 4497286, "name": "Wake County", "country": "US", "coord": {"lon": -78.633057, "lat": 35.783482}}, {"id": 4497290, "name": "Wake Forest", "country": "US", "coord": {"lon": -78.50972, "lat": 35.97987}}, {"id": 4739641, "name": "Wake Village", "country": "US", "coord": {"lon": -94.1063, "lat": 33.426788}}, {"id": 7839467, "name": "Wakefield", "country": "AU", "coord": {"lon": 138.394547, "lat": -34.007431}}, {"id": 2179702, "name": "Wakefield", "country": "NZ", "coord": {"lon": 173.050003, "lat": -41.400002}}, {"id": 2634910, "name": "Wakefield", "country": "GB", "coord": {"lon": -1.49768, "lat": 53.683311}}, {"id": 4954265, "name": "Wakefield", "country": "US", "coord": {"lon": -71.07283, "lat": 42.506481}}, {"id": 6175108, "name": "Wakefield", "country": "CA", "coord": {"lon": -75.832649, "lat": 45.666801}}, {"id": 3488133, "name": "Wakefield", "country": "JM", "coord": {"lon": -77.721832, "lat": 18.412109}}, {"id": 5013894, "name": "Wakefield", "country": "US", "coord": {"lon": -89.939888, "lat": 46.475231}}, {"id": 5081262, "name": "Wakefield", "country": "US", "coord": {"lon": -96.865044, "lat": 42.269169}}, {"id": 5094191, "name": "Wakefield", "country": "US", "coord": {"lon": -71.030067, "lat": 43.56813}}, {"id": 7257663, "name": "Wakefield-Peacedale", "country": "US", "coord": {"lon": -71.500397, "lat": 41.44606}}, {"id": 4372589, "name": "Wakely Terrace", "country": "US", "coord": {"lon": -76.334961, "lat": 39.525661}}, {"id": 1289828, "name": "Wakema", "country": "MM", "coord": {"lon": 95.183327, "lat": 16.6}}, {"id": 5175531, "name": "Wakeman", "country": "US", "coord": {"lon": -82.399612, "lat": 41.254501}}, {"id": 2815264, "name": "Wakendorf", "country": "DE", "coord": {"lon": 10.28333, "lat": 54.25}}, {"id": 2634908, "name": "Wakerley", "country": "GB", "coord": {"lon": -0.5918, "lat": 52.58453}}, {"id": 1848933, "name": "Waki", "country": "JP", "coord": {"lon": 134.149994, "lat": 34.066669}}, {"id": 1848919, "name": "Wakinohamach\u014d", "country": "JP", "coord": {"lon": 135.216675, "lat": 34.700001}}, {"id": 225964, "name": "Wakiso", "country": "UG", "coord": {"lon": 32.459438, "lat": 0.40444}}, {"id": 448224, "name": "Wakiso District", "country": "UG", "coord": {"lon": 32.478359, "lat": 0.23763}}, {"id": 2127515, "name": "Wakkanai", "country": "JP", "coord": {"lon": 141.673889, "lat": 45.409439}}, {"id": 1907300, "name": "Wako", "country": "JP", "coord": {"lon": 139.623337, "lat": 35.78944}}, {"id": 7839779, "name": "Wakool", "country": "AU", "coord": {"lon": 143.908417, "lat": -35.050419}}, {"id": 2145067, "name": "Wakool", "country": "AU", "coord": {"lon": 144.383331, "lat": -35.466671}}, {"id": 756227, "name": "Waksmund", "country": "PL", "coord": {"lon": 20.07563, "lat": 49.482071}}, {"id": 4177321, "name": "Wakulla County", "country": "US", "coord": {"lon": -84.333229, "lat": 30.16687}}, {"id": 2110596, "name": "Wakuya", "country": "JP", "coord": {"lon": 141.133331, "lat": 38.533329}}, {"id": 1121789, "name": "Wak\u012bl Rustam K\u00ealay", "country": "AF", "coord": {"lon": 65.293861, "lat": 31.448641}}, {"id": 8042229, "name": "Walagar", "country": "ID", "coord": {"lon": 107.196297, "lat": -7.0743}}, {"id": 8046230, "name": "Walagar", "country": "ID", "coord": {"lon": 108.288597, "lat": -7.3528}}, {"id": 8067486, "name": "Walahar", "country": "ID", "coord": {"lon": 108.609299, "lat": -7.0391}}, {"id": 8046017, "name": "Walahir", "country": "ID", "coord": {"lon": 108.255302, "lat": -7.2797}}, {"id": 8053086, "name": "Walahir", "country": "ID", "coord": {"lon": 108.440002, "lat": -7.4472}}, {"id": 8076269, "name": "Walahir", "country": "ID", "coord": {"lon": 108.783699, "lat": -7.2545}}, {"id": 1252997, "name": "Walajapet", "country": "IN", "coord": {"lon": 79.383331, "lat": 12.93333}}, {"id": 7591834, "name": "Walakeri", "country": "ID", "coord": {"lon": 120.528999, "lat": -10.2057}}, {"id": 7592119, "name": "Walakeri", "country": "ID", "coord": {"lon": 120.151001, "lat": -9.9367}}, {"id": 69684, "name": "Walan", "country": "YE", "coord": {"lon": 44.276409, "lat": 15.07021}}, {"id": 2634906, "name": "Walberton", "country": "GB", "coord": {"lon": -0.62013, "lat": 50.844749}}, {"id": 6441397, "name": "Walbourg", "country": "FR", "coord": {"lon": 7.78965, "lat": 48.88662}}, {"id": 2967506, "name": "Walbourg", "country": "FR", "coord": {"lon": 7.78828, "lat": 48.88628}}, {"id": 5175538, "name": "Walbridge", "country": "US", "coord": {"lon": -83.493271, "lat": 41.58783}}, {"id": 3082707, "name": "Walbrzych", "country": "PL", "coord": {"lon": 16.284321, "lat": 50.771412}}, {"id": 2145060, "name": "Walbundrie", "country": "AU", "coord": {"lon": 146.716675, "lat": -35.700001}}, {"id": 2815239, "name": "Walburger", "country": "DE", "coord": {"lon": 8.11667, "lat": 51.583328}}, {"id": 3082705, "name": "Walce", "country": "PL", "coord": {"lon": 18.004271, "lat": 50.373219}}, {"id": 7839780, "name": "Walcha", "country": "AU", "coord": {"lon": 151.818542, "lat": -31.197571}}, {"id": 2145059, "name": "Walcha", "country": "AU", "coord": {"lon": 151.600006, "lat": -30.98333}}, {"id": 2815230, "name": "Walchenfeld", "country": "DE", "coord": {"lon": 10.56667, "lat": 50.166672}}, {"id": 7873659, "name": "Walchsee", "country": "AT", "coord": {"lon": 12.30986, "lat": 47.63702}}, {"id": 2762045, "name": "Walchsee", "country": "AT", "coord": {"lon": 12.31868, "lat": 47.65163}}, {"id": 2815221, "name": "Walchsing", "country": "DE", "coord": {"lon": 13.08333, "lat": 48.616669}}, {"id": 2815220, "name": "Walchstadt", "country": "DE", "coord": {"lon": 11.41505, "lat": 47.94487}}, {"id": 6552926, "name": "Walchum", "country": "DE", "coord": {"lon": 7.28333, "lat": 52.9333}}, {"id": 2815218, "name": "Walchum", "country": "DE", "coord": {"lon": 7.28325, "lat": 52.92717}}, {"id": 7287517, "name": "Walchwil", "country": "CH", "coord": {"lon": 8.53258, "lat": 47.108479}}, {"id": 2658075, "name": "Walchwil", "country": "CH", "coord": {"lon": 8.51693, "lat": 47.101688}}, {"id": 4880422, "name": "Walcott", "country": "US", "coord": {"lon": -90.772087, "lat": 41.584751}}, {"id": 2784190, "name": "Walcourt", "country": "BE", "coord": {"lon": 4.43521, "lat": 50.253899}}, {"id": 2784189, "name": "Walcourt", "country": "BE", "coord": {"lon": 4.43796, "lat": 50.254009}}, {"id": 3082704, "name": "Walcz", "country": "PL", "coord": {"lon": 16.47122, "lat": 53.27787}}, {"id": 2658074, "name": "Wald", "country": "CH", "coord": {"lon": 7.85, "lat": 46.816669}}, {"id": 6556643, "name": "Wald", "country": "DE", "coord": {"lon": 12.35, "lat": 49.150002}}, {"id": 2815198, "name": "Wald", "country": "DE", "coord": {"lon": 12.35, "lat": 49.150002}}, {"id": 2815204, "name": "Wald", "country": "DE", "coord": {"lon": 10.3, "lat": 47.966671}}, {"id": 6556093, "name": "Wald", "country": "DE", "coord": {"lon": 9.16415, "lat": 47.941799}}, {"id": 2815205, "name": "Wald", "country": "DE", "coord": {"lon": 9.16667, "lat": 47.933331}}, {"id": 6557234, "name": "Wald", "country": "DE", "coord": {"lon": 10.55, "lat": 47.716702}}, {"id": 2815207, "name": "Wald", "country": "DE", "coord": {"lon": 10.55, "lat": 47.716671}}, {"id": 2658073, "name": "Wald", "country": "CH", "coord": {"lon": 8.91405, "lat": 47.275951}}, {"id": 7287519, "name": "Wald (BE)", "country": "CH", "coord": {"lon": 7.45919, "lat": 46.8825}}, {"id": 7287524, "name": "Wald (ZH)", "country": "CH", "coord": {"lon": 8.92092, "lat": 47.28706}}, {"id": 2762039, "name": "Wald am Schoberpass", "country": "AT", "coord": {"lon": 14.66667, "lat": 47.450001}}, {"id": 7873489, "name": "Wald am Schoberpa\u00df", "country": "AT", "coord": {"lon": 14.66514, "lat": 47.429359}}, {"id": 7872252, "name": "Wald im Pinzgau", "country": "AT", "coord": {"lon": 12.16488, "lat": 47.267639}}, {"id": 2762000, "name": "Wald im Pinzgau", "country": "AT", "coord": {"lon": 12.23333, "lat": 47.25}}, {"id": 2815183, "name": "Wald-Amorbach", "country": "DE", "coord": {"lon": 9.02444, "lat": 49.848331}}, {"id": 6553161, "name": "Wald-Michelbach", "country": "DE", "coord": {"lon": 8.83167, "lat": 49.57}}, {"id": 2814853, "name": "Wald-Michelbach", "country": "DE", "coord": {"lon": 8.83167, "lat": 49.57}}, {"id": 2815191, "name": "Walda", "country": "DE", "coord": {"lon": 13.5, "lat": 51.316669}}, {"id": 2815188, "name": "Waldacker", "country": "DE", "coord": {"lon": 8.81667, "lat": 50}}, {"id": 6555306, "name": "Waldalgesheim", "country": "DE", "coord": {"lon": 7.83333, "lat": 49.950001}}, {"id": 2815186, "name": "Waldalgesheim", "country": "DE", "coord": {"lon": 7.83333, "lat": 49.950001}}, {"id": 6556959, "name": "Waldaschaff", "country": "DE", "coord": {"lon": 9.2768, "lat": 49.981899}}, {"id": 2815180, "name": "Waldaschaff", "country": "DE", "coord": {"lon": 9.30194, "lat": 49.975281}}, {"id": 2815171, "name": "Waldau", "country": "DE", "coord": {"lon": 10.83333, "lat": 50.5}}, {"id": 2815166, "name": "Waldaubach", "country": "DE", "coord": {"lon": 8.13333, "lat": 50.650002}}, {"id": 6693340, "name": "Waldbillig", "country": "LU", "coord": {"lon": 6.28667, "lat": 49.788891}}, {"id": 2960014, "name": "Waldbillig", "country": "LU", "coord": {"lon": 6.28667, "lat": 49.788891}}, {"id": 2815139, "name": "Waldbockelheim", "country": "DE", "coord": {"lon": 7.71667, "lat": 49.816669}}, {"id": 6693356, "name": "Waldbredimus", "country": "LU", "coord": {"lon": 6.2875, "lat": 49.555}}, {"id": 2960013, "name": "Waldbredimus", "country": "LU", "coord": {"lon": 6.2875, "lat": 49.555}}, {"id": 6553862, "name": "Waldbreitbach", "country": "DE", "coord": {"lon": 7.41667, "lat": 50.549999}}, {"id": 2815138, "name": "Waldbreitbach", "country": "DE", "coord": {"lon": 7.41667, "lat": 50.549999}}, {"id": 2815137, "name": "Waldbrol", "country": "DE", "coord": {"lon": 7.61667, "lat": 50.883331}}, {"id": 6557105, "name": "Waldbrunn", "country": "DE", "coord": {"lon": 9.80361, "lat": 49.758598}}, {"id": 2815132, "name": "Waldbrunn", "country": "DE", "coord": {"lon": 9.80361, "lat": 49.75861}}, {"id": 3208129, "name": "Waldbrunn", "country": "DE", "coord": {"lon": 8.11667, "lat": 50.51667}}, {"id": 6556074, "name": "Waldburg", "country": "DE", "coord": {"lon": 9.71667, "lat": 47.766701}}, {"id": 2815128, "name": "Waldburg", "country": "DE", "coord": {"lon": 9.71667, "lat": 47.76667}}, {"id": 2815127, "name": "Waldbuttelbrunn", "country": "DE", "coord": {"lon": 9.84667, "lat": 49.78833}}, {"id": 6553552, "name": "Waldb\u00f6ckelheim", "country": "DE", "coord": {"lon": 7.71667, "lat": 49.8167}}, {"id": 6557106, "name": "Waldb\u00fcttelbrunn", "country": "DE", "coord": {"lon": 9.84667, "lat": 49.7883}}, {"id": 2815114, "name": "Walddrehna", "country": "DE", "coord": {"lon": 13.63333, "lat": 51.783329}}, {"id": 2815101, "name": "Waldeck", "country": "DE", "coord": {"lon": 9.06286, "lat": 51.206181}}, {"id": 6175177, "name": "Waldeck", "country": "CA", "coord": {"lon": -107.601334, "lat": 50.36676}}, {"id": 6550419, "name": "Waldeck", "country": "DE", "coord": {"lon": 11.7833, "lat": 50.916698}}, {"id": 2815102, "name": "Waldeck", "country": "DE", "coord": {"lon": 11.78333, "lat": 50.916672}}, {"id": 7871943, "name": "Waldegg", "country": "AT", "coord": {"lon": 16.0476, "lat": 47.873348}}, {"id": 2762024, "name": "Waldegg", "country": "AT", "coord": {"lon": 16.05154, "lat": 47.868519}}, {"id": 6553203, "name": "Waldems", "country": "DE", "coord": {"lon": 8.33333, "lat": 50.25}}, {"id": 3208130, "name": "Waldems", "country": "DE", "coord": {"lon": 8.33333, "lat": 50.25}}, {"id": 4665312, "name": "Walden", "country": "US", "coord": {"lon": -85.301353, "lat": 35.164791}}, {"id": 5143066, "name": "Walden", "country": "US", "coord": {"lon": -74.188477, "lat": 41.561199}}, {"id": 5583139, "name": "Walden", "country": "US", "coord": {"lon": -106.283638, "lat": 40.73164}}, {"id": 2815076, "name": "Waldenbuch", "country": "DE", "coord": {"lon": 9.13256, "lat": 48.638302}}, {"id": 2815075, "name": "Waldenburg", "country": "DE", "coord": {"lon": 9.64222, "lat": 49.1875}}, {"id": 7287520, "name": "Waldenburg", "country": "CH", "coord": {"lon": 7.7394, "lat": 47.376659}}, {"id": 2658071, "name": "Waldenburg", "country": "CH", "coord": {"lon": 7.75, "lat": 47.383331}}, {"id": 2815074, "name": "Waldenburg", "country": "DE", "coord": {"lon": 12.6, "lat": 50.883331}}, {"id": 7871761, "name": "Waldenstein", "country": "AT", "coord": {"lon": 15.01833, "lat": 48.725689}}, {"id": 2762021, "name": "Waldenstein", "country": "AT", "coord": {"lon": 15.01667, "lat": 48.716671}}, {"id": 6556644, "name": "Walderbach", "country": "DE", "coord": {"lon": 12.3833, "lat": 49.1833}}, {"id": 2815059, "name": "Walderbach", "country": "DE", "coord": {"lon": 12.38333, "lat": 49.183331}}, {"id": 2815052, "name": "Waldernbach", "country": "DE", "coord": {"lon": 8.15, "lat": 50.533329}}, {"id": 2815048, "name": "Waldershof", "country": "DE", "coord": {"lon": 12.06667, "lat": 49.98333}}, {"id": 6553811, "name": "Waldesch", "country": "DE", "coord": {"lon": 7.55, "lat": 50.283298}}, {"id": 2815046, "name": "Waldesch", "country": "DE", "coord": {"lon": 7.55, "lat": 50.283329}}, {"id": 2815045, "name": "Waldesch", "country": "DE", "coord": {"lon": 7.15, "lat": 50.366669}}, {"id": 2815036, "name": "Waldfenster", "country": "DE", "coord": {"lon": 9.95, "lat": 50.26667}}, {"id": 6553071, "name": "Waldfeucht", "country": "DE", "coord": {"lon": 5.98333, "lat": 51.0667}}, {"id": 2815035, "name": "Waldfeucht", "country": "DE", "coord": {"lon": 5.98815, "lat": 51.066101}}, {"id": 6555361, "name": "Waldfischbach-Burgalben", "country": "DE", "coord": {"lon": 7.66667, "lat": 49.283298}}, {"id": 2815032, "name": "Waldfischbach-Burgalben", "country": "DE", "coord": {"lon": 7.66667, "lat": 49.283329}}, {"id": 2815030, "name": "Waldfriede", "country": "DE", "coord": {"lon": 7.55, "lat": 49.849998}}, {"id": 2815019, "name": "Waldfrieden", "country": "DE", "coord": {"lon": 13.95, "lat": 51.633331}}, {"id": 2815013, "name": "Waldgirmes", "country": "DE", "coord": {"lon": 8.55, "lat": 50.583328}}, {"id": 6554993, "name": "Waldgrehweiler", "country": "DE", "coord": {"lon": 7.73333, "lat": 49.666698}}, {"id": 2815010, "name": "Waldgrehweiler", "country": "DE", "coord": {"lon": 7.73333, "lat": 49.666672}}, {"id": 6555227, "name": "Waldhambach", "country": "DE", "coord": {"lon": 7.98333, "lat": 49.166698}}, {"id": 2815002, "name": "Waldhambach", "country": "DE", "coord": {"lon": 7.98333, "lat": 49.166672}}, {"id": 7873091, "name": "Waldhausen", "country": "AT", "coord": {"lon": 15.27678, "lat": 48.534229}}, {"id": 2762013, "name": "Waldhausen", "country": "AT", "coord": {"lon": 15.25, "lat": 48.51667}}, {"id": 2814976, "name": "Waldhausen", "country": "DE", "coord": {"lon": 8.25, "lat": 50.5}}, {"id": 6175195, "name": "Waldheim", "country": "CA", "coord": {"lon": -106.617882, "lat": 52.650089}}, {"id": 2814956, "name": "Waldheim", "country": "DE", "coord": {"lon": 13.01667, "lat": 51.066669}}, {"id": 6554513, "name": "Waldhof-Falkenstein", "country": "DE", "coord": {"lon": 6.18333, "lat": 49.966702}}, {"id": 2814914, "name": "Waldhof-Falkenstein", "country": "DE", "coord": {"lon": 6.18333, "lat": 49.966671}}, {"id": 6441659, "name": "Waldighofen", "country": "FR", "coord": {"lon": 7.31667, "lat": 47.549999}}, {"id": 2967500, "name": "Waldighofen", "country": "FR", "coord": {"lon": 7.31743, "lat": 47.551262}}, {"id": 7873249, "name": "Walding", "country": "AT", "coord": {"lon": 14.15846, "lat": 48.351742}}, {"id": 2761999, "name": "Walding", "country": "AT", "coord": {"lon": 14.1576, "lat": 48.352089}}, {"id": 2814888, "name": "Waldkappel", "country": "DE", "coord": {"lon": 9.88333, "lat": 51.150002}}, {"id": 2814885, "name": "Waldkatzenbach", "country": "DE", "coord": {"lon": 9.05722, "lat": 49.465561}}, {"id": 2814883, "name": "Waldkirch", "country": "DE", "coord": {"lon": 7.96371, "lat": 48.095852}}, {"id": 7287522, "name": "Waldkirch", "country": "CH", "coord": {"lon": 9.30296, "lat": 47.464169}}, {"id": 2658067, "name": "Waldkirch", "country": "CH", "coord": {"lon": 9.28605, "lat": 47.46859}}, {"id": 2814880, "name": "Waldkirchen", "country": "DE", "coord": {"lon": 13.60082, "lat": 48.7327}}, {"id": 2814878, "name": "Waldkirchen", "country": "DE", "coord": {"lon": 12.36667, "lat": 50.599998}}, {"id": 7873051, "name": "Waldkirchen an der Thaya", "country": "AT", "coord": {"lon": 15.36896, "lat": 48.949902}}, {"id": 2761995, "name": "Waldkirchen an der Thaya", "country": "AT", "coord": {"lon": 15.35, "lat": 48.933331}}, {"id": 6558241, "name": "Waldkirchen, Stadt", "country": "DE", "coord": {"lon": 13.6, "lat": 48.733299}}, {"id": 2814874, "name": "Waldkraiburg", "country": "DE", "coord": {"lon": 12.39893, "lat": 48.208542}}, {"id": 6553553, "name": "Waldlaubersheim", "country": "DE", "coord": {"lon": 7.7492, "lat": 49.939999}}, {"id": 2814871, "name": "Waldlaubersheim", "country": "DE", "coord": {"lon": 7.83333, "lat": 49.933331}}, {"id": 6555064, "name": "Waldleiningen", "country": "DE", "coord": {"lon": 7.88333, "lat": 49.400002}}, {"id": 2814866, "name": "Waldleiningen", "country": "DE", "coord": {"lon": 7.88333, "lat": 49.400002}}, {"id": 2814860, "name": "Waldmannshausen", "country": "DE", "coord": {"lon": 8.06667, "lat": 50.51667}}, {"id": 6555157, "name": "Waldmohr", "country": "DE", "coord": {"lon": 7.3301, "lat": 49.381802}}, {"id": 2814851, "name": "Waldmohr", "country": "DE", "coord": {"lon": 7.33333, "lat": 49.383331}}, {"id": 2814847, "name": "Waldmuhlen", "country": "DE", "coord": {"lon": 8.06667, "lat": 50.583328}}, {"id": 2814846, "name": "Waldmunchen", "country": "DE", "coord": {"lon": 12.70417, "lat": 49.378609}}, {"id": 2814848, "name": "Waldm\u00fchle", "country": "DE", "coord": {"lon": 9.31233, "lat": 48.838661}}, {"id": 6554278, "name": "Waldm\u00fchlen", "country": "DE", "coord": {"lon": 8.06667, "lat": 50.583302}}, {"id": 7872148, "name": "Waldneukirchen", "country": "AT", "coord": {"lon": 14.2631, "lat": 48.008801}}, {"id": 2761989, "name": "Waldneukirchen", "country": "AT", "coord": {"lon": 14.25879, "lat": 47.998539}}, {"id": 2814843, "name": "Waldniel", "country": "DE", "coord": {"lon": 6.26667, "lat": 51.23333}}, {"id": 4134993, "name": "Waldo", "country": "US", "coord": {"lon": -93.295731, "lat": 33.351509}}, {"id": 4177334, "name": "Waldo", "country": "US", "coord": {"lon": -82.16732, "lat": 29.78969}}, {"id": 4982040, "name": "Waldo County", "country": "US", "coord": {"lon": -69.09948, "lat": 44.46674}}, {"id": 4982044, "name": "Waldoboro", "country": "US", "coord": {"lon": -69.375603, "lat": 44.09536}}, {"id": 5406879, "name": "Waldon", "country": "US", "coord": {"lon": -122.055519, "lat": 37.926311}}, {"id": 2814841, "name": "Waldorf", "country": "DE", "coord": {"lon": 6.61667, "lat": 50.383331}}, {"id": 4372599, "name": "Waldorf", "country": "US", "coord": {"lon": -76.93914, "lat": 38.624561}}, {"id": 6553342, "name": "Waldorf", "country": "DE", "coord": {"lon": 7.23333, "lat": 50.483299}}, {"id": 2814840, "name": "Waldorf", "country": "DE", "coord": {"lon": 7.23333, "lat": 50.48333}}, {"id": 5758901, "name": "Waldport", "country": "US", "coord": {"lon": -124.068733, "lat": 44.426788}}, {"id": 6554803, "name": "Waldrach", "country": "DE", "coord": {"lon": 6.75, "lat": 49.75}}, {"id": 2814832, "name": "Waldrach", "country": "DE", "coord": {"lon": 6.74543, "lat": 49.746231}}, {"id": 2814831, "name": "Waldram", "country": "DE", "coord": {"lon": 11.45, "lat": 47.900002}}, {"id": 2814830, "name": "Waldrand", "country": "DE", "coord": {"lon": 14.65, "lat": 51.533329}}, {"id": 6555228, "name": "Waldrohrbach", "country": "DE", "coord": {"lon": 7.96667, "lat": 49.166698}}, {"id": 2814821, "name": "Waldrohrbach", "country": "DE", "coord": {"lon": 7.96667, "lat": 49.166672}}, {"id": 4135004, "name": "Waldron", "country": "US", "coord": {"lon": -94.090759, "lat": 34.89843}}, {"id": 2814815, "name": "Waldsassen", "country": "DE", "coord": {"lon": 12.30278, "lat": 50.005001}}, {"id": 6555254, "name": "Waldsee", "country": "DE", "coord": {"lon": 8.44028, "lat": 49.395302}}, {"id": 2814795, "name": "Waldsee", "country": "DE", "coord": {"lon": 8.44028, "lat": 49.395279}}, {"id": 2814791, "name": "Waldshut-Tiengen", "country": "DE", "coord": {"lon": 8.21717, "lat": 47.62323}}, {"id": 2814788, "name": "Waldsiedlung", "country": "DE", "coord": {"lon": 13.05, "lat": 53.099998}}, {"id": 2814790, "name": "Waldsiedlung", "country": "DE", "coord": {"lon": 8.86667, "lat": 50.133331}}, {"id": 6547616, "name": "Waldsieversdorf", "country": "DE", "coord": {"lon": 14.0688, "lat": 52.5424}}, {"id": 2814787, "name": "Waldsieversdorf", "country": "DE", "coord": {"lon": 14.06667, "lat": 52.549999}}, {"id": 7287523, "name": "Waldstatt", "country": "CH", "coord": {"lon": 9.28453, "lat": 47.357079}}, {"id": 2658066, "name": "Waldstatt", "country": "CH", "coord": {"lon": 9.28345, "lat": 47.35627}}, {"id": 2814775, "name": "Waldstetten", "country": "DE", "coord": {"lon": 9.82135, "lat": 48.766151}}, {"id": 6555602, "name": "Waldstetten", "country": "DE", "coord": {"lon": 9.8135, "lat": 48.732498}}, {"id": 2814776, "name": "Waldstetten", "country": "DE", "coord": {"lon": 10.29385, "lat": 48.348148}}, {"id": 2814765, "name": "Waldthurn", "country": "DE", "coord": {"lon": 12.32919, "lat": 49.672211}}, {"id": 6554804, "name": "Waldweiler", "country": "DE", "coord": {"lon": 6.8, "lat": 49.616699}}, {"id": 2814762, "name": "Waldweiler", "country": "DE", "coord": {"lon": 6.8, "lat": 49.616669}}, {"id": 5105957, "name": "Waldwick", "country": "US", "coord": {"lon": -74.11792, "lat": 41.010651}}, {"id": 7873189, "name": "Waldzell", "country": "AT", "coord": {"lon": 13.42675, "lat": 48.135109}}, {"id": 2761976, "name": "Waldzell", "country": "AT", "coord": {"lon": 13.42701, "lat": 48.13562}}, {"id": 1969339, "name": "Walenrang", "country": "ID", "coord": {"lon": 120.1222, "lat": -2.8417}}, {"id": 7287525, "name": "Walenstadt", "country": "CH", "coord": {"lon": 9.32979, "lat": 47.125931}}, {"id": 2658061, "name": "Walenstadt", "country": "CH", "coord": {"lon": 9.31194, "lat": 47.124111}}, {"id": 6777306, "name": "Waleran", "country": "ID", "coord": {"lon": 111.9646, "lat": -7.0011}}, {"id": 2634895, "name": "Wales", "country": "GB", "coord": {"lon": -3.5, "lat": 52.5}}, {"id": 5877563, "name": "Wales", "country": "US", "coord": {"lon": -168.087494, "lat": 65.609169}}, {"id": 2634894, "name": "Wales", "country": "GB", "coord": {"lon": -1.28162, "lat": 53.340611}}, {"id": 4954292, "name": "Wales", "country": "US", "coord": {"lon": -72.222298, "lat": 42.069538}}, {"id": 5277716, "name": "Wales", "country": "US", "coord": {"lon": -88.376762, "lat": 43.004452}}, {"id": 2634893, "name": "Walesby", "country": "GB", "coord": {"lon": -0.98333, "lat": 53.23333}}, {"id": 6693283, "name": "Walferdange", "country": "LU", "coord": {"lon": 6.13722, "lat": 49.658329}}, {"id": 2960010, "name": "Walferdange", "country": "LU", "coord": {"lon": 6.13722, "lat": 49.658329}}, {"id": 2634890, "name": "Walford", "country": "GB", "coord": {"lon": -2.6, "lat": 51.883331}}, {"id": 4880442, "name": "Walford", "country": "US", "coord": {"lon": -91.834618, "lat": 41.878342}}, {"id": 7839781, "name": "Walgett", "country": "AU", "coord": {"lon": 148.133926, "lat": -29.79031}}, {"id": 2145049, "name": "Walgett", "country": "AU", "coord": {"lon": 148.116669, "lat": -30.01667}}, {"id": 2784169, "name": "Walhain", "country": "BE", "coord": {"lon": 4.7, "lat": 50.616669}}, {"id": 7648367, "name": "Walhain", "country": "BE", "coord": {"lon": 4.69477, "lat": 50.616798}}, {"id": 2784168, "name": "Walhain-Saint-Paul", "country": "BE", "coord": {"lon": 4.69837, "lat": 50.62627}}, {"id": 2145046, "name": "Walhalla", "country": "AU", "coord": {"lon": 146.449997, "lat": -37.950001}}, {"id": 4599981, "name": "Walhalla", "country": "US", "coord": {"lon": -83.064041, "lat": 34.76482}}, {"id": 6553733, "name": "Walhausen", "country": "DE", "coord": {"lon": 7.28333, "lat": 50.033298}}, {"id": 2814748, "name": "Walhausen", "country": "DE", "coord": {"lon": 7.28333, "lat": 50.033329}}, {"id": 2814746, "name": "Walheim", "country": "DE", "coord": {"lon": 6.18333, "lat": 50.700001}}, {"id": 6555492, "name": "Walheim", "country": "DE", "coord": {"lon": 9.15111, "lat": 49.014198}}, {"id": 2814747, "name": "Walheim", "country": "DE", "coord": {"lon": 9.15111, "lat": 49.014172}}, {"id": 3082680, "name": "Walichnowy", "country": "PL", "coord": {"lon": 18.38073, "lat": 51.295792}}, {"id": 3082678, "name": "Walim", "country": "PL", "coord": {"lon": 16.44482, "lat": 50.697491}}, {"id": 6617209, "name": "Walincourt-Selvigny", "country": "FR", "coord": {"lon": 3.3362, "lat": 50.068802}}, {"id": 1282616, "name": "Waling", "country": "NP", "coord": {"lon": 83.76667, "lat": 27.98333}}, {"id": 7567577, "name": "Waling", "country": "ID", "coord": {"lon": 120.637802, "lat": -8.6466}}, {"id": 2059309, "name": "Walkaway", "country": "AU", "coord": {"lon": 114.800003, "lat": -28.950001}}, {"id": 2634887, "name": "Walkden", "country": "GB", "coord": {"lon": -2.4, "lat": 53.51667}}, {"id": 6547909, "name": "Walkendorf", "country": "DE", "coord": {"lon": 12.55, "lat": 53.966702}}, {"id": 2814738, "name": "Walkendorf", "country": "DE", "coord": {"lon": 12.55136, "lat": 53.952148}}, {"id": 6552387, "name": "Walkenried", "country": "DE", "coord": {"lon": 10.6167, "lat": 51.583302}}, {"id": 2814733, "name": "Walkenried", "country": "DE", "coord": {"lon": 10.61667, "lat": 51.583328}}, {"id": 5013924, "name": "Walker", "country": "US", "coord": {"lon": -85.768089, "lat": 43.001411}}, {"id": 4344844, "name": "Walker", "country": "US", "coord": {"lon": -90.861488, "lat": 30.48797}}, {"id": 5051735, "name": "Walker", "country": "US", "coord": {"lon": -94.587219, "lat": 47.101349}}, {"id": 4739690, "name": "Walker County", "country": "US", "coord": {"lon": -95.566887, "lat": 30.73353}}, {"id": 4096107, "name": "Walker County", "country": "US", "coord": {"lon": -87.300003, "lat": 33.80011}}, {"id": 2059305, "name": "Walker Flat", "country": "AU", "coord": {"lon": 139.566666, "lat": -34.76667}}, {"id": 4372623, "name": "Walker Mill", "country": "US", "coord": {"lon": -76.888313, "lat": 38.875389}}, {"id": 4739748, "name": "Walker Village", "country": "US", "coord": {"lon": -97.724457, "lat": 31.136009}}, {"id": 2814725, "name": "Walkersbrunn", "country": "DE", "coord": {"lon": 11.20914, "lat": 49.6539}}, {"id": 2145005, "name": "Walkerston", "country": "AU", "coord": {"lon": 149.066666, "lat": -21.16667}}, {"id": 4372630, "name": "Walkersville", "country": "US", "coord": {"lon": -77.351929, "lat": 39.48621}}, {"id": 6694299, "name": "Walkerton", "country": "CA", "coord": {"lon": -81.153091, "lat": 44.13023}}, {"id": 4927788, "name": "Walkerton", "country": "US", "coord": {"lon": -86.48307, "lat": 41.466709}}, {"id": 4497373, "name": "Walkertown", "country": "US", "coord": {"lon": -80.153099, "lat": 36.175411}}, {"id": 4497374, "name": "Walkertown", "country": "US", "coord": {"lon": -78.813629, "lat": 35.285721}}, {"id": 6557153, "name": "Walkertshofen", "country": "DE", "coord": {"lon": 10.5833, "lat": 48.233299}}, {"id": 2814718, "name": "Walkertshofen", "country": "DE", "coord": {"lon": 10.58333, "lat": 48.23333}}, {"id": 2814714, "name": "Walkes", "country": "DE", "coord": {"lon": 9.95, "lat": 50.633331}}, {"id": 2634879, "name": "Walkington", "country": "GB", "coord": {"lon": -0.05, "lat": 53.816669}}, {"id": 3315322, "name": "Walkinstown", "country": "IE", "coord": {"lon": -6.33963, "lat": 53.329639}}, {"id": 7287526, "name": "Walkringen", "country": "CH", "coord": {"lon": 7.62737, "lat": 46.96069}}, {"id": 2658064, "name": "Walkringen", "country": "CH", "coord": {"lon": 7.6204, "lat": 46.948559}}, {"id": 6551512, "name": "Walksfelde", "country": "DE", "coord": {"lon": 10.5833, "lat": 53.633301}}, {"id": 2814707, "name": "Walksfelde", "country": "DE", "coord": {"lon": 10.58333, "lat": 53.633331}}, {"id": 2634877, "name": "Wall", "country": "GB", "coord": {"lon": -2.13333, "lat": 55}}, {"id": 5814916, "name": "Walla Walla", "country": "US", "coord": {"lon": -118.343018, "lat": 46.064579}}, {"id": 5814921, "name": "Walla Walla County", "country": "US", "coord": {"lon": -118.484421, "lat": 46.283192}}, {"id": 7262470, "name": "Walla Walla East", "country": "US", "coord": {"lon": -118.304031, "lat": 46.051842}}, {"id": 2144921, "name": "Walla-Walla", "country": "AU", "coord": {"lon": 146.899994, "lat": -35.76667}}, {"id": 2144999, "name": "Wallabadah", "country": "AU", "coord": {"lon": 150.833328, "lat": -31.549999}}, {"id": 2144981, "name": "Wallace", "country": "AU", "coord": {"lon": 144.050003, "lat": -37.549999}}, {"id": 6175382, "name": "Wallace", "country": "CA", "coord": {"lon": -63.481991, "lat": 45.800152}}, {"id": 4177380, "name": "Wallace", "country": "US", "coord": {"lon": -87.17997, "lat": 30.67741}}, {"id": 4497385, "name": "Wallace", "country": "US", "coord": {"lon": -77.995262, "lat": 34.735722}}, {"id": 5611375, "name": "Wallace", "country": "US", "coord": {"lon": -115.92794, "lat": 47.474091}}, {"id": 6175411, "name": "Wallaceburg", "country": "CA", "coord": {"lon": -82.388527, "lat": 42.593029}}, {"id": 2144977, "name": "Wallacedale", "country": "AU", "coord": {"lon": 141.800003, "lat": -37.933331}}, {"id": 2206967, "name": "Wallacetown", "country": "NZ", "coord": {"lon": 168.266663, "lat": -46.333328}}, {"id": 2814693, "name": "Wallach", "country": "DE", "coord": {"lon": 6.56667, "lat": 51.583328}}, {"id": 2144967, "name": "Wallacia", "country": "AU", "coord": {"lon": 150.649994, "lat": -33.866669}}, {"id": 1252998, "name": "Wallajahbad", "country": "IN", "coord": {"lon": 79.783333, "lat": 12.76667}}, {"id": 2144957, "name": "Wallalong", "country": "AU", "coord": {"lon": 151.649994, "lat": -32.700001}}, {"id": 2144956, "name": "Wallaloo", "country": "AU", "coord": {"lon": 142.883331, "lat": -36.716671}}, {"id": 2144949, "name": "Wallan", "country": "AU", "coord": {"lon": 144.983337, "lat": -37.416672}}, {"id": 2144942, "name": "Wallangarra", "country": "AU", "coord": {"lon": 151.933334, "lat": -28.9}}, {"id": 2144941, "name": "Wallangra", "country": "AU", "coord": {"lon": 150.899994, "lat": -29.26667}}, {"id": 2144936, "name": "Wallarobba", "country": "AU", "coord": {"lon": 151.699997, "lat": -32.5}}, {"id": 2059263, "name": "Wallaroo", "country": "AU", "coord": {"lon": 137.633331, "lat": -33.933331}}, {"id": 2059261, "name": "Wallaroo Mines", "country": "AU", "coord": {"lon": 137.683334, "lat": -33.966671}}, {"id": 2634873, "name": "Wallasey", "country": "GB", "coord": {"lon": -3.06497, "lat": 53.423241}}, {"id": 2814691, "name": "Wallau", "country": "DE", "coord": {"lon": 8.36667, "lat": 50.066669}}, {"id": 6550054, "name": "Wallbach", "country": "DE", "coord": {"lon": 10.4, "lat": 50.633301}}, {"id": 2814685, "name": "Wallbach", "country": "DE", "coord": {"lon": 10.4, "lat": 50.633331}}, {"id": 4497413, "name": "Wallburg", "country": "US", "coord": {"lon": -80.139214, "lat": 36.010139}}, {"id": 2814670, "name": "Walldorf", "country": "DE", "coord": {"lon": 8.64528, "lat": 49.306389}}, {"id": 6550055, "name": "Walldorf", "country": "DE", "coord": {"lon": 10.3833, "lat": 50.616699}}, {"id": 2814668, "name": "Walldorf", "country": "DE", "coord": {"lon": 10.38333, "lat": 50.616669}}, {"id": 2814667, "name": "Walldurn", "country": "DE", "coord": {"lon": 9.36667, "lat": 49.583328}}, {"id": 2814662, "name": "Walle", "country": "DE", "coord": {"lon": 8.96667, "lat": 54.166672}}, {"id": 2814666, "name": "Walle", "country": "DE", "coord": {"lon": 10.44671, "lat": 52.34124}}, {"id": 5013961, "name": "Walled Lake", "country": "US", "coord": {"lon": -83.481049, "lat": 42.537811}}, {"id": 2814656, "name": "Wallen", "country": "DE", "coord": {"lon": 7.95, "lat": 52.5}}, {"id": 6551385, "name": "Wallen", "country": "DE", "coord": {"lon": 9.26667, "lat": 54.283298}}, {"id": 2814655, "name": "Wallen", "country": "DE", "coord": {"lon": 9.26667, "lat": 54.283329}}, {"id": 6554674, "name": "Wallenborn", "country": "DE", "coord": {"lon": 6.71667, "lat": 50.150002}}, {"id": 2814650, "name": "Wallenborn", "country": "DE", "coord": {"lon": 6.71667, "lat": 50.150002}}, {"id": 2658063, "name": "Wallenbuch", "country": "CH", "coord": {"lon": 7.22538, "lat": 46.929482}}, {"id": 2144915, "name": "Wallendbeen", "country": "AU", "coord": {"lon": 148.149994, "lat": -34.533329}}, {"id": 6554514, "name": "Wallendorf", "country": "DE", "coord": {"lon": 6.3, "lat": 49.866699}}, {"id": 2814643, "name": "Wallendorf", "country": "DE", "coord": {"lon": 6.3, "lat": 49.866669}}, {"id": 2814640, "name": "Wallendorf", "country": "DE", "coord": {"lon": 12.08333, "lat": 51.366669}}, {"id": 2814637, "name": "Wallenfels", "country": "DE", "coord": {"lon": 11.46667, "lat": 50.26667}}, {"id": 6552996, "name": "Wallenhorst", "country": "DE", "coord": {"lon": 8.0115, "lat": 52.348598}}, {"id": 2814632, "name": "Wallenhorst", "country": "DE", "coord": {"lon": 8.01667, "lat": 52.349998}}, {"id": 7287528, "name": "Wallenried", "country": "CH", "coord": {"lon": 7.11139, "lat": 46.876362}}, {"id": 2658062, "name": "Wallenried", "country": "CH", "coord": {"lon": 7.11577, "lat": 46.873611}}, {"id": 2814627, "name": "Wallensen", "country": "DE", "coord": {"lon": 9.62059, "lat": 52.01722}}, {"id": 2814625, "name": "Wallenstedt", "country": "DE", "coord": {"lon": 9.8, "lat": 52.066669}}, {"id": 2814623, "name": "Wallenstein", "country": "DE", "coord": {"lon": 9.48333, "lat": 50.950001}}, {"id": 4739799, "name": "Waller", "country": "US", "coord": {"lon": -95.926903, "lat": 30.05661}}, {"id": 2814617, "name": "Waller", "country": "DE", "coord": {"lon": 11.50217, "lat": 49.424492}}, {"id": 5814941, "name": "Waller", "country": "US", "coord": {"lon": -122.369293, "lat": 47.200661}}, {"id": 4739804, "name": "Waller County", "country": "US", "coord": {"lon": -96.000793, "lat": 30.00078}}, {"id": 2144914, "name": "Wallerawang", "country": "AU", "coord": {"lon": 150.066666, "lat": -33.416672}}, {"id": 2814615, "name": "Wallerdorf", "country": "DE", "coord": {"lon": 11, "lat": 48.616669}}, {"id": 6547529, "name": "Wallerfangen", "country": "DE", "coord": {"lon": 6.7208, "lat": 49.327801}}, {"id": 2814613, "name": "Wallerfangen", "country": "DE", "coord": {"lon": 6.71667, "lat": 49.333328}}, {"id": 6556468, "name": "Wallerfing", "country": "DE", "coord": {"lon": 12.8762, "lat": 48.6842}}, {"id": 2814612, "name": "Wallerfing", "country": "DE", "coord": {"lon": 12.88333, "lat": 48.683331}}, {"id": 7872723, "name": "Wallern im Burgenland", "country": "AT", "coord": {"lon": 16.96785, "lat": 47.72411}}, {"id": 2761964, "name": "Wallern im Burgenland", "country": "AT", "coord": {"lon": 16.937059, "lat": 47.72847}}, {"id": 2814607, "name": "Wallernhausen", "country": "DE", "coord": {"lon": 9.01667, "lat": 50.400002}}, {"id": 6454426, "name": "Wallers", "country": "FR", "coord": {"lon": 3.4, "lat": 50.366669}}, {"id": 2967494, "name": "Wallers", "country": "FR", "coord": {"lon": 3.39188, "lat": 50.374321}}, {"id": 2814599, "name": "Wallersdorf", "country": "DE", "coord": {"lon": 12.75, "lat": 48.73333}}, {"id": 2814598, "name": "Wallersdorf", "country": "DE", "coord": {"lon": 10.61667, "lat": 49.26667}}, {"id": 6554608, "name": "Wallersheim", "country": "DE", "coord": {"lon": 6.53333, "lat": 50.200001}}, {"id": 2814596, "name": "Wallersheim", "country": "DE", "coord": {"lon": 6.53333, "lat": 50.200001}}, {"id": 2814592, "name": "Wallerstein", "country": "DE", "coord": {"lon": 10.46667, "lat": 48.883331}}, {"id": 2814593, "name": "Wallerst\u00e4dten", "country": "DE", "coord": {"lon": 8.45083, "lat": 49.90361}}, {"id": 6554881, "name": "Wallertheim", "country": "DE", "coord": {"lon": 8.05139, "lat": 49.835602}}, {"id": 2814591, "name": "Wallertheim", "country": "DE", "coord": {"lon": 8.05139, "lat": 49.83556}}, {"id": 2814588, "name": "Walleshausen", "country": "DE", "coord": {"lon": 10.98333, "lat": 48.150002}}, {"id": 6556251, "name": "Wallgau", "country": "DE", "coord": {"lon": 11.2833, "lat": 47.516701}}, {"id": 2814582, "name": "Wallgau", "country": "DE", "coord": {"lon": 11.28333, "lat": 47.51667}}, {"id": 6555387, "name": "Wallhalben", "country": "DE", "coord": {"lon": 7.53333, "lat": 49.3167}}, {"id": 2814577, "name": "Wallhalben", "country": "DE", "coord": {"lon": 7.53333, "lat": 49.316669}}, {"id": 6549232, "name": "Wallhausen", "country": "DE", "coord": {"lon": 11.2, "lat": 51.466702}}, {"id": 2814570, "name": "Wallhausen", "country": "DE", "coord": {"lon": 11.2076, "lat": 51.46117}}, {"id": 6553554, "name": "Wallhausen", "country": "DE", "coord": {"lon": 7.76667, "lat": 49.883301}}, {"id": 2814571, "name": "Wallhausen", "country": "DE", "coord": {"lon": 7.76667, "lat": 49.883331}}, {"id": 6555559, "name": "Wallhausen", "country": "DE", "coord": {"lon": 10.0667, "lat": 49.216702}}, {"id": 2814572, "name": "Wallhausen", "country": "DE", "coord": {"lon": 10.06219, "lat": 49.210419}}, {"id": 2814564, "name": "Wallichen", "country": "DE", "coord": {"lon": 11.15, "lat": 51.01667}}, {"id": 2144908, "name": "Wallinduc", "country": "AU", "coord": {"lon": 143.516663, "lat": -37.866669}}, {"id": 2634869, "name": "Wallingford", "country": "GB", "coord": {"lon": -1.1248, "lat": 51.599819}}, {"id": 4845056, "name": "Wallingford", "country": "US", "coord": {"lon": -72.823158, "lat": 41.457039}}, {"id": 7257422, "name": "Wallingford Center", "country": "US", "coord": {"lon": -72.818916, "lat": 41.449871}}, {"id": 2634867, "name": "Wallington", "country": "GB", "coord": {"lon": -0.15, "lat": 51.349998}}, {"id": 2144905, "name": "Wallington", "country": "AU", "coord": {"lon": 144.483337, "lat": -38.200001}}, {"id": 5105974, "name": "Wallington", "country": "US", "coord": {"lon": -74.113747, "lat": 40.853161}},