[{"id": 3418076, "name": "Borgarnes", "country": "IS", "coord": {"lon": -21.920641, "lat": 64.538338}}, {"id": 3181850, "name": "Borgaro Torinese", "country": "IT", "coord": {"lon": 7.65672, "lat": 45.148251}}, {"id": 6551810, "name": "Borgdorf-Seedorf", "country": "DE", "coord": {"lon": 9.88333, "lat": 54.166698}}, {"id": 2946296, "name": "Borgdorf-Seedorf", "country": "DE", "coord": {"lon": 9.88333, "lat": 54.166672}}, {"id": 2946291, "name": "Borgentreich", "country": "DE", "coord": {"lon": 9.24113, "lat": 51.569172}}, {"id": 2758621, "name": "Borger", "country": "NL", "coord": {"lon": 6.79306, "lat": 52.923328}}, {"id": 2946290, "name": "Borger", "country": "DE", "coord": {"lon": 7.53576, "lat": 52.912109}}, {"id": 5517469, "name": "Borger", "country": "US", "coord": {"lon": -101.397392, "lat": 35.66782}}, {"id": 3209176, "name": "Borgerende-Rethwisch", "country": "DE", "coord": {"lon": 11.91667, "lat": 54.133331}}, {"id": 2525526, "name": "Borgetto", "country": "IT", "coord": {"lon": 13.14354, "lat": 38.04705}}, {"id": 2946281, "name": "Borgfelde", "country": "DE", "coord": {"lon": 10.03447, "lat": 53.554749}}, {"id": 2946279, "name": "Borghagen", "country": "DE", "coord": {"lon": 7.31667, "lat": 51.599998}}, {"id": 7626347, "name": "Borgheim", "country": "NO", "coord": {"lon": 10.40785, "lat": 59.227161}}, {"id": 3181835, "name": "Borghetto Lodigiano", "country": "IT", "coord": {"lon": 9.49926, "lat": 45.214771}}, {"id": 6541657, "name": "Borghetto Santo Spirito", "country": "IT", "coord": {"lon": 8.23905, "lat": 44.115429}}, {"id": 3181832, "name": "Borghetto Santo Spirito", "country": "IT", "coord": {"lon": 8.24129, "lat": 44.11187}}, {"id": 3181838, "name": "Borghetto dArroscia", "country": "IT", "coord": {"lon": 7.98175, "lat": 44.057732}}, {"id": 6534870, "name": "Borghetto di Borbera", "country": "IT", "coord": {"lon": 8.94346, "lat": 44.72945}}, {"id": 3181836, "name": "Borghetto di Vara", "country": "IT", "coord": {"lon": 9.72118, "lat": 44.223679}}, {"id": 3181830, "name": "Borghi", "country": "IT", "coord": {"lon": 12.36056, "lat": 44.03194}}, {"id": 2720437, "name": "Borgholm", "country": "SE", "coord": {"lon": 16.65634, "lat": 56.879299}}, {"id": 2946273, "name": "Borgholz", "country": "DE", "coord": {"lon": 9.26667, "lat": 51.616669}}, {"id": 2946270, "name": "Borgholzhausen", "country": "DE", "coord": {"lon": 8.3, "lat": 52.099998}}, {"id": 2946265, "name": "Borghorst", "country": "DE", "coord": {"lon": 7.41667, "lat": 52.133331}}, {"id": 6540801, "name": "Borgia", "country": "IT", "coord": {"lon": 16.508801, "lat": 38.826191}}, {"id": 2525525, "name": "Borgia", "country": "IT", "coord": {"lon": 16.508801, "lat": 38.826191}}, {"id": 3181829, "name": "Borgiallo", "country": "IT", "coord": {"lon": 7.66852, "lat": 45.417061}}, {"id": 6534434, "name": "Borgio Verezzi", "country": "IT", "coord": {"lon": 8.30832, "lat": 44.159061}}, {"id": 2801468, "name": "Borgloon", "country": "BE", "coord": {"lon": 5.34365, "lat": 50.803982}}, {"id": 2801467, "name": "Borgloon", "country": "BE", "coord": {"lon": 5.34366, "lat": 50.80505}}, {"id": 2525524, "name": "Borgo", "country": "IT", "coord": {"lon": 15.93333, "lat": 39.51667}}, {"id": 3031537, "name": "Borgo", "country": "FR", "coord": {"lon": 9.42636, "lat": 42.554878}}, {"id": 3181822, "name": "Borgo", "country": "IT", "coord": {"lon": 11.45439, "lat": 46.051411}}, {"id": 3181811, "name": "Borgo Casale", "country": "IT", "coord": {"lon": 17.950001, "lat": 40.650002}}, {"id": 3181794, "name": "Borgo Lavezzaro", "country": "IT", "coord": {"lon": 8.69954, "lat": 45.31966}}, {"id": 3181793, "name": "Borgo Maggiore", "country": "SM", "coord": {"lon": 12.44738, "lat": 43.941929}}, {"id": 3181774, "name": "Borgo Pace", "country": "IT", "coord": {"lon": 12.29405, "lat": 43.658459}}, {"id": 3181770, "name": "Borgo Po", "country": "IT", "coord": {"lon": 7.7, "lat": 45.049999}}, {"id": 3181766, "name": "Borgo Priolo", "country": "IT", "coord": {"lon": 9.14835, "lat": 44.96632}}, {"id": 3181757, "name": "Borgo San Dalmazzo", "country": "IT", "coord": {"lon": 7.48583, "lat": 44.333031}}, {"id": 3181755, "name": "Borgo San Giacomo", "country": "IT", "coord": {"lon": 9.96847, "lat": 45.346981}}, {"id": 6535708, "name": "Borgo San Giovanni", "country": "IT", "coord": {"lon": 9.43496, "lat": 45.27787}}, {"id": 6538555, "name": "Borgo San Lorenzo", "country": "IT", "coord": {"lon": 11.38352, "lat": 43.955349}}, {"id": 3181754, "name": "Borgo San Lorenzo", "country": "IT", "coord": {"lon": 11.38352, "lat": 43.955349}}, {"id": 3181753, "name": "Borgo San Martino", "country": "IT", "coord": {"lon": 8.52464, "lat": 45.094261}}, {"id": 6534976, "name": "Borgo San Siro", "country": "IT", "coord": {"lon": 8.91334, "lat": 45.235062}}, {"id": 3181748, "name": "Borgo Ticino", "country": "IT", "coord": {"lon": 8.60183, "lat": 45.68927}}, {"id": 3181747, "name": "Borgo Tossignano", "country": "IT", "coord": {"lon": 11.59022, "lat": 44.276661}}, {"id": 3181746, "name": "Borgo Val di Taro", "country": "IT", "coord": {"lon": 9.76578, "lat": 44.487049}}, {"id": 3181745, "name": "Borgo Velino", "country": "IT", "coord": {"lon": 13.05928, "lat": 42.406029}}, {"id": 3181744, "name": "Borgo Vercelli", "country": "IT", "coord": {"lon": 8.46303, "lat": 45.357861}}, {"id": 3181819, "name": "Borgo a Buggiano", "country": "IT", "coord": {"lon": 10.73351, "lat": 43.87545}}, {"id": 6536810, "name": "Borgo a Mozzano", "country": "IT", "coord": {"lon": 10.5457, "lat": 43.978951}}, {"id": 3181815, "name": "Borgo a Mozzano", "country": "IT", "coord": {"lon": 10.5457, "lat": 43.978951}}, {"id": 3181809, "name": "Borgo dAle", "country": "IT", "coord": {"lon": 8.05072, "lat": 45.351662}}, {"id": 3181804, "name": "Borgo di Terzo", "country": "IT", "coord": {"lon": 9.89096, "lat": 45.720779}}, {"id": 3181802, "name": "Borgoforte", "country": "IT", "coord": {"lon": 10.74929, "lat": 45.051281}}, {"id": 6541791, "name": "Borgofranco d'Ivrea", "country": "IT", "coord": {"lon": 7.85802, "lat": 45.512859}}, {"id": 3181799, "name": "Borgofranco dIvrea", "country": "IT", "coord": {"lon": 7.85802, "lat": 45.512859}}, {"id": 6535241, "name": "Borgofranco sul Po", "country": "IT", "coord": {"lon": 11.2093, "lat": 45.046581}}, {"id": 3181792, "name": "Borgomale", "country": "IT", "coord": {"lon": 8.13224, "lat": 44.620338}}, {"id": 6538124, "name": "Borgomanero", "country": "IT", "coord": {"lon": 8.45813, "lat": 45.70237}}, {"id": 3181790, "name": "Borgomanero", "country": "IT", "coord": {"lon": 8.45813, "lat": 45.70237}}, {"id": 3181789, "name": "Borgomaro", "country": "IT", "coord": {"lon": 7.94515, "lat": 43.974918}}, {"id": 3181787, "name": "Borgomasino", "country": "IT", "coord": {"lon": 7.98752, "lat": 45.363258}}, {"id": 3181782, "name": "Borgone Susa", "country": "IT", "coord": {"lon": 7.23971, "lat": 45.122841}}, {"id": 3181781, "name": "Borgonovo", "country": "IT", "coord": {"lon": 9.38333, "lat": 44.383331}}, {"id": 6536332, "name": "Borgonovo Val Tidone", "country": "IT", "coord": {"lon": 9.44346, "lat": 45.014359}}, {"id": 3181779, "name": "Borgonovo Val Tidone", "country": "IT", "coord": {"lon": 9.44346, "lat": 45.014359}}, {"id": 3181764, "name": "Borgoratto Alessandrino", "country": "IT", "coord": {"lon": 8.53854, "lat": 44.83625}}, {"id": 3181763, "name": "Borgoratto Mormorolo", "country": "IT", "coord": {"lon": 9.19326, "lat": 44.93066}}, {"id": 3181762, "name": "Borgoricco", "country": "IT", "coord": {"lon": 11.94111, "lat": 45.535198}}, {"id": 6541125, "name": "Borgorose", "country": "IT", "coord": {"lon": 13.23399, "lat": 42.18903}}, {"id": 3181760, "name": "Borgorose", "country": "IT", "coord": {"lon": 13.23399, "lat": 42.18903}}, {"id": 3181750, "name": "Borgosatollo", "country": "IT", "coord": {"lon": 10.24107, "lat": 45.480782}}, {"id": 3181749, "name": "Borgosesia", "country": "IT", "coord": {"lon": 8.27992, "lat": 45.71447}}, {"id": 2946255, "name": "Borgsdorf", "country": "DE", "coord": {"lon": 13.25, "lat": 52.716671}}, {"id": 6551811, "name": "Borgstedt", "country": "DE", "coord": {"lon": 9.71667, "lat": 54.333302}}, {"id": 2946247, "name": "Borgstedt", "country": "DE", "coord": {"lon": 9.71667, "lat": 54.333328}}, {"id": 6551534, "name": "Borgsum", "country": "DE", "coord": {"lon": 8.45879, "lat": 54.70052}}, {"id": 2946244, "name": "Borgsum", "country": "DE", "coord": {"lon": 8.45741, "lat": 54.700619}}, {"id": 2801463, "name": "Borgt Driesen", "country": "BE", "coord": {"lon": 4.78333, "lat": 51.26667}}, {"id": 572567, "name": "Borgustanskaya", "country": "RU", "coord": {"lon": 42.528801, "lat": 44.054699}}, {"id": 6551949, "name": "Borgwedel", "country": "DE", "coord": {"lon": 9.66667, "lat": 54.5}}, {"id": 2946238, "name": "Borgwedel", "country": "DE", "coord": {"lon": 9.66667, "lat": 54.5}}, {"id": 3160643, "name": "Borhaug", "country": "NO", "coord": {"lon": 6.6, "lat": 58.099998}}, {"id": 2346800, "name": "Bori", "country": "NG", "coord": {"lon": 7.36201, "lat": 4.67366}}, {"id": 5181222, "name": "Borie", "country": "US", "coord": {"lon": -77.952217, "lat": 41.685902}}, {"id": 7379235, "name": "Borik", "country": "ID", "coord": {"lon": 120.249702, "lat": -8.8435}}, {"id": 6459401, "name": "Borima", "country": "BG", "coord": {"lon": 24.566669, "lat": 42.966671}}, {"id": 733069, "name": "Borima", "country": "BG", "coord": {"lon": 24.566669, "lat": 42.966671}}, {"id": 733067, "name": "Borino", "country": "BG", "coord": {"lon": 24.283331, "lat": 41.683331}}, {"id": 572559, "name": "Borinskoye", "country": "RU", "coord": {"lon": 39.3713, "lat": 52.456902}}, {"id": 1337229, "name": "Borishal", "country": "BD", "coord": {"lon": 90.333328, "lat": 22.5}}, {"id": 572538, "name": "Boriskovo", "country": "RU", "coord": {"lon": 36.9575, "lat": 55.840279}}, {"id": 572516, "name": "Borisogleb", "country": "RU", "coord": {"lon": 42.021389, "lat": 55.711945}}, {"id": 572525, "name": "Borisoglebsk", "country": "RU", "coord": {"lon": 42.084942, "lat": 51.36713}}, {"id": 572520, "name": "Borisoglebskiy", "country": "RU", "coord": {"lon": 39.150799, "lat": 57.258598}}, {"id": 572517, "name": "Borisoglebskoye", "country": "RU", "coord": {"lon": 36.39444, "lat": 52.581108}}, {"id": 510779, "name": "Borisov", "country": "RU", "coord": {"lon": 42.936829, "lat": 48.881519}}, {"id": 572506, "name": "Borisova Griva", "country": "RU", "coord": {"lon": 30.97727, "lat": 60.089359}}, {"id": 805775, "name": "Borisovka", "country": "RU", "coord": {"lon": 35.99028, "lat": 50.623611}}, {"id": 572482, "name": "Borisovka", "country": "RU", "coord": {"lon": 41.300835, "lat": 53.764999}}, {"id": 572474, "name": "Borisovka", "country": "RU", "coord": {"lon": 44.049999, "lat": 56.366669}}, {"id": 572500, "name": "Borisovka", "country": "RU", "coord": {"lon": 36.015491, "lat": 50.601559}}, {"id": 572447, "name": "Borisovo", "country": "RU", "coord": {"lon": 39.716667, "lat": 55.799999}}, {"id": 572460, "name": "Borisovo", "country": "RU", "coord": {"lon": 37.484131, "lat": 54.9137}}, {"id": 572389, "name": "Borisovskoye", "country": "RU", "coord": {"lon": 40.483334, "lat": 56.266666}}, {"id": 572384, "name": "Borisovskoye", "country": "RU", "coord": {"lon": 42.349998, "lat": 59.116669}}, {"id": 3078982, "name": "Boritov", "country": "CZ", "coord": {"lon": 16.59119, "lat": 49.425041}}, {"id": 1275248, "name": "Borivli", "country": "IN", "coord": {"lon": 72.849998, "lat": 19.23333}}, {"id": 6362748, "name": "Borja", "country": "ES", "coord": {"lon": -1.55369, "lat": 41.835831}}, {"id": 3127800, "name": "Borja", "country": "ES", "coord": {"lon": -1.53271, "lat": 41.834122}}, {"id": 6361096, "name": "Borjabad", "country": "ES", "coord": {"lon": -2.40455, "lat": 41.56419}}, {"id": 3127799, "name": "Borjabad", "country": "ES", "coord": {"lon": -2.36625, "lat": 41.552448}}, {"id": 140082, "name": "Borjak", "country": "IR", "coord": {"lon": 48.470081, "lat": 34.174278}}, {"id": 615403, "name": "Borjomi", "country": "GE", "coord": {"lon": 43.412842, "lat": 41.852718}}, {"id": 2946235, "name": "Bork", "country": "DE", "coord": {"lon": 7.5, "lat": 51.666672}}, {"id": 2946233, "name": "Bork", "country": "DE", "coord": {"lon": 7.46667, "lat": 51.666672}}, {"id": 2946228, "name": "Borken", "country": "DE", "coord": {"lon": 6.86667, "lat": 51.849998}}, {"id": 2946230, "name": "Borken", "country": "DE", "coord": {"lon": 9.28333, "lat": 51.049999}}, {"id": 3160630, "name": "Borkenes", "country": "NO", "coord": {"lon": 16.17391, "lat": 68.773956}}, {"id": 6547666, "name": "Borkheide", "country": "DE", "coord": {"lon": 12.85, "lat": 52.216702}}, {"id": 2946214, "name": "Borkheide", "country": "DE", "coord": {"lon": 12.85, "lat": 52.216671}}, {"id": 1442037, "name": "Borkhera", "country": "IN", "coord": {"lon": 75.641388, "lat": 25.52083}}, {"id": 572349, "name": "Borki", "country": "RU", "coord": {"lon": 37.349998, "lat": 56.799999}}, {"id": 6652711, "name": "Borki", "country": "RU", "coord": {"lon": 35.926105, "lat": 56.215202}}, {"id": 572331, "name": "Borki", "country": "RU", "coord": {"lon": 39.712502, "lat": 54.654999}}, {"id": 629783, "name": "Borki", "country": "BY", "coord": {"lon": 29.700001, "lat": 53.466667}}, {"id": 629785, "name": "Borki", "country": "BY", "coord": {"lon": 28.683332, "lat": 53.233334}}, {"id": 1508961, "name": "Borki", "country": "RU", "coord": {"lon": 92.082298, "lat": 58.485802}}, {"id": 775555, "name": "Borki", "country": "PL", "coord": {"lon": 21.64537, "lat": 52.4641}}, {"id": 775561, "name": "Borki", "country": "PL", "coord": {"lon": 22.52129, "lat": 51.721611}}, {"id": 2623736, "name": "Borkop", "country": "DK", "coord": {"lon": 9.64822, "lat": 55.637939}}, {"id": 6548340, "name": "Borkow", "country": "DE", "coord": {"lon": 11.9333, "lat": 53.666698}}, {"id": 2946210, "name": "Borkow", "country": "DE", "coord": {"lon": 11.94969, "lat": 53.663559}}, {"id": 775533, "name": "Borkowice", "country": "PL", "coord": {"lon": 20.68339, "lat": 51.320251}}, {"id": 2946206, "name": "Borkum", "country": "DE", "coord": {"lon": 6.69153, "lat": 53.58094}}, {"id": 7602415, "name": "Borkwalde", "country": "DE", "coord": {"lon": 12.8333, "lat": 52.25}}, {"id": 6547667, "name": "Borkwalde", "country": "DE", "coord": {"lon": 12.8333, "lat": 52.25}}, {"id": 2946203, "name": "Borkwalde", "country": "DE", "coord": {"lon": 12.83333, "lat": 52.25}}, {"id": 2720383, "name": "Borlaenge", "country": "SE", "coord": {"lon": 15.43714, "lat": 60.485802}}, {"id": 6554684, "name": "Borler", "country": "DE", "coord": {"lon": 6.83333, "lat": 50.3167}}, {"id": 2946198, "name": "Borler", "country": "DE", "coord": {"lon": 6.83333, "lat": 50.316669}}, {"id": 684190, "name": "Borlesti", "country": "RO", "coord": {"lon": 26.48333, "lat": 46.76667}}, {"id": 2720382, "name": "Borl\u00e4nge Kommun", "country": "SE", "coord": {"lon": 15.41667, "lat": 60.466671}}, {"id": 2946192, "name": "Borm", "country": "DE", "coord": {"lon": 9.38333, "lat": 54.400002}}, {"id": 3031532, "name": "Bormes-les-Mimosas", "country": "FR", "coord": {"lon": 6.33863, "lat": 43.140732}}, {"id": 6534435, "name": "Bormida", "country": "IT", "coord": {"lon": 8.23235, "lat": 44.27813}}, {"id": 3181730, "name": "Bormio", "country": "IT", "coord": {"lon": 10.37206, "lat": 46.46841}}, {"id": 6360972, "name": "Bormujos", "country": "ES", "coord": {"lon": -6.08618, "lat": 37.36459}}, {"id": 2520833, "name": "Bormujos", "country": "ES", "coord": {"lon": -6.07232, "lat": 37.373581}}, {"id": 572311, "name": "Bormusovo", "country": "RU", "coord": {"lon": 39.5, "lat": 55.450001}}, {"id": 2946181, "name": "Born", "country": "DE", "coord": {"lon": 8.1, "lat": 50.150002}}, {"id": 2960739, "name": "Born", "country": "LU", "coord": {"lon": 6.51389, "lat": 49.754169}}, {"id": 2946177, "name": "Born", "country": "DE", "coord": {"lon": 11.48333, "lat": 52.366669}}, {"id": 2758602, "name": "Born", "country": "NL", "coord": {"lon": 5.80972, "lat": 51.03167}}, {"id": 2946176, "name": "Born", "country": "DE", "coord": {"lon": 12.53051, "lat": 54.385361}}, {"id": 2946172, "name": "Borna", "country": "DE", "coord": {"lon": 12.5, "lat": 51.116669}}, {"id": 3181729, "name": "Bornasco", "country": "IT", "coord": {"lon": 9.21795, "lat": 45.266571}}, {"id": 6449024, "name": "Borne", "country": "FR", "coord": {"lon": 3.78333, "lat": 45.099998}}, {"id": 3031520, "name": "Borne", "country": "FR", "coord": {"lon": 3.7988, "lat": 45.09977}}, {"id": 2758598, "name": "Borne", "country": "NL", "coord": {"lon": 6.7482, "lat": 52.301361}}, {"id": 6549266, "name": "Borne", "country": "DE", "coord": {"lon": 11.55, "lat": 51.950001}}, {"id": 2946137, "name": "Borne", "country": "DE", "coord": {"lon": 11.55865, "lat": 51.948811}}, {"id": 3084213, "name": "Borne Sulinowo", "country": "PL", "coord": {"lon": 16.533951, "lat": 53.576611}}, {"id": 3031516, "name": "Bornel", "country": "FR", "coord": {"lon": 2.20912, "lat": 49.1982}}, {"id": 2801448, "name": "Bornem", "country": "BE", "coord": {"lon": 4.24192, "lat": 51.09705}}, {"id": 2801447, "name": "Bornem", "country": "BE", "coord": {"lon": 4.24364, "lat": 51.09716}}, {"id": 2742116, "name": "Bornes", "country": "PT", "coord": {"lon": -7.60015, "lat": 41.545311}}, {"id": 8014764, "name": "Bornes de Aguiar", "country": "PT", "coord": {"lon": -7.57504, "lat": 41.53447}}, {"id": 6547473, "name": "Bornhagen", "country": "DE", "coord": {"lon": 9.95, "lat": 51.333302}}, {"id": 2946117, "name": "Bornhagen", "country": "DE", "coord": {"lon": 9.95, "lat": 51.333328}}, {"id": 2946111, "name": "Bornheim", "country": "DE", "coord": {"lon": 7, "lat": 50.76667}}, {"id": 6554834, "name": "Bornheim", "country": "DE", "coord": {"lon": 8.06028, "lat": 49.7831}}, {"id": 2946112, "name": "Bornheim", "country": "DE", "coord": {"lon": 8.06028, "lat": 49.783058}}, {"id": 6555172, "name": "Bornheim", "country": "DE", "coord": {"lon": 8.16333, "lat": 49.2225}}, {"id": 2946113, "name": "Bornheim", "country": "DE", "coord": {"lon": 8.16333, "lat": 49.2225}}, {"id": 2076021, "name": "Bornholm", "country": "AU", "coord": {"lon": 117.583328, "lat": -35.049999}}, {"id": 2623665, "name": "Bornholm Kommune", "country": "DK", "coord": {"lon": 15, "lat": 55.166672}}, {"id": 6559309, "name": "Bornholt", "country": "DE", "coord": {"lon": 9.41056, "lat": 54.130909}}, {"id": 3208540, "name": "Bornholt", "country": "DE", "coord": {"lon": 9.33333, "lat": 54.099998}}, {"id": 2946100, "name": "Bornhoved", "country": "DE", "coord": {"lon": 10.23333, "lat": 54.066669}}, {"id": 6552077, "name": "Bornh\u00f6ved", "country": "DE", "coord": {"lon": 10.2333, "lat": 54.0667}}, {"id": 6554003, "name": "Bornich", "country": "DE", "coord": {"lon": 7.76667, "lat": 50.133301}}, {"id": 2946098, "name": "Bornich", "country": "DE", "coord": {"lon": 7.76667, "lat": 50.133331}}, {"id": 2946097, "name": "Bornichen", "country": "DE", "coord": {"lon": 13.13333, "lat": 50.75}}, {"id": 3204987, "name": "Bornitz", "country": "DE", "coord": {"lon": 13.41667, "lat": 51.23333}}, {"id": 2946076, "name": "Bornkrug", "country": "DE", "coord": {"lon": 12.3864, "lat": 53.597801}}, {"id": 3181727, "name": "Borno", "country": "IT", "coord": {"lon": 10.19786, "lat": 45.945389}}, {"id": 2346794, "name": "Borno State", "country": "NG", "coord": {"lon": 13, "lat": 11.5}}, {"id": 2520832, "name": "Bornos", "country": "ES", "coord": {"lon": -5.74448, "lat": 36.816769}}, {"id": 572308, "name": "Bornosovo", "country": "RU", "coord": {"lon": 37.349998, "lat": 56.25}}, {"id": 2946060, "name": "Bornsen", "country": "DE", "coord": {"lon": 10.28333, "lat": 53.48333}}, {"id": 6549062, "name": "Bornstedt", "country": "DE", "coord": {"lon": 11.4833, "lat": 51.483299}}, {"id": 2946056, "name": "Bornstedt", "country": "DE", "coord": {"lon": 11.48333, "lat": 51.48333}}, {"id": 2346788, "name": "Bornu Yassu", "country": "NG", "coord": {"lon": 12.5552, "lat": 12.2774}}, {"id": 2032327, "name": "Bornuur", "country": "MN", "coord": {"lon": 106.26667, "lat": 48.466671}}, {"id": 2174584, "name": "Boro", "country": "AU", "coord": {"lon": 149.666672, "lat": -35.150002}}, {"id": 684183, "name": "Boroaia", "country": "RO", "coord": {"lon": 26.33333, "lat": 47.349998}}, {"id": 6361097, "name": "Borobia", "country": "ES", "coord": {"lon": -1.87719, "lat": 41.683781}}, {"id": 3127790, "name": "Borobia", "country": "ES", "coord": {"lon": -1.89615, "lat": 41.66481}}, {"id": 6554197, "name": "Borod", "country": "DE", "coord": {"lon": 7.7, "lat": 50.666698}}, {"id": 2946038, "name": "Borod", "country": "DE", "coord": {"lon": 7.7, "lat": 50.666672}}, {"id": 684179, "name": "Borod", "country": "RO", "coord": {"lon": 22.633329, "lat": 46.98333}}, {"id": 572275, "name": "Borodino", "country": "RU", "coord": {"lon": 36.733334, "lat": 56.316666}}, {"id": 857376, "name": "Borodino", "country": "RU", "coord": {"lon": 35.933304, "lat": 56.262642}}, {"id": 572269, "name": "Borodino", "country": "RU", "coord": {"lon": 36.9958, "lat": 56.886101}}, {"id": 1508943, "name": "Borodino", "country": "RU", "coord": {"lon": 94.898331, "lat": 55.910561}}, {"id": 711637, "name": "Borodino", "country": "UA", "coord": {"lon": 29.241671, "lat": 46.302502}}, {"id": 572258, "name": "Borodinskaya", "country": "RU", "coord": {"lon": 38.2561, "lat": 46.103699}}, {"id": 572256, "name": "Borodinskiy", "country": "RU", "coord": {"lon": 37.817921, "lat": 53.998589}}, {"id": 1525134, "name": "Borodulikha", "country": "KZ", "coord": {"lon": 80.929497, "lat": 50.71841}}, {"id": 572248, "name": "Borodulino", "country": "RU", "coord": {"lon": 42.883331, "lat": 56.650002}}, {"id": 6610647, "name": "Borodulino", "country": "RU", "coord": {"lon": 41.575558, "lat": 58.080833}}, {"id": 711635, "name": "Borodyanka", "country": "UA", "coord": {"lon": 29.920099, "lat": 50.64484}}, {"id": 2026160, "name": "Borogontsy", "country": "RU", "coord": {"lon": 131.168335, "lat": 62.668331}}, {"id": 3078973, "name": "Borohradek", "country": "CZ", "coord": {"lon": 16.09326, "lat": 50.097771}}, {"id": 572220, "name": "Borok", "country": "RU", "coord": {"lon": 38.236198, "lat": 58.065319}}, {"id": 572233, "name": "Borok", "country": "RU", "coord": {"lon": 39.366669, "lat": 55.849998}}, {"id": 2099101, "name": "Boroko", "country": "PG", "coord": {"lon": 147.195816, "lat": -9.46755}}, {"id": 1648140, "name": "Boroko", "country": "ID", "coord": {"lon": 123.267899, "lat": 0.9083}}, {"id": 711629, "name": "Boromlya", "country": "UA", "coord": {"lon": 34.970421, "lat": 50.618382}}, {"id": 2362150, "name": "Boromo", "country": "BF", "coord": {"lon": -2.93333, "lat": 11.75}}, {"id": 5330106, "name": "Boron", "country": "US", "coord": {"lon": -117.64978, "lat": 34.99942}}, {"id": 5330118, "name": "Boronda", "country": "US", "coord": {"lon": -121.67495, "lat": 36.698849}}, {"id": 3127787, "name": "Borondes", "country": "ES", "coord": {"lon": -6, "lat": 43.349998}}, {"id": 3181726, "name": "Boroneddu", "country": "IT", "coord": {"lon": 8.87103, "lat": 40.113049}}, {"id": 1723894, "name": "Borongan", "country": "PH", "coord": {"lon": 125.433327, "lat": 11.63333}}, {"id": 1723893, "name": "Borongan", "country": "PH", "coord": {"lon": 125.431938, "lat": 11.60806}}, {"id": 2174580, "name": "Boronia", "country": "AU", "coord": {"lon": 145.283325, "lat": -37.866669}}, {"id": 3102869, "name": "Boronow", "country": "PL", "coord": {"lon": 18.90678, "lat": 50.674599}}, {"id": 1722356, "name": "Boroon", "country": "PH", "coord": {"lon": 124.176941, "lat": 8.18778}}, {"id": 7839532, "name": "Boroondara", "country": "AU", "coord": {"lon": 145.052994, "lat": -37.826401}}, {"id": 3181725, "name": "Borore", "country": "IT", "coord": {"lon": 8.80372, "lat": 40.21685}}, {"id": 2174578, "name": "Bororen", "country": "AU", "coord": {"lon": 151.5, "lat": -24.25}}, {"id": 684170, "name": "Borosneu Mare", "country": "RO", "coord": {"lon": 26, "lat": 45.816669}}, {"id": 240049, "name": "Borota", "country": "CF", "coord": {"lon": 21.116671, "lat": 5.06667}}, {"id": 2655172, "name": "Borough Green", "country": "GB", "coord": {"lon": 0.30478, "lat": 51.29158}}, {"id": 3333122, "name": "Borough of Barnsley", "country": "GB", "coord": {"lon": -1.5, "lat": 53.533329}}, {"id": 3333126, "name": "Borough of Blackburn with Darwen", "country": "GB", "coord": {"lon": -2.46667, "lat": 53.666672}}, {"id": 3333127, "name": "Borough of Blackpool", "country": "GB", "coord": {"lon": -3.03333, "lat": 53.833328}}, {"id": 3333128, "name": "Borough of Bolton", "country": "GB", "coord": {"lon": -2.5, "lat": 53.583328}}, {"id": 3333129, "name": "Borough of Bournemouth", "country": "GB", "coord": {"lon": -1.87806, "lat": 50.719181}}, {"id": 3333130, "name": "Borough of Bracknell Forest", "country": "GB", "coord": {"lon": -0.75, "lat": 51.416672}}, {"id": 3333133, "name": "Borough of Brighton and Hove", "country": "GB", "coord": {"lon": -0.13333, "lat": 50.833328}}, {"id": 3333136, "name": "Borough of Bury", "country": "GB", "coord": {"lon": -2.33333, "lat": 53.583328}}, {"id": 3333137, "name": "Borough of Calderdale", "country": "GB", "coord": {"lon": -2, "lat": 53.700001}}, {"id": 3333141, "name": "Borough of Darlington", "country": "GB", "coord": {"lon": -1.53333, "lat": 54.533329}}, {"id": 3333143, "name": "Borough of Doncaster", "country": "GB", "coord": {"lon": -1.08333, "lat": 53.5}}, {"id": 3333144, "name": "Borough of Dudley", "country": "GB", "coord": {"lon": -2.11667, "lat": 52.5}}, {"id": 2648186, "name": "Borough of Gravesham", "country": "GB", "coord": {"lon": 0.36405, "lat": 51.442909}}, {"id": 2647601, "name": "Borough of Halton", "country": "GB", "coord": {"lon": -2.75, "lat": 53.333328}}, {"id": 3333152, "name": "Borough of Hartlepool", "country": "GB", "coord": {"lon": -1.25, "lat": 54.666672}}, {"id": 3333161, "name": "Borough of Kirklees", "country": "GB", "coord": {"lon": -1.75, "lat": 53.583328}}, {"id": 3333162, "name": "Borough of Knowsley", "country": "GB", "coord": {"lon": -2.83333, "lat": 53.416672}}, {"id": 3333168, "name": "Borough of Luton", "country": "GB", "coord": {"lon": -0.42793, "lat": 51.891102}}, {"id": 3333170, "name": "Borough of Medway", "country": "GB", "coord": {"lon": 0.5, "lat": 51.416672}}, {"id": 3333172, "name": "Borough of Middlesbrough", "country": "GB", "coord": {"lon": -1.2, "lat": 54.533329}}, {"id": 3333173, "name": "Borough of Milton Keynes", "country": "GB", "coord": {"lon": -0.75, "lat": 52.083328}}, {"id": 2641238, "name": "Borough of North Tyneside", "country": "GB", "coord": {"lon": -1.5, "lat": 55.033329}}, {"id": 3333179, "name": "Borough of Oldham", "country": "GB", "coord": {"lon": -2.08333, "lat": 53.549999}}, {"id": 3333182, "name": "Borough of Poole", "country": "GB", "coord": {"lon": -1.96667, "lat": 50.73333}}, {"id": 3333184, "name": "Borough of Reading", "country": "GB", "coord": {"lon": -0.96667, "lat": 51.450001}}, {"id": 3333186, "name": "Borough of Redcar and Cleveland", "country": "GB", "coord": {"lon": -1, "lat": 54.549999}}, {"id": 3333188, "name": "Borough of Rochdale", "country": "GB", "coord": {"lon": -2.16667, "lat": 53.583328}}, {"id": 3333189, "name": "Borough of Rotherham", "country": "GB", "coord": {"lon": -1.25, "lat": 53.416672}}, {"id": 3333191, "name": "Borough of Sandwell", "country": "GB", "coord": {"lon": -2, "lat": 52.5}}, {"id": 3333192, "name": "Borough of Sefton", "country": "GB", "coord": {"lon": -3, "lat": 53.5}}, {"id": 3333195, "name": "Borough of Solihull", "country": "GB", "coord": {"lon": -1.75, "lat": 52.416672}}, {"id": 3333199, "name": "Borough of South Tyneside", "country": "GB", "coord": {"lon": -1.41667, "lat": 54.950001}}, {"id": 3333197, "name": "Borough of Southend-on-Sea", "country": "GB", "coord": {"lon": 0.7, "lat": 51.533329}}, {"id": 3333201, "name": "Borough of St. Helens", "country": "GB", "coord": {"lon": -2.75, "lat": 53.416672}}, {"id": 3333202, "name": "Borough of Stockport", "country": "GB", "coord": {"lon": -2.16667, "lat": 53.416672}}, {"id": 3333203, "name": "Borough of Stockton-on-Tees", "country": "GB", "coord": {"lon": -1.33333, "lat": 54.549999}}, {"id": 3333207, "name": "Borough of Swindon", "country": "GB", "coord": {"lon": -1.75, "lat": 51.583328}}, {"id": 3333208, "name": "Borough of Tameside", "country": "GB", "coord": {"lon": -2.08333, "lat": 53.5}}, {"id": 2635885, "name": "Borough of Thurrock", "country": "GB", "coord": {"lon": 0.41667, "lat": 51.5}}, {"id": 3333210, "name": "Borough of Torbay", "country": "GB", "coord": {"lon": -3.55785, "lat": 50.451599}}, {"id": 3333211, "name": "Borough of Trafford", "country": "GB", "coord": {"lon": -2.33333, "lat": 53.416672}}, {"id": 3333213, "name": "Borough of Walsall", "country": "GB", "coord": {"lon": -2, "lat": 52.583328}}, {"id": 3333216, "name": "Borough of Warrington", "country": "GB", "coord": {"lon": -2.58333, "lat": 53.416672}}, {"id": 3333219, "name": "Borough of Wigan", "country": "GB", "coord": {"lon": -2.58333, "lat": 53.5}}, {"id": 3333220, "name": "Borough of Wirral", "country": "GB", "coord": {"lon": -3.08333, "lat": 53.333328}}, {"id": 3333222, "name": "Borough of Wolverhampton", "country": "GB", "coord": {"lon": -2.11667, "lat": 52.583328}}, {"id": 2655173, "name": "Boroughbridge", "country": "GB", "coord": {"lon": -1.4011, "lat": 54.0895}}, {"id": 711623, "name": "Borova", "country": "UA", "coord": {"lon": 37.621361, "lat": 49.377701}}, {"id": 711621, "name": "Borova", "country": "UA", "coord": {"lon": 30.10429, "lat": 50.17625}}, {"id": 733058, "name": "Borovan", "country": "BG", "coord": {"lon": 23.75, "lat": 43.433331}}, {"id": 3078957, "name": "Borovany", "country": "CZ", "coord": {"lon": 14.64227, "lat": 48.898602}}, {"id": 733055, "name": "Borovets", "country": "BG", "coord": {"lon": 23, "lat": 42.116669}}, {"id": 572159, "name": "Borovetskoye", "country": "RU", "coord": {"lon": 52.42543, "lat": 55.775459}}, {"id": 572154, "name": "Borovichi", "country": "RU", "coord": {"lon": 33.915459, "lat": 58.387779}}, {"id": 1508918, "name": "Borovikha", "country": "RU", "coord": {"lon": 83.837898, "lat": 53.507198}}, {"id": 1508916, "name": "Borovikova", "country": "RU", "coord": {"lon": 64.030457, "lat": 57.59396}}, {"id": 572144, "name": "Borovikovo", "country": "RU", "coord": {"lon": 41.139999, "lat": 57.643055}}, {"id": 6283160, "name": "Borovikovo", "country": "RU", "coord": {"lon": 41.126945, "lat": 57.656387}}, {"id": 629736, "name": "Borovitsa", "country": "BY", "coord": {"lon": 29.566668, "lat": 53.333332}}, {"id": 572110, "name": "Borovki", "country": "RU", "coord": {"lon": 44.03146, "lat": 49.401161}}, {"id": 8247183, "name": "Borovlyany", "country": "BY", "coord": {"lon": 27.6754, "lat": 54.002201}}, {"id": 3203677, "name": "Borovnica", "country": "SI", "coord": {"lon": 14.36306, "lat": 45.915829}}, {"id": 733043, "name": "Borovo", "country": "BG", "coord": {"lon": 25.799999, "lat": 43.5}}, {"id": 3203670, "name": "Borovo", "country": "HR", "coord": {"lon": 18.96694, "lat": 45.376389}}, {"id": 1508894, "name": "Borovoy", "country": "RU", "coord": {"lon": 86.083328, "lat": 55.433331}}, {"id": 572091, "name": "Borovoy", "country": "RU", "coord": {"lon": 52.890308, "lat": 63.230049}}, {"id": 572090, "name": "Borovoy", "country": "RU", "coord": {"lon": 32.133331, "lat": 64.583336}}, {"id": 572070, "name": "Borovsk", "country": "RU", "coord": {"lon": 36.486111, "lat": 55.20639}}, {"id": 1508879, "name": "Borovskiy", "country": "RU", "coord": {"lon": 65.720177, "lat": 57.040958}}, {"id": 1525121, "name": "Borovskoy", "country": "KZ", "coord": {"lon": 64.150002, "lat": 53.799999}}, {"id": 775513, "name": "Borowa", "country": "PL", "coord": {"lon": 21.3515, "lat": 50.385479}}, {"id": 775493, "name": "Borowie", "country": "PL", "coord": {"lon": 21.7658, "lat": 51.949081}}, {"id": 3102819, "name": "Borowno", "country": "PL", "coord": {"lon": 19.2738, "lat": 50.932468}}, {"id": 6361682, "name": "Borox", "country": "ES", "coord": {"lon": -3.71843, "lat": 40.055592}}, {"id": 3127785, "name": "Borox", "country": "ES", "coord": {"lon": -3.73804, "lat": 40.067951}}, {"id": 3511174, "name": "Borrach\u00f3n", "country": "DO", "coord": {"lon": -68.366669, "lat": 18.549999}}, {"id": 2742110, "name": "Borralheira", "country": "PT", "coord": {"lon": -7.5, "lat": 40.283329}}, {"id": 3127781, "name": "Borrassa", "country": "ES", "coord": {"lon": 2.9261, "lat": 42.22316}}, {"id": 6534023, "name": "Borrass\u00e0", "country": "ES", "coord": {"lon": 2.92894, "lat": 42.222382}}, {"id": 3127780, "name": "Borrastre", "country": "ES", "coord": {"lon": -0.11268, "lat": 42.488918}}, {"id": 3469154, "name": "Borraz\u00f3polis", "country": "BR", "coord": {"lon": -51.587502, "lat": -23.941111}}, {"id": 3127779, "name": "Borreda", "country": "ES", "coord": {"lon": 1.99428, "lat": 42.135639}}, {"id": 3031507, "name": "Borredon", "country": "FR", "coord": {"lon": 0.83333, "lat": 44.883331}}, {"id": 6356060, "name": "Borred\u00e0", "country": "ES", "coord": {"lon": 1.99179, "lat": 42.134769}}, {"id": 5330143, "name": "Borrego Springs", "country": "US", "coord": {"lon": -116.375008, "lat": 33.255871}}, {"id": 3181721, "name": "Borrello", "country": "IT", "coord": {"lon": 14.30442, "lat": 41.91893}}, {"id": 6358572, "name": "Borrenes", "country": "ES", "coord": {"lon": -6.73118, "lat": 42.483711}}, {"id": 3127778, "name": "Borrenes", "country": "ES", "coord": {"lon": -6.72338, "lat": 42.490189}}, {"id": 6547863, "name": "Borrentin", "country": "DE", "coord": {"lon": 12.9667, "lat": 53.8167}}, {"id": 2946034, "name": "Borrentin", "country": "DE", "coord": {"lon": 12.96667, "lat": 53.816669}}, {"id": 6539386, "name": "Borriana", "country": "IT", "coord": {"lon": 8.03862, "lat": 45.506161}}, {"id": 3181720, "name": "Borriana", "country": "IT", "coord": {"lon": 8.03862, "lat": 45.506161}}, {"id": 6356987, "name": "Borriol", "country": "ES", "coord": {"lon": -0.08452, "lat": 40.041679}}, {"id": 3127773, "name": "Borriol", "country": "ES", "coord": {"lon": -0.07025, "lat": 40.042488}}, {"id": 2966058, "name": "Borris", "country": "IE", "coord": {"lon": -6.9175, "lat": 52.599998}}, {"id": 2623640, "name": "Borris", "country": "DK", "coord": {"lon": 8.64445, "lat": 55.959881}}, {"id": 2966056, "name": "Borris in Ossory", "country": "IE", "coord": {"lon": -7.63639, "lat": 52.93639}}, {"id": 2966055, "name": "Borrisokane", "country": "IE", "coord": {"lon": -8.12806, "lat": 52.995281}}, {"id": 2966054, "name": "Borrisoleigh", "country": "IE", "coord": {"lon": -7.95306, "lat": 52.75222}}, {"id": 2076017, "name": "Borroloola", "country": "AU", "coord": {"lon": 136.283325, "lat": -16.066669}}, {"id": 2655168, "name": "Borrowash", "country": "GB", "coord": {"lon": -1.38411, "lat": 52.906731}}, {"id": 7300104, "name": "Borrowdale", "country": "GB", "coord": {"lon": -3.15327, "lat": 54.523418}}, {"id": 2946031, "name": "Borrstadt", "country": "DE", "coord": {"lon": 7.95, "lat": 49.583328}}, {"id": 6447774, "name": "Borr\u00e8ze", "country": "FR", "coord": {"lon": 1.38333, "lat": 44.950001}}, {"id": 3031506, "name": "Borr\u00e8ze", "country": "FR", "coord": {"lon": 1.38333, "lat": 44.950001}}, {"id": 684161, "name": "Bors", "country": "RO", "coord": {"lon": 21.816669, "lat": 47.116669}}, {"id": 684156, "name": "Borsa", "country": "RO", "coord": {"lon": 24.66328, "lat": 47.65527}}, {"id": 7626380, "name": "Borsa", "country": "NO", "coord": {"lon": 10.0692, "lat": 63.326721}}, {"id": 684159, "name": "Borsa", "country": "RO", "coord": {"lon": 23.66667, "lat": 46.933331}}, {"id": 1275230, "name": "Borsad", "country": "IN", "coord": {"lon": 72.900002, "lat": 22.41667}}, {"id": 2946028, "name": "Borsbach", "country": "DE", "coord": {"lon": 7.13333, "lat": 51.01667}}, {"id": 2801438, "name": "Borsbeek", "country": "BE", "coord": {"lon": 4.48543, "lat": 51.196609}}, {"id": 2801439, "name": "Borsbeek", "country": "BE", "coord": {"lon": 4.48337, "lat": 51.195862}}, {"id": 2946025, "name": "Borsborn", "country": "DE", "coord": {"lon": 7.4, "lat": 49.433331}}, {"id": 2946024, "name": "Borsb\u00fcll", "country": "DE", "coord": {"lon": 8.98333, "lat": 54.599998}}, {"id": 2946022, "name": "Borsch", "country": "DE", "coord": {"lon": 9.96667, "lat": 50.73333}}, {"id": 2946021, "name": "Borscheid", "country": "DE", "coord": {"lon": 7.45697, "lat": 50.599369}}, {"id": 6548770, "name": "Borsdorf", "country": "DE", "coord": {"lon": 12.5458, "lat": 51.355598}}, {"id": 2946016, "name": "Borsdorf", "country": "DE", "coord": {"lon": 12.53333, "lat": 51.349998}}, {"id": 684143, "name": "Borsec", "country": "RO", "coord": {"lon": 25.566669, "lat": 46.950001}}, {"id": 6552172, "name": "Borsfleth", "country": "DE", "coord": {"lon": 9.43333, "lat": 53.833302}}, {"id": 2946015, "name": "Borsfleth", "country": "DE", "coord": {"lon": 9.43333, "lat": 53.833328}}, {"id": 711587, "name": "Borshchiv", "country": "UA", "coord": {"lon": 26.04347, "lat": 48.803322}}, {"id": 571992, "name": "Borsh\u00ebva", "country": "RU", "coord": {"lon": 38.318611, "lat": 55.394169}}, {"id": 3078933, "name": "Borsice", "country": "CZ", "coord": {"lon": 17.35084, "lat": 49.062538}}, {"id": 7581582, "name": "Borski Okrug", "country": "RS", "coord": {"lon": 22.25, "lat": 44.366669}}, {"id": 571987, "name": "Borskoye", "country": "RU", "coord": {"lon": 51.716671, "lat": 53.033329}}, {"id": 571986, "name": "Borskoye", "country": "RU", "coord": {"lon": 20.96241, "lat": 54.667}}, {"id": 2946008, "name": "Borslingen", "country": "DE", "coord": {"lon": 10.06313, "lat": 48.53891}}, {"id": 6540992, "name": "Borso del Grappa", "country": "IT", "coord": {"lon": 11.7877, "lat": 45.810001}}, {"id": 3181715, "name": "Borso del Grappa", "country": "IT", "coord": {"lon": 11.7877, "lat": 45.810001}}, {"id": 722064, "name": "Borsod-Aba\u00faj-Zempl\u00e9n megye", "country": "HU", "coord": {"lon": 21, "lat": 48.25}}, {"id": 722057, "name": "Borsodnadasd", "country": "HU", "coord": {"lon": 20.25, "lat": 48.116669}}, {"id": 2758587, "name": "Borssele", "country": "NL", "coord": {"lon": 3.73472, "lat": 51.423328}}, {"id": 2946007, "name": "Borssum", "country": "DE", "coord": {"lon": 10.58333, "lat": 52.066669}}, {"id": 6552437, "name": "Borstel", "country": "DE", "coord": {"lon": 9.0201, "lat": 52.6646}}, {"id": 2945995, "name": "Borstel", "country": "DE", "coord": {"lon": 8.96896, "lat": 52.670341}}, {"id": 2945990, "name": "Borstel", "country": "DE", "coord": {"lon": 9.47882, "lat": 53.663689}}, {"id": 6552078, "name": "Borstel", "country": "DE", "coord": {"lon": 9.79968, "lat": 53.967491}}, {"id": 2945988, "name": "Borstel", "country": "DE", "coord": {"lon": 9.79963, "lat": 53.967499}}, {"id": 6551675, "name": "Borstel-Hohenraden", "country": "DE", "coord": {"lon": 9.81667, "lat": 53.6833}}, {"id": 2945982, "name": "Borstel-Hohenraden", "country": "DE", "coord": {"lon": 9.81667, "lat": 53.683331}}, {"id": 6548550, "name": "Borstendorf", "country": "DE", "coord": {"lon": 13.1667, "lat": 50.783298}}, {"id": 2945980, "name": "Borstendorf", "country": "DE", "coord": {"lon": 13.16667, "lat": 50.783329}}, {"id": 6551414, "name": "Borstorf", "country": "DE", "coord": {"lon": 10.5667, "lat": 53.616699}}, {"id": 2945973, "name": "Borstorf", "country": "DE", "coord": {"lon": 10.56667, "lat": 53.616669}}, {"id": 2945972, "name": "Borsum", "country": "DE", "coord": {"lon": 10.00631, "lat": 52.207611}}, {"id": 2661440, "name": "Bort", "country": "CH", "coord": {"lon": 7.84771, "lat": 46.71701}}, {"id": 6450320, "name": "Bort-l'\u00c9tang", "country": "FR", "coord": {"lon": 3.43333, "lat": 45.783329}}, {"id": 3031500, "name": "Bort-l'\u00c9tang", "country": "FR", "coord": {"lon": 3.42694, "lat": 45.78381}}, {"id": 3031501, "name": "Bort-les-Orgues", "country": "FR", "coord": {"lon": 2.5, "lat": 45.400002}}, {"id": 2945964, "name": "Bortfeld", "country": "DE", "coord": {"lon": 10.40611, "lat": 52.293571}}, {"id": 5246505, "name": "Borth", "country": "US", "coord": {"lon": -88.89595, "lat": 44.091091}}, {"id": 3181712, "name": "Bortigali", "country": "IT", "coord": {"lon": 8.83622, "lat": 40.28286}}, {"id": 3181711, "name": "Bortigiadas", "country": "IT", "coord": {"lon": 9.04352, "lat": 40.89167}}, {"id": 2945957, "name": "Bortlingen", "country": "DE", "coord": {"lon": 9.63181, "lat": 48.753761}}, {"id": 711562, "name": "Bortnichi", "country": "UA", "coord": {"lon": 30.683332, "lat": 50.366669}}, {"id": 571969, "name": "Bortnikovo", "country": "RU", "coord": {"lon": 38.700279, "lat": 55.220833}}, {"id": 7601308, "name": "Bortnitsy", "country": "RU", "coord": {"lon": 36.251099, "lat": 56.385799}}, {"id": 7463907, "name": "Boru", "country": "ID", "coord": {"lon": 122.7108, "lat": -8.5252}}, {"id": 3102791, "name": "Borucin", "country": "PL", "coord": {"lon": 18.15748, "lat": 50.007629}}, {"id": 140046, "name": "Borujen", "country": "IR", "coord": {"lon": 51.2873, "lat": 31.965231}}, {"id": 140044, "name": "Borujerd", "country": "IR", "coord": {"lon": 48.751598, "lat": 33.897301}}, {"id": 2174574, "name": "Borung", "country": "AU", "coord": {"lon": 143.75, "lat": -36.299999}}, {"id": 2623628, "name": "Borup", "country": "DK", "coord": {"lon": 11.97584, "lat": 55.49472}}, {"id": 2623621, "name": "Borup", "country": "DK", "coord": {"lon": 9.50689, "lat": 56.922081}}, {"id": 3181710, "name": "Borutta", "country": "IT", "coord": {"lon": 8.74352, "lat": 40.522362}}, {"id": 6549956, "name": "Borxleben", "country": "DE", "coord": {"lon": 11.2333, "lat": 51.400002}}, {"id": 2945952, "name": "Borxleben", "country": "DE", "coord": {"lon": 11.23333, "lat": 51.400002}}, {"id": 711669, "name": "Boryslav", "country": "UA", "coord": {"lon": 23.432381, "lat": 49.28672}}, {"id": 711660, "name": "Boryspil", "country": "UA", "coord": {"lon": 30.950001, "lat": 50.349998}}, {"id": 775424, "name": "Borzechow", "country": "PL", "coord": {"lon": 22.28414, "lat": 51.092579}}, {"id": 775423, "name": "Borzecin", "country": "PL", "coord": {"lon": 20.711029, "lat": 50.065399}}, {"id": 3102747, "name": "Borzeta", "country": "PL", "coord": {"lon": 19.97924, "lat": 49.862282}}, {"id": 711536, "name": "Borzna", "country": "UA", "coord": {"lon": 32.426899, "lat": 51.254639}}, {"id": 3181707, "name": "Borzonasca", "country": "IT", "coord": {"lon": 9.38657, "lat": 44.422249}}, {"id": 2945948, "name": "Borzow", "country": "DE", "coord": {"lon": 11.11667, "lat": 53.849998}}, {"id": 571913, "name": "Borzoy", "country": "RU", "coord": {"lon": 45.62746, "lat": 42.841469}}, {"id": 2026126, "name": "Borzya", "country": "RU", "coord": {"lon": 116.51667, "lat": 50.383331}}, {"id": 3102728, "name": "Borzytuchom", "country": "PL", "coord": {"lon": 17.36801, "lat": 54.200211}}, {"id": 3469189, "name": "Bor\u00e1", "country": "BR", "coord": {"lon": -50.534439, "lat": -22.26972}}, {"id": 2720496, "name": "Bor\u00e5s Kommun", "country": "SE", "coord": {"lon": 12.96667, "lat": 57.75}}, {"id": 7531988, "name": "Bor\u00f3w", "country": "PL", "coord": {"lon": 17.0065, "lat": 50.857399}}, {"id": 3102825, "name": "Bor\u00f3wki", "country": "PL", "coord": {"lon": 15.74152, "lat": 51.361172}}, {"id": 792453, "name": "Bor\u010da", "country": "RS", "coord": {"lon": 20.458611, "lat": 44.870281}}, {"id": 2801423, "name": "Bos", "country": "BE", "coord": {"lon": 4.71667, "lat": 51.066669}}, {"id": 3181706, "name": "Bosa", "country": "IT", "coord": {"lon": 8.49827, "lat": 40.299271}}, {"id": 684116, "name": "Bosanci", "country": "RO", "coord": {"lon": 26.316669, "lat": 47.583328}}, {"id": 3263666, "name": "Bosanka", "country": "HR", "coord": {"lon": 18.12583, "lat": 42.645828}}, {"id": 3203657, "name": "Bosanska Dubica", "country": "BA", "coord": {"lon": 16.809441, "lat": 45.17667}}, {"id": 3203656, "name": "Bosanska Gradiska", "country": "BA", "coord": {"lon": 17.25, "lat": 45.141109}}, {"id": 3203653, "name": "Bosanska Krupa", "country": "BA", "coord": {"lon": 16.15139, "lat": 44.8825}}, {"id": 3203651, "name": "Bosanski Brod", "country": "BA", "coord": {"lon": 17.989719, "lat": 45.137501}}, {"id": 3203647, "name": "Bosanski Novi", "country": "BA", "coord": {"lon": 16.38028, "lat": 45.04583}}, {"id": 3203646, "name": "Bosanski Petrovac", "country": "BA", "coord": {"lon": 16.36861, "lat": 44.555}}, {"id": 3203645, "name": "Bosanski Samac", "country": "BA", "coord": {"lon": 18.46694, "lat": 45.05917}}, {"id": 3203644, "name": "Bosansko Grahovo", "country": "BA", "coord": {"lon": 16.36389, "lat": 44.17944}}, {"id": 3343726, "name": "Bosansko-Podrinjski Kanton", "country": "BA", "coord": {"lon": 18.799999, "lat": 43.655281}}, {"id": 3054726, "name": "Bosarkany", "country": "HU", "coord": {"lon": 17.25, "lat": 47.688202}}, {"id": 3181704, "name": "Bosaro", "country": "IT", "coord": {"lon": 11.76471, "lat": 44.998779}}, {"id": 6551643, "name": "Bosau", "country": "DE", "coord": {"lon": 10.4302, "lat": 54.1054}}, {"id": 2945945, "name": "Bosau", "country": "DE", "coord": {"lon": 10.43333, "lat": 54.116669}}, {"id": 1017354, "name": "Bosbokrand", "country": "ZA", "coord": {"lon": 31.067181, "lat": -24.835991}}, {"id": 2945942, "name": "Bosbull", "country": "DE", "coord": {"lon": 8.86667, "lat": 54.816669}}, {"id": 7294494, "name": "Bosbury", "country": "GB", "coord": {"lon": -2.45122, "lat": 52.08942}}, {"id": 2655149, "name": "Bosbury", "country": "GB", "coord": {"lon": -2.44364, "lat": 52.088379}}, {"id": 6551535, "name": "Bosb\u00fcll", "country": "DE", "coord": {"lon": 8.86667, "lat": 54.8167}}, {"id": 3031479, "name": "Bosc-le-Hard", "country": "FR", "coord": {"lon": 1.17483, "lat": 49.627338}}, {"id": 5083654, "name": "Boscawen", "country": "US", "coord": {"lon": -71.620911, "lat": 43.315079}}, {"id": 3435976, "name": "Bosch", "country": "AR", "coord": {"lon": -58.243622, "lat": -37.64703}}, {"id": 6534653, "name": "Boschi SantAnna", "country": "IT", "coord": {"lon": 11.3562, "lat": 45.217682}}, {"id": 1017115, "name": "Boschrand", "country": "ZA", "coord": {"lon": 30.956949, "lat": -25.41736}}, {"id": 3181697, "name": "Bosco", "country": "IT", "coord": {"lon": 12.46667, "lat": 43.133331}}, {"id": 3181689, "name": "Bosco Chiesanuova", "country": "IT", "coord": {"lon": 11.03218, "lat": 45.619289}}, {"id": 3181685, "name": "Bosco Marengo", "country": "IT", "coord": {"lon": 8.67725, "lat": 44.82555}}, {"id": 5246509, "name": "Boscobel", "country": "US", "coord": {"lon": -90.705399, "lat": 43.13443}}, {"id": 3181684, "name": "Bosconero", "country": "IT", "coord": {"lon": 7.76292, "lat": 45.266949}}, {"id": 3775850, "name": "Bosconia", "country": "CO", "coord": {"lon": -73.883614, "lat": 9.96889}}, {"id": 6542060, "name": "Boscoreale", "country": "IT", "coord": {"lon": 14.49944, "lat": 40.775612}}, {"id": 3181683, "name": "Boscoreale", "country": "IT", "coord": {"lon": 14.49944, "lat": 40.775612}}, {"id": 6539578, "name": "Boscotrecase", "country": "IT", "coord": {"lon": 14.46204, "lat": 40.774311}}, {"id": 3181680, "name": "Boscotrecase", "country": "IT", "coord": {"lon": 14.46204, "lat": 40.774311}}, {"id": 1723877, "name": "Bosdak", "country": "PH", "coord": {"lon": 122.5, "lat": 13.4}}, {"id": 6454501, "name": "Bosdarros", "country": "FR", "coord": {"lon": -0.36667, "lat": 43.216671}}, {"id": 3031469, "name": "Bosdarros", "country": "FR", "coord": {"lon": -0.36667, "lat": 43.216671}}, {"id": 2945911, "name": "Bosdorf", "country": "DE", "coord": {"lon": 10.48333, "lat": 54.150002}}, {"id": 2945907, "name": "Bosel", "country": "DE", "coord": {"lon": 7.95, "lat": 53}}, {"id": 6555079, "name": "Bosenbach", "country": "DE", "coord": {"lon": 7.53333, "lat": 49.533298}}, {"id": 2945902, "name": "Bosenbach", "country": "DE", "coord": {"lon": 7.53333, "lat": 49.533329}}, {"id": 2945891, "name": "Bosenbrunn", "country": "DE", "coord": {"lon": 12.09998, "lat": 50.39703}}, {"id": 3181678, "name": "Bosentino", "country": "IT", "coord": {"lon": 11.22318, "lat": 46.001801}}, {"id": 2945869, "name": "Bosewitz", "country": "DE", "coord": {"lon": 13.82981, "lat": 50.96545}}, {"id": 2655143, "name": "Bosham", "country": "GB", "coord": {"lon": -0.85384, "lat": 50.830879}}, {"id": 1816265, "name": "Boshan", "country": "CN", "coord": {"lon": 117.833328, "lat": 36.48333}}, {"id": 1816264, "name": "Boshang", "country": "CN", "coord": {"lon": 100.01667, "lat": 23.700001}}, {"id": 1222009, "name": "Boshchorbogh", "country": "TJ", "coord": {"lon": 68.199997, "lat": 37.416672}}, {"id": 1816260, "name": "Boshi", "country": "CN", "coord": {"lon": 110.050781, "lat": 34.77018}}, {"id": 1222107, "name": "Boshkengash", "country": "TJ", "coord": {"lon": 68.805328, "lat": 38.466129}}, {"id": 2126493, "name": "Boshnyakovo", "country": "RU", "coord": {"lon": 142.166672, "lat": 49.633331}}, {"id": 6535843, "name": "Bosia", "country": "IT", "coord": {"lon": 8.14734, "lat": 44.60244}}, {"id": 7570784, "name": "Bosiko", "country": "ID", "coord": {"lon": 120.9907, "lat": -8.8101}}, {"id": 792421, "name": "Bosilegrad", "country": "RS", "coord": {"lon": 22.47238, "lat": 42.501099}}, {"id": 792419, "name": "Bosilovo", "country": "MK", "coord": {"lon": 22.727779, "lat": 41.440559}}, {"id": 2945866, "name": "Bosingen", "country": "DE", "coord": {"lon": 8.55, "lat": 48.23333}}, {"id": 2661437, "name": "Bosingen", "country": "CH", "coord": {"lon": 7.2277, "lat": 46.892288}}, {"id": 6534871, "name": "Bosio", "country": "IT", "coord": {"lon": 8.79285, "lat": 44.64975}}, {"id": 3181677, "name": "Bosisio Parini", "country": "IT", "coord": {"lon": 9.29074, "lat": 45.80228}}, {"id": 2758549, "name": "Boskamp", "country": "NL", "coord": {"lon": 6.12778, "lat": 52.33083}}, {"id": 2758547, "name": "Boskoop", "country": "NL", "coord": {"lon": 4.65556, "lat": 52.075001}}, {"id": 3078910, "name": "Boskovice", "country": "CZ", "coord": {"lon": 16.659969, "lat": 49.487511}}, {"id": 2945857, "name": "Bosleben-Wullersleben", "country": "DE", "coord": {"lon": 11.06667, "lat": 50.833328}}, {"id": 3031462, "name": "Bosmie-lAiguille", "country": "FR", "coord": {"lon": 1.2, "lat": 45.75}}, {"id": 6535209, "name": "Bosnasco", "country": "IT", "coord": {"lon": 9.35876, "lat": 45.064461}}, {"id": 733020, "name": "Bosnek", "country": "BG", "coord": {"lon": 23.183331, "lat": 42.48333}}, {"id": 3277605, "name": "Bosnia and Herzegovina", "country": "BA", "coord": {"lon": 17.83333, "lat": 44.25}}, {"id": 3203631, "name": "Bosnjaci", "country": "HR", "coord": {"lon": 18.75556, "lat": 45.050282}}, {"id": 2316473, "name": "Bosobolo", "country": "CD", "coord": {"lon": 19.9, "lat": 4.18333}}, {"id": 684103, "name": "Bosorod", "country": "RO", "coord": {"lon": 23.08333, "lat": 45.683331}}, {"id": 3078903, "name": "Bosovice", "country": "CZ", "coord": {"lon": 16.83676, "lat": 49.053509}}, {"id": 6356926, "name": "Bosque (El)", "country": "ES", "coord": {"lon": -5.51048, "lat": 36.74514}}, {"id": 4675728, "name": "Bosque County", "country": "US", "coord": {"lon": -97.650299, "lat": 31.90015}}, {"id": 5458548, "name": "Bosque Farms", "country": "US", "coord": {"lon": -106.705299, "lat": 34.854778}}, {"id": 3435974, "name": "Bosques", "country": "AR", "coord": {"lon": -58.234428, "lat": -34.819271}}, {"id": 2388036, "name": "Bossangoa", "country": "CF", "coord": {"lon": 17.455179, "lat": 6.49263}}, {"id": 2945848, "name": "Bosse", "country": "DE", "coord": {"lon": 9.45356, "lat": 52.763409}}, {"id": 2945845, "name": "Bossee", "country": "DE", "coord": {"lon": 9.9, "lat": 54.283329}}, {"id": 780604, "name": "Bossekop", "country": "NO", "coord": {"lon": 23.259171, "lat": 69.971939}}, {"id": 2945833, "name": "Bossendorf", "country": "DE", "coord": {"lon": 7.18506, "lat": 51.728939}}, {"id": 2945830, "name": "Bosserode", "country": "DE", "coord": {"lon": 9.98333, "lat": 50.950001}}, {"id": 6447775, "name": "Bosset", "country": "FR", "coord": {"lon": 0.35, "lat": 44.950001}}, {"id": 3031447, "name": "Bosset", "country": "FR", "coord": {"lon": 0.35, "lat": 44.950001}}, {"id": 6534959, "name": "Bossico", "country": "IT", "coord": {"lon": 10.04506, "lat": 45.828388}}, {"id": 4317639, "name": "Bossier City", "country": "US", "coord": {"lon": -93.732117, "lat": 32.515991}}, {"id": 4317649, "name": "Bossier Parish", "country": "US", "coord": {"lon": -93.600182, "lat": 32.63348}}, {"id": 3181673, "name": "Bossolasco", "country": "IT", "coord": {"lon": 8.05094, "lat": 44.529339}}, {"id": 3469149, "name": "Bossoroca", "country": "BR", "coord": {"lon": -54.90028, "lat": -28.73}}, {"id": 2801348, "name": "Bossuit", "country": "BE", "coord": {"lon": 3.40822, "lat": 50.748508}}, {"id": 6615682, "name": "Bost", "country": "FR", "coord": {"lon": 3.5189, "lat": 46.179001}}, {"id": 3031438, "name": "Bost", "country": "FR", "coord": {"lon": 3.51759, "lat": 46.179642}}, {"id": 320835, "name": "Bostanci", "country": "TR", "coord": {"lon": 42.330002, "lat": 37.18}}, {"id": 750477, "name": "Bostanc\u0131l\u0131", "country": "TR", "coord": {"lon": 35.105061, "lat": 42.01981}}, {"id": 856947, "name": "Bostandyk", "country": "KZ", "coord": {"lon": 49.691391, "lat": 49.439999}}, {"id": 2945818, "name": "Bostel", "country": "DE", "coord": {"lon": 10.13334, "lat": 52.645199}}, {"id": 6448852, "name": "Bostens", "country": "FR", "coord": {"lon": -0.36667, "lat": 43.966671}}, {"id": 3031433, "name": "Bostens", "country": "FR", "coord": {"lon": -0.3589, "lat": 43.971748}}, {"id": 1528646, "name": "Bosteri", "country": "KG", "coord": {"lon": 77.185883, "lat": 42.660061}}, {"id": 3031432, "name": "Bostfaucher", "country": "FR", "coord": {"lon": 3.77562, "lat": 45.491909}}, {"id": 2174568, "name": "Bostocks Creek", "country": "AU", "coord": {"lon": 143.116669, "lat": -38.299999}}, {"id": 4317656, "name": "Boston", "country": "US", "coord": {"lon": -92.055679, "lat": 29.883261}}, {"id": 2655138, "name": "Boston", "country": "GB", "coord": {"lon": -0.02664, "lat": 52.97633}}, {"id": 4930956, "name": "Boston", "country": "US", "coord": {"lon": -71.059769, "lat": 42.358429}}, {"id": 1723862, "name": "Boston", "country": "PH", "coord": {"lon": 126.364166, "lat": 7.87111}}, {"id": 4183849, "name": "Boston", "country": "US", "coord": {"lon": -83.789886, "lat": 30.791861}}, {"id": 7290588, "name": "Boston District", "country": "GB", "coord": {"lon": -0.00233, "lat": 52.974388}}, {"id": 5147904, "name": "Boston Heights", "country": "US", "coord": {"lon": -81.513168, "lat": 41.264778}}, {"id": 1538223, "name": "Boston Shahri", "country": "UZ", "coord": {"lon": 60.947441, "lat": 41.846069}}, {"id": 2655136, "name": "Boston Spa", "country": "GB", "coord": {"lon": -1.34523, "lat": 53.90419}}, {"id": 5330167, "name": "Bostonia", "country": "US", "coord": {"lon": -116.936417, "lat": 32.807549}}, {"id": 3127764, "name": "Bostronizo", "country": "ES", "coord": {"lon": -4.04765, "lat": 43.205528}}, {"id": 3203628, "name": "Bosut", "country": "RS", "coord": {"lon": 19.362499, "lat": 44.93222}}, {"id": 2801612, "name": "Bosvoorde", "country": "BE", "coord": {"lon": 4.4, "lat": 50.799999}}, {"id": 5906087, "name": "Boswarlos", "country": "CA", "coord": {"lon": -58.81522, "lat": 48.566719}}, {"id": 5906088, "name": "Boswell", "country": "CA", "coord": {"lon": -116.768867, "lat": 49.449879}}, {"id": 5181248, "name": "Boswell", "country": "US", "coord": {"lon": -79.028923, "lat": 40.161469}}, {"id": 4377999, "name": "Bosworth", "country": "US", "coord": {"lon": -93.334648, "lat": 39.469742}}, {"id": 6361275, "name": "Bot", "country": "ES", "coord": {"lon": 0.36712, "lat": 41.017529}}, {"id": 3127763, "name": "Bot", "country": "ES", "coord": {"lon": 0.38392, "lat": 41.009159}}, {"id": 1275218, "name": "Botad", "country": "IN", "coord": {"lon": 71.666672, "lat": 22.16667}}, {"id": 3473664, "name": "Botafogo", "country": "BR", "coord": {"lon": -43.185631, "lat": -22.968981}}, {"id": 875302, "name": "Botalovo", "country": "RU", "coord": {"lon": 44.031387, "lat": 56.387779}}, {"id": 2174563, "name": "Botany", "country": "AU", "coord": {"lon": 151.199997, "lat": -33.966671}}, {"id": 7839700, "name": "Botany Bay", "country": "AU", "coord": {"lon": 151.198746, "lat": -33.946602}}, {"id": 6949374, "name": "Botany Bay", "country": "AU", "coord": {"lon": 151.199997, "lat": -33.9333}}, {"id": 6232075, "name": "Botany Downs", "country": "NZ", "coord": {"lon": 174.917877, "lat": -36.90596}}, {"id": 1723854, "name": "Botao", "country": "PH", "coord": {"lon": 120.416672, "lat": 15.91667}}, {"id": 6361276, "name": "Botarell", "country": "ES", "coord": {"lon": 1.00665, "lat": 41.153782}}, {"id": 3127762, "name": "Botarell", "country": "ES", "coord": {"lon": 0.98919, "lat": 41.136269}}, {"id": 578742, "name": "Botashyurt", "country": "RU", "coord": {"lon": 46.509899, "lat": 43.30801}}, {"id": 1481825, "name": "Botataung", "country": "MM", "coord": {"lon": 96.16861, "lat": 16.772779}}, {"id": 578738, "name": "Botayurt", "country": "RU", "coord": {"lon": 46.683708, "lat": 43.318661}}, {"id": 3469140, "name": "Botelhos", "country": "BR", "coord": {"lon": -46.395, "lat": -21.633329}}, {"id": 684083, "name": "Boteni", "country": "RO", "coord": {"lon": 25.116671, "lat": 45.183331}}, {"id": 2945807, "name": "Botersen", "country": "DE", "coord": {"lon": 9.31667, "lat": 53.133331}}, {"id": 2655134, "name": "Botesdale", "country": "GB", "coord": {"lon": 1.00405, "lat": 52.342159}}, {"id": 684070, "name": "Botesti", "country": "RO", "coord": {"lon": 27.883329, "lat": 46.799999}}, {"id": 684077, "name": "Botesti", "country": "RO", "coord": {"lon": 25.133329, "lat": 45.01667}}, {"id": 733014, "name": "Botevgrad", "country": "BG", "coord": {"lon": 23.783331, "lat": 42.900002}}, {"id": 2655133, "name": "Bothal", "country": "GB", "coord": {"lon": -1.62552, "lat": 55.173401}}, {"id": 1016698, "name": "Bothaville", "country": "ZA", "coord": {"lon": 26.61701, "lat": -27.3887}}, {"id": 6552717, "name": "Bothel", "country": "DE", "coord": {"lon": 9.5, "lat": 53.0667}}, {"id": 2945802, "name": "Bothel", "country": "DE", "coord": {"lon": 9.5, "lat": 53.066669}}, {"id": 5787829, "name": "Bothell", "country": "US", "coord": {"lon": -122.205399, "lat": 47.762321}}, {"id": 6549912, "name": "Bothenheilingen", "country": "DE", "coord": {"lon": 10.6167, "lat": 51.1833}}, {"id": 2945800, "name": "Bothenheilingen", "country": "DE", "coord": {"lon": 10.61667, "lat": 51.183331}}, {"id": 6551719, "name": "Bothkamp", "country": "DE", "coord": {"lon": 10.1333, "lat": 54.200001}}, {"id": 2945797, "name": "Bothkamp", "country": "DE", "coord": {"lon": 10.13333, "lat": 54.200001}}, {"id": 2945795, "name": "Bothmer", "country": "DE", "coord": {"lon": 9.60085, "lat": 52.694382}}, {"id": 3054713, "name": "Bothmerpuszta", "country": "HU", "coord": {"lon": 17.83333, "lat": 47.650002}}, {"id": 4419138, "name": "Bothwell", "country": "US", "coord": {"lon": -88.74337, "lat": 31.327681}}, {"id": 2174559, "name": "Bothwell", "country": "AU", "coord": {"lon": 147, "lat": -42.383331}}, {"id": 2655130, "name": "Bothwell", "country": "GB", "coord": {"lon": -4.06835, "lat": 55.802719}}, {"id": 8010638, "name": "Boticas", "country": "PT", "coord": {"lon": -7.71604, "lat": 41.67585}}, {"id": 1723842, "name": "Botigues", "country": "PH", "coord": {"lon": 123.667503, "lat": 11.0995}}, {"id": 6356728, "name": "Botija", "country": "ES", "coord": {"lon": -6.08623, "lat": 39.343651}}, {"id": 2520819, "name": "Botija", "country": "ES", "coord": {"lon": -6.07318, "lat": 39.344978}}, {"id": 3647982, "name": "Botijones", "country": "VE", "coord": {"lon": -63.616669, "lat": 8.083333}}, {"id": 684056, "name": "Botiz", "country": "RO", "coord": {"lon": 22.950001, "lat": 47.833328}}, {"id": 684054, "name": "Botiza", "country": "RO", "coord": {"lon": 24.15, "lat": 47.666672}}, {"id": 5147924, "name": "Botkins", "country": "US", "coord": {"lon": -84.180496, "lat": 40.467831}}, {"id": 2720114, "name": "Botkyrka Kommun", "country": "SE", "coord": {"lon": 17.816669, "lat": 59.200001}}, {"id": 2655128, "name": "Botley", "country": "GB", "coord": {"lon": -1.26984, "lat": 50.91433}}, {"id": 933862, "name": "Botlhapatlou", "country": "BW", "coord": {"lon": 25.489759, "lat": -24.025909}}, {"id": 860420, "name": "Botlikh", "country": "RU", "coord": {"lon": 46.229671, "lat": 42.644421}}, {"id": 571887, "name": "Botlikhskiy Rayon", "country": "RU", "coord": {"lon": 46.25, "lat": 42.75}}, {"id": 3031420, "name": "Botmel", "country": "FR", "coord": {"lon": -3.42534, "lat": 48.412418}}, {"id": 2945791, "name": "Botnang", "country": "DE", "coord": {"lon": 9.13333, "lat": 48.783329}}, {"id": 3160491, "name": "Botngard", "country": "NO", "coord": {"lon": 9.81113, "lat": 63.76532}}, {"id": 1965405, "name": "Boto", "country": "ID", "coord": {"lon": 112.568703, "lat": -8.0908}}, {"id": 7331713, "name": "Boto", "country": "ID", "coord": {"lon": 111.389297, "lat": -7.0042}}, {"id": 8058093, "name": "Boto", "country": "ID", "coord": {"lon": 111.195396, "lat": -6.8099}}, {"id": 8078505, "name": "Boto", "country": "ID", "coord": {"lon": 112.001701, "lat": -6.9159}}, {"id": 7333261, "name": "Botoh", "country": "ID", "coord": {"lon": 111.471703, "lat": -7.0916}}, {"id": 1723822, "name": "Botolan", "country": "PH", "coord": {"lon": 120.024498, "lat": 15.2896}}, {"id": 1723818, "name": "Boton", "country": "PH", "coord": {"lon": 124.047897, "lat": 12.9287}}, {"id": 684045, "name": "Botoroaga", "country": "RO", "coord": {"lon": 25.54472, "lat": 44.148331}}, {"id": 6362749, "name": "Botorrita", "country": "ES", "coord": {"lon": -1.02759, "lat": 41.483261}}, {"id": 3127757, "name": "Botorrita", "country": "ES", "coord": {"lon": -1.03104, "lat": 41.507061}}, {"id": 792404, "name": "Botos", "country": "RS", "coord": {"lon": 20.63611, "lat": 45.308331}}, {"id": 684041, "name": "Botosana", "country": "RO", "coord": {"lon": 25.950001, "lat": 47.683331}}, {"id": 684039, "name": "Botosani", "country": "RO", "coord": {"lon": 26.66667, "lat": 47.75}}, {"id": 1816256, "name": "Botou", "country": "CN", "coord": {"lon": 116.566673, "lat": 38.066669}}, {"id": 571881, "name": "Botovo", "country": "RU", "coord": {"lon": 38.433334, "lat": 56.049999}}, {"id": 2525517, "name": "Botricello", "country": "IT", "coord": {"lon": 16.858311, "lat": 38.931992}}, {"id": 2290985, "name": "Botro", "country": "CI", "coord": {"lon": -5.31063, "lat": 7.85249}}, {"id": 6541941, "name": "Botrugno", "country": "IT", "coord": {"lon": 18.32443, "lat": 40.06472}}, {"id": 3181670, "name": "Botrugno", "country": "IT", "coord": {"lon": 18.32443, "lat": 40.06472}}, {"id": 1016670, "name": "Botshabelo", "country": "ZA", "coord": {"lon": 26.7052, "lat": -29.270161}}, {"id": 1016666, "name": "Botswana", "country": "ZA", "coord": {"lon": 30.533331, "lat": -24.33333}}, {"id": 3181668, "name": "Bottanuco", "country": "IT", "coord": {"lon": 9.50645, "lat": 45.639881}}, {"id": 6555368, "name": "Bottenbach", "country": "DE", "coord": {"lon": 7.5, "lat": 49.1833}}, {"id": 2945787, "name": "Bottenbach", "country": "DE", "coord": {"lon": 7.5, "lat": 49.183331}}, {"id": 2945778, "name": "Bottendorf", "country": "DE", "coord": {"lon": 8.8, "lat": 51.01667}}, {"id": 7285302, "name": "Bottens", "country": "CH", "coord": {"lon": 6.66207, "lat": 46.615101}}, {"id": 2661435, "name": "Bottens", "country": "CH", "coord": {"lon": 6.66149, "lat": 46.615959}}, {"id": 7285303, "name": "Bottenwil", "country": "CH", "coord": {"lon": 8.00312, "lat": 47.285141}}, {"id": 2661434, "name": "Bottenwil", "country": "CH", "coord": {"lon": 8.00464, "lat": 47.285412}}, {"id": 2655124, "name": "Bottesford", "country": "GB", "coord": {"lon": -0.65, "lat": 53.549999}}, {"id": 3181662, "name": "Botticino", "country": "IT", "coord": {"lon": 10.30187, "lat": 45.53598}}, {"id": 3181661, "name": "Bottidda", "country": "IT", "coord": {"lon": 9.00853, "lat": 40.39146}}, {"id": 7285305, "name": "Bottighofen", "country": "CH", "coord": {"lon": 9.21, "lat": 47.6334}}, {"id": 2661433, "name": "Bottighofen", "country": "CH", "coord": {"lon": 9.20884, "lat": 47.63641}}, {"id": 5688106, "name": "Bottineau", "country": "US", "coord": {"lon": -100.445702, "lat": 48.827229}}, {"id": 2945763, "name": "Bottingen", "country": "DE", "coord": {"lon": 7.78364, "lat": 48.091122}}, {"id": 2945762, "name": "Bottingen", "country": "DE", "coord": {"lon": 8.8, "lat": 48.099998}}, {"id": 2655123, "name": "Bottisham", "country": "GB", "coord": {"lon": 0.25878, "lat": 52.222801}}, {"id": 2945758, "name": "Bottmersdorf", "country": "DE", "coord": {"lon": 11.43333, "lat": 52.033329}}, {"id": 2661432, "name": "Bottmingen", "country": "CH", "coord": {"lon": 7.57211, "lat": 47.52343}}, {"id": 5906222, "name": "Bottrel", "country": "CA", "coord": {"lon": -114.485321, "lat": 51.400108}}, {"id": 2945756, "name": "Bottrop", "country": "DE", "coord": {"lon": 6.91667, "lat": 51.51667}}, {"id": 6322151, "name": "Botucatu", "country": "BR", "coord": {"lon": -48.517891, "lat": -22.87768}}, {"id": 3469136, "name": "Botucatu", "country": "BR", "coord": {"lon": -48.445, "lat": -22.88583}}, {"id": 3469132, "name": "Botumirim", "country": "BR", "coord": {"lon": -43.01083, "lat": -16.872219}}, {"id": 3469128, "name": "Botuver\u00e1", "country": "BR", "coord": {"lon": -49.074718, "lat": -27.19944}}, {"id": 6416078, "name": "Botvinino", "country": "RU", "coord": {"lon": 37.603058, "lat": 55.258888}}, {"id": 5906229, "name": "Botwood", "country": "CA", "coord": {"lon": -55.34819, "lat": 49.14994}}, {"id": 2945740, "name": "Botzingen", "country": "DE", "coord": {"lon": 7.72485, "lat": 48.07642}}, {"id": 2503468, "name": "Bou Arfa", "country": "DZ", "coord": {"lon": 2.81464, "lat": 36.462978}}, {"id": 2555086, "name": "Bou Beker", "country": "MA", "coord": {"lon": -4.75505, "lat": 33.35894}}, {"id": 2554988, "name": "Bou Dra", "country": "MA", "coord": {"lon": -5.03785, "lat": 33.259022}}, {"id": 2503033, "name": "Bou Hanifia el Hamamat", "country": "DZ", "coord": {"lon": -0.05037, "lat": 35.314732}}, {"id": 2502939, "name": "Bou Ismail", "country": "DZ", "coord": {"lon": 2.69007, "lat": 36.64262}}, {"id": 2502385, "name": "Bou Sa\u00e2da", "country": "DZ", "coord": {"lon": 4.17402, "lat": 35.208549}}, {"id": 2502239, "name": "Bou Tlelis", "country": "DZ", "coord": {"lon": -0.8996, "lat": 35.57272}}, {"id": 2554221, "name": "Bou-Okkaz", "country": "MA", "coord": {"lon": -8.0243, "lat": 31.59339}}, {"id": 2555262, "name": "Bouabout", "country": "MA", "coord": {"lon": -9.17865, "lat": 31.265539}}, {"id": 2290965, "name": "Bouafla II", "country": "CI", "coord": {"lon": -5.82944, "lat": 7.28139}}, {"id": 2290964, "name": "Bouafle", "country": "CI", "coord": {"lon": -5.7442, "lat": 6.99041}}, {"id": 3031409, "name": "Bouafle", "country": "FR", "coord": {"lon": 1.9012, "lat": 48.96463}}, {"id": 2290956, "name": "Bouake", "country": "CI", "coord": {"lon": -5.02177, "lat": 7.68949}}, {"id": 2388707, "name": "Bouani", "country": "CF", "coord": {"lon": 17.62285, "lat": 5.2652}}, {"id": 2387926, "name": "Bouar", "country": "CF", "coord": {"lon": 15.59599, "lat": 5.93404}}, {"id": 2555157, "name": "Bouarfa", "country": "MA", "coord": {"lon": -1.95, "lat": 32.529999}}, {"id": 2571909, "name": "Bouarouss", "country": "MA", "coord": {"lon": -4.81, "lat": 34.360001}}, {"id": 3031403, "name": "Bouaye", "country": "FR", "coord": {"lon": -1.69306, "lat": 47.142632}}, {"id": 3031402, "name": "Boubas", "country": "FR", "coord": {"lon": 3.98298, "lat": 45.25658}}, {"id": 3031387, "name": "Bouc-Bel-Air", "country": "FR", "coord": {"lon": 5.413, "lat": 43.452171}}, {"id": 2387890, "name": "Bouca", "country": "CF", "coord": {"lon": 18.27331, "lat": 6.51046}}, {"id": 6612721, "name": "Boucau", "country": "FR", "coord": {"lon": -1.5, "lat": 43.533329}}, {"id": 3031389, "name": "Boucau", "country": "FR", "coord": {"lon": -1.46556, "lat": 43.527699}}, {"id": 3031386, "name": "Bouce", "country": "FR", "coord": {"lon": 2.98763, "lat": 46.221802}}, {"id": 3031383, "name": "Boucey", "country": "FR", "coord": {"lon": -1.49946, "lat": 48.54002}}, {"id": 6450082, "name": "Bouchain", "country": "FR", "coord": {"lon": 3.31667, "lat": 50.283329}}, {"id": 3031380, "name": "Bouchain", "country": "FR", "coord": {"lon": 3.31491, "lat": 50.285191}}, {"id": 3031368, "name": "Bouchemaine", "country": "FR", "coord": {"lon": -0.60888, "lat": 47.42234}}, {"id": 5906267, "name": "Boucherville", "country": "CA", "coord": {"lon": -73.43605, "lat": 45.591042}}, {"id": 5906269, "name": "Bouchette", "country": "CA", "coord": {"lon": -75.966049, "lat": 46.216808}}, {"id": 6930701, "name": "Boucle du Mouhoun", "country": "BF", "coord": {"lon": -3.47305, "lat": 12.47203}}, {"id": 5906281, "name": "Bouctouche", "country": "CA", "coord": {"lon": -64.739052, "lat": 46.468441}}, {"id": 6450198, "name": "Bouc\u00e9", "country": "FR", "coord": {"lon": -0.1, "lat": 48.650002}}, {"id": 3031384, "name": "Bouc\u00e9", "country": "FR", "coord": {"lon": -0.09013, "lat": 48.646568}}, {"id": 2945734, "name": "Bouderath", "country": "DE", "coord": {"lon": 6.73333, "lat": 50.51667}}, {"id": 7285307, "name": "Boudevilliers", "country": "CH", "coord": {"lon": 6.86766, "lat": 47.031582}}, {"id": 2661430, "name": "Boudevilliers", "country": "CH", "coord": {"lon": 6.88948, "lat": 47.027382}}, {"id": 2554997, "name": "Boudinar", "country": "MA", "coord": {"lon": -3.62358, "lat": 35.15601}}, {"id": 2503237, "name": "Boudjima", "country": "DZ", "coord": {"lon": 4.15187, "lat": 36.802181}}, {"id": 2960738, "name": "Boudler", "country": "LU", "coord": {"lon": 6.355, "lat": 49.717781}}, {"id": 2503229, "name": "Boudouaou", "country": "DZ", "coord": {"lon": 3.40995, "lat": 36.727348}}, {"id": 7285308, "name": "Boudry", "country": "CH", "coord": {"lon": 6.80777, "lat": 46.95311}}, {"id": 2661429, "name": "Boudry", "country": "CH", "coord": {"lon": 6.83757, "lat": 46.949909}}, {"id": 3031315, "name": "Boue", "country": "FR", "coord": {"lon": 3.69608, "lat": 50.01141}}, {"id": 6440313, "name": "Boueilh-Boueilho-Lasque", "country": "FR", "coord": {"lon": -0.31667, "lat": 43.549999}}, {"id": 3031312, "name": "Boueilh-Boueilho-Lasque", "country": "FR", "coord": {"lon": -0.31667, "lat": 43.549999}}, {"id": 1090467, "name": "Boueni", "country": "YT", "coord": {"lon": 45.076111, "lat": -12.9025}}, {"id": 6420687, "name": "Bouet", "country": "GG", "coord": {"lon": -2.54111, "lat": 49.46806}}, {"id": 2503181, "name": "Boufarik", "country": "DZ", "coord": {"lon": 2.91214, "lat": 36.57412}}, {"id": 3031294, "name": "Bouffemont", "country": "FR", "coord": {"lon": 2.29796, "lat": 49.04377}}, {"id": 3031293, "name": "Bouffere", "country": "FR", "coord": {"lon": -1.33965, "lat": 46.961788}}, {"id": 2503156, "name": "Bougaa", "country": "DZ", "coord": {"lon": 5.08843, "lat": 36.332932}}, {"id": 2742051, "name": "Bougado", "country": "PT", "coord": {"lon": -8.5518, "lat": 41.33979}}, {"id": 8012949, "name": "Bougado (Santiago)", "country": "PT", "coord": {"lon": -8.58537, "lat": 41.325539}}, {"id": 8012950, "name": "Bougado (S\u00e3o Martinho)", "country": "PT", "coord": {"lon": -8.53708, "lat": 41.330601}}, {"id": 2089470, "name": "Bougainville", "country": "PG", "coord": {"lon": 155, "lat": -6}}, {"id": 2503147, "name": "Bougara", "country": "DZ", "coord": {"lon": 3.081, "lat": 36.541779}}, {"id": 6440314, "name": "Bougarber", "country": "FR", "coord": {"lon": -0.46667, "lat": 43.400002}}, {"id": 3031288, "name": "Bougarber", "country": "FR", "coord": {"lon": -0.46667, "lat": 43.400002}}, {"id": 2801290, "name": "Bouge", "country": "BE", "coord": {"lon": 4.89218, "lat": 50.471931}}, {"id": 2655117, "name": "Boughton", "country": "GB", "coord": {"lon": -0.98333, "lat": 53.200001}}, {"id": 3031277, "name": "Bougival", "country": "FR", "coord": {"lon": 2.14148, "lat": 48.862228}}, {"id": 6449276, "name": "Bouglon", "country": "FR", "coord": {"lon": 0.098, "lat": 44.393398}}, {"id": 3031274, "name": "Bouglon", "country": "FR", "coord": {"lon": 0.09755, "lat": 44.393551}}, {"id": 2459775, "name": "Bougouni", "country": "ML", "coord": {"lon": -7.47899, "lat": 11.41699}}, {"id": 6448853, "name": "Bougue", "country": "FR", "coord": {"lon": -0.38333, "lat": 43.900002}}, {"id": 3031269, "name": "Bougue", "country": "FR", "coord": {"lon": -0.39226, "lat": 43.889889}}, {"id": 3031268, "name": "Bouguenais", "country": "FR", "coord": {"lon": -1.62143, "lat": 47.17762}}, {"id": 6449075, "name": "Bouguenais", "country": "FR", "coord": {"lon": -1.61667, "lat": 47.183331}}, {"id": 3579642, "name": "Bouillante", "country": "GP", "coord": {"lon": -61.769192, "lat": 16.130409}}, {"id": 3031240, "name": "Bouillargues", "country": "FR", "coord": {"lon": 4.42853, "lat": 43.797329}}, {"id": 3031238, "name": "Bouille-Loretz", "country": "FR", "coord": {"lon": -0.27178, "lat": 47.079109}}, {"id": 2801285, "name": "Bouillenne", "country": "BE", "coord": {"lon": 5.68333, "lat": 50.616669}}, {"id": 3031233, "name": "Bouillon", "country": "FR", "coord": {"lon": -1.5458, "lat": 48.770741}}, {"id": 2801284, "name": "Bouillon", "country": "BE", "coord": {"lon": 5.06779, "lat": 49.79689}}, {"id": 2801283, "name": "Bouillon", "country": "BE", "coord": {"lon": 5.06704, "lat": 49.79324}}, {"id": 6613514, "name": "Bouilly", "country": "FR", "coord": {"lon": 4, "lat": 48.200001}}, {"id": 3031226, "name": "Bouilly", "country": "FR", "coord": {"lon": 4.00011, "lat": 48.196739}}, {"id": 3031222, "name": "Bouin", "country": "FR", "coord": {"lon": -1.9983, "lat": 46.973141}}, {"id": 2502962, "name": "Bouinan", "country": "DZ", "coord": {"lon": 2.99194, "lat": 36.53167}}, {"id": 2502958, "name": "Bouira", "country": "DZ", "coord": {"lon": 3.902, "lat": 36.374889}}, {"id": 3031215, "name": "Bouis", "country": "FR", "coord": {"lon": 2.7412, "lat": 46.686279}}, {"id": 6447853, "name": "Boujailles", "country": "FR", "coord": {"lon": 6.08333, "lat": 46.883331}}, {"id": 3031207, "name": "Boujailles", "country": "FR", "coord": {"lon": 6.08056, "lat": 46.887402}}, {"id": 3031205, "name": "Boujan-sur-Libron", "country": "FR", "coord": {"lon": 3.24759, "lat": 43.369961}}, {"id": 7380379, "name": "Boujawa", "country": "ID", "coord": {"lon": 121.632896, "lat": -8.7336}}, {"id": 6546693, "name": "Boujniba", "country": "MA", "coord": {"lon": -6.77464, "lat": 32.900459}}, {"id": 2502924, "name": "Boukadir", "country": "DZ", "coord": {"lon": 1.12602, "lat": 36.066292}}, {"id": 2572146, "name": "Boukhalef", "country": "MA", "coord": {"lon": -5.89954, "lat": 35.7328}}, {"id": 2253607, "name": "Boukot Ouolof", "country": "SN", "coord": {"lon": -16.750561, "lat": 12.41639}}, {"id": 3306680, "name": "Bouladuff", "country": "IE", "coord": {"lon": -7.90667, "lat": 52.716671}}, {"id": 6693322, "name": "Boulaide", "country": "LU", "coord": {"lon": 5.81639, "lat": 49.887779}}, {"id": 2960737, "name": "Boulaide", "country": "LU", "coord": {"lon": 5.81639, "lat": 49.887779}}, {"id": 3031191, "name": "Boulange", "country": "FR", "coord": {"lon": 5.95231, "lat": 49.380932}}, {"id": 2554409, "name": "Boulaouane", "country": "MA", "coord": {"lon": -8.05555, "lat": 32.859951}}, {"id": 3031182, "name": "Boulay-Moselle", "country": "FR", "coord": {"lon": 6.5, "lat": 49.183331}}, {"id": 6449153, "name": "Boulay-les-Barres", "country": "FR", "coord": {"lon": 1.78333, "lat": 47.98333}}, {"id": 3031183, "name": "Boulay-les-Barres", "country": "FR", "coord": {"lon": 1.78243, "lat": 47.983898}}, {"id": 6616146, "name": "Boulazac", "country": "FR", "coord": {"lon": 0.773, "lat": 45.171001}}, {"id": 3031180, "name": "Boulazac", "country": "FR", "coord": {"lon": 0.75, "lat": 45.116669}}, {"id": 3031178, "name": "Boulbon", "country": "FR", "coord": {"lon": 4.69391, "lat": 43.86232}}, {"id": 5819347, "name": "Boulder", "country": "US", "coord": {"lon": -109.717651, "lat": 42.74828}}, {"id": 2068823, "name": "Boulder", "country": "AU", "coord": {"lon": 121.466667, "lat": -30.75}}, {"id": 2075988, "name": "Boulder", "country": "AU", "coord": {"lon": 121.48333, "lat": -30.783331}}, {"id": 5574991, "name": "Boulder", "country": "US", "coord": {"lon": -105.270554, "lat": 40.014992}}, {"id": 5641473, "name": "Boulder", "country": "US", "coord": {"lon": -112.120827, "lat": 46.236591}}, {"id": 5500539, "name": "Boulder City", "country": "US", "coord": {"lon": -114.832489, "lat": 35.978588}}, {"id": 5586587, "name": "Boulder City (historical)", "country": "US", "coord": {"lon": -116.069351, "lat": 48.602718}}, {"id": 5574999, "name": "Boulder County", "country": "US", "coord": {"lon": -105.350548, "lat": 40.083321}}, {"id": 5330222, "name": "Boulder Creek", "country": "US", "coord": {"lon": -122.122192, "lat": 37.12606}}, {"id": 4885336, "name": "Boulder Hill", "country": "US", "coord": {"lon": -88.336182, "lat": 41.712528}}, {"id": 4986691, "name": "Boulder Park", "country": "US", "coord": {"lon": -85.279243, "lat": 45.3139}}, {"id": 2554389, "name": "Boulemane", "country": "MA", "coord": {"lon": -4.72896, "lat": 33.363762}}, {"id": 3031167, "name": "Bouleurs", "country": "FR", "coord": {"lon": 2.90728, "lat": 48.881809}}, {"id": 7172778, "name": "Boulevard Gardens", "country": "US", "coord": {"lon": -80.17997, "lat": 26.12326}}, {"id": 5787893, "name": "Boulevard Park", "country": "US", "coord": {"lon": -122.315117, "lat": 47.489269}}, {"id": 4562939, "name": "Boulevarda Korea", "country": "PR", "coord": {"lon": -66.331284, "lat": 18.40884}}, {"id": 4562946, "name": "Boulevardo Tomas de Castro II", "country": "PR", "coord": {"lon": -66.011551, "lat": 18.20857}}, {"id": 7839561, "name": "Boulia", "country": "AU", "coord": {"lon": 139.625336, "lat": -22.279079}}, {"id": 2075982, "name": "Boulia", "country": "AU", "coord": {"lon": 139.899994, "lat": -22.9}}, {"id": 6448420, "name": "Bouliac", "country": "FR", "coord": {"lon": -0.51667, "lat": 44.816669}}, {"id": 3031164, "name": "Bouliac", "country": "FR", "coord": {"lon": -0.50248, "lat": 44.817242}}, {"id": 3031161, "name": "Boulieu-les-Annonay", "country": "FR", "coord": {"lon": 4.66718, "lat": 45.27084}}, {"id": 3031158, "name": "Bouligny", "country": "FR", "coord": {"lon": 5.74248, "lat": 49.291889}}, {"id": 3031146, "name": "Boulleret", "country": "FR", "coord": {"lon": 2.87342, "lat": 47.424191}}, {"id": 3031144, "name": "Bouloc", "country": "FR", "coord": {"lon": 1.40522, "lat": 43.781631}}, {"id": 3435971, "name": "Boulogne", "country": "AR", "coord": {"lon": -58.565811, "lat": -34.50732}}, {"id": 6451962, "name": "Boulogne-Billancourt", "country": "FR", "coord": {"lon": 2.25, "lat": 48.833328}}, {"id": 3031137, "name": "Boulogne-Billancourt", "country": "FR", "coord": {"lon": 2.25, "lat": 48.833328}}, {"id": 3031135, "name": "Boulogne-sur-Gesse", "country": "FR", "coord": {"lon": 0.65, "lat": 43.299999}}, {"id": 6439391, "name": "Boulogne-sur-Mer", "country": "FR", "coord": {"lon": 1.61667, "lat": 50.716671}}, {"id": 3031133, "name": "Boulogne-sur-Mer", "country": "FR", "coord": {"lon": 1.61667, "lat": 50.716671}}, {"id": 3031129, "name": "Bouloire", "country": "FR", "coord": {"lon": 0.55009, "lat": 47.97385}}, {"id": 6447229, "name": "Boulon", "country": "FR", "coord": {"lon": -0.4, "lat": 49.049999}}, {"id": 3031127, "name": "Boulon", "country": "FR", "coord": {"lon": -0.39345, "lat": 49.047279}}, {"id": 3031123, "name": "Boulouneix", "country": "FR", "coord": {"lon": 0.58044, "lat": 45.378559}}, {"id": 2141721, "name": "Bouloupari", "country": "NC", "coord": {"lon": 166.051315, "lat": -21.860701}}, {"id": 2141722, "name": "Bouloupari", "country": "NC", "coord": {"lon": 166.050003, "lat": -21.866671}}, {"id": 2361946, "name": "Boulsa", "country": "BF", "coord": {"lon": -0.57583, "lat": 12.6675}}, {"id": 3031115, "name": "Boult-sur-Suippe", "country": "FR", "coord": {"lon": 4.14632, "lat": 49.37149}}, {"id": 2502686, "name": "Boumahra Ahmed", "country": "DZ", "coord": {"lon": 7.51389, "lat": 36.458328}}, {"id": 2474141, "name": "Boumerdas", "country": "DZ", "coord": {"lon": 3.47717, "lat": 36.766392}}, {"id": 2554281, "name": "Boumia", "country": "MA", "coord": {"lon": -5.1025, "lat": 32.723598}}, {"id": 6440316, "name": "Boumourt", "country": "FR", "coord": {"lon": -0.5203, "lat": 43.443901}}, {"id": 3031112, "name": "Boumourt", "country": "FR", "coord": {"lon": -0.51667, "lat": 43.433331}}, {"id": 2290849, "name": "Bouna", "country": "CI", "coord": {"lon": -3, "lat": 9.26667}}, {"id": 5095860, "name": "Bound Brook", "country": "US", "coord": {"lon": -74.53849, "lat": 40.568439}}, {"id": 2075977, "name": "Boundain", "country": "AU", "coord": {"lon": 117.316673, "lat": -32.950001}}, {"id": 5787895, "name": "Boundary", "country": "US", "coord": {"lon": -121.605423, "lat": 48.998459}}, {"id": 5586641, "name": "Boundary County", "country": "US", "coord": {"lon": -117.00135, "lat": 48.95826}}, {"id": 2290836, "name": "Boundiali", "country": "CI", "coord": {"lon": -6.48694, "lat": 9.52167}}, {"id": 2394893, "name": "Bound\u00e9tingou", "country": "BJ", "coord": {"lon": 1.36171, "lat": 10.38968}}, {"id": 921957, "name": "Boungoueni", "country": "KM", "coord": {"lon": 44.299438, "lat": -12.20556}}, {"id": 921956, "name": "Bouni", "country": "KM", "coord": {"lon": 43.388329, "lat": -11.48694}}, {"id": 6447776, "name": "Bouniagues", "country": "FR", "coord": {"lon": 0.53333, "lat": 44.75}}, {"id": 3031111, "name": "Bouniagues", "country": "FR", "coord": {"lon": 0.52688, "lat": 44.758732}}, {"id": 5771826, "name": "Bountiful", "country": "US", "coord": {"lon": -111.880768, "lat": 40.889389}}, {"id": 2960736, "name": "Bour", "country": "LU", "coord": {"lon": 6.01889, "lat": 49.701389}}, {"id": 2141714, "name": "Bourail", "country": "NC", "coord": {"lon": 165.483337, "lat": -21.566669}}, {"id": 3031098, "name": "Bouray-sur-Juine", "country": "FR", "coord": {"lon": 2.30001, "lat": 48.51981}}, {"id": 4378027, "name": "Bourbon", "country": "US", "coord": {"lon": -91.244034, "lat": 38.15477}}, {"id": 4918309, "name": "Bourbon", "country": "US", "coord": {"lon": -86.116386, "lat": 41.295601}}, {"id": 4268552, "name": "Bourbon County", "country": "US", "coord": {"lon": -94.850243, "lat": 37.85004}}, {"id": 3031090, "name": "Bourbon-Lancy", "country": "FR", "coord": {"lon": 3.76953, "lat": 46.622139}}, {"id": 4885342, "name": "Bourbonnais", "country": "US", "coord": {"lon": -87.875038, "lat": 41.141701}}, {"id": 3031086, "name": "Bourbonne-les-Bains", "country": "FR", "coord": {"lon": 5.74801, "lat": 47.953049}}, {"id": 3031085, "name": "Bourbourg", "country": "FR", "coord": {"lon": 2.19576, "lat": 50.94783}}, {"id": 3031083, "name": "Bourbourg- Campagne", "country": "FR", "coord": {"lon": 2.2, "lat": 50.950001}}, {"id": 3031081, "name": "Bourbriac", "country": "FR", "coord": {"lon": -3.18758, "lat": 48.473839}}, {"id": 3031080, "name": "Bourcefranc-le-Chapus", "country": "FR", "coord": {"lon": -1.15, "lat": 45.849998}}, {"id": 6613015, "name": "Bourdalat", "country": "FR", "coord": {"lon": -0.2, "lat": 43.833328}}, {"id": 3031073, "name": "Bourdalat", "country": "FR", "coord": {"lon": -0.20994, "lat": 43.840099}}, {"id": 6455006, "name": "Bourdeilles", "country": "FR", "coord": {"lon": 0.6, "lat": 45.316669}}, {"id": 3031068, "name": "Bourdeilles", "country": "FR", "coord": {"lon": 0.58714, "lat": 45.322121}}, {"id": 6448421, "name": "Bourdelles", "country": "FR", "coord": {"lon": 0, "lat": 44.549999}}, {"id": 3031065, "name": "Bourdelles", "country": "FR", "coord": {"lon": 0.0009, "lat": 44.553551}}, {"id": 3031046, "name": "Bourdoux", "country": "FR", "coord": {"lon": 1.06439, "lat": 45.544151}}, {"id": 3030947, "name": "Bourg", "country": "FR", "coord": {"lon": -0.55893, "lat": 45.040619}}, {"id": 4317709, "name": "Bourg", "country": "US", "coord": {"lon": -90.60231, "lat": 29.553551}}, {"id": 3031035, "name": "Bourg-Achard", "country": "FR", "coord": {"lon": 0.81623, "lat": 49.353222}}, {"id": 3031030, "name": "Bourg-Argental", "country": "FR", "coord": {"lon": 4.56037, "lat": 45.295898}}, {"id": 3031027, "name": "Bourg-Blanc", "country": "FR", "coord": {"lon": -4.50406, "lat": 48.498669}}, {"id": 6450322, "name": "Bourg-Lastic", "country": "FR", "coord": {"lon": 2.56667, "lat": 45.650002}}, {"id": 3030989, "name": "Bourg-Lastic", "country": "FR", "coord": {"lon": 2.56667, "lat": 45.650002}}, {"id": 3030953, "name": "Bourg-Saint-Andeol", "country": "FR", "coord": {"lon": 4.64273, "lat": 44.37566}}, {"id": 3030949, "name": "Bourg-Saint-Maurice", "country": "FR", "coord": {"lon": 6.76902, "lat": 45.617161}}, {"id": 7285311, "name": "Bourg-Saint-Pierre", "country": "CH", "coord": {"lon": 7.21275, "lat": 45.919579}}, {"id": 2661428, "name": "Bourg-Saint-Pierre", "country": "CH", "coord": {"lon": 7.20772, "lat": 45.948761}}, {"id": 3031020, "name": "Bourg-de-Peage", "country": "FR", "coord": {"lon": 5.07162, "lat": 45.028252}}, {"id": 3031017, "name": "Bourg-de-Thizy", "country": "FR", "coord": {"lon": 4.29904, "lat": 46.03371}}, {"id": 6451400, "name": "Bourg-de-Visa", "country": "FR", "coord": {"lon": 0.9584, "lat": 44.262901}}, {"id": 3031016, "name": "Bourg-de-Visa", "country": "FR", "coord": {"lon": 0.95908, "lat": 44.26178}}, {"id": 3031019, "name": "Bourg-des-Comptes", "country": "FR", "coord": {"lon": -1.74534, "lat": 47.92934}}, {"id": 6447777, "name": "Bourg-des-Maisons", "country": "FR", "coord": {"lon": 0.43333, "lat": 45.333328}}, {"id": 3031018, "name": "Bourg-des-Maisons", "country": "FR", "coord": {"lon": 0.43529, "lat": 45.338051}}, {"id": 6447778, "name": "Bourg-du-Bost", "country": "FR", "coord": {"lon": 0.25, "lat": 45.26667}}, {"id": 3031013, "name": "Bourg-du-Bost", "country": "FR", "coord": {"lon": 0.25, "lat": 45.26667}}, {"id": 6446395, "name": "Bourg-en-Bresse", "country": "FR", "coord": {"lon": 5.21667, "lat": 46.200001}}, {"id": 3031009, "name": "Bourg-en-Bresse", "country": "FR", "coord": {"lon": 5.2258, "lat": 46.205742}}, {"id": 6451963, "name": "Bourg-la-Reine", "country": "FR", "coord": {"lon": 2.31667, "lat": 48.783329}}, {"id": 3030990, "name": "Bourg-la-Reine", "country": "FR", "coord": {"lon": 2.31781, "lat": 48.778881}}, {"id": 3030985, "name": "Bourg-les-Valence", "country": "FR", "coord": {"lon": 4.91023, "lat": 44.956009}}, {"id": 6447897, "name": "Bourg-l\u00e8s-Valence", "country": "FR", "coord": {"lon": 4.88333, "lat": 44.950001}}, {"id": 3031032, "name": "Bourganeuf", "country": "FR", "coord": {"lon": 1.7552, "lat": 45.952679}}, {"id": 3031029, "name": "Bourgbarre", "country": "FR", "coord": {"lon": -1.61419, "lat": 47.995152}}, {"id": 6447230, "name": "Bourgeauville", "country": "FR", "coord": {"lon": 0.05, "lat": 49.26667}}, {"id": 3031010, "name": "Bourgeauville", "country": "FR", "coord": {"lon": 0.0576, "lat": 49.271759}}, {"id": 6454979, "name": "Bourges", "country": "FR", "coord": {"lon": 2.4, "lat": 47.083328}}, {"id": 3031005, "name": "Bourges", "country": "FR", "coord": {"lon": 2.4, "lat": 47.083328}}, {"id": 5906575, "name": "Bourget", "country": "CA", "coord": {"lon": -75.1493, "lat": 45.433399}}, {"id": 3030994, "name": "Bourghelles", "country": "FR", "coord": {"lon": 3.24448, "lat": 50.56501}}, {"id": 2960735, "name": "Bourglinster", "country": "LU", "coord": {"lon": 6.21972, "lat": 49.697781}}, {"id": 3030979, "name": "Bourgneuf", "country": "FR", "coord": {"lon": -1.02141, "lat": 46.16766}}, {"id": 3030970, "name": "Bourgneuf-en-Retz", "country": "FR", "coord": {"lon": -1.9502, "lat": 47.041222}}, {"id": 3030965, "name": "Bourgogne", "country": "FR", "coord": {"lon": 4.07111, "lat": 49.349621}}, {"id": 3030960, "name": "Bourgoin", "country": "FR", "coord": {"lon": 5.28333, "lat": 45.583328}}, {"id": 6614456, "name": "Bourgoin-Jallieu", "country": "FR", "coord": {"lon": 5.2802, "lat": 45.591301}}, {"id": 6615539, "name": "Bourgoin-Jallieu", "country": "FR", "coord": {"lon": 5.27361, "lat": 45.586109}}, {"id": 6449277, "name": "Bourgougnague", "country": "FR", "coord": {"lon": 0.41667, "lat": 44.616669}}, {"id": 3030955, "name": "Bourgougnague", "country": "FR", "coord": {"lon": 0.41807, "lat": 44.615791}}, {"id": 3030946, "name": "Bourgtheroulde-Infreville", "country": "FR", "coord": {"lon": 0.88333, "lat": 49.299999}}, {"id": 3030945, "name": "Bourguebus", "country": "FR", "coord": {"lon": -0.29786, "lat": 49.121868}}, {"id": 3030944, "name": "Bourgueil", "country": "FR", "coord": {"lon": 0.16612, "lat": 47.283329}}, {"id": 6449485, "name": "Bourguenolles", "country": "FR", "coord": {"lon": -1.3, "lat": 48.799999}}, {"id": 3030943, "name": "Bourguenolles", "country": "FR", "coord": {"lon": -1.29714, "lat": 48.804401}}, {"id": 6447231, "name": "Bourgu\u00e9bus", "country": "FR", "coord": {"lon": -0.3, "lat": 49.116669}}, {"id": 6448422, "name": "Bourideys", "country": "FR", "coord": {"lon": -0.4528, "lat": 44.368198}}, {"id": 3030929, "name": "Bourideys", "country": "FR", "coord": {"lon": -0.45456, "lat": 44.36927}}, {"id": 7839701, "name": "Bourke", "country": "AU", "coord": {"lon": 145.361603, "lat": -29.99584}}, {"id": 2174467, "name": "Bourke", "country": "AU", "coord": {"lon": 145.933334, "lat": -30.1}}, {"id": 5906592, "name": "Bourlamaque", "country": "CA", "coord": {"lon": -77.76619, "lat": 48.100182}}, {"id": 6449278, "name": "Bourlens", "country": "FR", "coord": {"lon": 0.96667, "lat": 44.416672}}, {"id": 3030920, "name": "Bourlens", "country": "FR", "coord": {"lon": 0.96976, "lat": 44.41798}}, {"id": 3030919, "name": "Bourlon", "country": "FR", "coord": {"lon": 3.11425, "lat": 50.176922}}, {"id": 3030908, "name": "Bournazel", "country": "FR", "coord": {"lon": 0.67557, "lat": 44.816238}}, {"id": 2655099, "name": "Bourne", "country": "GB", "coord": {"lon": -0.38333, "lat": 52.76667}}, {"id": 4931050, "name": "Bourne", "country": "US", "coord": {"lon": -70.598923, "lat": 41.741219}}, {"id": 2655097, "name": "Bourne End", "country": "GB", "coord": {"lon": -0.71291, "lat": 51.576221}}, {"id": 2655095, "name": "Bournemouth", "country": "GB", "coord": {"lon": -1.8795, "lat": 50.720482}}, {"id": 6451601, "name": "Bournezeau", "country": "FR", "coord": {"lon": -1.16667, "lat": 46.633331}}, {"id": 3030902, "name": "Bournezeau", "country": "FR", "coord": {"lon": -1.17107, "lat": 46.637138}}, {"id": 6447780, "name": "Bourniquel", "country": "FR", "coord": {"lon": 0.85, "lat": 44.799999}}, {"id": 3030901, "name": "Bourniquel", "country": "FR", "coord": {"lon": 0.85, "lat": 44.799999}}, {"id": 3030895, "name": "Bournoncle-Saint-Pierre", "country": "FR", "coord": {"lon": 3.31837, "lat": 45.34301}}, {"id": 6440318, "name": "Bournos", "country": "FR", "coord": {"lon": -0.38333, "lat": 43.433331}}, {"id": 3030892, "name": "Bournos", "country": "FR", "coord": {"lon": -0.38333, "lat": 43.433331}}, {"id": 2655094, "name": "Bournville", "country": "GB", "coord": {"lon": -1.91667, "lat": 52.416672}}, {"id": 3030891, "name": "Bourogne", "country": "FR", "coord": {"lon": 6.91613, "lat": 47.56287}}, {"id": 6449280, "name": "Bourran", "country": "FR", "coord": {"lon": 0.4, "lat": 44.333328}}, {"id": 3030884, "name": "Bourran", "country": "FR", "coord": {"lon": 0.39369, "lat": 44.34285}}, {"id": 6448855, "name": "Bourriot-Bergonce", "country": "FR", "coord": {"lon": -0.2494, "lat": 44.126999}}, {"id": 3030877, "name": "Bourriot-Bergonce", "country": "FR", "coord": {"lon": -0.2508, "lat": 44.127399}}, {"id": 3030876, "name": "Bourron-Marlotte", "country": "FR", "coord": {"lon": 2.70041, "lat": 48.340511}}, {"id": 6693305, "name": "Bourscheid", "country": "LU", "coord": {"lon": 6.06722, "lat": 49.91}}, {"id": 2960734, "name": "Bourscheid", "country": "LU", "coord": {"lon": 6.06722, "lat": 49.91}}, {"id": 3030857, "name": "Bourth", "country": "FR", "coord": {"lon": 0.80911, "lat": 48.768459}}, {"id": 2655087, "name": "Bourton on the Water", "country": "GB", "coord": {"lon": -1.75, "lat": 51.866669}}, {"id": 6547530, "name": "Bous", "country": "DE", "coord": {"lon": 6.8214, "lat": 49.2817}}, {"id": 2945730, "name": "Bous", "country": "DE", "coord": {"lon": 6.8, "lat": 49.283329}}, {"id": 6693348, "name": "Bous", "country": "LU", "coord": {"lon": 6.32917, "lat": 49.55389}}, {"id": 2960732, "name": "Bous", "country": "LU", "coord": {"lon": 6.32917, "lat": 49.55389}}, {"id": 3030847, "name": "Bousbecque", "country": "FR", "coord": {"lon": 3.08459, "lat": 50.771229}}, {"id": 3030845, "name": "Bousies", "country": "FR", "coord": {"lon": 3.61752, "lat": 50.15097}}, {"id": 2502317, "name": "Bouskene", "country": "DZ", "coord": {"lon": 3.22865, "lat": 36.190491}}, {"id": 6546277, "name": "Bouskoura", "country": "MA", "coord": {"lon": -7.64711, "lat": 33.476292}}, {"id": 2554006, "name": "Bouskoura", "country": "MA", "coord": {"lon": -7.65239, "lat": 33.44976}}, {"id": 3030836, "name": "Boussac", "country": "FR", "coord": {"lon": 2.53119, "lat": 44.968361}}, {"id": 3030822, "name": "Boussay", "country": "FR", "coord": {"lon": -1.18476, "lat": 47.044762}}, {"id": 2361845, "name": "Bousse", "country": "BF", "coord": {"lon": -1.89222, "lat": 12.66056}}, {"id": 3030819, "name": "Bousse", "country": "FR", "coord": {"lon": 6.19525, "lat": 49.279251}}, {"id": 3030803, "name": "Boussieres", "country": "FR", "coord": {"lon": 5.90314, "lat": 47.158661}}, {"id": 2434584, "name": "Bousso", "country": "TD", "coord": {"lon": 16.7117, "lat": 10.4795}}, {"id": 6438130, "name": "Boussois", "country": "FR", "coord": {"lon": 4.04254, "lat": 50.289452}}, {"id": 3030799, "name": "Boussois", "country": "FR", "coord": {"lon": 4.04117, "lat": 50.28907}}, {"id": 2801227, "name": "Boussu", "country": "BE", "coord": {"lon": 3.79578, "lat": 50.43438}}, {"id": 2801226, "name": "Boussu", "country": "BE", "coord": {"lon": 3.7944, "lat": 50.43417}}, {"id": 3030787, "name": "Boussy-Saint-Antoine", "country": "FR", "coord": {"lon": 2.5306, "lat": 48.69101}}, {"id": 6613033, "name": "Bouss\u00e8s", "country": "FR", "coord": {"lon": 0.0944, "lat": 44.145901}}, {"id": 3030808, "name": "Bouss\u00e8s", "country": "FR", "coord": {"lon": 0.09481, "lat": 44.14645}}, {"id": 3030772, "name": "Bout-du-Pont-de-Larn", "country": "FR", "coord": {"lon": 2.41642, "lat": 43.497379}}, {"id": 3030781, "name": "Boutaresse", "country": "FR", "coord": {"lon": 2.97034, "lat": 45.363499}}, {"id": 3030780, "name": "Boutavent", "country": "FR", "coord": {"lon": 1.79916, "lat": 49.592812}}, {"id": 6447782, "name": "Bouteilles-Saint-S\u00e9bastien", "country": "FR", "coord": {"lon": 0.305, "lat": 45.3447}}, {"id": 3030769, "name": "Bouteilles-Saint-S\u00e9bastien", "country": "FR", "coord": {"lon": 0.3, "lat": 45.333328}}, {"id": 2801216, "name": "Boutersem", "country": "BE", "coord": {"lon": 4.83107, "lat": 50.83456}}, {"id": 2801215, "name": "Boutersem", "country": "BE", "coord": {"lon": 4.8345, "lat": 50.83511}}, {"id": 3030760, "name": "Bouteyras", "country": "FR", "coord": {"lon": 3.86667, "lat": 45.433331}}, {"id": 3030758, "name": "Bouth\u00e9on", "country": "FR", "coord": {"lon": 4.28798, "lat": 45.535358}}, {"id": 3030757, "name": "Boutiers-Saint-Trojan", "country": "FR", "coord": {"lon": -0.3, "lat": 45.716671}}, {"id": 3030755, "name": "Boutigny-sur-Essonne", "country": "FR", "coord": {"lon": 2.38333, "lat": 48.433331}}, {"id": 2380670, "name": "Boutilimit", "country": "MR", "coord": {"lon": -14.6944, "lat": 17.5467}}, {"id": 4317718, "name": "Boutte", "country": "US", "coord": {"lon": -90.388138, "lat": 29.90243}}, {"id": 3030742, "name": "Bouttencourt", "country": "FR", "coord": {"lon": 1.63431, "lat": 49.937248}}, {"id": 2661427, "name": "Bouveret", "country": "CH", "coord": {"lon": 6.85327, "lat": 46.38459}}, {"id": 3030732, "name": "Bouvesse-Quirieu", "country": "FR", "coord": {"lon": 5.41574, "lat": 45.795029}}, {"id": 3435968, "name": "Bouvier", "country": "AR", "coord": {"lon": -57.581161, "lat": -25.461969}}, {"id": 3030728, "name": "Bouvignies", "country": "FR", "coord": {"lon": 3.24361, "lat": 50.436272}}, {"id": 3030727, "name": "Bouvigny-Boyeffles", "country": "FR", "coord": {"lon": 2.67209, "lat": 50.421459}}, {"id": 3030723, "name": "Bouville", "country": "FR", "coord": {"lon": 0.89514, "lat": 49.561932}}, {"id": 2367252, "name": "Bouvolem", "country": "TG", "coord": {"lon": 1.08333, "lat": 8.6}}, {"id": 3030718, "name": "Bouvron", "country": "FR", "coord": {"lon": -1.84679, "lat": 47.417259}}, {"id": 2801201, "name": "Bouvy", "country": "BE", "coord": {"lon": 4.17959, "lat": 50.469479}}, {"id": 3030714, "name": "Bouxieres-aux-Chenes", "country": "FR", "coord": {"lon": 6.2603, "lat": 48.771149}}, {"id": 3030713, "name": "Bouxieres-aux-Dames", "country": "FR", "coord": {"lon": 6.16918, "lat": 48.751942}}, {"id": 3030708, "name": "Bouxwiller", "country": "FR", "coord": {"lon": 7.48117, "lat": 48.824951}}, {"id": 2446466, "name": "Bouza", "country": "NE", "coord": {"lon": 6.04278, "lat": 14.42293}}, {"id": 3030686, "name": "Bouzarat", "country": "FR", "coord": {"lon": 2.82894, "lat": 45.815701}}, {"id": 2502174, "name": "Bouzarea", "country": "DZ", "coord": {"lon": 3.01772, "lat": 36.789879}}, {"id": 6450323, "name": "Bouzel", "country": "FR", "coord": {"lon": 3.31667, "lat": 45.783329}}, {"id": 3030685, "name": "Bouzel", "country": "FR", "coord": {"lon": 3.31668, "lat": 45.777489}}, {"id": 3030676, "name": "Bouzigues", "country": "FR", "coord": {"lon": 3.6578, "lat": 43.448101}}, {"id": 3030675, "name": "Bouzille", "country": "FR", "coord": {"lon": -1.11143, "lat": 47.337502}}, {"id": 6546124, "name": "Bouznika", "country": "MA", "coord": {"lon": -7.20881, "lat": 33.764839}}, {"id": 2553751, "name": "Bouznika", "country": "MA", "coord": {"lon": -7.15968, "lat": 33.789421}}, {"id": 3030668, "name": "Bouzonville", "country": "FR", "coord": {"lon": 6.53386, "lat": 49.291882}}, {"id": 3078885, "name": "Bouzov", "country": "CZ", "coord": {"lon": 16.892879, "lat": 49.704262}}, {"id": 3030663, "name": "Bouzy-la-Foret", "country": "FR", "coord": {"lon": 2.37773, "lat": 47.8512}}, {"id": 6461678, "name": "Bov", "country": "BG", "coord": {"lon": 23.378059, "lat": 43.032501}}, {"id": 733001, "name": "Bov", "country": "BG", "coord": {"lon": 23.378059, "lat": 43.032501}}, {"id": 6535320, "name": "Bova", "country": "IT", "coord": {"lon": 15.9319, "lat": 37.995071}}, {"id": 2525511, "name": "Bova Marina", "country": "IT", "coord": {"lon": 15.9175, "lat": 37.93037}}, {"id": 2525513, "name": "Bovalino", "country": "IT", "coord": {"lon": 16.174, "lat": 38.148972}}, {"id": 2525512, "name": "Bovalino Superiore", "country": "IT", "coord": {"lon": 16.16667, "lat": 38.183331}}, {"id": 3203611, "name": "Bovec", "country": "SI", "coord": {"lon": 13.55278, "lat": 46.337502}}, {"id": 3127736, "name": "Boveda", "country": "ES", "coord": {"lon": -7.4767, "lat": 42.624599}}, {"id": 3127730, "name": "Boveda del Rio Almar", "country": "ES", "coord": {"lon": -5.2103, "lat": 40.857201}}, {"id": 3181649, "name": "Bovegno", "country": "IT", "coord": {"lon": 10.27386, "lat": 45.793289}}, {"id": 2758500, "name": "Boven-Hardinxveld", "country": "NL", "coord": {"lon": 4.88194, "lat": 51.82333}}, {"id": 2758490, "name": "Boven-Leeuwen", "country": "NL", "coord": {"lon": 5.55278, "lat": 51.884998}}, {"id": 6551812, "name": "Bovenau", "country": "DE", "coord": {"lon": 9.83333, "lat": 54.333302}}, {"id": 2945729, "name": "Bovenau", "country": "DE", "coord": {"lon": 9.83333, "lat": 54.333328}}, {"id": 2945726, "name": "Bovenden", "country": "DE", "coord": {"lon": 9.93333, "lat": 51.583328}}, {"id": 6358812, "name": "Bovera", "country": "ES", "coord": {"lon": 0.64359, "lat": 41.316391}}, {"id": 3127944, "name": "Bovera", "country": "ES", "coord": {"lon": 0.65, "lat": 41.316669}}, {"id": 7285315, "name": "Bovernier", "country": "CH", "coord": {"lon": 7.08243, "lat": 46.064049}}, {"id": 2661426, "name": "Bovernier", "country": "CH", "coord": {"lon": 7.08584, "lat": 46.07901}}, {"id": 3030659, "name": "Boves", "country": "FR", "coord": {"lon": 2.39605, "lat": 49.846451}}, {"id": 3181648, "name": "Boves", "country": "IT", "coord": {"lon": 7.55143, "lat": 44.332031}}, {"id": 2655081, "name": "Bovey Tracey", "country": "GB", "coord": {"lon": -3.67543, "lat": 50.59259}}, {"id": 3181647, "name": "Bovezzo", "country": "IT", "coord": {"lon": 10.24127, "lat": 45.59148}}, {"id": 3181646, "name": "Boville Ernica", "country": "IT", "coord": {"lon": 13.4727, "lat": 41.642521}}, {"id": 5517500, "name": "Bovina", "country": "US", "coord": {"lon": -102.883003, "lat": 34.51368}}, {"id": 2655079, "name": "Bovingdon", "country": "GB", "coord": {"lon": -0.5367, "lat": 51.723122}}, {"id": 2655078, "name": "Bovington Camp", "country": "GB", "coord": {"lon": -2.23506, "lat": 50.697819}}, {"id": 3181644, "name": "Bovino", "country": "IT", "coord": {"lon": 15.34125, "lat": 41.249931}},