[{"id": 1787367, "name": "Yangqiao", "country": "CN", "coord": {"lon": 114.589973, "lat": 27.95746}}, {"id": 1925380, "name": "Yangqiaodian", "country": "CN", "coord": {"lon": 116.54184, "lat": 28.37162}}, {"id": 1811151, "name": "Yangqitan", "country": "CN", "coord": {"lon": 118.543678, "lat": 29.435141}}, {"id": 1787351, "name": "Yangquan", "country": "CN", "coord": {"lon": 113.563332, "lat": 37.857498}}, {"id": 1832828, "name": "Yangsan", "country": "KR", "coord": {"lon": 129.038605, "lat": 35.338612}}, {"id": 1787339, "name": "Yangsha", "country": "CN", "coord": {"lon": 103.668159, "lat": 34.831551}}, {"id": 1787335, "name": "Yangshan", "country": "CN", "coord": {"lon": 116.25, "lat": 35.183331}}, {"id": 1925381, "name": "Yangshan", "country": "CN", "coord": {"lon": 115.028702, "lat": 28.761471}}, {"id": 8246755, "name": "Yangshan", "country": "CN", "coord": {"lon": 122.076851, "lat": 30.59416}}, {"id": 6685842, "name": "Yangshe", "country": "CN", "coord": {"lon": 120.605217, "lat": 31.88994}}, {"id": 7661836, "name": "Yangshi", "country": "CN", "coord": {"lon": 112.899979, "lat": 30.36978}}, {"id": 1553494, "name": "Yangshu", "country": "CN", "coord": {"lon": 117.509048, "lat": 29.945539}}, {"id": 2033483, "name": "Yangshufang", "country": "CN", "coord": {"lon": 122.4328, "lat": 40.242538}}, {"id": 1787323, "name": "Yangshuo", "country": "CN", "coord": {"lon": 110.48967, "lat": 24.780809}}, {"id": 1925382, "name": "Yangsi", "country": "CN", "coord": {"lon": 115.755508, "lat": 28.99378}}, {"id": 1787313, "name": "Yangtan", "country": "CN", "coord": {"lon": 111.538467, "lat": 35.775162}}, {"id": 1787314, "name": "Yangtan", "country": "CN", "coord": {"lon": 119.16806, "lat": 30.70583}}, {"id": 1899343, "name": "Yangtian", "country": "CN", "coord": {"lon": 105.664528, "lat": 33.18396}}, {"id": 1787304, "name": "Yangtou", "country": "CN", "coord": {"lon": 109.413887, "lat": 27.68944}}, {"id": 1881661, "name": "Yanguan", "country": "CN", "coord": {"lon": 120.54673, "lat": 30.45607}}, {"id": 6361242, "name": "Yanguas", "country": "ES", "coord": {"lon": -2.32504, "lat": 42.117161}}, {"id": 3104444, "name": "Yanguas", "country": "ES", "coord": {"lon": -2.33986, "lat": 42.101719}}, {"id": 6360947, "name": "Yanguas de Eresma", "country": "ES", "coord": {"lon": -4.25148, "lat": 41.066921}}, {"id": 3104443, "name": "Yanguas de Eresma", "country": "ES", "coord": {"lon": -4.23905, "lat": 41.07201}}, {"id": 1787285, "name": "Yangwang", "country": "CN", "coord": {"lon": 111.115211, "lat": 35.50716}}, {"id": 1787272, "name": "Yangxi", "country": "CN", "coord": {"lon": 118.642097, "lat": 30.15667}}, {"id": 1787274, "name": "Yangxi", "country": "CN", "coord": {"lon": 116.731918, "lat": 28.229771}}, {"id": 1787277, "name": "Yangxi", "country": "CN", "coord": {"lon": 114.213249, "lat": 27.297991}}, {"id": 1787278, "name": "Yangxi", "country": "CN", "coord": {"lon": 117.726723, "lat": 26.311411}}, {"id": 7454440, "name": "Yangxi", "country": "CN", "coord": {"lon": 116.39254, "lat": 26.62191}}, {"id": 1787255, "name": "Yangxu", "country": "CN", "coord": {"lon": 115.158493, "lat": 28.369221}}, {"id": 7735248, "name": "Yangxunqiao", "country": "CN", "coord": {"lon": 120.355942, "lat": 30.14328}}, {"id": 1832809, "name": "Yangyang", "country": "KR", "coord": {"lon": 128.621109, "lat": 38.073891}}, {"id": 7757674, "name": "Yangye", "country": "CN", "coord": {"lon": 115.066406, "lat": 30.31506}}, {"id": 1908845, "name": "Yangying", "country": "CN", "coord": {"lon": 112.167023, "lat": 33.0023}}, {"id": 7432952, "name": "Yangyong", "country": "CN", "coord": {"lon": 103.471977, "lat": 34.645901}}, {"id": 7446325, "name": "Yangyong", "country": "CN", "coord": {"lon": 103.478081, "lat": 34.648529}}, {"id": 1787246, "name": "Yangyu", "country": "CN", "coord": {"lon": 111.090973, "lat": 35.42012}}, {"id": 1787247, "name": "Yangyu", "country": "CN", "coord": {"lon": 108.206421, "lat": 34.651211}}, {"id": 1787497, "name": "Yangzhai", "country": "CN", "coord": {"lon": 113.995079, "lat": 31.517241}}, {"id": 1787230, "name": "Yangzhong", "country": "CN", "coord": {"lon": 119.374443, "lat": 26.705561}}, {"id": 1787227, "name": "Yangzhou", "country": "CN", "coord": {"lon": 119.435829, "lat": 32.397221}}, {"id": 1787228, "name": "Yangzhou", "country": "CN", "coord": {"lon": 115.38028, "lat": 29.16279}}, {"id": 1910091, "name": "Yangzhuang", "country": "CN", "coord": {"lon": 113.481049, "lat": 33.26852}}, {"id": 1910101, "name": "Yangzhuang", "country": "CN", "coord": {"lon": 113.837433, "lat": 33.337132}}, {"id": 1910178, "name": "Yangzhuang", "country": "CN", "coord": {"lon": 113.035027, "lat": 33.835758}}, {"id": 1998359, "name": "Yangzhuang", "country": "CN", "coord": {"lon": 109.140327, "lat": 34.041248}}, {"id": 7446494, "name": "Yangzhuang", "country": "CN", "coord": {"lon": 104.0392, "lat": 35.067181}}, {"id": 1787206, "name": "Yangzi", "country": "CN", "coord": {"lon": 116.604118, "lat": 29.6413}}, {"id": 1787208, "name": "Yangzi", "country": "CN", "coord": {"lon": 112.632431, "lat": 31.292101}}, {"id": 7328867, "name": "Yangzizhou", "country": "CN", "coord": {"lon": 115.905937, "lat": 28.722191}}, {"id": 1787204, "name": "Yangzongnan Hengjie", "country": "CN", "coord": {"lon": 102.969452, "lat": 24.82222}}, {"id": 6825373, "name": "Yanhe", "country": "CN", "coord": {"lon": 102.495918, "lat": 24.25876}}, {"id": 6962805, "name": "Yanhe", "country": "CN", "coord": {"lon": 106.338707, "lat": 32.547039}}, {"id": 7628682, "name": "Yanhe", "country": "CN", "coord": {"lon": 126.919746, "lat": 45.11586}}, {"id": 1919643, "name": "Yanhong", "country": "CN", "coord": {"lon": 116.867538, "lat": 23.608801}}, {"id": 7280504, "name": "Yaniklar", "country": "TR", "coord": {"lon": 29.05081, "lat": 36.708271}}, {"id": 2057534, "name": "Yaninee", "country": "AU", "coord": {"lon": 135.266663, "lat": -32.950001}}, {"id": 546213, "name": "Yanino Pervoye", "country": "RU", "coord": {"lon": 30.555834, "lat": 59.946667}}, {"id": 469087, "name": "Yanino Vtoroye", "country": "RU", "coord": {"lon": 30.615339, "lat": 59.935501}}, {"id": 469083, "name": "Yanishpole", "country": "RU", "coord": {"lon": 34.27562, "lat": 62.11467}}, {"id": 469081, "name": "Yanisyarvi", "country": "RU", "coord": {"lon": 30.950001, "lat": 61.883331}}, {"id": 2033467, "name": "Yanji", "country": "CN", "coord": {"lon": 129.507782, "lat": 42.907501}}, {"id": 1783683, "name": "Yanjiang", "country": "CN", "coord": {"lon": 104.648109, "lat": 30.12108}}, {"id": 1787178, "name": "Yanjiao", "country": "CN", "coord": {"lon": 118.041107, "lat": 29.82}}, {"id": 1787162, "name": "Yanjing", "country": "CN", "coord": {"lon": 106.347504, "lat": 29.94278}}, {"id": 1787163, "name": "Yanjing", "country": "CN", "coord": {"lon": 111.759438, "lat": 29.84277}}, {"id": 1787164, "name": "Yanjing", "country": "CN", "coord": {"lon": 101.509682, "lat": 27.426991}}, {"id": 1787166, "name": "Yanjing", "country": "CN", "coord": {"lon": 104.189003, "lat": 28.072069}}, {"id": 7839471, "name": "Yankalilla", "country": "AU", "coord": {"lon": 138.342255, "lat": -35.4939}}, {"id": 2057532, "name": "Yankalilla", "country": "AU", "coord": {"lon": 138.350006, "lat": -35.466671}}, {"id": 1787151, "name": "Yankou", "country": "CN", "coord": {"lon": 106.28669, "lat": 30.351151}}, {"id": 1787152, "name": "Yankou", "country": "CN", "coord": {"lon": 111.088058, "lat": 27.34833}}, {"id": 5233053, "name": "Yankton", "country": "US", "coord": {"lon": -97.397278, "lat": 42.871109}}, {"id": 5233056, "name": "Yankton County", "country": "US", "coord": {"lon": -97.383667, "lat": 43.049999}}, {"id": 1787144, "name": "Yanliang", "country": "CN", "coord": {"lon": 109.22921, "lat": 34.65918}}, {"id": 1787143, "name": "Yanling", "country": "CN", "coord": {"lon": 104.661079, "lat": 29.530649}}, {"id": 8016799, "name": "Yanliupu", "country": "CN", "coord": {"lon": 111.128143, "lat": 29.569189}}, {"id": 1787131, "name": "Yanmen", "country": "CN", "coord": {"lon": 109.74028, "lat": 27.855}}, {"id": 6643961, "name": "Yanmen", "country": "CN", "coord": {"lon": 99.023163, "lat": 28.07225}}, {"id": 1787129, "name": "Yanmenguan", "country": "CN", "coord": {"lon": 112.859459, "lat": 39.190182}}, {"id": 7661837, "name": "Yanmenkou", "country": "CN", "coord": {"lon": 112.974693, "lat": 30.83473}}, {"id": 2142569, "name": "Yannathan", "country": "AU", "coord": {"lon": 145.649994, "lat": -38.23333}}, {"id": 2142567, "name": "Yannergee", "country": "AU", "coord": {"lon": 150.033325, "lat": -31.450001}}, {"id": 1848528, "name": "Yanohama", "country": "JP", "coord": {"lon": 136.199997, "lat": 34.066669}}, {"id": 7578272, "name": "Yanping", "country": "CN", "coord": {"lon": 126.911217, "lat": 42.268681}}, {"id": 1529031, "name": "Yanqi", "country": "CN", "coord": {"lon": 86.568329, "lat": 42.058609}}, {"id": 1787125, "name": "Yanqian", "country": "CN", "coord": {"lon": 117.451637, "lat": 26.26259}}, {"id": 1787123, "name": "Yanqiao", "country": "CN", "coord": {"lon": 120.330948, "lat": 31.712721}}, {"id": 2033458, "name": "Yanqing", "country": "CN", "coord": {"lon": 115.966667, "lat": 40.466671}}, {"id": 411849, "name": "Yanqul", "country": "OM", "coord": {"lon": 56.550079, "lat": 23.590509}}, {"id": 1924365, "name": "Yanrui", "country": "CN", "coord": {"lon": 118.337151, "lat": 28.713989}}, {"id": 1787094, "name": "Yansi", "country": "CN", "coord": {"lon": 118.336792, "lat": 29.82365}}, {"id": 2001380, "name": "Yanta", "country": "CN", "coord": {"lon": 108.9524, "lat": 34.20636}}, {"id": 1787093, "name": "Yantai", "country": "CN", "coord": {"lon": 121.400002, "lat": 37.533329}}, {"id": 2055868, "name": "Yantal", "country": "RU", "coord": {"lon": 105.254204, "lat": 56.847099}}, {"id": 1787080, "name": "Yantan", "country": "CN", "coord": {"lon": 104.873802, "lat": 29.27396}}, {"id": 1787079, "name": "Yantang", "country": "CN", "coord": {"lon": 113.695831, "lat": 26.78833}}, {"id": 7018912, "name": "Yantarne", "country": "UA", "coord": {"lon": 34.222069, "lat": 45.433819}}, {"id": 2609894, "name": "Yantarnyy", "country": "RU", "coord": {"lon": 19.938057, "lat": 54.871666}}, {"id": 1787072, "name": "Yantian", "country": "CN", "coord": {"lon": 114.37429, "lat": 27.36594}}, {"id": 1787073, "name": "Yantian", "country": "CN", "coord": {"lon": 119.857498, "lat": 26.853331}}, {"id": 1787075, "name": "Yantian", "country": "CN", "coord": {"lon": 114.26722, "lat": 22.584221}}, {"id": 7757669, "name": "Yantianhe", "country": "CN", "coord": {"lon": 115.171303, "lat": 30.96973}}, {"id": 469049, "name": "Yantikovo", "country": "RU", "coord": {"lon": 47.910358, "lat": 55.821579}}, {"id": 469050, "name": "Yantikovo", "country": "RU", "coord": {"lon": 47.77927, "lat": 55.52103}}, {"id": 2033449, "name": "Yantongshan", "country": "CN", "coord": {"lon": 126.009438, "lat": 43.291939}}, {"id": 1787065, "name": "Yantou", "country": "CN", "coord": {"lon": 113.329018, "lat": 39.060589}}, {"id": 3650053, "name": "Yantzaza", "country": "EC", "coord": {"lon": -78.759438, "lat": -3.82778}}, {"id": 1787059, "name": "Yanwan", "country": "CN", "coord": {"lon": 106.978302, "lat": 34.033699}}, {"id": 1999718, "name": "Yanwang", "country": "CN", "coord": {"lon": 108.801941, "lat": 34.571671}}, {"id": 1787057, "name": "Yanweigang", "country": "CN", "coord": {"lon": 119.76667, "lat": 34.466671}}, {"id": 1787053, "name": "Yanwu", "country": "CN", "coord": {"lon": 107.073677, "lat": 36.1577}}, {"id": 1927922, "name": "Yanwukou", "country": "CN", "coord": {"lon": 109.916458, "lat": 29.501381}}, {"id": 1787048, "name": "Yanxi", "country": "CN", "coord": {"lon": 115.039047, "lat": 27.64255}}, {"id": 1787046, "name": "Yanxia", "country": "CN", "coord": {"lon": 114.862793, "lat": 29.56974}}, {"id": 1998706, "name": "Yanxia", "country": "CN", "coord": {"lon": 108.54306, "lat": 34.575562}}, {"id": 7746307, "name": "Yanyang", "country": "CN", "coord": {"lon": 115.124496, "lat": 29.12076}}, {"id": 1919348, "name": "Yanzhen", "country": "CN", "coord": {"lon": 115.444939, "lat": 24.490721}}, {"id": 1787031, "name": "Yanzhou", "country": "CN", "coord": {"lon": 116.828613, "lat": 35.55278}}, {"id": 7029917, "name": "Yanzhou", "country": "CN", "coord": {"lon": 114.93866, "lat": 22.725719}}, {"id": 1787022, "name": "Yanzi", "country": "CN", "coord": {"lon": 110.220284, "lat": 29.96806}}, {"id": 1787020, "name": "Yanzibian", "country": "CN", "coord": {"lon": 105.9254, "lat": 32.901192}}, {"id": 1787016, "name": "Yanzihe", "country": "CN", "coord": {"lon": 113.605057, "lat": 31.968969}}, {"id": 1787765, "name": "Yan\u2019an", "country": "CN", "coord": {"lon": 109.491669, "lat": 36.598888}}, {"id": 1848522, "name": "Yao", "country": "JP", "coord": {"lon": 135.600006, "lat": 34.616669}}, {"id": 1920524, "name": "Yaoan", "country": "CN", "coord": {"lon": 112.405518, "lat": 25.01824}}, {"id": 1787005, "name": "Yaocheng", "country": "CN", "coord": {"lon": 114.701393, "lat": 37.3325}}, {"id": 1787003, "name": "Yaocun", "country": "CN", "coord": {"lon": 119.100578, "lat": 30.891809}}, {"id": 1786996, "name": "Yaodian", "country": "CN", "coord": {"lon": 108.851936, "lat": 34.407501}}, {"id": 1786990, "name": "Yaodu", "country": "CN", "coord": {"lon": 117.01667, "lat": 30.1}}, {"id": 1789752, "name": "Yaofeng", "country": "CN", "coord": {"lon": 111.212219, "lat": 35.138611}}, {"id": 1916663, "name": "Yaojia", "country": "CN", "coord": {"lon": 118.783623, "lat": 29.552601}}, {"id": 1786997, "name": "Yaojiadian", "country": "CN", "coord": {"lon": 111.43763, "lat": 30.36681}}, {"id": 1786964, "name": "Yaojiagou", "country": "CN", "coord": {"lon": 107.521477, "lat": 34.56641}}, {"id": 1786955, "name": "Yaoli", "country": "CN", "coord": {"lon": 117.57502, "lat": 29.546209}}, {"id": 3514326, "name": "Yaonahuac", "country": "MX", "coord": {"lon": -97.449997, "lat": 19.866671}}, {"id": 1786948, "name": "Yaopi", "country": "CN", "coord": {"lon": 113.644173, "lat": 26.88694}}, {"id": 7525692, "name": "Yaosai", "country": "CN", "coord": {"lon": 120.282097, "lat": 31.90543}}, {"id": 7057435, "name": "Yaoshan", "country": "CN", "coord": {"lon": 112.383728, "lat": 33.752628}}, {"id": 7679689, "name": "Yaoshan", "country": "CN", "coord": {"lon": 119.065781, "lat": 29.964439}}, {"id": 1786926, "name": "Yaoshi", "country": "CN", "coord": {"lon": 109.936592, "lat": 34.057961}}, {"id": 1786927, "name": "Yaoshi", "country": "CN", "coord": {"lon": 109.530281, "lat": 27.639441}}, {"id": 1786928, "name": "Yaoshi", "country": "CN", "coord": {"lon": 110.789169, "lat": 26.29306}}, {"id": 1930423, "name": "Yaoshui", "country": "CN", "coord": {"lon": 113.689171, "lat": 26.826941}}, {"id": 1917121, "name": "Yaotian", "country": "CN", "coord": {"lon": 113.826111, "lat": 23.983061}}, {"id": 1925398, "name": "Yaotian", "country": "CN", "coord": {"lon": 115.620789, "lat": 27.129641}}, {"id": 1848518, "name": "Yaotsu", "country": "JP", "coord": {"lon": 137.149994, "lat": 35.466671}}, {"id": 2142552, "name": "Yaouk", "country": "AU", "coord": {"lon": 148.800003, "lat": -35.816669}}, {"id": 2220957, "name": "Yaounde", "country": "CM", "coord": {"lon": 11.51667, "lat": 3.86667}}, {"id": 1786960, "name": "Yaowang", "country": "CN", "coord": {"lon": 120.066673, "lat": 32.216671}}, {"id": 1786893, "name": "Yaoxu", "country": "CN", "coord": {"lon": 115.208122, "lat": 27.85428}}, {"id": 1925399, "name": "Yaoxu", "country": "CN", "coord": {"lon": 116.793114, "lat": 28.1096}}, {"id": 1786900, "name": "Yaozhou", "country": "CN", "coord": {"lon": 108.970001, "lat": 34.905281}}, {"id": 1910186, "name": "Yaozhuang", "country": "CN", "coord": {"lon": 113.270943, "lat": 33.875751}}, {"id": 7735218, "name": "Yaozhuang", "country": "CN", "coord": {"lon": 120.956512, "lat": 30.91399}}, {"id": 1723907, "name": "Yapak", "country": "PH", "coord": {"lon": 121.933327, "lat": 11.95}}, {"id": 2142548, "name": "Yapeen", "country": "AU", "coord": {"lon": 144.183334, "lat": -37.133331}}, {"id": 3427279, "name": "Yapeyu", "country": "AR", "coord": {"lon": -56.818409, "lat": -29.469139}}, {"id": 5145197, "name": "Yaphank", "country": "US", "coord": {"lon": -72.917053, "lat": 40.836769}}, {"id": 297704, "name": "Yaprakbasi", "country": "TR", "coord": {"lon": 40.544819, "lat": 37.653969}}, {"id": 737980, "name": "Yaprakli", "country": "TR", "coord": {"lon": 33.778191, "lat": 40.757851}}, {"id": 3828718, "name": "Yapurquer", "country": "CO", "coord": {"lon": -77.731049, "lat": 0.8482}}, {"id": 1786875, "name": "Yaqian", "country": "CN", "coord": {"lon": 116.452881, "lat": 28.289829}}, {"id": 7735276, "name": "Yaqian", "country": "CN", "coord": {"lon": 120.403664, "lat": 30.1621}}, {"id": 7636837, "name": "Yaquehu", "country": "CN", "coord": {"lon": 116.629402, "lat": 29.3239}}, {"id": 1786872, "name": "Yaqueling", "country": "CN", "coord": {"lon": 111.586151, "lat": 30.64543}}, {"id": 3979975, "name": "Yaqui", "country": "MX", "coord": {"lon": -110.166672, "lat": 27.366671}}, {"id": 469017, "name": "Yar", "country": "RU", "coord": {"lon": 52.102581, "lat": 58.248981}}, {"id": 1486321, "name": "Yar-Sale", "country": "RU", "coord": {"lon": 70.833328, "lat": 66.833328}}, {"id": 3533753, "name": "Yara", "country": "CU", "coord": {"lon": -76.953331, "lat": 20.27528}}, {"id": 3625214, "name": "Yaracal", "country": "VE", "coord": {"lon": -68.54435, "lat": 10.97099}}, {"id": 1252783, "name": "Yarada", "country": "IN", "coord": {"lon": 83.26667, "lat": 17.65}}, {"id": 1604863, "name": "Yarang", "country": "TH", "coord": {"lon": 101.293388, "lat": 6.75986}}, {"id": 469005, "name": "Yaransk", "country": "RU", "coord": {"lon": 47.886108, "lat": 57.30331}}, {"id": 2142537, "name": "Yarck", "country": "AU", "coord": {"lon": 145.616669, "lat": -37.099998}}, {"id": 146961, "name": "Yardimli", "country": "AZ", "coord": {"lon": 48.237221, "lat": 38.920559}}, {"id": 5816621, "name": "Yardley", "country": "US", "coord": {"lon": -117.333542, "lat": 47.667122}}, {"id": 5220281, "name": "Yardley", "country": "US", "coord": {"lon": -74.846001, "lat": 40.245659}}, {"id": 4833084, "name": "Yardville", "country": "US", "coord": {"lon": -74.664322, "lat": 40.181221}}, {"id": 146962, "name": "Yardymli Rayon", "country": "AZ", "coord": {"lon": 48.25, "lat": 38.916672}}, {"id": 725554, "name": "Yarebitsa", "country": "BG", "coord": {"lon": 27, "lat": 43.849998}}, {"id": 468991, "name": "Yarega", "country": "RU", "coord": {"lon": 53.5765, "lat": 63.435429}}, {"id": 688455, "name": "Yaremche", "country": "UA", "coord": {"lon": 24.551945, "lat": 48.458332}}, {"id": 2110418, "name": "Yaren", "country": "NR", "coord": {"lon": 166.915985, "lat": -0.54724}}, {"id": 468983, "name": "Yarensk", "country": "RU", "coord": {"lon": 49.091621, "lat": 62.167549}}, {"id": 2013101, "name": "Yarikta", "country": "RU", "coord": {"lon": 110.01667, "lat": 53.933331}}, {"id": 69559, "name": "Yarim", "country": "YE", "coord": {"lon": 44.377949, "lat": 14.29804}}, {"id": 1604771, "name": "Yaring", "country": "TH", "coord": {"lon": 101.368942, "lat": 6.86617}}, {"id": 3625207, "name": "Yaritagua", "country": "VE", "coord": {"lon": -69.126106, "lat": 10.08}}, {"id": 688451, "name": "Yarizovka", "country": "UA", "coord": {"lon": 34.5, "lat": 48.950001}}, {"id": 6185213, "name": "Yarker", "country": "CA", "coord": {"lon": -76.766121, "lat": 44.383419}}, {"id": 1486369, "name": "Yarkovo", "country": "RU", "coord": {"lon": 67.078613, "lat": 57.402779}}, {"id": 1486371, "name": "Yarkovo", "country": "RU", "coord": {"lon": 82.5989, "lat": 54.805599}}, {"id": 2142527, "name": "Yarlington", "country": "AU", "coord": {"lon": 147.333328, "lat": -42.549999}}, {"id": 2057470, "name": "Yarloop", "country": "AU", "coord": {"lon": 115.900002, "lat": -32.966671}}, {"id": 725551, "name": "Yarlovo", "country": "BG", "coord": {"lon": 23.283331, "lat": 42.466671}}, {"id": 817687, "name": "Yarlykovo", "country": "RU", "coord": {"lon": 37.859444, "lat": 55.27861}}, {"id": 2633415, "name": "Yarm", "country": "GB", "coord": {"lon": -1.35793, "lat": 54.503639}}, {"id": 297628, "name": "Yarma", "country": "TR", "coord": {"lon": 32.882778, "lat": 37.811489}}, {"id": 688440, "name": "Yarmolyntsi", "country": "UA", "coord": {"lon": 26.83725, "lat": 49.19236}}, {"id": 6185217, "name": "Yarmouth", "country": "CA", "coord": {"lon": -66.11557, "lat": 43.83345}}, {"id": 4956335, "name": "Yarmouth", "country": "US", "coord": {"lon": -70.22863, "lat": 41.705669}}, {"id": 2633414, "name": "Yarmouth", "country": "GB", "coord": {"lon": -1.49929, "lat": 50.705292}}, {"id": 4983572, "name": "Yarmouth", "country": "US", "coord": {"lon": -70.186722, "lat": 43.80064}}, {"id": 4983578, "name": "Yarmouth Junction", "country": "US", "coord": {"lon": -70.193657, "lat": 43.81369}}, {"id": 4956338, "name": "Yarmouth Port", "country": "US", "coord": {"lon": -70.249458, "lat": 41.702049}}, {"id": 2633412, "name": "Yarnton", "country": "GB", "coord": {"lon": -1.30694, "lat": 51.80986}}, {"id": 468927, "name": "Yaropolets", "country": "RU", "coord": {"lon": 35.833172, "lat": 56.133331}}, {"id": 468902, "name": "Yaroslavl", "country": "RU", "coord": {"lon": 39.873676, "lat": 57.629871}}, {"id": 468899, "name": "Yaroslavskaya", "country": "RU", "coord": {"lon": 40.464169, "lat": 44.610561}}, {"id": 468898, "name": "Yaroslavskaya Oblast\u2019", "country": "RU", "coord": {"lon": 39.5, "lat": 58}}, {"id": 2013089, "name": "Yaroslavskiy", "country": "RU", "coord": {"lon": 132.207214, "lat": 44.168331}}, {"id": 530088, "name": "Yaroslavskiy", "country": "RU", "coord": {"lon": 37.721668, "lat": 55.88139}}, {"id": 1486340, "name": "Yarovoye", "country": "RU", "coord": {"lon": 78.580002, "lat": 52.927299}}, {"id": 2142523, "name": "Yarpturk", "country": "AU", "coord": {"lon": 142.433334, "lat": -38.299999}}, {"id": 245939, "name": "Yarqa", "country": "JO", "coord": {"lon": 35.694729, "lat": 31.978451}}, {"id": 2142522, "name": "Yarra", "country": "AU", "coord": {"lon": 149.633331, "lat": -34.783329}}, {"id": 2142507, "name": "Yarra Glen", "country": "AU", "coord": {"lon": 145.366669, "lat": -37.666672}}, {"id": 2142501, "name": "Yarra Junction", "country": "AU", "coord": {"lon": 145.616669, "lat": -37.783329}}, {"id": 7839837, "name": "Yarra Ranges", "country": "AU", "coord": {"lon": 145.737076, "lat": -37.750061}}, {"id": 2142518, "name": "Yarrabandai", "country": "AU", "coord": {"lon": 147.600006, "lat": -33.133331}}, {"id": 2142509, "name": "Yarraford", "country": "AU", "coord": {"lon": 151.783325, "lat": -29.65}}, {"id": 2142506, "name": "Yarragon", "country": "AU", "coord": {"lon": 146.066666, "lat": -38.200001}}, {"id": 2142503, "name": "Yarragundry", "country": "AU", "coord": {"lon": 147.233337, "lat": -35.116669}}, {"id": 2142494, "name": "Yarram", "country": "AU", "coord": {"lon": 146.666672, "lat": -38.566669}}, {"id": 2142493, "name": "Yarramalong", "country": "AU", "coord": {"lon": 151.283325, "lat": -33.23333}}, {"id": 2142492, "name": "Yarraman", "country": "AU", "coord": {"lon": 151.983337, "lat": -26.83333}}, {"id": 2142478, "name": "Yarrambat", "country": "AU", "coord": {"lon": 145.003387, "lat": -37.804909}}, {"id": 2142466, "name": "Yarranlea", "country": "AU", "coord": {"lon": 151.533325, "lat": -27.73333}}, {"id": 2142459, "name": "Yarras", "country": "AU", "coord": {"lon": 152.350006, "lat": -31.41667}}, {"id": 2142457, "name": "Yarraville", "country": "AU", "coord": {"lon": 144.899994, "lat": -37.816669}}, {"id": 2142455, "name": "Yarrawalla", "country": "AU", "coord": {"lon": 144.033325, "lat": -36.066669}}, {"id": 2205980, "name": "Yarrawarrah", "country": "AU", "coord": {"lon": 151.033325, "lat": -34.049999}}, {"id": 2142447, "name": "Yarrawonga", "country": "AU", "coord": {"lon": 146, "lat": -36.01667}}, {"id": 7839838, "name": "Yarriambiack", "country": "AU", "coord": {"lon": 142.404526, "lat": -36.02618}}, {"id": 2142439, "name": "Yarrie Lake", "country": "AU", "coord": {"lon": 149.516663, "lat": -30.35}}, {"id": 7669010, "name": "Yarrow", "country": "CA", "coord": {"lon": -122.050339, "lat": 49.082069}}, {"id": 5816626, "name": "Yarrow Point", "country": "US", "coord": {"lon": -122.217346, "lat": 47.64621}}, {"id": 2142426, "name": "Yarroweyah", "country": "AU", "coord": {"lon": 145.550003, "lat": -35.933331}}, {"id": 2142425, "name": "Yarrowitch", "country": "AU", "coord": {"lon": 151.949997, "lat": -31.25}}, {"id": 2142420, "name": "Yarrowyck", "country": "AU", "coord": {"lon": 151.350006, "lat": -30.466669}}, {"id": 468859, "name": "Yartsevo", "country": "RU", "coord": {"lon": 43.833332, "lat": 57.900002}}, {"id": 468867, "name": "Yartsevo", "country": "RU", "coord": {"lon": 32.666672, "lat": 55.066669}}, {"id": 468866, "name": "Yartsevo", "country": "RU", "coord": {"lon": 32.696388, "lat": 55.066669}}, {"id": 3600236, "name": "Yaruchel", "country": "HN", "coord": {"lon": -88.816673, "lat": 14.53333}}, {"id": 3787902, "name": "Yarumal", "country": "CO", "coord": {"lon": -75.67083, "lat": 6.89028}}, {"id": 3665741, "name": "Yarumal", "country": "CO", "coord": {"lon": -75.417381, "lat": 6.96321}}, {"id": 3600232, "name": "Yarumela", "country": "HN", "coord": {"lon": -87.633331, "lat": 14.33333}}, {"id": 591951, "name": "Yarvekyulya", "country": "EE", "coord": {"lon": 24.79278, "lat": 59.376671}}, {"id": 2142413, "name": "Yarwun", "country": "AU", "coord": {"lon": 151.116669, "lat": -23.85}}, {"id": 69558, "name": "Yar\u012bm", "country": "YE", "coord": {"lon": 44.31176, "lat": 14.25388}}, {"id": 468799, "name": "Yasennaya", "country": "RU", "coord": {"lon": 31.966667, "lat": 54.766666}}, {"id": 468782, "name": "Yasenskaya", "country": "RU", "coord": {"lon": 38.269001, "lat": 46.3592}}, {"id": 8020123, "name": "Yasen\u2019", "country": "BY", "coord": {"lon": 27.3592, "lat": 53.4492}}, {"id": 468776, "name": "Yashalta", "country": "RU", "coord": {"lon": 42.276199, "lat": 46.3395}}, {"id": 1786867, "name": "Yashan", "country": "CN", "coord": {"lon": 109.94194, "lat": 22.1975}}, {"id": 1786866, "name": "Yashan", "country": "CN", "coord": {"lon": 118.01667, "lat": 30.816669}}, {"id": 2318238, "name": "Yashikera", "country": "NG", "coord": {"lon": 3.4, "lat": 9.76667}}, {"id": 1848499, "name": "Yashio-shi", "country": "JP", "coord": {"lon": 139.83905, "lat": 35.822552}}, {"id": 1848498, "name": "Yashiro", "country": "JP", "coord": {"lon": 134.966675, "lat": 34.916672}}, {"id": 1486298, "name": "Yashkino", "country": "RU", "coord": {"lon": 85.426498, "lat": 55.8736}}, {"id": 468747, "name": "Yashkul", "country": "RU", "coord": {"lon": 45.343498, "lat": 46.171101}}, {"id": 281297, "name": "Yasid", "country": "PS", "coord": {"lon": 35.277569, "lat": 32.296879}}, {"id": 688373, "name": "Yasinovataya", "country": "UA", "coord": {"lon": 37.859402, "lat": 48.129799}}, {"id": 688365, "name": "Yasinya", "country": "UA", "coord": {"lon": 24.36042, "lat": 48.279369}}, {"id": 6417681, "name": "Yaskino", "country": "RU", "coord": {"lon": 37.271942, "lat": 55.665001}}, {"id": 688357, "name": "Yasna Polyana", "country": "UA", "coord": {"lon": 34.633331, "lat": 46.183334}}, {"id": 805755, "name": "Yasnaya Polyana", "country": "RU", "coord": {"lon": 42.753899, "lat": 44.022499}}, {"id": 468682, "name": "Yasnaya Polyana", "country": "RU", "coord": {"lon": 42.216667, "lat": 59.666668}}, {"id": 468691, "name": "Yasnaya Polyana", "country": "RU", "coord": {"lon": 37.527779, "lat": 54.071388}}, {"id": 1517310, "name": "Yasnaya Polyana", "country": "KZ", "coord": {"lon": 70.283333, "lat": 53.950001}}, {"id": 468671, "name": "Yasnogorsk", "country": "RU", "coord": {"lon": 37.697498, "lat": 54.480278}}, {"id": 468657, "name": "Yasnyy", "country": "RU", "coord": {"lon": 59.874199, "lat": 51.033298}}, {"id": 619670, "name": "Yasnyy Les", "country": "BY", "coord": {"lon": 29.35, "lat": 53.166668}}, {"id": 1604769, "name": "Yasothon", "country": "TH", "coord": {"lon": 104.145103, "lat": 15.79408}}, {"id": 2142412, "name": "Yass", "country": "AU", "coord": {"lon": 148.916672, "lat": -34.833328}}, {"id": 7839793, "name": "Yass Valley", "country": "AU", "coord": {"lon": 148.972397, "lat": -34.9263}}, {"id": 468632, "name": "Yastrebki", "country": "RU", "coord": {"lon": 36.764721, "lat": 55.671944}}, {"id": 1848489, "name": "Yasu", "country": "JP", "coord": {"lon": 136.02327, "lat": 35.068008}}, {"id": 281295, "name": "Yasuf", "country": "PS", "coord": {"lon": 35.237839, "lat": 32.10841}}, {"id": 1848482, "name": "Yasugi", "country": "JP", "coord": {"lon": 133.25, "lat": 35.433331}}, {"id": 66093, "name": "Yasuj", "country": "IR", "coord": {"lon": 51.587959, "lat": 30.66824}}, {"id": 297564, "name": "Yatagan", "country": "TR", "coord": {"lon": 28.14279, "lat": 37.34026}}, {"id": 3436657, "name": "Yataity", "country": "PY", "coord": {"lon": -56.066669, "lat": -26.366671}}, {"id": 3427273, "name": "Yataity Calle", "country": "AR", "coord": {"lon": -58.908459, "lat": -29.019131}}, {"id": 3436655, "name": "Yataity del Norte", "country": "PY", "coord": {"lon": -56.349998, "lat": -24.83333}}, {"id": 2142409, "name": "Yatala", "country": "AU", "coord": {"lon": 153.216675, "lat": -27.716669}}, {"id": 2142407, "name": "Yatchaw", "country": "AU", "coord": {"lon": 142.100006, "lat": -37.816669}}, {"id": 7300065, "name": "Yate", "country": "GB", "coord": {"lon": -2.40944, "lat": 51.54805}}, {"id": 2633406, "name": "Yate", "country": "GB", "coord": {"lon": -2.41839, "lat": 51.540741}}, {"id": 2137644, "name": "Yate-Barrage", "country": "NC", "coord": {"lon": 166.883331, "lat": -22.15}}, {"id": 6620293, "name": "Yateley", "country": "GB", "coord": {"lon": -0.82985, "lat": 51.343048}}, {"id": 4282061, "name": "Yates Center", "country": "US", "coord": {"lon": -95.733322, "lat": 37.881149}}, {"id": 1929865, "name": "Yatian", "country": "CN", "coord": {"lon": 111.014442, "lat": 27.59194}}, {"id": 2057421, "name": "Yatina", "country": "AU", "coord": {"lon": 138.666672, "lat": -32.933331}}, {"id": 281293, "name": "Yatma", "country": "PS", "coord": {"lon": 35.269089, "lat": 32.108891}}, {"id": 7084591, "name": "Yatnyaketi", "country": "ID", "coord": {"lon": 114.93, "lat": -8.2371}}, {"id": 1786855, "name": "Yatou", "country": "CN", "coord": {"lon": 122.383331, "lat": 37.150002}}, {"id": 2509406, "name": "Yatova", "country": "ES", "coord": {"lon": -0.8, "lat": 39.383331}}, {"id": 1848447, "name": "Yatsuo", "country": "JP", "coord": {"lon": 137.133331, "lat": 36.566669}}, {"id": 1848445, "name": "Yatsushiro", "country": "JP", "coord": {"lon": 130.600006, "lat": 32.5}}, {"id": 1848440, "name": "Yatsuzawa", "country": "JP", "coord": {"lon": 139.116669, "lat": 35.616669}}, {"id": 2633403, "name": "Yatton", "country": "GB", "coord": {"lon": -2.53333, "lat": 51.966671}}, {"id": 2633404, "name": "Yatton", "country": "GB", "coord": {"lon": -2.81667, "lat": 51.383331}}, {"id": 1786854, "name": "Yatunpu", "country": "CN", "coord": {"lon": 109.626671, "lat": 26.155001}}, {"id": 2137643, "name": "Yat\u00e9-Village", "country": "NC", "coord": {"lon": 166.899994, "lat": -22.15}}, {"id": 4568917, "name": "Yauco", "country": "PR", "coord": {"lon": -66.849899, "lat": 18.03496}}, {"id": 4568918, "name": "Yauco Municipio", "country": "PR", "coord": {"lon": -66.855179, "lat": 18.078569}}, {"id": 4568957, "name": "Yaurel", "country": "PR", "coord": {"lon": -66.057114, "lat": 18.026911}}, {"id": 3514321, "name": "Yautepec", "country": "MX", "coord": {"lon": -99.067146, "lat": 18.88188}}, {"id": 3690733, "name": "Yauya", "country": "PE", "coord": {"lon": -77.300003, "lat": -8.98333}}, {"id": 1252773, "name": "Yaval", "country": "IN", "coord": {"lon": 75.699997, "lat": 21.16667}}, {"id": 5321860, "name": "Yavapai County", "country": "US", "coord": {"lon": -112.375717, "lat": 34.508362}}, {"id": 3979962, "name": "Yavaros", "country": "MX", "coord": {"lon": -109.51667, "lat": 26.700001}}, {"id": 468587, "name": "Yavas", "country": "RU", "coord": {"lon": 42.849098, "lat": 54.415901}}, {"id": 1252770, "name": "Yavatmal", "country": "IN", "coord": {"lon": 78.133331, "lat": 20.4}}, {"id": 3699980, "name": "Yaviza", "country": "PA", "coord": {"lon": -77.693077, "lat": 8.1537}}, {"id": 1517305, "name": "Yavlenka", "country": "KZ", "coord": {"lon": 68.457497, "lat": 54.346111}}, {"id": 293222, "name": "Yavne", "country": "IL", "coord": {"lon": 34.740002, "lat": 31.87639}}, {"id": 293220, "name": "Yavneel", "country": "IL", "coord": {"lon": 35.506618, "lat": 32.70356}}, {"id": 688288, "name": "Yavoriv", "country": "UA", "coord": {"lon": 23.38254, "lat": 49.938641}}, {"id": 688279, "name": "Yavoruv", "country": "UA", "coord": {"lon": 22.914049, "lat": 49.016739}}, {"id": 297532, "name": "Yavuzeli", "country": "TR", "coord": {"lon": 37.568241, "lat": 37.317719}}, {"id": 1786853, "name": "Yawangkou", "country": "CN", "coord": {"lon": 117.216667, "lat": 36.816669}}, {"id": 1848439, "name": "Yawata", "country": "JP", "coord": {"lon": 135.702698, "lat": 34.87009}}, {"id": 3514297, "name": "Yaxchoj", "country": "MX", "coord": {"lon": -92.133331, "lat": 16.25}}, {"id": 3514293, "name": "Yaxcopoil", "country": "MX", "coord": {"lon": -89.466667, "lat": 20.75}}, {"id": 1783554, "name": "Yaxing", "country": "CN", "coord": {"lon": 109.262733, "lat": 19.447781}}, {"id": 2633399, "name": "Yaxley", "country": "GB", "coord": {"lon": -0.25852, "lat": 52.517681}}, {"id": 1486261, "name": "Yaya", "country": "RU", "coord": {"lon": 86.440002, "lat": 56.206001}}, {"id": 3491736, "name": "Yayas de Viajama", "country": "DO", "coord": {"lon": -70.927528, "lat": 18.6071}}, {"id": 297466, "name": "Yayladagi", "country": "TR", "coord": {"lon": 36.062721, "lat": 35.9025}}, {"id": 297461, "name": "Yayladere", "country": "TR", "coord": {"lon": 40.0695, "lat": 39.226139}}, {"id": 297416, "name": "Yayli", "country": "TR", "coord": {"lon": 40.754768, "lat": 37.202011}}, {"id": 1512320, "name": "Yaypan", "country": "UZ", "coord": {"lon": 70.815559, "lat": 40.375832}}, {"id": 468560, "name": "Yayva", "country": "RU", "coord": {"lon": 57.26408, "lat": 59.33033}}, {"id": 297404, "name": "Yayvantepe", "country": "TR", "coord": {"lon": 41.520199, "lat": 37.30117}}, {"id": 111822, "name": "Yazd", "country": "IR", "coord": {"lon": 54.3675, "lat": 31.897221}}, {"id": 1786841, "name": "Yazhou", "country": "CN", "coord": {"lon": 120.325562, "lat": 32.390831}}, {"id": 297371, "name": "Yazihan", "country": "TR", "coord": {"lon": 38.18, "lat": 38.594719}}, {"id": 1162316, "name": "Yazman Mandi", "country": "PK", "coord": {"lon": 71.744591, "lat": 29.12122}}, {"id": 4451810, "name": "Yazoo City", "country": "US", "coord": {"lon": -90.405647, "lat": 32.855129}}, {"id": 2633398, "name": "Yazor", "country": "GB", "coord": {"lon": -2.86667, "lat": 52.116669}}, {"id": 468483, "name": "Yazykovo", "country": "RU", "coord": {"lon": 56.135319, "lat": 55.219879}}, {"id": 468486, "name": "Yazykovo", "country": "RU", "coord": {"lon": 47.389099, "lat": 54.292198}}, {"id": 468479, "name": "Yazykovo", "country": "RU", "coord": {"lon": 37.349998, "lat": 56.23333}}, {"id": 7590363, "name": "Yaz\u0131ba\u015f\u0131", "country": "TR", "coord": {"lon": 36.873531, "lat": 39.821079}}, {"id": 297362, "name": "Yaz\u0131konak", "country": "TR", "coord": {"lon": 39.299999, "lat": 38.61161}}, {"id": 297347, "name": "Yaz\u0131l\u0131kaya Yaylas\u0131", "country": "TR", "coord": {"lon": 30.6, "lat": 39.150002}}, {"id": 7871831, "name": "Ybbs an der Donau", "country": "AT", "coord": {"lon": 15.07832, "lat": 48.177052}}, {"id": 2760772, "name": "Ybbs an der Donau", "country": "AT", "coord": {"lon": 15.08333, "lat": 48.166672}}, {"id": 7872831, "name": "Ybbsitz", "country": "AT", "coord": {"lon": 14.90534, "lat": 47.924229}}, {"id": 2760770, "name": "Ybbsitz", "country": "AT", "coord": {"lon": 14.88333, "lat": 47.933331}}, {"id": 3436642, "name": "Ybycui", "country": "PY", "coord": {"lon": -57.049999, "lat": -26.01667}}, {"id": 6434019, "name": "Ychoux", "country": "FR", "coord": {"lon": -0.96667, "lat": 44.333328}}, {"id": 2967253, "name": "Ychoux", "country": "FR", "coord": {"lon": -0.9518, "lat": 44.32869}}, {"id": 2744130, "name": "Yde", "country": "NL", "coord": {"lon": 6.59306, "lat": 53.115829}}, {"id": 6427682, "name": "Ydes", "country": "FR", "coord": {"lon": 2.438, "lat": 45.347401}}, {"id": 2967252, "name": "Ydes", "country": "FR", "coord": {"lon": 2.46667, "lat": 45.333328}}, {"id": 261822, "name": "Ydra", "country": "GR", "coord": {"lon": 23.46697, "lat": 37.350948}}, {"id": 261816, "name": "Ydroussa", "country": "GR", "coord": {"lon": 26.751671, "lat": 37.779442}}, {"id": 2633397, "name": "Yeadon", "country": "GB", "coord": {"lon": -1.68743, "lat": 53.864368}}, {"id": 4562430, "name": "Yeadon", "country": "US", "coord": {"lon": -75.255463, "lat": 39.938999}}, {"id": 4556125, "name": "Yeager", "country": "US", "coord": {"lon": -96.339447, "lat": 35.157581}}, {"id": 5220310, "name": "Yeagertown", "country": "US", "coord": {"lon": -77.580551, "lat": 40.643131}}, {"id": 2057415, "name": "Yealering", "country": "AU", "coord": {"lon": 117.616669, "lat": -32.599998}}, {"id": 2633394, "name": "Yealmpton", "country": "GB", "coord": {"lon": -3.99877, "lat": 50.34856}}, {"id": 2033423, "name": "Yebaishou", "country": "CN", "coord": {"lon": 119.640831, "lat": 41.397499}}, {"id": 1679488, "name": "Yeban", "country": "PH", "coord": {"lon": 121.94194, "lat": 17.02195}}, {"id": 6358083, "name": "Yebes", "country": "ES", "coord": {"lon": -3.1048, "lat": 40.548939}}, {"id": 3104439, "name": "Yebes", "country": "ES", "coord": {"lon": -3.10782, "lat": 40.53162}}, {"id": 2967251, "name": "Yebleron", "country": "FR", "coord": {"lon": 0.53746, "lat": 49.633331}}, {"id": 6358084, "name": "Yebra", "country": "ES", "coord": {"lon": -2.95558, "lat": 40.35136}}, {"id": 3104438, "name": "Yebra", "country": "ES", "coord": {"lon": -2.9663, "lat": 40.357021}}, {"id": 6358444, "name": "Yebra de Basa", "country": "ES", "coord": {"lon": -0.2435, "lat": 42.487011}}, {"id": 3104436, "name": "Yebra de Basa", "country": "ES", "coord": {"lon": -0.28178, "lat": 42.486469}}, {"id": 3514278, "name": "Yecapixtla", "country": "MX", "coord": {"lon": -98.866669, "lat": 18.883329}}, {"id": 1252765, "name": "Yechag\u0101m", "country": "IN", "coord": {"lon": 74.76667, "lat": 33.98333}}, {"id": 6359547, "name": "Yecla", "country": "ES", "coord": {"lon": -1.1296, "lat": 38.65514}}, {"id": 2509402, "name": "Yecla", "country": "ES", "coord": {"lon": -1.11468, "lat": 38.613651}}, {"id": 6360613, "name": "Yecla de Yeltes", "country": "ES", "coord": {"lon": -6.48063, "lat": 40.946781}}, {"id": 3104435, "name": "Yecla de Yeltes", "country": "ES", "coord": {"lon": -6.48904, "lat": 40.959171}}, {"id": 3514277, "name": "Yecuatla", "country": "MX", "coord": {"lon": -96.75, "lat": 19.866671}}, {"id": 297286, "name": "Yedisu", "country": "TR", "coord": {"lon": 40.54417, "lat": 39.43306}}, {"id": 297280, "name": "Yediyol", "country": "TR", "coord": {"lon": 41.11639, "lat": 37.942501}}, {"id": 468454, "name": "Yednevo", "country": "RU", "coord": {"lon": 36.233334, "lat": 56.099998}}, {"id": 1914421, "name": "Yedun", "country": "CN", "coord": {"lon": 118.141617, "lat": 26.909849}}, {"id": 49593, "name": "Yeed", "country": "SO", "coord": {"lon": 43.033329, "lat": 4.55}}, {"id": 2057402, "name": "Yeelanna", "country": "AU", "coord": {"lon": 135.733337, "lat": -34.150002}}, {"id": 468424, "name": "Yefimovka", "country": "RU", "coord": {"lon": 37.228889, "lat": 55.231945}}, {"id": 468418, "name": "Yefimovo", "country": "RU", "coord": {"lon": 44.75, "lat": 58.299999}}, {"id": 468401, "name": "Yefim\u2019yevo", "country": "RU", "coord": {"lon": 36.099998, "lat": 56.150002}}, {"id": 468397, "name": "Yefino", "country": "RU", "coord": {"lon": 43.671665, "lat": 57.746113}}, {"id": 468390, "name": "Yefremov", "country": "RU", "coord": {"lon": 38.099239, "lat": 53.14806}}, {"id": 468364, "name": "Yefremovskaya", "country": "RU", "coord": {"lon": 38.984165, "lat": 55.422779}}, {"id": 6608597, "name": "Yefutino", "country": "RU", "coord": {"lon": 43.559444, "lat": 56.806389}}, {"id": 468345, "name": "Yeganovo", "country": "RU", "coord": {"lon": 38.02972, "lat": 55.535}}, {"id": 2509397, "name": "Yegen", "country": "ES", "coord": {"lon": -3.119, "lat": 36.98103}}, {"id": 174980, "name": "Yeghegis", "country": "AM", "coord": {"lon": 45.36002, "lat": 39.871811}}, {"id": 174710, "name": "Yeghegnadzor", "country": "AM", "coord": {"lon": 45.33239, "lat": 39.763889}}, {"id": 174709, "name": "Yeghegnavan", "country": "AM", "coord": {"lon": 44.625309, "lat": 39.83799}}, {"id": 616060, "name": "Yeghegnut", "country": "AM", "coord": {"lon": 44.63155, "lat": 40.903019}}, {"id": 616061, "name": "Yeghegnut", "country": "AM", "coord": {"lon": 44.160179, "lat": 40.091862}}, {"id": 616065, "name": "Yeghvard", "country": "AM", "coord": {"lon": 44.48138, "lat": 40.32053}}, {"id": 468307, "name": "Yegorlykskaya", "country": "RU", "coord": {"lon": 40.656212, "lat": 46.565639}}, {"id": 468250, "name": "Yegoryevsk", "country": "RU", "coord": {"lon": 39.041111, "lat": 55.378334}}, {"id": 3436617, "name": "Yegros", "country": "PY", "coord": {"lon": -56.400002, "lat": -26.450001}}, {"id": 826042, "name": "Yehorove", "country": "UA", "coord": {"lon": 36.482777, "lat": 45.385834}}, {"id": 3514272, "name": "Yehualtepec", "country": "MX", "coord": {"lon": -97.650002, "lat": 18.783331}}, {"id": 363619, "name": "Yei", "country": "SS", "coord": {"lon": 30.677919, "lat": 4.09504}}, {"id": 1790363, "name": "Yejia", "country": "CN", "coord": {"lon": 119.287659, "lat": 30.40764}}, {"id": 1486209, "name": "Yekaterinburg", "country": "RU", "coord": {"lon": 60.612499, "lat": 56.857498}}, {"id": 2013032, "name": "Yekaterinoslavka", "country": "RU", "coord": {"lon": 129.113861, "lat": 50.37336}}, {"id": 468197, "name": "Yekaterinoslavskiy", "country": "RU", "coord": {"lon": 40.168331, "lat": 45.342777}}, {"id": 2013030, "name": "Yekaterinovka", "country": "RU", "coord": {"lon": 133.047226, "lat": 42.924999}}, {"id": 468180, "name": "Yekaterinovka", "country": "RU", "coord": {"lon": 44.34515, "lat": 52.050831}}, {"id": 468127, "name": "Yekaterinovka", "country": "RU", "coord": {"lon": 37.383331, "lat": 55.766666}}, {"id": 802105, "name": "Yekaterinovka", "country": "RU", "coord": {"lon": 39.037777, "lat": 47.314999}}, {"id": 468119, "name": "Yekimikha", "country": "RU", "coord": {"lon": 42.433334, "lat": 59.883331}}, {"id": 468116, "name": "Yekimovichi", "country": "RU", "coord": {"lon": 33.296478, "lat": 54.11285}}, {"id": 468102, "name": "Yekimtsevo", "country": "RU", "coord": {"lon": 42.333332, "lat": 59}}, {"id": 468091, "name": "Yekusha", "country": "RU", "coord": {"lon": 52.966671, "lat": 67.666672}}, {"id": 468082, "name": "Yelabuga", "country": "RU", "coord": {"lon": 52.06493, "lat": 55.761269}}, {"id": 1252758, "name": "Yelahanka", "country": "IN", "coord": {"lon": 77.600281, "lat": 13.1075}}, {"id": 3104429, "name": "Yelamos de Abajo", "country": "ES", "coord": {"lon": -2.85803, "lat": 40.63092}}, {"id": 3104428, "name": "Yelamos de Arriba", "country": "ES", "coord": {"lon": -2.8434, "lat": 40.640079}}, {"id": 468063, "name": "Yelan", "country": "RU", "coord": {"lon": 43.737808, "lat": 50.949001}}, {"id": 468044, "name": "Yelan-Koleno", "country": "RU", "coord": {"lon": 41.230598, "lat": 51.152302}}, {"id": 468042, "name": "Yelan-Kolenovskiy", "country": "RU", "coord": {"lon": 41.151001, "lat": 51.1632}}, {"id": 1252756, "name": "Yelandur", "country": "IN", "coord": {"lon": 77.033333, "lat": 12.06667}}, {"id": 688221, "name": "Yelanets\u2019", "country": "UA", "coord": {"lon": 31.85253, "lat": 47.696819}}, {"id": 2052150, "name": "Yelanskiy", "country": "RU", "coord": {"lon": 101.371109, "lat": 54.34972}}, {"id": 1486164, "name": "Yelanskiy", "country": "RU", "coord": {"lon": 62.5014, "lat": 56.8419}}, {"id": 2142378, "name": "Yelarbon", "country": "AU", "coord": {"lon": 150.75, "lat": -28.566669}}, {"id": 468030, "name": "Yelatma", "country": "RU", "coord": {"lon": 41.750832, "lat": 54.967499}}, {"id": 1252753, "name": "Yelbarga", "country": "IN", "coord": {"lon": 76.01667, "lat": 15.63333}}, {"id": 2057393, "name": "Yelbeni", "country": "AU", "coord": {"lon": 117.666672, "lat": -31.183331}}, {"id": 4038353, "name": "Yelch - New Village", "country": "PW", "coord": {"lon": 134.5457, "lat": 7.36051}}, {"id": 6361860, "name": "Yeles", "country": "ES", "coord": {"lon": -3.78375, "lat": 40.121399}}, {"id": 3104427, "name": "Yeles", "country": "ES", "coord": {"lon": -3.80487, "lat": 40.12035}}, {"id": 6418652, "name": "Yelesino", "country": "RU", "coord": {"lon": 44.277222, "lat": 56.298058}}, {"id": 467978, "name": "Yelets", "country": "RU", "coord": {"lon": 38.50169, "lat": 52.623661}}, {"id": 6607941, "name": "Yelevo", "country": "RU", "coord": {"lon": 43.834999, "lat": 56.531113}}, {"id": 467951, "name": "Yelgazino", "country": "RU", "coord": {"lon": 37.866669, "lat": 55.416668}}, {"id": 2142377, "name": "Yelgun", "country": "AU", "coord": {"lon": 153.516663, "lat": -28.48333}}, {"id": 1786811, "name": "Yeliguan", "country": "CN", "coord": {"lon": 103.660492, "lat": 34.964401}}, {"id": 7635189, "name": "Yelin", "country": "CN", "coord": {"lon": 110.041061, "lat": 18.52216}}, {"id": 467934, "name": "Yelino", "country": "RU", "coord": {"lon": 36.766666, "lat": 56.25}}, {"id": 467896, "name": "Yelizarovo", "country": "RU", "coord": {"lon": 36.766666, "lat": 56.166668}}, {"id": 467856, "name": "Yelizavetino", "country": "RU", "coord": {"lon": 29.79376, "lat": 59.49157}}, {"id": 467854, "name": "Yelizavetinskaya", "country": "RU", "coord": {"lon": 38.795799, "lat": 45.04446}}, {"id": 467850, "name": "Yelizavetinskoye", "country": "RU", "coord": {"lon": 43.349442, "lat": 45.007221}}, {"id": 688170, "name": "Yelizavetovka", "country": "UA", "coord": {"lon": 36.345829, "lat": 49.186111}}, {"id": 2119538, "name": "Yelizovo", "country": "RU", "coord": {"lon": 158.380493, "lat": 53.187302}}, {"id": 467819, "name": "Yelkhovka", "country": "RU", "coord": {"lon": 50.283192, "lat": 53.86668}}, {"id": 467787, "name": "Yelkino", "country": "RU", "coord": {"lon": 59.829109, "lat": 58.694}}, {"id": 1252745, "name": "Yellandu", "country": "IN", "coord": {"lon": 80.333328, "lat": 17.6}}, {"id": 1252744, "name": "Yellapur", "country": "IN", "coord": {"lon": 74.716667, "lat": 14.96667}}, {"id": 2960874, "name": "Yellow Furze", "country": "IE", "coord": {"lon": -6.57167, "lat": 53.673328}}, {"id": 6185353, "name": "Yellow Grass", "country": "CA", "coord": {"lon": -104.167809, "lat": 49.80006}}, {"id": 4528866, "name": "Yellow Springs", "country": "US", "coord": {"lon": -83.886871, "lat": 39.80645}}, {"id": 2057381, "name": "Yellowdine", "country": "AU", "coord": {"lon": 119.650002, "lat": -31.299999}}, {"id": 6185377, "name": "Yellowknife", "country": "CA", "coord": {"lon": -114.352547, "lat": 62.456001}}, {"id": 5687489, "name": "Yellowstone County", "country": "US", "coord": {"lon": -108.300682, "lat": 45.916618}}, {"id": 4137291, "name": "Yellville", "country": "US", "coord": {"lon": -92.684891, "lat": 36.226181}}, {"id": 5816656, "name": "Yelm", "country": "US", "coord": {"lon": -122.605957, "lat": 46.942039}}, {"id": 467753, "name": "Yelnya", "country": "RU", "coord": {"lon": 33.183731, "lat": 54.57864}}, {"id": 6361243, "name": "Yelo", "country": "ES", "coord": {"lon": -2.542, "lat": 41.220219}}, {"id": 3104425, "name": "Yelo", "country": "ES", "coord": {"lon": -2.51667, "lat": 41.216671}}, {"id": 1486093, "name": "Yelovaya", "country": "RU", "coord": {"lon": 92.541107, "lat": 56.138611}}, {"id": 467727, "name": "Yelovaya Gora", "country": "RU", "coord": {"lon": 32.366669, "lat": 64.183334}}, {"id": 467716, "name": "Yelovka", "country": "RU", "coord": {"lon": 42.283333, "lat": 58.216667}}, {"id": 467711, "name": "Yelovo", "country": "RU", "coord": {"lon": 54.9207, "lat": 57.05381}}, {"id": 619598, "name": "Yelsk", "country": "BY", "coord": {"lon": 29.152201, "lat": 51.814098}}, {"id": 2633382, "name": "Yelverton", "country": "GB", "coord": {"lon": -4.08382, "lat": 50.492901}}, {"id": 2318166, "name": "Yelwa", "country": "NG", "coord": {"lon": 9.63333, "lat": 8.83333}}, {"id": 467629, "name": "Yelyaty", "country": "RU", "coord": {"lon": 50.799999, "lat": 61.666672}}, {"id": 688191, "name": "Yelyzavethradka", "country": "UA", "coord": {"lon": 32.404598, "lat": 48.80381}}, {"id": 3104423, "name": "Yelz", "country": "ES", "coord": {"lon": -1.51268, "lat": 42.797421}}, {"id": 468011, "name": "Yel\u2019digino", "country": "RU", "coord": {"lon": 37.816666, "lat": 56.116669}}, {"id": 467749, "name": "Yel\u2019nya", "country": "RU", "coord": {"lon": 38.337776, "lat": 55.843887}}, {"id": 2012979, "name": "Yel\u2019tsovo", "country": "RU", "coord": {"lon": 107.849998, "lat": 52.299999}}, {"id": 857388, "name": "Yel\u2019zovo", "country": "RU", "coord": {"lon": 35.747025, "lat": 56.467823}}, {"id": 1486040, "name": "Yemanzhelinka", "country": "RU", "coord": {"lon": 61.298901, "lat": 54.800999}}, {"id": 1486039, "name": "Yemanzhelinsk", "country": "RU", "coord": {"lon": 61.320831, "lat": 54.754719}}, {"id": 4601693, "name": "Yemassee", "country": "US", "coord": {"lon": -80.850662, "lat": 32.690182}}, {"id": 2509390, "name": "Yemeda", "country": "ES", "coord": {"lon": -1.71667, "lat": 39.76667}}, {"id": 1486031, "name": "Yemelyanovo", "country": "RU", "coord": {"lon": 92.676666, "lat": 56.16806}}, {"id": 688157, "name": "Yemel\u2019yanov", "country": "UA", "coord": {"lon": 31.033333, "lat": 50.766666}}, {"id": 467565, "name": "Yemel\u2019yanovo", "country": "RU", "coord": {"lon": 38.921112, "lat": 55.753613}}, {"id": 619596, "name": "Yemel\u2019yanovo", "country": "BY", "coord": {"lon": 28.029671, "lat": 54.071091}}, {"id": 467542, "name": "Yemeshevo", "country": "RU", "coord": {"lon": 46.349167, "lat": 56.228058}}, {"id": 467539, "name": "Yemetsk", "country": "RU", "coord": {"lon": 41.794102, "lat": 63.472099}}, {"id": 392066, "name": "Yemisli", "country": "TR", "coord": {"lon": 43.075859, "lat": 37.372921}}, {"id": 467527, "name": "Yemtsa", "country": "RU", "coord": {"lon": 40.332851, "lat": 63.073372}}, {"id": 467525, "name": "Yemva", "country": "RU", "coord": {"lon": 50.85939, "lat": 62.589989}}, {"id": 1560349, "name": "Yen Bai", "country": "VN", "coord": {"lon": 104.866669, "lat": 21.700001}}, {"id": 1560037, "name": "Yen Vinh", "country": "VN", "coord": {"lon": 105.666672, "lat": 18.66667}}, {"id": 2318123, "name": "Yenagoa", "country": "NG", "coord": {"lon": 6.26417, "lat": 4.92472}}, {"id": 688148, "name": "Yenakiyeve", "country": "UA", "coord": {"lon": 38.211369, "lat": 48.233311}}, {"id": 1285173, "name": "Yenangyaung", "country": "MM", "coord": {"lon": 94.883331, "lat": 20.466669}}, {"id": 2142330, "name": "Yenda", "country": "AU", "coord": {"lon": 146.183334, "lat": -34.25}}, {"id": 2293801, "name": "Yendi", "country": "GH", "coord": {"lon": -0.00991, "lat": 9.44272}}, {"id": 2142329, "name": "Yendon", "country": "AU", "coord": {"lon": 143.966675, "lat": -37.633331}}, {"id": 2142328, "name": "Yengarie", "country": "AU", "coord": {"lon": 152.616669, "lat": -25.566669}}, {"id": 2402816, "name": "Yengema", "country": "SL", "coord": {"lon": -11.16667, "lat": 8.71667}}, {"id": 737756, "name": "Yenicaga", "country": "TR", "coord": {"lon": 32.033749, "lat": 40.771149}}, {"id": 297144, "name": "Yenice", "country": "TR", "coord": {"lon": 27.25806, "lat": 39.930828}}, {"id": 297148, "name": "Yenice", "country": "TR", "coord": {"lon": 28.90728, "lat": 39.760899}}, {"id": 737723, "name": "Yenice", "country": "TR", "coord": {"lon": 32.331329, "lat": 41.199619}}, {"id": 737709, "name": "Yenicekoy", "country": "TR", "coord": {"lon": 29.42194, "lat": 40.08778}}, {"id": 297099, "name": "Yenifakili", "country": "TR", "coord": {"lon": 35.000359, "lat": 39.211418}}, {"id": 297098, "name": "Yenifarsak", "country": "TR", "coord": {"lon": 36.583328, "lat": 37.316669}}, {"id": 688146, "name": "Yenikale", "country": "UA", "coord": {"lon": 36.599998, "lat": 45.349998}}, {"id": 174706, "name": "Yenikend", "country": "AM", "coord": {"lon": 44.731709, "lat": 39.906109}}, {"id": 297027, "name": "Yenikoy", "country": "TR", "coord": {"lon": 41.049721, "lat": 37.881111}}, {"id": 297052, "name": "Yenikoy", "country": "TR", "coord": {"lon": 42.426109, "lat": 37.271389}}, {"id": 737660, "name": "Yenikoy", "country": "TR", "coord": {"lon": 29.35364, "lat": 40.535679}}, {"id": 296950, "name": "Yenipazar", "country": "TR", "coord": {"lon": 28.19717, "lat": 37.824188}}, {"id": 737614, "name": "Yenipazar", "country": "TR", "coord": {"lon": 30.52, "lat": 40.178329}}, {"id": 296947, "name": "Yenipinar", "country": "TR", "coord": {"lon": 41.302471, "lat": 37.843449}}, {"id": 296942, "name": "Yenisarbademli", "country": "TR", "coord": {"lon": 31.386391, "lat": 37.707779}}, {"id": 737611, "name": "Yenisehir", "country": "TR", "coord": {"lon": 29.653061, "lat": 40.264439}}, {"id": 1485997, "name": "Yeniseysk", "country": "RU", "coord": {"lon": 92.17028, "lat": 58.449718}}, {"id": 6185449, "name": "Yennadon", "country": "CA", "coord": {"lon": -122.585899, "lat": 49.232971}}, {"id": 6454659, "name": "Yenne", "country": "FR", "coord": {"lon": 5.76667, "lat": 45.700001}}, {"id": 2967249, "name": "Yenne", "country": "FR", "coord": {"lon": 5.75795, "lat": 45.704201}}, {"id": 467479, "name": "Yenotayevka", "country": "RU", "coord": {"lon": 47.028141, "lat": 47.24559}}, {"id": 7287619, "name": "Yens", "country": "CH", "coord": {"lon": 6.40671, "lat": 46.527}}, {"id": 2657942, "name": "Yens", "country": "CH", "coord": {"lon": 6.4185, "lat": 46.519009}}, {"id": 2142325, "name": "Yeodene", "country": "AU", "coord": {"lon": 143.699997, "lat": -38.416672}}, {"id": 1832743, "name": "Yeoju", "country": "KR", "coord": {"lon": 127.633888, "lat": 37.29583}}, {"id": 1252738, "name": "Yeola", "country": "IN", "coord": {"lon": 74.48333, "lat": 20.033331}}, {"id": 6575891, "name": "Yeongtongi-dong", "country": "KR", "coord": {"lon": 127.06472, "lat": 37.251389}}, {"id": 733797, "name": "Yeorgoul\u00e1s", "country": "GR", "coord": {"lon": 23.566669, "lat": 40.916672}}, {"id": 2142322, "name": "Yeoval", "country": "AU", "coord": {"lon": 148.649994, "lat": -32.75}}, {"id": 7418156, "name": "Yeovil", "country": "ZW", "coord": {"lon": 32.668968, "lat": -18.967569}}, {"id": 2633373, "name": "Yeovil", "country": "GB", "coord": {"lon": -2.63211, "lat": 50.941589}}, {"id": 2633371, "name": "Yeovilton", "country": "GB", "coord": {"lon": -2.64898, "lat": 51.00359}}, {"id": 4917268, "name": "Yeoward Addition", "country": "US", "coord": {"lon": -89.66066, "lat": 41.758091}}, {"id": 6361861, "name": "Yepes", "country": "ES", "coord": {"lon": -3.68159, "lat": 39.90678}}, {"id": 2509389, "name": "Yepes", "country": "ES", "coord": {"lon": -3.62517, "lat": 39.901981}}, {"id": 467464, "name": "Yepifan", "country": "RU", "coord": {"lon": 38.551811, "lat": 53.82526}}, {"id": 1786803, "name": "Yeping", "country": "CN", "coord": {"lon": 116.069702, "lat": 25.90567}}, {"id": 3587636, "name": "Yepocapa", "country": "GT", "coord": {"lon": -90.95694, "lat": 14.50417}}, {"id": 2142316, "name": "Yeppoon", "country": "AU", "coord": {"lon": 150.733337, "lat": -23.133329}}, {"id": 251411, "name": "Yerakion", "country": "GR", "coord": {"lon": 22.700001, "lat": 37}}, {"id": 1252736, "name": "Yerandwane", "country": "IN", "coord": {"lon": 73.833328, "lat": 18.5}}, {"id": 616056, "name": "Yeranos", "country": "AM", "coord": {"lon": 45.192089, "lat": 40.204281}}, {"id": 616055, "name": "Yeraskhahun", "country": "AM", "coord": {"lon": 44.21619, "lat": 40.071671}}, {"id": 616053, "name": "Yerazgavors", "country": "AM", "coord": {"lon": 43.75, "lat": 40.700001}}, {"id": 3832260, "name": "Yerba Buena", "country": "AR", "coord": {"lon": -65.316673, "lat": -26.816669}}, {"id": 3979923, "name": "Yerbabuena", "country": "MX", "coord": {"lon": -101.26667, "lat": 20.966669}}, {"id": 2012956, "name": "Yerbogachen", "country": "RU", "coord": {"lon": 108.010834, "lat": 61.276669}}, {"id": 467406, "name": "Yeremeyevo", "country": "RU", "coord": {"lon": 37.023888, "lat": 55.94278}}, {"id": 619594, "name": "Yeremeyevshchina", "country": "BY", "coord": {"lon": 30.766666, "lat": 54.566666}}, {"id": 6609564, "name": "Yeremyata", "country": "RU", "coord": {"lon": 42.779999, "lat": 56.677776}}, {"id": 616051, "name": "Yerevan", "country": "AM", "coord": {"lon": 44.5, "lat": 40.183331}}, {"id": 616052, "name": "Yerevan", "country": "AM", "coord": {"lon": 44.513611, "lat": 40.18111}}, {"id": 1524302, "name": "Yereymentau", "country": "KZ", "coord": {"lon": 73.106941, "lat": 51.621391}}, {"id": 145964, "name": "Yeri", "country": "CY", "coord": {"lon": 33.416672, "lat": 35.099998}}, {"id": 467323, "name": "Yerikovskiy", "country": "RU", "coord": {"lon": 42.736111, "lat": 47.411667}}, {"id": 5515507, "name": "Yerington", "country": "US", "coord": {"lon": -119.162933, "lat": 38.985748}}, {"id": 467315, "name": "Yerino", "country": "RU", "coord": {"lon": 38.900002, "lat": 54.233334}}, {"id": 296895, "name": "Yerkoy", "country": "TR", "coord": {"lon": 34.46722, "lat": 39.638062}}, {"id": 688127, "name": "Yerky", "country": "UA", "coord": {"lon": 30.98818, "lat": 48.99062}}, {"id": 688122, "name": "Yermakove", "country": "UA", "coord": {"lon": 34.483334, "lat": 45.849998}}, {"id": 1485904, "name": "Yermakovskoye", "country": "RU", "coord": {"lon": 92.400284, "lat": 53.283058}}, {"id": 467260, "name": "Yermekeyevo", "country": "RU", "coord": {"lon": 53.671249, "lat": 54.076141}}, {"id": 467252, "name": "Yermish", "country": "RU", "coord": {"lon": 42.271111, "lat": 54.76778}}, {"id": 467246, "name": "Yermolayevo", "country": "RU", "coord": {"lon": 55.799999, "lat": 52.716671}}, {"id": 467238, "name": "Yermolino", "country": "RU", "coord": {"lon": 36.595131, "lat": 55.194889}}, {"id": 467235, "name": "Yermolino", "country": "RU", "coord": {"lon": 37.5, "lat": 56.133331}}, {"id": 467218, "name": "Yermolitsa", "country": "RU", "coord": {"lon": 42.783333, "lat": 59.400002}}, {"id": 1517185, "name": "Yernazar", "country": "KZ", "coord": {"lon": 70.699997, "lat": 52.016666}}, {"id": 467175, "name": "Yernitskiy Ostrov", "country": "RU", "coord": {"lon": 35.166668, "lat": 61.983334}}, {"id": 2012938, "name": "Yerofey Pavlovich", "country": "RU", "coord": {"lon": 121.966667, "lat": 53.966671}}, {"id": 293203, "name": "Yeroham", "country": "IL", "coord": {"lon": 34.931389, "lat": 30.987221}}, {"id": 145961, "name": "Yerolakkos", "country": "CY", "coord": {"lon": 33.25, "lat": 35.183331}}, {"id": 2142308, "name": "Yerong Creek", "country": "AU", "coord": {"lon": 147.066666, "lat": -35.383331}}, {"id": 467155, "name": "Yeropkino-Bol\u2019shak", "country": "RU", "coord": {"lon": 36.302502, "lat": 52.751671}}, {"id": 6609038, "name": "Yerovo", "country": "RU", "coord": {"lon": 42.39806, "lat": 56.765301}}, {"id": 2142304, "name": "Yerra", "country": "AU", "coord": {"lon": 152.533325, "lat": -25.616671}}, {"id": 6454885, "name": "Yerres", "country": "FR", "coord": {"lon": 2.5, "lat": 48.716671}}, {"id": 2967245, "name": "Yerres", "country": "FR", "coord": {"lon": 2.49338, "lat": 48.71785}}, {"id": 6359807, "name": "Yerri", "country": "ES", "coord": {"lon": -1.98989, "lat": 42.72718}}, {"id": 6269610, "name": "Yerri", "country": "ES", "coord": {"lon": -1.93806, "lat": 42.701611}}, {"id": 2142301, "name": "Yerrinbool", "country": "AU", "coord": {"lon": 150.550003, "lat": -34.366669}}, {"id": 2744129, "name": "Yerseke", "country": "NL", "coord": {"lon": 4.05, "lat": 51.4925}}, {"id": 467134, "name": "Yershichi", "country": "RU", "coord": {"lon": 32.754169, "lat": 53.672501}}, {"id": 467120, "name": "Yershov", "country": "RU", "coord": {"lon": 48.2766, "lat": 51.351299}}, {"id": 467104, "name": "Yershovo", "country": "RU", "coord": {"lon": 36.858055, "lat": 55.771111}}, {"id": 467103, "name": "Yershovo", "country": "RU", "coord": {"lon": 46.849998, "lat": 56.400002}}, {"id": 1485873, "name": "Yertarskiy", "country": "RU", "coord": {"lon": 64.299522, "lat": 56.790161}}, {"id": 467084, "name": "Yertsevo", "country": "RU", "coord": {"lon": 40.085999, "lat": 60.7966}}, {"id": 6443591, "name": "Yerville", "country": "FR", "coord": {"lon": 0.9, "lat": 49.666672}}, {"id": 2967242, "name": "Yerville", "country": "FR", "coord": {"lon": 0.89594, "lat": 49.667198}}, {"id": 251366, "name": "Yeryeri", "country": "GR", "coord": {"lon": 24.950001, "lat": 35.133331}}, {"id": 467376, "name": "Yer\u00ebmino", "country": "RU", "coord": {"lon": 37.540279, "lat": 56.008888}}, {"id": 467380, "name": "Yer\u00ebmino", "country": "RU", "coord": {"lon": 49.666668, "lat": 51.766666}}, {"id": 467375, "name": "Yer\u00ebmino", "country": "RU", "coord": {"lon": 38.5, "lat": 56.116669}}, {"id": 6359808, "name": "Yesa", "country": "ES", "coord": {"lon": -1.18595, "lat": 42.625858}}, {"id": 3104412, "name": "Yesa", "country": "ES", "coord": {"lon": -1.2036, "lat": 42.620251}}, {"id": 1832771, "name": "Yesan", "country": "KR", "coord": {"lon": 126.84272, "lat": 36.677559}}, {"id": 3104408, "name": "Yesero", "country": "ES", "coord": {"lon": -0.2502, "lat": 42.61911}}, {"id": 7690192, "name": "Yeshi", "country": "CN", "coord": {"lon": 114.933693, "lat": 28.309231}}, {"id": 296885, "name": "Yesilalan", "country": "TR", "coord": {"lon": 40.78812, "lat": 37.46352}}, {"id": 436138, "name": "Yesildere", "country": "TR", "coord": {"lon": 37.507221, "lat": 36.985279}}, {"id": 296860, "name": "Yesilhisar", "country": "TR", "coord": {"lon": 35.08667, "lat": 38.34972}}, {"id": 296832, "name": "Yesilli", "country": "TR", "coord": {"lon": 40.825581, "lat": 37.3405}}, {"id": 296823, "name": "Yesilova", "country": "TR", "coord": {"lon": 29.754721, "lat": 37.50806}}, {"id": 296791, "name": "Yesilyurt", "country": "TR", "coord": {"lon": 38.249722, "lat": 38.297218}}, {"id": 323751, "name": "Yesilyurt", "country": "TR", "coord": {"lon": 36.220692, "lat": 40.006401}}, {"id": 737529, "name": "Yesilyurt", "country": "TR", "coord": {"lon": 36.35144, "lat": 40.327862}}, {"id": 467037, "name": "Yesino", "country": "RU", "coord": {"lon": 38.344723, "lat": 55.710278}}, {"id": 467030, "name": "Yesiplevo", "country": "RU", "coord": {"lon": 46.366669, "lat": 60.733334}}, {"id": 467023, "name": "Yesipovo", "country": "RU", "coord": {"lon": 37.099998, "lat": 56.099998}}, {"id": 6609998, "name": "Yeskino", "country": "RU", "coord": {"lon": 42.469166, "lat": 56.080833}}, {"id": 466990, "name": "Yessentuki", "country": "RU", "coord": {"lon": 42.860561, "lat": 44.044441}}, {"id": 466989, "name": "Yessentukskaya", "country": "RU", "coord": {"lon": 42.881302, "lat": 44.032799}}, {"id": 6355376, "name": "Yeste", "country": "ES", "coord": {"lon": -2.30886, "lat": 38.315208}}, {"id": 2509386, "name": "Yeste", "country": "ES", "coord": {"lon": -2.31756, "lat": 38.368519}}, {"id": 1786796, "name": "Yetan", "country": "CN", "coord": {"lon": 115.173523, "lat": 23.9056}}, {"id": 1919435, "name": "Yetang", "country": "CN", "coord": {"lon": 115.661392, "lat": 24.19553}}, {"id": 2142295, "name": "Yetholme", "country": "AU", "coord": {"lon": 149.833328, "lat": -33.450001}}, {"id": 1485849, "name": "Yetkul", "country": "RU", "coord": {"lon": 61.588001, "lat": 54.822102}}, {"id": 2142293, "name": "Yetman", "country": "AU", "coord": {"lon": 150.783325, "lat": -28.9}}, {"id": 6608783, "name": "Yevdokimovo", "country": "RU", "coord": {"lon": 43.647499, "lat": 56.88139}}, {"id": 584649, "name": "Yevlakh", "country": "AZ", "coord": {"lon": 47.150139, "lat": 40.61832}}, {"id": 828307, "name": "Yevlakh City", "country": "AZ", "coord": {"lon": 47.166672, "lat": 40.583328}}, {"id": 584650, "name": "Yevlakh Rayon", "country": "AZ", "coord": {"lon": 47, "lat": 40.666672}}, {"id": 688105, "name": "Yevpatoriya", "country": "UA", "coord": {"lon": 33.355831, "lat": 45.197224}}, {"id": 2967236, "name": "Yevres", "country": "FR", "coord": {"lon": 1.18717, "lat": 48.210781}}, {"id": 2026639, "name": "Yevreyskaya Avtonomnaya Oblast\u2019", "country": "RU", "coord": {"lon": 132, "lat": 48.5}}, {"id": 1485824, "name": "Yevstaf\u2019yevo", "country": "RU", "coord": {"lon": 68.599998, "lat": 57.466667}}, {"id": 1786789, "name": "Yexie", "country": "CN", "coord": {"lon": 121.316429, "lat": 30.945431}}, {"id": 1548728, "name": "Yexu", "country": "CN", "coord": {"lon": 119.927979, "lat": 32.397331}}, {"id": 1886064, "name": "Yeyatan", "country": "CN", "coord": {"lon": 120.4944, "lat": 32.560799}}, {"id": 466885, "name": "Yeysk", "country": "RU", "coord": {"lon": 38.279167, "lat": 46.698891}}, {"id": 6643969, "name": "Yezhi", "country": "CN", "coord": {"lon": 99.126328, "lat": 27.70223}}, {"id": 1786778, "name": "Yezhou", "country": "CN", "coord": {"lon": 109.723328, "lat": 30.603689}}, {"id": 6418639, "name": "Yezhovo", "country": "RU", "coord": {"lon": 44.431667, "lat": 56.253613}}, {"id": 296847, "name": "Ye\u015filk\u00f6y", "country": "TR", "coord": {"lon": 30.80139, "lat": 36.895561}}, {"id": 6429199, "name": "Yffiniac", "country": "FR", "coord": {"lon": -2.67639, "lat": 48.486938}}, {"id": 2967234, "name": "Yffiniac", "country": "FR", "coord": {"lon": -2.67647, "lat": 48.48428}}, {"id": 3436616, "name": "Ygatimi", "country": "PY", "coord": {"lon": -55.5, "lat": -24.08333}}, {"id": 6434020, "name": "Ygos-Saint-Saturnin", "country": "FR", "coord": {"lon": -0.73333, "lat": 43.98333}}, {"id": 2967232, "name": "Ygos-Saint-Saturnin", "country": "FR", "coord": {"lon": -0.7378, "lat": 43.976509}}, {"id": 6425518, "name": "Ygrande", "country": "FR", "coord": {"lon": 2.95, "lat": 46.549999}}, {"id": 2967231, "name": "Ygrande", "country": "FR", "coord": {"lon": 2.94239, "lat": 46.552662}}, {"id": 3436595, "name": "Yhu", "country": "PY", "coord": {"lon": -55.916672, "lat": -25.049999}}, {"id": 1604761, "name": "Yi-ngo", "country": "TH", "coord": {"lon": 101.706261, "lat": 6.40296}}, {"id": 251332, "name": "Yiannouli", "country": "GR", "coord": {"lon": 22.383329, "lat": 39.666672}}, {"id": 2306492, "name": "Yiba", "country": "GQ", "coord": {"lon": 9.80431, "lat": 1.88625}}, {"id": 1786770, "name": "Yibin", "country": "CN", "coord": {"lon": 104.623833, "lat": 28.76667}}, {"id": 1786764, "name": "Yichang", "country": "CN", "coord": {"lon": 111.284721, "lat": 30.714439}}, {"id": 1786759, "name": "Yicheng", "country": "CN", "coord": {"lon": 112.256111, "lat": 31.70472}}, {"id": 1786760, "name": "Yicheng", "country": "CN", "coord": {"lon": 119.87027, "lat": 31.370529}}, {"id": 7685360, "name": "Yicheng", "country": "CN", "coord": {"lon": 115.174393, "lat": 27.98543}}, {"id": 1786751, "name": "Yichongqiao", "country": "CN", "coord": {"lon": 110.86113, "lat": 29.33136}}, {"id": 2033413, "name": "Yichun", "country": "CN", "coord": {"lon": 128.899994, "lat": 47.700001}}, {"id": 1786746, "name": "Yichun", "country": "CN", "coord": {"lon": 114.400002, "lat": 27.83333}}, {"id": 1786738, "name": "Yidian", "country": "CN", "coord": {"lon": 107.75309, "lat": 34.403759}}, {"id": 1919445, "name": "Yidu", "country": "CN", "coord": {"lon": 115.132751, "lat": 24.161449}}, {"id": 2142288, "name": "Yielima", "country": "AU", "coord": {"lon": 145.216675, "lat": -35.933331}}, {"id": 737521, "name": "Yigilca", "country": "TR", "coord": {"lon": 31.44356, "lat": 40.959831}}, {"id": 7871342, "name": "Yigo Mayors Office", "country": "GU", "coord": {"lon": 144.893097, "lat": 13.53565}}, {"id": 4038796, "name": "Yigo Municipality", "country": "GU", "coord": {"lon": 144.88913, "lat": 13.53603}}, {"id": 4038794, "name": "Yigo Village", "country": "GU", "coord": {"lon": 144.88855, "lat": 13.53605}}, {"id": 1786720, "name": "Yigou", "country": "CN", "coord": {"lon": 114.316673, "lat": 35.81139}}, {"id": 1917081, "name": "Yihe", "country": "CN", "coord": {"lon": 114.863167, "lat": 23.845051}}, {"id": 7679698, "name": "Yihe", "country": "CN", "coord": {"lon": 119.352966, "lat": 29.960609}}, {"id": 2028219, "name": "Yihe Ayl", "country": "MN", "coord": {"lon": 116.783333, "lat": 46.283329}}, {"id": 1786706, "name": "Yijiang", "country": "CN", "coord": {"lon": 118.486061, "lat": 30.90745}}, {"id": 7060474, "name": "Yijiang", "country": "CN", "coord": {"lon": 118.360527, "lat": 31.31546}}, {"id": 7685353, "name": "Yijiang", "country": "CN", "coord": {"lon": 115.353912, "lat": 27.70178}}, {"id": 1786696, "name": "Yijing", "country": "CN", "coord": {"lon": 113.214027, "lat": 39.639301}}, {"id": 1786697, "name": "Yijing", "country": "CN", "coord": {"lon": 111.99984, "lat": 39.064491}}, {"id": 1786699, "name": "Yijing", "country": "CN", "coord": {"lon": 113.601936, "lat": 37.83556}}, {"id": 1786702, "name": "Yijing", "country": "CN", "coord": {"lon": 108.105003, "lat": 34.57222}}, {"id": 2033403, "name": "Yilan", "country": "CN", "coord": {"lon": 129.566666, "lat": 46.316669}}, {"id": 1674197, "name": "Yilan", "country": "TW", "coord": {"lon": 121.633614, "lat": 24.5425}}, {"id": 1674199, "name": "Yilan", "country": "TW", "coord": {"lon": 121.752998, "lat": 24.757}}, {"id": 296708, "name": "Yildizeli", "country": "TR", "coord": {"lon": 36.598888, "lat": 39.86639}}, {"id": 7839859, "name": "Yilgarn", "country": "AU", "coord": {"lon": 119.258812, "lat": -30.90938}}, {"id": 1917362, "name": "Yiliu", "country": "CN", "coord": {"lon": 113.38382, "lat": 24.83066}}, {"id": 6988066, "name": "Yiliu", "country": "CN", "coord": {"lon": 102.788269, "lat": 24.94521}}, {"id": 1346620, "name": "Yilkiqi", "country": "CN", "coord": {"lon": 77.249168, "lat": 37.961109}}, {"id": 2057308, "name": "Yilliminning", "country": "AU", "coord": {"lon": 117.366669, "lat": -32.900002}}, {"id": 1795074, "name": "Yilong", "country": "CN", "coord": {"lon": 102.487007, "lat": 23.69137}}, {"id": 1786676, "name": "Yima", "country": "CN", "coord": {"lon": 111.883888, "lat": 34.73806}}, {"id": 2142286, "name": "Yimbun", "country": "AU", "coord": {"lon": 152.366669, "lat": -27.033331}}, {"id": 251317, "name": "Yimnon", "country": "GR", "coord": {"lon": 23.883329, "lat": 38.433331}}, {"id": 7636869, "name": "Yinbaohu", "country": "CN", "coord": {"lon": 116.579498, "lat": 29.290939}}, {"id": 1786657, "name": "Yinchuan", "country": "CN", "coord": {"lon": 106.273064, "lat": 38.46806}}, {"id": 2051067, "name": "Yingan", "country": "CN", "coord": {"lon": 130.285828, "lat": 42.889999}}, {"id": 1786640, "name": "Yingcheng", "country": "CN", "coord": {"lon": 113.550003, "lat": 30.950001}}, {"id": 1786634, "name": "Yingcheng", "country": "CN", "coord": {"lon": 113.412682, "lat": 24.16588}}, {"id": 7661834, "name": "Yingcheng", "country": "CN", "coord": {"lon": 112.19944, "lat": 30.368601}}, {"id": 7630142, "name": "Yingchengzi", "country": "CN", "coord": {"lon": 126.955879, "lat": 45.167782}}, {"id": 1786635, "name": "Yingcui", "country": "CN", "coord": {"lon": 106.45108, "lat": 32.482399}}, {"id": 1786632, "name": "Yingdianjie", "country": "CN", "coord": {"lon": 120.113892, "lat": 29.817221}}, {"id": 1786630, "name": "Yingdu", "country": "CN", "coord": {"lon": 118.244171, "lat": 24.97167}}, {"id": 2033377, "name": "Yingebu", "country": "CN", "coord": {"lon": 125.556389, "lat": 41.730282}}, {"id": 1783553, "name": "Yingge", "country": "CN", "coord": {"lon": 107.648567, "lat": 34.095589}}, {"id": 1786622, "name": "Yinggehai", "country": "CN", "coord": {"lon": 108.689438, "lat": 18.511419}}, {"id": 1786620, "name": "Yinggen", "country": "CN", "coord": {"lon": 109.839996, "lat": 19.03833}}, {"id": 1917221, "name": "Yinghong", "country": "CN", "coord": {"lon": 113.422218, "lat": 24.29472}}, {"id": 7644224, "name": "Yinghua", "country": "CN", "coord": {"lon": 113.66333, "lat": 24.225559}}, {"id": 1924170, "name": "Yingjiang", "country": "CN", "coord": {"lon": 117.91333, "lat": 28.138611}}, {"id": 2033370, "name": "Yingkou", "country": "CN", "coord": {"lon": 122.228333, "lat": 40.664822}}, {"id": 1921211, "name": "Yinglin", "country": "CN", "coord": {"lon": 118.580559, "lat": 24.632219}}, {"id": 2033366, "name": "Yingluo", "country": "CN", "coord": {"lon": 122.69841, "lat": 40.642719}}, {"id": 7844606, "name": "Yingpu", "country": "CN", "coord": {"lon": 121.105751, "lat": 31.155279}}, {"id": 1786590, "name": "Yingqiao", "country": "CN", "coord": {"lon": 113.585297, "lat": 33.963421}}, {"id": 1786587, "name": "Yingshang Chengguanzhen", "country": "CN", "coord": {"lon": 116.270142, "lat": 32.629452}}, {"id": 2033362, "name": "Yingshouyingzi", "country": "CN", "coord": {"lon": 117.661552, "lat": 40.551472}}, {"id": 2034487, "name": "Yingta", "country": "CN", "coord": {"lon": 120.93602, "lat": 40.845699}}, {"id": 1786577, "name": "Yingtan", "country": "CN", "coord": {"lon": 117, "lat": 28.23333}}, {"id": 7413775, "name": "Yingtan", "country": "CN", "coord": {"lon": 102.971184, "lat": 35.573471}}, {"id": 1786572, "name": "Yingtou", "country": "CN", "coord": {"lon": 107.75386, "lat": 34.160141}}, {"id": 1910195, "name": "Yingyang", "country": "CN", "coord": {"lon": 113.611778, "lat": 33.951241}}, {"id": 1786545, "name": "Yingzhou", "country": "CN", "coord": {"lon": 109.849419, "lat": 18.42149}}, {"id": 7637571, "name": "Yingzhou", "country": "CN", "coord": {"lon": 118.644341, "lat": 30.061729}}, {"id": 7658326, "name": "Yinhe", "country": "CN", "coord": {"lon": 114.117767, "lat": 27.699881}}, {"id": 1786538, "name": "Yining", "country": "CN", "coord": {"lon": 114.563622, "lat": 29.03614}}, {"id": 1786529, "name": "Yinji", "country": "CN", "coord": {"lon": 112.07386, "lat": 31.940741}}, {"id": 1786535, "name": "Yinji", "country": "CN", "coord": {"lon": 113.574997, "lat": 33.25082}}, {"id": 1786531, "name": "Yinjiacheng", "country": "CN", "coord": {"lon": 106.941269, "lat": 36.18866}}, {"id": 1786525, "name": "Yinjiang", "country": "CN", "coord": {"lon": 121.355186, "lat": 29.7742}}, {"id": 7059698, "name": "Yinjiaxi", "country": "CN", "coord": {"lon": 110.409248, "lat": 29.137171}}, {"id": 2142283, "name": "Yinkanie", "country": "AU", "coord": {"lon": 140.316666, "lat": -34.333328}}, {"id": 1786519, "name": "Yinkeng", "country": "CN", "coord": {"lon": 115.614731, "lat": 26.21512}}, {"id": 7090513, "name": "Yinkeng", "country": "CN", "coord": {"lon": 118.3965, "lat": 29.199711}}, {"id": 1786517, "name": "Yinliu", "country": "CN", "coord": {"lon": 117.396393, "lat": 39.982498}}, {"id": 2142282, "name": "Yinnar", "country": "AU", "coord": {"lon": 146.316666, "lat": -38.316669}}, {"id": 2142281, "name": "Yinnar South", "country": "AU", "coord": {"lon": 146.383331, "lat": -38.383331}}, {"id": 7735171, "name": "Yinong", "country": "CN", "coord": {"lon": 120.585762, "lat": 30.196819}}, {"id": 1786499, "name": "Yintang", "country": "CN", "coord": {"lon": 118.530891, "lat": 31.597561}}, {"id": 7373429, "name": "Yinxingshu", "country": "CN", "coord": {"lon": 106.037933, "lat": 33.80497}}, {"id": 1786488, "name": "Yinyang", "country": "CN", "coord": {"lon": 121.86187, "lat": 31.71483}}, {"id": 1786487, "name": "Yinying", "country": "CN", "coord": {"lon": 113.557503, "lat": 37.936939}}, {"id": 1786485, "name": "Yinzhen", "country": "CN", "coord": {"lon": 109.097656, "lat": 34.08268}}, {"id": 1786480, "name": "Yinzhu", "country": "CN", "coord": {"lon": 119.416847, "lat": 29.98185}}, {"id": 1786478, "name": "Yinzu", "country": "CN", "coord": {"lon": 114.886597, "lat": 29.9603}}, {"id": 7735281, "name": "Yipeng", "country": "CN", "coord": {"lon": 120.488838, "lat": 30.26158}}, {"id": 1553371, "name": "Yiqi", "country": "CN", "coord": {"lon": 118.25692, "lat": 29.72669}}, {"id": 1786474, "name": "Yiqiao", "country": "CN", "coord": {"lon": 120.197838, "lat": 30.069559}}, {"id": 325780, "name": "Yirga Alem", "country": "ET", "coord": {"lon": 38.416672, "lat": 6.75}}, {"id": 293181, "name": "Yirk\u0101", "country": "IL", "coord": {"lon": 35.212002, "lat": 32.953758}}, {"id": 1786469, "name": "Yirong", "country": "CN", "coord": {"lon": 114.8283, "lat": 23.521099}}, {"id": 1786467, "name": "Yisa", "country": "CN", "coord": {"lon": 102.447113, "lat": 23.33231}}, {"id": 1552251, "name": "Yishan", "country": "CN", "coord": {"lon": 118.816978, "lat": 30.827591}}, {"id": 1786462, "name": "Yishan", "country": "CN", "coord": {"lon": 119.254173, "lat": 34.299438}}, {"id": 1786457, "name": "Yishi", "country": "CN", "coord": {"lon": 121.474716, "lat": 29.19944}}, {"id": 1786458, "name": "Yishi", "country": "CN", "coord": {"lon": 110.745979, "lat": 35.16497}}, {"id": 1786455, "name": "Yishui", "country": "CN", "coord": {"lon": 118.628059, "lat": 35.784721}}, {"id": 1786449, "name": "Yisuhe", "country": "CN", "coord": {"lon": 112.926826, "lat": 27.76544}}, {"id": 1786448, "name": "Yitang", "country": "CN", "coord": {"lon": 113.704422, "lat": 31.09568}}, {"id": 1786444, "name": "Yitao", "country": "CN", "coord": {"lon": 119.099998, "lat": 34.083328}}, {"id": 2033346, "name": "Yitong", "country": "CN", "coord": {"lon": 125.297256, "lat": 43.326279}}, {"id": 7343011, "name": "Yiwa", "country": "CN", "coord": {"lon": 103.168938, "lat": 34.13744}}, {"id": 8135629, "name": "Yiwan", "country": "CN", "coord": {"lon": 111.681396, "lat": 29.867359}}, {"id": 1814870, "name": "Yiwu", "country": "CN", "coord": {"lon": 120.076759, "lat": 29.31506}}, {"id": 1786430, "name": "Yixi", "country": "CN", "coord": {"lon": 116.644562, "lat": 23.69644}}, {"id": 1808274, "name": "Yixing", "country": "CN", "coord": {"lon": 113.539261, "lat": 37.337601}}, {"id": 1808316, "name": "Yiyang", "country": "CN", "coord": {"lon": 112.328331, "lat": 28.58917}}, {"id": 1815618, "name": "Yiyang", "country": "CN", "coord": {"lon": 112.37925, "lat": 26.388929}}, {"id": 7066460, "name": "Yiyang", "country": "CN", "coord": {"lon": 117.432159, "lat": 28.40521}}, {"id": 1786412, "name": "Yizhang Chengguanzhen", "country": "CN", "coord": {"lon": 112.978973, "lat": 25.38323}}, {"id": 707313, "name": "Yizhivtsi", "country": "UA", "coord": {"lon": 25.662319, "lat": 48.039619}}, {"id": 631003, "name": "Ylamaa", "country": "FI", "coord": {"lon": 28, "lat": 60.799999}}, {"id": 630998, "name": "Ylane", "country": "FI", "coord": {"lon": 22.41667, "lat": 60.883331}}, {"id": 630953, "name": "Yli-Ii", "country": "FI", "coord": {"lon": 25.91667, "lat": 65.416672}}, {"id": 630952, "name": "Yli-Ii", "country": "FI", "coord": {"lon": 25.83333, "lat": 65.366669}}, {"id": 630821, "name": "Yli-Raumo", "country": "FI", "coord": {"lon": 24.216669, "lat": 65.849998}}, {"id": 630956, "name": "Yliharma", "country": "FI", "coord": {"lon": 22.783331, "lat": 63.150002}}, {"id": 630918, "name": "Ylikiiminki", "country": "FI", "coord": {"lon": 26.25, "lat": 65.083328}}, {"id": 630805, "name": "Ylistaro", "country": "FI", "coord": {"lon": 22.51667, "lat": 62.950001}}, {"id": 630780, "name": "Ylitornio", "country": "FI", "coord": {"lon": 24.5, "lat": 66.5}}, {"id": 630779, "name": "Ylitornio", "country": "FI", "coord": {"lon": 23.67734, "lat": 66.308929}}, {"id": 630769, "name": "Ylivieska", "country": "FI", "coord": {"lon": 24.66667, "lat": 64.083328}}, {"id": 630768, "name": "Ylivieska", "country": "FI", "coord": {"lon": 24.549999, "lat": 64.083328}}, {"id": 630752, "name": "Ylojarvi", "country": "FI", "coord": {"lon": 23.59606, "lat": 61.55632}}, {"id": 847510, "name": "Yl\u00e4-Malmi", "country": "FI", "coord": {"lon": 25.00972, "lat": 60.25806}}, {"id": 630753, "name": "Yl\u00f6j\u00e4rvi", "country": "FI", "coord": {"lon": 23.58333, "lat": 61.583328}}, {"id": 6443592, "name": "Ymare", "country": "FR", "coord": {"lon": 1.18333, "lat": 49.349998}}, {"id": 2967230, "name": "Ymare", "country": "FR", "coord": {"lon": 1.17938, "lat": 49.350601}}, {"id": 6430937, "name": "Ymeray", "country": "FR", "coord": {"lon": 1.7, "lat": 48.51667}}, {"id": 2967229, "name": "Ymeray", "country": "FR", "coord": {"lon": 1.70029, "lat": 48.510029}}, {"id": 7667930, "name": "Ymittos", "country": "GR", "coord": {"lon": 23.74897, "lat": 37.953419}}, {"id": 8131587, "name": "Ymittos Athens", "country": "GR", "coord": {"lon": 23.74897, "lat": 37.953419}}, {"id": 7292181, "name": "Ynysawdre", "country": "GB", "coord": {"lon": -3.58966, "lat": 51.54855}}, {"id": 725513, "name": "Yoakim-Gruevo", "country": "BG", "coord": {"lon": 24.566669, "lat": 42.116669}}, {"id": 4743432, "name": "Yoakum", "country": "US", "coord": {"lon": -97.151932, "lat": 29.28775}}, {"id": 2597367, "name": "Yobe State", "country": "NG", "coord": {"lon": 11.5, "lat": 12}}, {"id": 1848409, "name": "Yobimatsu", "country": "JP", "coord": {"lon": 133.766663, "lat": 34.5}}, {"id": 293162, "name": "Yodefat", "country": "IL", "coord": {"lon": 35.26944, "lat": 32.836109}}, {"id": 4137330, "name": "Yoder", "country": "US", "coord": {"lon": -91.488182, "lat": 34.453991}}, {"id": 4562405, "name": "Yoe", "country": "US", "coord": {"lon": -76.636909, "lat": 39.908989}}, {"id": 2243973, "name": "Yof", "country": "SN", "coord": {"lon": -17.47389, "lat": 14.76056}}, {"id": 1621177, "name": "Yogyakarta", "country": "ID", "coord": {"lon": 110.360832, "lat": -7.78278}}, {"id": 2129218, "name": "Yoichi", "country": "JP", "coord": {"lon": 140.770279, "lat": 43.203892}}, {"id": 2220853, "name": "Yokadouma", "country": "CM", "coord": {"lon": 15.05, "lat": 3.51667}}, {"id": 2110518, "name": "Yokaichiba", "country": "JP", "coord": {"lon": 140.550003, "lat": 35.700001}}, {"id": 2220852, "name": "Yokassala", "country": "CM", "coord": {"lon": 11.44157, "lat": 6.46252}}, {"id": 1848373, "name": "Yokkaichi", "country": "JP", "coord": {"lon": 136.616669, "lat": 34.966671}}, {"id": 2220849, "name": "Yoko", "country": "CM", "coord": {"lon": 12.31667, "lat": 5.53333}}, {"id": 1848364, "name": "Yokodaid\u014d", "country": "JP", "coord": {"lon": 132.899994, "lat": 34.400002}}, {"id": 1926016, "name": "Yokogawara", "country": "JP", "coord": {"lon": 132.886414, "lat": 33.803761}}, {"id": 2127436, "name": "Yokohama", "country": "JP", "coord": {"lon": 141.25, "lat": 41.083328}}, {"id": 1848354, "name": "Yokohama-shi", "country": "JP", "coord": {"lon": 139.642502, "lat": 35.447781}}, {"id": 5410874, "name": "Yokohl", "country": "US", "coord": {"lon": -119.082329, "lat": 36.325508}}, {"id": 1848313, "name": "Yokosuka", "country": "JP", "coord": {"lon": 139.667221, "lat": 35.283611}}, {"id": 1848305, "name": "Yokota", "country": "JP", "coord": {"lon": 139.383331, "lat": 35.75}}, {"id": 2110506, "name": "Yokote", "country": "JP", "coord": {"lon": 140.566666, "lat": 39.299999}}, {"id": 1252714, "name": "Yol", "country": "IN", "coord": {"lon": 76.199997, "lat": 32.166672}}, {"id": 2318044, "name": "Yola", "country": "NG", "coord": {"lon": 12.48333, "lat": 9.2}}, {"id": 296653, "name": "Yolagzi", "country": "TR", "coord": {"lon": 41.353569, "lat": 37.524841}}, {"id": 296644, "name": "Yolbasi", "country": "TR", "coord": {"lon": 41.317131, "lat": 37.38892}}, {"id": 6427683, "name": "Yolet", "country": "FR", "coord": {"lon": 2.53333, "lat": 44.933331}}, {"id": 2967226, "name": "Yolet", "country": "FR", "coord": {"lon": 2.53174, "lat": 44.926399}}, {"id": 2142276, "name": "Yolla", "country": "AU", "coord": {"lon": 145.716675, "lat": -41.133331}}, {"id": 5410882, "name": "Yolo County", "country": "US", "coord": {"lon": -121.884407, "lat": 38.699902}}, {"id": 3665693, "name": "Yolombo", "country": "CO", "coord": {"lon": -75.011398, "lat": 6.59841}}, {"id": 1218021, "name": "Yoloten", "country": "TM", "coord": {"lon": 62.359749, "lat": 37.298859}}, {"id": 737433, "name": "Yol\u00f6ren", "country": "TR", "coord": {"lon": 29.57583, "lat": 40.24667}}, {"id": 1866587, "name": "Yomju-up", "country": "KP", "coord": {"lon": 124.598061, "lat": 39.89333}}, {"id": 2414079, "name": "Yomou", "country": "GN", "coord": {"lon": -9.26528, "lat": 7.56028}}, {"id": 737421, "name": "Yomra", "country": "TR", "coord": {"lon": 39.864052, "lat": 40.954109}}, {"id": 7854557, "name": "Yona Mayors Office", "country": "GU", "coord": {"lon": 144.775436, "lat": 13.40983}}, {"id": 4038809, "name": "Yona Village", "country": "GU", "coord": {"lon": 144.776978, "lat": 13.40974}}, {"id": 1848281, "name": "Yonabaru", "country": "JP", "coord": {"lon": 127.753891, "lat": 26.201389}}, {"id": 1848277, "name": "Yonago", "country": "JP", "coord": {"lon": 133.333328, "lat": 35.433331}}, {"id": 1848266, "name": "Yonakuni", "country": "JP", "coord": {"lon": 123, "lat": 24.466669}}, {"id": 1866569, "name": "Yonan-up", "country": "KP", "coord": {"lon": 126.16111, "lat": 37.90889}}, {"id": 5762118, "name": "Yoncalla", "country": "US", "coord": {"lon": -123.283417, "lat": 43.59845}}, {"id": 3665691, "name": "Yondo", "country": "CO", "coord": {"lon": -73.909721, "lat": 7.00621}}, {"id": 2110498, "name": "Yonezawa", "country": "JP", "coord": {"lon": 140.116669, "lat": 37.916672}}, {"id": 1732814, "name": "Yong Peng", "country": "MY", "coord": {"lon": 103.065903, "lat": 2.0136}}, {"id": 1832566, "name": "Yong-dong", "country": "KR", "coord": {"lon": 127.77639, "lat": 36.174999}}, {"id": 1806687, "name": "Yongan", "country": "CN", "coord": {"lon": 113.68708, "lat": 39.695709}}, {"id": 1811120, "name": "Yongan", "country": "CN", "coord": {"lon": 111.566429, "lat": 36.657619}}, {"id": 2053219, "name": "Yongan", "country": "CN", "coord": {"lon": 122.491982, "lat": 40.57114}}, {"id": 7643658, "name": "Yongan", "country": "CN", "coord": {"lon": 115.789726, "lat": 29.765341}}, {"id": 1786382, "name": "Yongbei", "country": "CN", "coord": {"lon": 100.780731, "lat": 26.646231}}, {"id": 1866453, "name": "Yongbyon", "country": "KP", "coord": {"lon": 125.804169, "lat": 39.813332}}, {"id": 1919088, "name": "Yongchang", "country": "CN", "coord": {"lon": 119.731667, "lat": 30.038059}}, {"id": 7027026, "name": "Yongchang", "country": "CN", "coord": {"lon": 104.437263, "lat": 31.665739}}, {"id": 1786378, "name": "Yongchuan", "country": "CN", "coord": {"lon": 105.894722, "lat": 29.351391}}, {"id": 7368914, "name": "Yongchuan", "country": "CN", "coord": {"lon": 107.637062, "lat": 34.365559}}, {"id": 1786364, "name": "Yongding", "country": "CN", "coord": {"lon": 101.686417, "lat": 26.04122}}, {"id": 1786365, "name": "Yongding", "country": "CN", "coord": {"lon": 102.461891, "lat": 25.198601}}, {"id": 1913835, "name": "Yongfa", "country": "CN", "coord": {"lon": 110.194839, "lat": 19.748341}}, {"id": 1786357, "name": "Yongfeng", "country": "CN", "coord": {"lon": 112.18338, "lat": 27.428289}}, {"id": 1786354, "name": "Yongfeng", "country": "CN", "coord": {"lon": 109.859261, "lat": 34.999168}}, {"id": 1786356, "name": "Yongfeng", "country": "CN", "coord": {"lon": 118.213661, "lat": 28.41893}}, {"id": 1912819, "name": "Yongfeng", "country": "CN", "coord": {"lon": 115.209, "lat": 26.306129}}, {"id": 1928109, "name": "Yongfeng", "country": "CN", "coord": {"lon": 111.938248, "lat": 29.68413}}, {"id": 2036142, "name": "Yongfeng", "country": "CN", "coord": {"lon": 123.849579, "lat": 42.740528}}, {"id": 7844546, "name": "Yongfeng", "country": "CN", "coord": {"lon": 121.201637, "lat": 31.006269}}, {"id": 7905220, "name": "Yongfeng", "country": "CN", "coord": {"lon": 114.220261, "lat": 30.565491}}, {"id": 1786351, "name": "Yongfu", "country": "CN", "coord": {"lon": 109.98185, "lat": 25.004021}}, {"id": 1866362, "name": "Yonggang-up", "country": "KP", "coord": {"lon": 125.424438, "lat": 38.85611}}, {"id": 1786346, "name": "Yonggu", "country": "CN", "coord": {"lon": 111.363098, "lat": 35.721298}}, {"id": 2042249, "name": "Yonggwang-up", "country": "KP", "coord": {"lon": 127.45472, "lat": 40.01833}}, {"id": 1786344, "name": "Yonghan", "country": "CN", "coord": {"lon": 113.968208, "lat": 23.57003}}, {"id": 7060590, "name": "Yonghe", "country": "CN", "coord": {"lon": 118.551231, "lat": 31.1661}}, {"id": 1786334, "name": "Yonghe", "country": "CN", "coord": {"lon": 117.475563, "lat": 39.075279}}, {"id": 1786342, "name": "Yonghe", "country": "CN", "coord": {"lon": 112.03228, "lat": 24.62594}}, {"id": 1786343, "name": "Yonghe", "country": "CN", "coord": {"lon": 115.799377, "lat": 24.144711}}, {"id": 1916888, "name": "Yonghe", "country": "CN", "coord": {"lon": 113.584717, "lat": 23.181589}}, {"id": 1925413, "name": "Yonghe", "country": "CN", "coord": {"lon": 115.014687, "lat": 27.031111}}, {"id": 7628595, "name": "Yonghe", "country": "CN", "coord": {"lon": 127.106468, "lat": 45.827808}}, {"id": 7630151, "name": "Yonghe", "country": "CN", "coord": {"lon": 127.087372, "lat": 45.83989}}, {"id": 7071824, "name": "Yongheshi", "country": "CN", "coord": {"lon": 121.04541, "lat": 29.9727}}, {"id": 1916288, "name": "Yonghu", "country": "CN", "coord": {"lon": 114.49485, "lat": 22.94685}}, {"id": 6877998, "name": "Yongh\u016dng", "country": "KR", "coord": {"lon": 127.112129, "lat": 35.873299}}, {"id": 1832427, "name": "Yongin", "country": "KR", "coord": {"lon": 127.20639, "lat": 37.234169}}, {"id": 6422309, "name": "Yongjiang", "country": "CN", "coord": {"lon": 111.588333, "lat": 25.89361}}, {"id": 7070644, "name": "Yongjiang", "country": "CN", "coord": {"lon": 121.578651, "lat": 29.90387}}, {"id": 1785884, "name": "Yongjiawan", "country": "CN", "coord": {"lon": 113.111107, "lat": 29.140829}}, {"id": 1786306, "name": "Yongle", "country": "CN", "coord": {"lon": 108.938057, "lat": 34.53278}}, {"id": 1799841, "name": "Yongle", "country": "CN", "coord": {"lon": 104.23278, "lat": 33.264648}}, {"id": 2033315, "name": "Yongling", "country": "CN", "coord": {"lon": 124.821053, "lat": 41.708038}}, {"id": 1786301, "name": "Yonglong", "country": "CN", "coord": {"lon": 115.931168, "lat": 25.4174}}, {"id": 7642903, "name": "Yonglu", "country": "CN", "coord": {"lon": 110.466171, "lat": 19.938459}}, {"id": 1941099, "name": "Yongmao", "country": "CN", "coord": {"lon": 110.27533, "lat": 29.014879}}, {"id": 1786288, "name": "Yongning", "country": "CN", "coord": {"lon": 106.188652, "lat": 33.839561}}, {"id": 1786290, "name": "Yongning", "country": "CN", "coord": {"lon": 114.365761, "lat": 28.52449}}, {"id": 1786293, "name": "Yongning", "country": "CN", "coord": {"lon": 118.690002, "lat": 24.68}}, {"id": 1786278, "name": "Yongping", "country": "CN", "coord": {"lon": 117.777702, "lat": 28.21554}}, {"id": 1786279, "name": "Yongping", "country": "CN", "coord": {"lon": 116.114166, "lat": 25.28212}}, {"id": 1805066, "name": "Yongping", "country": "CN", "coord": {"lon": 108.041389, "lat": 34.810829}}, {"id": 7064608, "name": "Yongping", "country": "CN", "coord": {"lon": 117.777702, "lat": 28.21554}}, {"id": 7643685, "name": "Yongquan", "country": "CN", "coord": {"lon": 115.669098, "lat": 29.617201}}, {"id": 1837055, "name": "Yongsan", "country": "KR", "coord": {"lon": 126.966667, "lat": 37.533329}}, {"id": 1786266, "name": "Yongshan", "country": "CN", "coord": {"lon": 117.314842, "lat": 29.1497}}, {"id": 1786257, "name": "Yongtai", "country": "CN", "coord": {"lon": 108.150002, "lat": 34.889439}}, {"id": 1786259, "name": "Yongtai", "country": "CN", "coord": {"lon": 115.442101, "lat": 27.942961}}, {"id": 1786244, "name": "Yongxing", "country": "CN", "coord": {"lon": 118.368912, "lat": 27.92927}}, {"id": 1786248, "name": "Yongxing", "country": "CN", "coord": {"lon": 110.262939, "lat": 19.893841}}, {"id": 7843983, "name": "Yongxing", "country": "CN", "coord": {"lon": 121.454399, "lat": 31.77607}}, {"id": 1786247, "name": "Yongxing Chengguanzhen", "country": "CN", "coord": {"lon": 113.132782, "lat": 26.106649}}, {"id": 6685849, "name": "Yongyang", "country": "CN", "coord": {"lon": 119.035728, "lat": 31.66164}}, {"id": 7630137, "name": "Yongyuan", "country": "CN", "coord": {"lon": 127.008171, "lat": 45.773869}}, {"id": 2402715, "name": "Yonibana", "country": "SL", "coord": {"lon": -12.245, "lat": 8.44472}}, {"id": 5145215, "name": "Yonkers", "country": "US", "coord": {"lon": -73.89875, "lat": 40.93121}}, {"id": 1886598, "name": "Yonmu", "country": "KR", "coord": {"lon": 127.099998, "lat": 36.12944}}, {"id": 1848254, "name": "Yono", "country": "JP", "coord": {"lon": 139.633331, "lat": 35.883331}}, {"id": 2142273, "name": "Yoogali", "country": "AU", "coord": {"lon": 146.083328, "lat": -34.299999}}, {"id": 1679464, "name": "Yook", "country": "PH", "coord": {"lon": 121.963997, "lat": 13.22608}}, {"id": 3665688, "name": "Yopal", "country": "CO", "coord": {"lon": -72.395859, "lat": 5.33775}}, {"id": 293153, "name": "Yoqne\u2018am \u2018Illit", "country": "IL", "coord": {"lon": 35.133331, "lat": 32.666672}}, {"id": 5410902, "name": "Yorba Linda", "country": "US", "coord": {"lon": -117.81311, "lat": 33.88863}}, {"id": 725505, "name": "Yordan Yovkovo", "country": "BG", "coord": {"lon": 27.83333, "lat": 43.566669}}, {"id": 1848243, "name": "Yorii", "country": "JP", "coord": {"lon": 139.199997, "lat": 36.116669}}, {"id": 3600199, "name": "Yorito", "country": "HN", "coord": {"lon": -87.283333, "lat": 15.06667}}, {"id": 7839860, "name": "York", "country": "AU", "coord": {"lon": 116.721619, "lat": -31.91703}}, {"id": 2057277, "name": "York", "country": "AU", "coord": {"lon": 116.76667, "lat": -31.9}}, {"id": 2633352, "name": "York", "country": "GB", "coord": {"lon": -1.08271, "lat": 53.95763}}, {"id": 4562407, "name": "York", "country": "US", "coord": {"lon": -76.727737, "lat": 39.962601}}, {"id": 4098776, "name": "York", "country": "US", "coord": {"lon": -88.296417, "lat": 32.486252}}, {"id": 4601703, "name": "York", "country": "US", "coord": {"lon": -81.24202, "lat": 34.994301}}, {"id": 5082331, "name": "York", "country": "US", "coord": {"lon": -97.592003, "lat": 40.868069}}, {"id": 4983621, "name": "York County", "country": "US", "coord": {"lon": -70.682831, "lat": 43.466751}}, {"id": 5220355, "name": "York County", "country": "US", "coord": {"lon": -76.999977, "lat": 40.12537}}, {"id": 4794943, "name": "York County", "country": "US", "coord": {"lon": -76.549667, "lat": 37.233479}}, {"id": 4601709, "name": "York County", "country": "US", "coord": {"lon": -81.183128, "lat": 34.983471}}, {"id": 4983625, "name": "York Harbor", "country": "US", "coord": {"lon": -70.645607, "lat": 43.136761}}, {"id": 6185576, "name": "York Harbour", "country": "CA", "coord": {"lon": -58.381741, "lat": 49.06673}}, {"id": 6185592, "name": "York Mills", "country": "CA", "coord": {"lon": -79.416298, "lat": 43.750111}}, {"id": 2142258, "name": "York Plains", "country": "AU", "coord": {"lon": 147.433334, "lat": -42.26667}}, {"id": 7839472, "name": "Yorke Peninsula", "country": "AU", "coord": {"lon": 137.474884, "lat": -34.73156}}, {"id": 2057273, "name": "Yorketown", "country": "AU", "coord": {"lon": 137.600006, "lat": -35.033329}}, {"id": 5106645, "name": "Yorketown", "country": "US", "coord": {"lon": -74.337646, "lat": 40.307892}}, {"id": 2206601, "name": "Yorkeys Knob", "country": "AU", "coord": {"lon": 145.716675, "lat": -16.816669}}, {"id": 2142259, "name": "Yorklea", "country": "AU", "coord": {"lon": 153.066666, "lat": -28.950001}}, {"id": 4562441, "name": "Yorklyn", "country": "US", "coord": {"lon": -76.646347, "lat": 39.992321}}, {"id": 2057271, "name": "Yorkrakine", "country": "AU", "coord": {"lon": 117.583328, "lat": -31.383329}}, {"id": 3575930, "name": "Yorks", "country": "AG", "coord": {"lon": -61.866669, "lat": 17.08333}}, {"id": 4794966, "name": "Yorkshire", "country": "US", "coord": {"lon": -77.447769, "lat": 38.793171}}, {"id": 5145250, "name": "Yorkshire", "country": "US", "coord": {"lon": -78.472801, "lat": 42.53006}}, {"id": 6185607, "name": "Yorkton", "country": "CA", "coord": {"lon": -102.467659, "lat": 51.216702}}, {"id": 4046946, "name": "Yorktown", "country": "US", "coord": {"lon": -76.509666, "lat": 37.238762}}, {"id": 4743453, "name": "Yorktown", "country": "US", "coord": {"lon": -97.502769, "lat": 28.981091}}, {"id": 4928492, "name": "Yorktown", "country": "US", "coord": {"lon": -85.494141, "lat": 40.173649}}, {"id": 5145253, "name": "Yorktown Heights", "country": "US", "coord": {"lon": -73.777634, "lat": 41.270931}}, {"id": 5444873, "name": "Yorkville", "country": "US", "coord": {"lon": -105.290268, "lat": 38.292221}}, {"id": 4917298, "name": "Yorkville", "country": "US", "coord": {"lon": -88.447289, "lat": 41.64114}}, {"id": 5145257, "name": "Yorkville", "country": "US", "coord": {"lon": -75.271004, "lat": 43.11285}}, {"id": 5177557, "name": "Yorkville", "country": "US", "coord": {"lon": -80.710358, "lat": 40.154518}}, {"id": 2057267, "name": "Yornaning", "country": "AU", "coord": {"lon": 117.150002, "lat": -32.73333}}, {"id": 2057266, "name": "Yornup", "country": "AU", "coord": {"lon": 116.166672, "lat": -34.049999}}, {"id": 3600195, "name": "Yoro", "country": "HN", "coord": {"lon": -87.133331, "lat": 15.13333}}, {"id": 1848230, "name": "Yoromi", "country": "JP", "coord": {"lon": 136.966675, "lat": 37.316669}}, {"id": 2448442, "name": "Yorosso", "country": "ML", "coord": {"lon": -4.7761, "lat": 12.3536}}, {"id": 5410943, "name": "Yosemite Lakes", "country": "US", "coord": {"lon": -119.772652, "lat": 37.191059}}, {"id": 7262586, "name": "Yosemite Valley", "country": "US", "coord": {"lon": -119.577881, "lat": 37.740749}}, {"id": 1848210, "name": "Yoshida", "country": "JP", "coord": {"lon": 138.883331, "lat": 37.683331}}, {"id": 1848211, "name": "Yoshida", "country": "JP", "coord": {"lon": 138.216675, "lat": 36.666672}}, {"id": 1848200, "name": "Yoshie", "country": "JP", "coord": {"lon": 136.172287, "lat": 35.987041}}, {"id": 1848194, "name": "Yoshii", "country": "JP", "coord": {"lon": 138.983337, "lat": 36.25}}, {"id": 1848193, "name": "Yoshii", "country": "JP", "coord": {"lon": 138.399994, "lat": 38.049999}}, {"id": 1848188, "name": "Yoshikawa", "country": "JP", "coord": {"lon": 139.839447, "lat": 35.885281}}, {"id": 1848169, "name": "Yoshino-cho", "country": "JP", "coord": {"lon": 135.857681, "lat": 34.396111}}, {"id": 8198710, "name": "Yoshitomi", "country": "JP", "coord": {"lon": 131.175995, "lat": 33.60247}}, {"id": 466806, "name": "Yoshkar-Ola", "country": "RU", "coord": {"lon": 47.890781, "lat": 56.638771}}, {"id": 1621160, "name": "Yosowilangun", "country": "ID", "coord": {"lon": 113.313599, "lat": -8.2391}}, {"id": 6621222, "name": "Yotala", "country": "BO", "coord": {"lon": -65.25679, "lat": -19.233311}}, {"id": 6621225, "name": "Yotala", "country": "BO", "coord": {"lon": -65.269897, "lat": -19.19977}}, {"id": 3901539, "name": "Yotala", "country": "BO", "coord": {"lon": -65.264168, "lat": -19.158609}}, {"id": 2057265, "name": "Yoting", "country": "AU", "coord": {"lon": 117.616669, "lat": -31.966669}}, {"id": 3665678, "name": "Yotoco", "country": "CO", "coord": {"lon": -76.383636, "lat": 3.86048}}, {"id": 2110480, "name": "Yotsukaido", "country": "JP", "coord": {"lon": 140.166672, "lat": 35.650002}}, {"id": 293148, "name": "Yotvata", "country": "IL", "coord": {"lon": 35.049999, "lat": 29.883329}}, {"id": 2142251, "name": "Youarang", "country": "AU", "coord": {"lon": 145.800003, "lat": -36.166672}}, {"id": 6185619, "name": "Youbou", "country": "CA", "coord": {"lon": -124.202713, "lat": 48.866322}}, {"id": 7735331, "name": "Youchegang", "country": "CN", "coord": {"lon": 120.748093, "lat": 30.82888}}, {"id": 1786211, "name": "Youcheng", "country": "CN", "coord": {"lon": 116.830772, "lat": 29.2365}}, {"id": 1281542, "name": "Youdian", "country": "CN", "coord": {"lon": 99.592323, "lat": 24.828939}}, {"id": 1786202, "name": "Youdunjie", "country": "CN", "coord": {"lon": 116.637421, "lat": 29.377001}}, {"id": 1786184, "name": "Youfencun", "country": "CN", "coord": {"lon": 109.26667, "lat": 36.349998}}, {"id": 2001532, "name": "Youfeng", "country": "CN", "coord": {"lon": 108.043777, "lat": 34.390911}}, {"id": 2960869, "name": "Youghal", "country": "IE", "coord": {"lon": -7.85056, "lat": 51.950001}}, {"id": 1786182, "name": "Youguzhuang", "country": "CN", "coord": {"lon": 117.246109, "lat": 39.90583}}, {"id": 235888, "name": "Youhamba", "country": "CF", "coord": {"lon": 20.950001, "lat": 7.23333}}, {"id": 2033301, "name": "Youhao", "country": "CN", "coord": {"lon": 128.833328, "lat": 47.866669}}, {"id": 1552324, "name": "Youhua", "country": "CN", "coord": {"lon": 118.006737, "lat": 30.677959}}, {"id": 1910325, "name": "Youhuai", "country": "CN", "coord": {"lon": 109.385529, "lat": 34.558491}}, {"id": 1848382, "name": "Youkaichi", "country": "JP", "coord": {"lon": 136.197678, "lat": 35.116261}}, {"id": 2414055, "name": "Youkounkoun", "country": "GN", "coord": {"lon": -13.13333, "lat": 12.53333}},