[{"id": 5078878, "name": "Shelton", "country": "US", "coord": {"lon": -98.730911, "lat": 40.779179}}, {"id": 5551665, "name": "Arizona City", "country": "US", "coord": {"lon": -111.670959, "lat": 32.75589}}, {"id": 4368320, "name": "Saint Mary's County", "country": "US", "coord": {"lon": -76.616348, "lat": 38.300129}}, {"id": 7208522, "name": "Pin Oak Village", "country": "US", "coord": {"lon": -95.803001, "lat": 29.7665}}, {"id": 4578104, "name": "Fairtraid", "country": "US", "coord": {"lon": -78.979477, "lat": 33.873779}}, {"id": 4341377, "name": "Sheltons", "country": "US", "coord": {"lon": -91.907349, "lat": 32.8293}}, {"id": 4422833, "name": "Country Club Subdivision", "country": "US", "coord": {"lon": -88.806442, "lat": 33.423458}}, {"id": 4712711, "name": "Mount Enterprise", "country": "US", "coord": {"lon": -94.681038, "lat": 31.91795}}, {"id": 5424865, "name": "Hermosa", "country": "US", "coord": {"lon": -107.835342, "lat": 37.415279}}, {"id": 5363907, "name": "La Fetra", "country": "US", "coord": {"lon": -117.881447, "lat": 34.138901}}, {"id": 5064432, "name": "Boone County", "country": "US", "coord": {"lon": -98.083672, "lat": 41.700008}}, {"id": 7201401, "name": "Carlyle West", "country": "US", "coord": {"lon": -73.830559, "lat": 42.935558}}, {"id": 5139023, "name": "South Westerlo", "country": "US", "coord": {"lon": -74.027077, "lat": 42.447861}}, {"id": 4461697, "name": "Contentnea Junction", "country": "US", "coord": {"lon": -77.93248, "lat": 35.678211}}, {"id": 4475980, "name": "Lincoln Heights", "country": "US", "coord": {"lon": -77.904709, "lat": 35.69405}}, {"id": 4527720, "name": "Waterloo", "country": "US", "coord": {"lon": -82.784897, "lat": 39.83979}}, {"id": 5268838, "name": "Richfield", "country": "US", "coord": {"lon": -88.193977, "lat": 43.256119}}, {"id": 4599503, "name": "Vaughans Crossroads", "country": "US", "coord": {"lon": -80.102287, "lat": 34.208771}}, {"id": 4421547, "name": "Choctaw County", "country": "US", "coord": {"lon": -89.237572, "lat": 33.340401}}, {"id": 5312572, "name": "Saint David", "country": "US", "coord": {"lon": -110.214241, "lat": 31.904249}}, {"id": 4723416, "name": "Rockwell", "country": "US", "coord": {"lon": -95.549683, "lat": 33.591221}}, {"id": 4919277, "name": "Cook", "country": "US", "coord": {"lon": -87.469757, "lat": 41.377258}}, {"id": 4985016, "name": "Barry County", "country": "US", "coord": {"lon": -85.316673, "lat": 42.60004}}, {"id": 3911925, "name": "La Paz", "country": "BO", "coord": {"lon": -68.150002, "lat": -16.5}}, {"id": 5273134, "name": "Sidney", "country": "US", "coord": {"lon": -90.638748, "lat": 44.552738}}, {"id": 4494053, "name": "Sunny View", "country": "US", "coord": {"lon": -82.187889, "lat": 35.374279}}, {"id": 4988619, "name": "Cheboygan County", "country": "US", "coord": {"lon": -84.500587, "lat": 45.450008}}, {"id": 4913764, "name": "Tomahawk Bluff", "country": "US", "coord": {"lon": -89.08342, "lat": 41.380589}}, {"id": 4290651, "name": "Dykes", "country": "US", "coord": {"lon": -84.435768, "lat": 37.068138}}, {"id": 7247870, "name": "Cozy Acres", "country": "US", "coord": {"lon": -81.63694, "lat": 40.658329}}, {"id": 5723848, "name": "Drake Crossing", "country": "US", "coord": {"lon": -122.655922, "lat": 44.925961}}, {"id": 5564102, "name": "Gas Point", "country": "US", "coord": {"lon": -122.534462, "lat": 40.415428}}, {"id": 4926474, "name": "Sloan", "country": "US", "coord": {"lon": -87.476128, "lat": 40.301979}}, {"id": 5340687, "name": "Creston", "country": "US", "coord": {"lon": -120.523773, "lat": 35.51886}}, {"id": 4364519, "name": "Oliver Beach", "country": "US", "coord": {"lon": -76.342743, "lat": 39.37289}}, {"id": 7839805, "name": "Melbourne", "country": "AU", "coord": {"lon": 144.944214, "lat": -37.813061}}, {"id": 2158177, "name": "Melbourne", "country": "AU", "coord": {"lon": 144.963318, "lat": -37.813999}}, {"id": 6619279, "name": "City of Sydney", "country": "AU", "coord": {"lon": 151.208435, "lat": -33.867779}}, {"id": 2148876, "name": "South Yarra", "country": "AU", "coord": {"lon": 144.983337, "lat": -37.833328}}, {"id": 2146268, "name": "Toowoomba", "country": "AU", "coord": {"lon": 151.966675, "lat": -27.549999}}, {"id": 7839478, "name": "Cambridge", "country": "AU", "coord": {"lon": 115.798866, "lat": -31.935419}}, {"id": 2150767, "name": "Ryde", "country": "AU", "coord": {"lon": 151.100006, "lat": -33.816669}}, {"id": 2155384, "name": "Newtown", "country": "AU", "coord": {"lon": 143.649994, "lat": -37.700001}}, {"id": 2149975, "name": "Seaford", "country": "AU", "coord": {"lon": 145.133331, "lat": -38.099998}}, {"id": 2177089, "name": "Ballarat North", "country": "AU", "coord": {"lon": 143.772842, "lat": -37.518841}}, {"id": 7839740, "name": "Ku-ring-gai", "country": "AU", "coord": {"lon": 151.148773, "lat": -33.727009}}, {"id": 2074113, "name": "Collie", "country": "AU", "coord": {"lon": 116.150002, "lat": -33.366669}}, {"id": 2142501, "name": "Yarra Junction", "country": "AU", "coord": {"lon": 145.616669, "lat": -37.783329}}, {"id": 2158868, "name": "Manly", "country": "AU", "coord": {"lon": 153.183334, "lat": -27.466669}}, {"id": 7839796, "name": "Kingston", "country": "AU", "coord": {"lon": 145.095306, "lat": -38.004501}}, {"id": 2154787, "name": "Nowra", "country": "AU", "coord": {"lon": 150.600006, "lat": -34.883331}}, {"id": 7839760, "name": "Oberon", "country": "AU", "coord": {"lon": 149.817947, "lat": -33.84531}}, {"id": 2206089, "name": "Sandy Bay", "country": "AU", "coord": {"lon": 147.35318, "lat": -42.912998}}, {"id": 7839461, "name": "Tatiara", "country": "AU", "coord": {"lon": 140.507477, "lat": -36.222321}}, {"id": 2178174, "name": "Albury", "country": "AU", "coord": {"lon": 146.916672, "lat": -36.083328}}, {"id": 2146899, "name": "The Patch", "country": "AU", "coord": {"lon": 145.383331, "lat": -37.900002}}, {"id": 7839602, "name": "Manjimup", "country": "AU", "coord": {"lon": 116.265663, "lat": -34.597889}}, {"id": 2162419, "name": "Jannali", "country": "AU", "coord": {"lon": 151.066666, "lat": -34.01667}}, {"id": 2151134, "name": "Rosebank", "country": "AU", "coord": {"lon": 153.399994, "lat": -28.66667}}, {"id": 2170318, "name": "Corinda", "country": "AU", "coord": {"lon": 152.983337, "lat": -27.533331}}, {"id": 2144332, "name": "Wauchope", "country": "AU", "coord": {"lon": 152.733337, "lat": -31.450001}}, {"id": 7839593, "name": "Mackay", "country": "AU", "coord": {"lon": 149.042648, "lat": -21.08189}}, {"id": 7932620, "name": "Elwood", "country": "AU", "coord": {"lon": 144.983047, "lat": -37.881699}}, {"id": 7839648, "name": "Barossa", "country": "AU", "coord": {"lon": 138.961685, "lat": -34.61351}}, {"id": 2142330, "name": "Yenda", "country": "AU", "coord": {"lon": 146.183334, "lat": -34.25}}, {"id": 2070185, "name": "Hallett", "country": "AU", "coord": {"lon": 138.883331, "lat": -33.400002}}, {"id": 2176031, "name": "Berwick", "country": "AU", "coord": {"lon": 145.350006, "lat": -38.033329}}, {"id": 2151522, "name": "Riverstone", "country": "AU", "coord": {"lon": 150.866669, "lat": -33.683331}}, {"id": 7839477, "name": "Busselton", "country": "AU", "coord": {"lon": 115.370796, "lat": -33.684769}}, {"id": 2143285, "name": "Wodonga", "country": "AU", "coord": {"lon": 146.883331, "lat": -36.116669}}, {"id": 2077347, "name": "Balaklava", "country": "AU", "coord": {"lon": 138.416672, "lat": -34.150002}}, {"id": 2154913, "name": "Northmead", "country": "AU", "coord": {"lon": 150.983337, "lat": -33.783329}}, {"id": 2169866, "name": "Croydon North", "country": "AU", "coord": {"lon": 145.300003, "lat": -37.783329}}, {"id": 2147381, "name": "Taree", "country": "AU", "coord": {"lon": 152.466675, "lat": -31.9}}, {"id": 2161415, "name": "Kilmore", "country": "AU", "coord": {"lon": 144.949997, "lat": -37.299999}}, {"id": 2158922, "name": "Mandalong", "country": "AU", "coord": {"lon": 151.433334, "lat": -33.133331}}, {"id": 2142777, "name": "Wyee", "country": "AU", "coord": {"lon": 151.483337, "lat": -33.183331}}, {"id": 2160413, "name": "Leeton", "country": "AU", "coord": {"lon": 146.399994, "lat": -34.566669}}, {"id": 2143074, "name": "Woodleigh", "country": "AU", "coord": {"lon": 145.633331, "lat": -38.400002}}, {"id": 2079019, "name": "Cervantes", "country": "AU", "coord": {"lon": 115.063889, "lat": -30.500561}}, {"id": 2059539, "name": "Utakarra", "country": "AU", "coord": {"lon": 114.650002, "lat": -28.783331}}, {"id": 6573030, "name": "Namhyang-dong", "country": "KR", "coord": {"lon": 127.021393, "lat": 37.283611}}, {"id": 1842936, "name": "Kinho", "country": "KR", "coord": {"lon": 126.714172, "lat": 37.623611}}, {"id": 6800892, "name": "Sup\u2019y\u014fng-dong", "country": "KR", "coord": {"lon": 127.143501, "lat": 37.594601}}, {"id": 6800397, "name": "P\u2019ungnap-tong", "country": "KR", "coord": {"lon": 127.1185, "lat": 37.5368}}, {"id": 1844533, "name": "Hamyang", "country": "KR", "coord": {"lon": 127.727661, "lat": 35.519379}}, {"id": 1894616, "name": "Okinawa", "country": "JP", "coord": {"lon": 127.801392, "lat": 26.335831}}, {"id": 1862818, "name": "Higashi-horid\u014dri", "country": "JP", "coord": {"lon": 139.050003, "lat": 37.916672}}, {"id": 2111220, "name": "Sakura", "country": "JP", "coord": {"lon": 140.233337, "lat": 35.716671}}, {"id": 1856717, "name": "Miyazaki-shi", "country": "JP", "coord": {"lon": 131.423889, "lat": 31.91111}}, {"id": 1860797, "name": "Kaigand\u014dri", "country": "JP", "coord": {"lon": 133.916672, "lat": 34.666672}}, {"id": 1852524, "name": "Shij\u014dd\u014dri", "country": "JP", "coord": {"lon": 135.763031, "lat": 35.00378}}, {"id": 2112923, "name": "Fukushima-shi", "country": "JP", "coord": {"lon": 140.467773, "lat": 37.75}}, {"id": 1856697, "name": "Miyoshi", "country": "JP", "coord": {"lon": 137.066666, "lat": 35.083328}}, {"id": 1856524, "name": "Motoichiba", "country": "JP", "coord": {"lon": 138.649994, "lat": 35.150002}}, {"id": 1849876, "name": "Toyama-shi", "country": "JP", "coord": {"lon": 137.211395, "lat": 36.695278}}, {"id": 1854629, "name": "Ogori", "country": "JP", "coord": {"lon": 131.399994, "lat": 34.099998}}, {"id": 1856900, "name": "Mitsugarasuch\u014d", "country": "JP", "coord": {"lon": 135.833328, "lat": 34.666672}}, {"id": 1862415, "name": "Hiroshima-shi", "country": "JP", "coord": {"lon": 132.459366, "lat": 34.396271}}, {"id": 1860483, "name": "Kami-nagarekawach\u014d", "country": "JP", "coord": {"lon": 132.449997, "lat": 34.400002}}, {"id": 1863130, "name": "Harisakich\u014d", "country": "JP", "coord": {"lon": 137.149994, "lat": 34.916672}}, {"id": 1855891, "name": "Nakamura", "country": "JP", "coord": {"lon": 132.933334, "lat": 32.98333}}, {"id": 1863641, "name": "Gifu-shi", "country": "JP", "coord": {"lon": 136.760391, "lat": 35.422909}}, {"id": 1862197, "name": "Honj\u014dch\u014d", "country": "JP", "coord": {"lon": 136.75, "lat": 35.416672}}, {"id": 1853574, "name": "Otsu-shi", "country": "JP", "coord": {"lon": 135.868332, "lat": 35.00444}}, {"id": 2128295, "name": "Sapporo-shi", "country": "JP", "coord": {"lon": 141.346939, "lat": 43.064171}}, {"id": 2130658, "name": "Aomori-shi", "country": "JP", "coord": {"lon": 140.740005, "lat": 40.82444}}, {"id": 1857550, "name": "Matsue-shi", "country": "JP", "coord": {"lon": 133.050568, "lat": 35.472221}}, {"id": 1856789, "name": "Miyake", "country": "JP", "coord": {"lon": 135.550003, "lat": 34.583328}}, {"id": 1856177, "name": "Nagasaki-shi", "country": "JP", "coord": {"lon": 129.873611, "lat": 32.74472}}, {"id": 1862554, "name": "Hiradogoyamachi", "country": "JP", "coord": {"lon": 129.866669, "lat": 32.75}}, {"id": 1851100, "name": "Takamatsu-shi", "country": "JP", "coord": {"lon": 134.043335, "lat": 34.340279}}, {"id": 2128815, "name": "Obihiro", "country": "JP", "coord": {"lon": 143.204437, "lat": 42.917221}}, {"id": 1855863, "name": "Nakano", "country": "JP", "coord": {"lon": 138.366669, "lat": 36.75}}, {"id": 1863219, "name": "Hanawadamachi", "country": "JP", "coord": {"lon": 139.883331, "lat": 36.549999}}, {"id": 1855265, "name": "Nishikich\u014d", "country": "JP", "coord": {"lon": 138.566666, "lat": 35.650002}}, {"id": 1852607, "name": "Shibata", "country": "JP", "coord": {"lon": 139.333328, "lat": 37.950001}}, {"id": 1853045, "name": "Sambashid\u014dri", "country": "JP", "coord": {"lon": 133.550003, "lat": 33.549999}}, {"id": 1857594, "name": "Masuda", "country": "JP", "coord": {"lon": 131.850006, "lat": 34.666672}}, {"id": 1855944, "name": "Nakaichi", "country": "JP", "coord": {"lon": 131.483337, "lat": 34.166672}}, {"id": 1865103, "name": "Arita", "country": "JP", "coord": {"lon": 129.899994, "lat": 33.183331}}, {"id": 1863822, "name": "Furukawabashi", "country": "JP", "coord": {"lon": 135.600006, "lat": 34.73333}}, {"id": 1850314, "name": "T\u014db\u014d", "country": "JP", "coord": {"lon": 129.933334, "lat": 33.48333}}, {"id": 1857140, "name": "Minami-senjumachi", "country": "JP", "coord": {"lon": 139.816666, "lat": 35.73333}}, {"id": 1853188, "name": "Sakaidech\u014d", "country": "JP", "coord": {"lon": 133.850006, "lat": 34.316669}}, {"id": 1863683, "name": "Ganiko", "country": "JP", "coord": {"lon": 127.75351, "lat": 26.25601}}, {"id": 1849519, "name": "Tsuyama", "country": "JP", "coord": {"lon": 134, "lat": 35.049999}}, {"id": 1850152, "name": "Tokuyama", "country": "JP", "coord": {"lon": 131.816666, "lat": 34.049999}}, {"id": 1926020, "name": "Uwajima", "country": "JP", "coord": {"lon": 132.560013, "lat": 33.223751}}, {"id": 1858296, "name": "Kure", "country": "JP", "coord": {"lon": 132.566666, "lat": 34.23333}}, {"id": 1856243, "name": "Nagahama", "country": "JP", "coord": {"lon": 136.266663, "lat": 35.383331}}, {"id": 1926108, "name": "Komatsu", "country": "JP", "coord": {"lon": 133.116669, "lat": 33.883331}}, {"id": 2114009, "name": "Nishikawa", "country": "JP", "coord": {"lon": 140.176392, "lat": 38.926109}}, {"id": 2128574, "name": "Otaru", "country": "JP", "coord": {"lon": 141.002213, "lat": 43.189442}}, {"id": 1849831, "name": "Toyooka", "country": "JP", "coord": {"lon": 134.833328, "lat": 35.533329}}, {"id": 1859492, "name": "Kikuchi", "country": "JP", "coord": {"lon": 130.816666, "lat": 32.98333}}, {"id": 1896348, "name": "Hikari", "country": "JP", "coord": {"lon": 131.949997, "lat": 33.955002}}, {"id": 1859908, "name": "Kashiwazaki", "country": "JP", "coord": {"lon": 138.550003, "lat": 37.366669}}, {"id": 2129163, "name": "Mombetsu", "country": "JP", "coord": {"lon": 143.352493, "lat": 44.352501}}, {"id": 1850523, "name": "Tateyama", "country": "JP", "coord": {"lon": 139.866669, "lat": 34.98333}}, {"id": 1848706, "name": "Yamae", "country": "JP", "coord": {"lon": 130.566666, "lat": 33.466671}}, {"id": 1849977, "name": "Toriimatsu", "country": "JP", "coord": {"lon": 136.966675, "lat": 35.23333}}, {"id": 2111127, "name": "Shibayama", "country": "JP", "coord": {"lon": 140.433334, "lat": 35.683331}}, {"id": 1852788, "name": "Sekigahara", "country": "JP", "coord": {"lon": 136.466675, "lat": 35.366669}}, {"id": 1858333, "name": "Kuradani", "country": "JP", "coord": {"lon": 135.333328, "lat": 35.450001}}, {"id": 1857922, "name": "Ky\u014dguchi", "country": "JP", "coord": {"lon": 135.333328, "lat": 35.450001}}, {"id": 1864180, "name": "Enzan", "country": "JP", "coord": {"lon": 138.733337, "lat": 35.700001}}, {"id": 1849713, "name": "Tsukaguchi", "country": "JP", "coord": {"lon": 135.416672, "lat": 34.75}}, {"id": 2110774, "name": "Togane", "country": "JP", "coord": {"lon": 140.366669, "lat": 35.549999}}, {"id": 1863173, "name": "Hanyu", "country": "JP", "coord": {"lon": 139.533325, "lat": 36.166672}}, {"id": 1850708, "name": "Tanabe", "country": "JP", "coord": {"lon": 135.366669, "lat": 33.73333}}, {"id": 1863276, "name": "Hamanose", "country": "JP", "coord": {"lon": 135.149994, "lat": 33.883331}}, {"id": 1854444, "name": "Ojiya", "country": "JP", "coord": {"lon": 138.800003, "lat": 37.299999}}, {"id": 1861207, "name": "Iwakura", "country": "JP", "coord": {"lon": 136.866669, "lat": 35.283329}}, {"id": 1857089, "name": "Minatomachi", "country": "JP", "coord": {"lon": 130.449997, "lat": 33.033329}}, {"id": 1857343, "name": "Mifune", "country": "JP", "coord": {"lon": 130.800003, "lat": 32.716671}}, {"id": 1853662, "name": "Otake", "country": "JP", "coord": {"lon": 132.216675, "lat": 34.200001}}, {"id": 1859716, "name": "Kawai", "country": "JP", "coord": {"lon": 135.850006, "lat": 34.23333}}, {"id": 2128333, "name": "Samani", "country": "JP", "coord": {"lon": 142.919174, "lat": 42.121941}}, {"id": 2129447, "name": "Koshimizu", "country": "JP", "coord": {"lon": 144.459717, "lat": 43.853329}}, {"id": 2112370, "name": "Kanegasaki", "country": "JP", "coord": {"lon": 141.116669, "lat": 39.200001}}, {"id": 1855987, "name": "Nakagawa", "country": "JP", "coord": {"lon": 137.033325, "lat": 35.066669}}, {"id": 2110506, "name": "Yokote", "country": "JP", "coord": {"lon": 140.566666, "lat": 39.299999}}, {"id": 2128983, "name": "Nayoro", "country": "JP", "coord": {"lon": 142.457779, "lat": 44.350559}}, {"id": 1856434, "name": "Murakami", "country": "JP", "coord": {"lon": 139.483337, "lat": 38.23333}}, {"id": 1847996, "name": "Za\u014dmachi", "country": "JP", "coord": {"lon": 138.850006, "lat": 37.450001}}, {"id": 1860635, "name": "Kameoka", "country": "JP", "coord": {"lon": 135.583328, "lat": 35}}, {"id": 1850762, "name": "Tamagawa", "country": "JP", "coord": {"lon": 139.666672, "lat": 38.033329}}, {"id": 1858492, "name": "Kudoyama", "country": "JP", "coord": {"lon": 135.566666, "lat": 34.283329}}, {"id": 7302983, "name": "\u82a6\u5c4b", "country": "JP", "coord": {"lon": 135.30719, "lat": 34.733921}}, {"id": 1861202, "name": "Iwami", "country": "JP", "coord": {"lon": 134.533325, "lat": 34.783329}}, {"id": 1853338, "name": "Sabae", "country": "JP", "coord": {"lon": 136.184982, "lat": 35.946468}}, {"id": 1851079, "name": "Takamori", "country": "JP", "coord": {"lon": 131.116669, "lat": 32.816669}}, {"id": 1861853, "name": "Iijima", "country": "JP", "coord": {"lon": 137.883331, "lat": 35.299999}}, {"id": 1862998, "name": "Hayakawa", "country": "JP", "coord": {"lon": 138.350006, "lat": 35.450001}}, {"id": 1855585, "name": "Narusawa", "country": "JP", "coord": {"lon": 138.733337, "lat": 35.75}}, {"id": 1854691, "name": "Ogano", "country": "JP", "coord": {"lon": 139, "lat": 36.01667}}, {"id": 2112455, "name": "Kakuda", "country": "JP", "coord": {"lon": 140.783325, "lat": 37.966671}}, {"id": 1849237, "name": "Uozu", "country": "JP", "coord": {"lon": 137.399994, "lat": 36.799999}}, {"id": 1861838, "name": "Iiyama", "country": "JP", "coord": {"lon": 138.366669, "lat": 36.849998}}, {"id": 1863917, "name": "Fukuyama", "country": "JP", "coord": {"lon": 133.366669, "lat": 34.48333}}, {"id": 1850892, "name": "Takayama", "country": "JP", "coord": {"lon": 137.25, "lat": 36.133331}}, {"id": 1849845, "name": "Toyokawa", "country": "JP", "coord": {"lon": 137.399994, "lat": 34.816669}}, {"id": 1853237, "name": "Saiki", "country": "JP", "coord": {"lon": 131.899994, "lat": 32.950001}}, {"id": 2113698, "name": "Kahoku", "country": "JP", "coord": {"lon": 141.321671, "lat": 38.51667}}, {"id": 1865485, "name": "Akashich\u014d", "country": "JP", "coord": {"lon": 139.783325, "lat": 35.666672}}, {"id": 1848040, "name": "Y\u016brakuch\u014d", "country": "JP", "coord": {"lon": 139.766663, "lat": 35.666672}}, {"id": 6415253, "name": "Kawasaki", "country": "JP", "coord": {"lon": 136.064438, "lat": 35.65694}}, {"id": 2112062, "name": "Kurosawajiri", "country": "JP", "coord": {"lon": 141.116669, "lat": 39.283329}}, {"id": 1855623, "name": "Nanukaichi", "country": "JP", "coord": {"lon": 133.466675, "lat": 34.599998}}, {"id": 2130705, "name": "Akabira", "country": "JP", "coord": {"lon": 142.053055, "lat": 43.551392}}, {"id": 1853412, "name": "Renjakuch\u014d", "country": "JP", "coord": {"lon": 139.066666, "lat": 36.383331}}, {"id": 1860039, "name": "Kariwa", "country": "JP", "coord": {"lon": 138.61879, "lat": 37.429749}}, {"id": 1863475, "name": "Habu", "country": "JP", "coord": {"lon": 130.699997, "lat": 33.816669}}, {"id": 1851713, "name": "Shobara", "country": "JP", "coord": {"lon": 133.016663, "lat": 34.849998}}, {"id": 1856938, "name": "Mitake", "country": "JP", "coord": {"lon": 137.133331, "lat": 35.416672}}, {"id": 1858067, "name": "Kusatsu", "country": "JP", "coord": {"lon": 135.966675, "lat": 35.01667}}, {"id": 1864009, "name": "Fukuchiyama", "country": "JP", "coord": {"lon": 135.116669, "lat": 35.299999}}, {"id": 1850589, "name": "Tarumizu", "country": "JP", "coord": {"lon": 130.699997, "lat": 31.48333}}, {"id": 2128710, "name": "Oku-ikutahara", "country": "JP", "coord": {"lon": 143.516663, "lat": 43.849998}}, {"id": 2130700, "name": "Akaigawa", "country": "JP", "coord": {"lon": 140.817215, "lat": 43.083328}}, {"id": 1850217, "name": "Tokamachi", "country": "JP", "coord": {"lon": 138.766663, "lat": 37.133331}}, {"id": 1855363, "name": "Nirasaki", "country": "JP", "coord": {"lon": 138.449997, "lat": 35.700001}}, {"id": 2127586, "name": "Urakawa", "country": "JP", "coord": {"lon": 142.783615, "lat": 42.15556}}, {"id": 2128498, "name": "Pippu", "country": "JP", "coord": {"lon": 142.473892, "lat": 43.869438}}, {"id": 2128215, "name": "Shari", "country": "JP", "coord": {"lon": 144.659439, "lat": 43.90556}}, {"id": 1852984, "name": "Sanjo", "country": "JP", "coord": {"lon": 138.949997, "lat": 37.616669}}, {"id": 1854807, "name": "Obita", "country": "JP", "coord": {"lon": 129.883331, "lat": 32.816669}}, {"id": 2127652, "name": "Toyokoro", "country": "JP", "coord": {"lon": 143.533325, "lat": 42.816669}}, {"id": 2129387, "name": "Kuromatsunai", "country": "JP", "coord": {"lon": 140.306107, "lat": 42.66806}}, {"id": 1849347, "name": "Uken", "country": "JP", "coord": {"lon": 129.233337, "lat": 28.299999}}, {"id": 2130387, "name": "Engaru", "country": "JP", "coord": {"lon": 143.522217, "lat": 44.054169}}, {"id": 1848764, "name": "Yakage", "country": "JP", "coord": {"lon": 133.583328, "lat": 34.616669}}, {"id": 1863837, "name": "Furugen", "country": "JP", "coord": {"lon": 127.751106, "lat": 26.368589}}, {"id": 1856488, "name": "Mugi", "country": "JP", "coord": {"lon": 134.416672, "lat": 33.666672}}, {"id": 2130389, "name": "Embetsu", "country": "JP", "coord": {"lon": 141.788895, "lat": 44.707218}}, {"id": 2128139, "name": "Shimokawa", "country": "JP", "coord": {"lon": 142.636383, "lat": 44.28944}}, {"id": 1849073, "name": "Utazu", "country": "JP", "coord": {"lon": 133.816666, "lat": 34.299999}}, {"id": 1863866, "name": "Funato", "country": "JP", "coord": {"lon": 135.316666, "lat": 34.25}}, {"id": 1865312, "name": "Anamizu", "country": "JP", "coord": {"lon": 136.899994, "lat": 37.23333}}, {"id": 1848528, "name": "Yanohama", "country": "JP", "coord": {"lon": 136.199997, "lat": 34.066669}}, {"id": 1864894, "name": "Awara", "country": "JP", "coord": {"lon": 136.192368, "lat": 36.223091}}, {"id": 1854026, "name": "Ono", "country": "JP", "coord": {"lon": 134.933334, "lat": 34.849998}}, {"id": 2111559, "name": "Obanazawa", "country": "JP", "coord": {"lon": 140.401947, "lat": 38.603329}}, {"id": 2111325, "name": "Otawara", "country": "JP", "coord": {"lon": 140.033325, "lat": 36.866669}}, {"id": 1848705, "name": "Yamaga", "country": "JP", "coord": {"lon": 130.683334, "lat": 33.01667}}, {"id": 1926006, "name": "Iyo", "country": "JP", "coord": {"lon": 132.701385, "lat": 33.751389}}, {"id": 1926055, "name": "Ozu", "country": "JP", "coord": {"lon": 132.550003, "lat": 33.5}}, {"id": 2130106, "name": "Higashikawa", "country": "JP", "coord": {"lon": 141.783325, "lat": 44.23333}}, {"id": 1862752, "name": "Higashi-\u014dsaka", "country": "JP", "coord": {"lon": 135.583328, "lat": 34.666672}}, {"id": 2127545, "name": "Utashinai", "country": "JP", "coord": {"lon": 142.050003, "lat": 43.51667}}, {"id": 2128159, "name": "Shimizu", "country": "JP", "coord": {"lon": 142.88472, "lat": 43.006111}}, {"id": 2127731, "name": "Tomamae", "country": "JP", "coord": {"lon": 141.654434, "lat": 44.305279}}, {"id": 1848935, "name": "Wake", "country": "JP", "coord": {"lon": 134.133331, "lat": 34.799999}}, {"id": 1894619, "name": "Urazoe", "country": "JP", "coord": {"lon": 127.70639, "lat": 26.25444}}, {"id": 2129696, "name": "Kamoenai", "country": "JP", "coord": {"lon": 140.434433, "lat": 43.138329}}, {"id": 1861305, "name": "Itano", "country": "JP", "coord": {"lon": 133.783325, "lat": 34.01667}}, {"id": 1276533, "name": "Belgaum", "country": "IN", "coord": {"lon": 74.5, "lat": 15.86667}}, {"id": 1269920, "name": "Hubli", "country": "IN", "coord": {"lon": 75.166672, "lat": 15.35}}, {"id": 1278647, "name": "Union Territory of Andaman and Nicobar Islands", "country": "IN", "coord": {"lon": 92.675171, "lat": 11.70065}}, {"id": 1259385, "name": "Port Blair", "country": "IN", "coord": {"lon": 92.75, "lat": 11.66667}}, {"id": 1254710, "name": "Tezpur", "country": "IN", "coord": {"lon": 92.800003, "lat": 26.633329}}, {"id": 7533612, "name": "Kowloon City", "country": "HK", "coord": {"lon": 114.191208, "lat": 22.328659}}, {"id": 1619638, "name": "Ban Fai Kaeo", "country": "TH", "coord": {"lon": 100.800003, "lat": 18.76667}}, {"id": 6455273, "name": "Amiens", "country": "FR", "coord": {"lon": 2.3, "lat": 49.900002}}, {"id": 6441375, "name": "Strasbourg", "country": "FR", "coord": {"lon": 7.75, "lat": 48.583328}}, {"id": 6451976, "name": "Nanterre", "country": "FR", "coord": {"lon": 2.20714, "lat": 48.891842}}, {"id": 2989247, "name": "D\u00e9partement de l'Orne", "country": "FR", "coord": {"lon": 0.08333, "lat": 48.666672}}, {"id": 6452018, "name": "Cr\u00e9teil", "country": "FR", "coord": {"lon": 2.46667, "lat": 48.783329}}, {"id": 6455341, "name": "Saint-Denis", "country": "FR", "coord": {"lon": 2.36667, "lat": 48.933331}}, {"id": 6440000, "name": "Clermont-Ferrand", "country": "FR", "coord": {"lon": 3.08333, "lat": 45.783329}}, {"id": 3024635, "name": "Clermont-Ferrand", "country": "FR", "coord": {"lon": 3.08628, "lat": 45.779659}}, {"id": 2973384, "name": "Arrondissement de Tarbes", "country": "FR", "coord": {"lon": 0.16667, "lat": 43.25}}, {"id": 6454430, "name": "Clermont", "country": "FR", "coord": {"lon": 2.4, "lat": 49.383331}}, {"id": 6440996, "name": "Perpignan", "country": "FR", "coord": {"lon": 2.89541, "lat": 42.697639}}, {"id": 3029094, "name": "D\u00e9partement du Calvados", "country": "FR", "coord": {"lon": -0.5, "lat": 49.166672}}, {"id": 6456407, "name": "Le Mans", "country": "FR", "coord": {"lon": 0.2, "lat": 48}}, {"id": 3003603, "name": "Le Mans", "country": "FR", "coord": {"lon": 0.2, "lat": 48}}, {"id": 6454251, "name": "Reims", "country": "FR", "coord": {"lon": 4.0292, "lat": 49.265099}}, {"id": 6452436, "name": "Argentan", "country": "FR", "coord": {"lon": -0.01667, "lat": 48.75}}, {"id": 2983360, "name": "Arrondissement de Roanne", "country": "FR", "coord": {"lon": 4, "lat": 46}}, {"id": 6613992, "name": "Roanne", "country": "FR", "coord": {"lon": 4.06667, "lat": 46.033329}}, {"id": 6453924, "name": "Landerneau", "country": "FR", "coord": {"lon": -4.25, "lat": 48.450001}}, {"id": 3034005, "name": "Arrondissement de Beauvais", "country": "FR", "coord": {"lon": 2, "lat": 49.416672}}, {"id": 2968819, "name": "Ville-dAvray", "country": "FR", "coord": {"lon": 2.19311, "lat": 48.823582}}, {"id": 6443660, "name": "Fontainebleau", "country": "FR", "coord": {"lon": 2.7, "lat": 48.400002}}, {"id": 3027453, "name": "Chamalieres", "country": "FR", "coord": {"lon": 3.0631, "lat": 45.775589}}, {"id": 6453805, "name": "Saint-Brieuc", "country": "FR", "coord": {"lon": -2.78333, "lat": 48.51667}}, {"id": 2990371, "name": "D\u00e9partement de la Ni\u00e8vre", "country": "FR", "coord": {"lon": 3.5, "lat": 47.083328}}, {"id": 3006414, "name": "La Seyne-sur-Mer", "country": "FR", "coord": {"lon": 5.88472, "lat": 43.098179}}, {"id": 6454207, "name": "Coutances", "country": "FR", "coord": {"lon": -1.43333, "lat": 49.049999}}, {"id": 3022826, "name": "Coutances", "country": "FR", "coord": {"lon": -1.43333, "lat": 49.049999}}, {"id": 2993358, "name": "Mondeville", "country": "FR", "coord": {"lon": -0.32238, "lat": 49.174969}}, {"id": 6453923, "name": "Y\u00e8vres", "country": "FR", "coord": {"lon": 1.1906, "lat": 48.2103}}, {"id": 6454554, "name": "Saverne", "country": "FR", "coord": {"lon": 7.36127, "lat": 48.74176}}, {"id": 6454301, "name": "Lun\u00e9ville", "country": "FR", "coord": {"lon": 6.5024, "lat": 48.589199}}, {"id": 2985020, "name": "Arrondissement du Puy", "country": "FR", "coord": {"lon": 3.83333, "lat": 45.083328}}, {"id": 6449052, "name": "Coubon", "country": "FR", "coord": {"lon": 3.91754, "lat": 44.997372}}, {"id": 3023379, "name": "Coubon", "country": "FR", "coord": {"lon": 3.91783, "lat": 44.997311}}, {"id": 3026612, "name": "Arrondissement de Charleville-M\u00e9zi\u00e8res", "country": "FR", "coord": {"lon": 4.5, "lat": 49.833328}}, {"id": 3031676, "name": "Arrondissement de Bonneville", "country": "FR", "coord": {"lon": 6.66667, "lat": 46}}, {"id": 6435667, "name": "Sotteville", "country": "FR", "coord": {"lon": -1.75, "lat": 49.533329}}, {"id": 2983423, "name": "Riva-Bella", "country": "FR", "coord": {"lon": -0.26054, "lat": 49.287708}}, {"id": 2979071, "name": "Arrondissement de Saint-Julien-en-Genevois", "country": "FR", "coord": {"lon": 6.08333, "lat": 46.083328}}, {"id": 6433846, "name": "Labenne", "country": "FR", "coord": {"lon": -1.41667, "lat": 43.599998}}, {"id": 3029799, "name": "Bruges", "country": "FR", "coord": {"lon": -0.61219, "lat": 44.87981}}, {"id": 6432490, "name": "Tresses", "country": "FR", "coord": {"lon": -0.46667, "lat": 44.849998}}, {"id": 3010626, "name": "Lacanau", "country": "FR", "coord": {"lon": -1.0762, "lat": 44.977791}}, {"id": 3020034, "name": "Arrondissement d'\u00c9pinal", "country": "FR", "coord": {"lon": 6.5, "lat": 48.166672}}, {"id": 3016474, "name": "Gavray", "country": "FR", "coord": {"lon": -1.3506, "lat": 48.911079}}, {"id": 3034873, "name": "Baron-sur-Odon", "country": "FR", "coord": {"lon": -0.47795, "lat": 49.13221}}, {"id": 2990139, "name": "Arrondissement de Nontron", "country": "FR", "coord": {"lon": 0.83333, "lat": 45.5}}, {"id": 3032668, "name": "Biguglia", "country": "FR", "coord": {"lon": 9.43324, "lat": 42.625889}}, {"id": 2982692, "name": "Rots", "country": "FR", "coord": {"lon": -0.47319, "lat": 49.212349}}, {"id": 3038333, "name": "Arrondissement d'Ajaccio", "country": "FR", "coord": {"lon": 8.91667, "lat": 42}}, {"id": 3022569, "name": "Crepy-en-Valois", "country": "FR", "coord": {"lon": 2.88807, "lat": 49.233589}}, {"id": 6432503, "name": "Virelade", "country": "FR", "coord": {"lon": -0.3808, "lat": 44.6661}}, {"id": 1506418, "name": "Gonba", "country": "RU", "coord": {"lon": 83.574699, "lat": 53.417198}}, {"id": 1506676, "name": "Gari", "country": "RU", "coord": {"lon": 62.34967, "lat": 59.43074}}, {"id": 1506938, "name": "Erzin", "country": "RU", "coord": {"lon": 95.1623, "lat": 50.261002}}, {"id": 1507172, "name": "Dubinino", "country": "RU", "coord": {"lon": 89.09111, "lat": 55.619171}}, {"id": 1507638, "name": "Chunoyar", "country": "RU", "coord": {"lon": 97.321671, "lat": 57.446671}}, {"id": 1507745, "name": "Choya", "country": "RU", "coord": {"lon": 86.5467, "lat": 52.010799}}, {"id": 1507801, "name": "Chistogorskiy", "country": "RU", "coord": {"lon": 87.3843, "lat": 53.983501}}, {"id": 1507926, "name": "Chesma", "country": "RU", "coord": {"lon": 60.653332, "lat": 53.811111}}, {"id": 1508636, "name": "Burla", "country": "RU", "coord": {"lon": 78.330101, "lat": 53.336201}}, {"id": 1510131, "name": "Beya", "country": "RU", "coord": {"lon": 90.913887, "lat": 53.053329}}, {"id": 1510370, "name": "Belyy Yar", "country": "RU", "coord": {"lon": 85.042503, "lat": 58.444721}}, {"id": 1510817, "name": "Barzas", "country": "RU", "coord": {"lon": 86.316673, "lat": 55.716671}}, {"id": 1120863, "name": "Zarghun Shahr", "country": "AF", "coord": {"lon": 68.445732, "lat": 32.84734}}, {"id": 1120879, "name": "Zarah Sharan", "country": "AF", "coord": {"lon": 68.791672, "lat": 33.146671}}, {"id": 1121418, "name": "Yahya Khel", "country": "AF", "coord": {"lon": 68.646217, "lat": 32.93742}}, {"id": 1122068, "name": "Tormay", "country": "AF", "coord": {"lon": 68.401672, "lat": 33.687222}}, {"id": 1130131, "name": "Qalat", "country": "AF", "coord": {"lon": 66.908333, "lat": 32.105751}}, {"id": 1138636, "name": "Kalakan", "country": "AF", "coord": {"lon": 69.150009, "lat": 34.78371}}, {"id": 1143782, "name": "Dwah Manday", "country": "AF", "coord": {"lon": 69.584999, "lat": 33.28167}}, {"id": 1144040, "name": "Darqad", "country": "AF", "coord": {"lon": 69.452942, "lat": 37.38414}}, {"id": 1146979, "name": "Barg-e Matal", "country": "AF", "coord": {"lon": 71.343391, "lat": 35.672829}}, {"id": 1147511, "name": "Bagrami", "country": "AF", "coord": {"lon": 69.274269, "lat": 34.493759}}, {"id": 1148114, "name": "Alaqahdari Atghar", "country": "AF", "coord": {"lon": 67.357399, "lat": 31.73506}}, {"id": 1148709, "name": "Anar Darah", "country": "AF", "coord": {"lon": 61.653969, "lat": 32.758701}}, {"id": 1148939, "name": "Ali Khel", "country": "AF", "coord": {"lon": 69.719078, "lat": 33.942532}}, {"id": 1429499, "name": "Shayrwani-ye Bala", "country": "AF", "coord": {"lon": 69.599342, "lat": 35.014679}}, {"id": 1434016, "name": "Alaqahdari Sarobi", "country": "AF", "coord": {"lon": 69.086601, "lat": 32.793308}}, {"id": 1435007, "name": "Zerok-Alakadari", "country": "AF", "coord": {"lon": 69.312782, "lat": 33.158058}}, {"id": 1437517, "name": "Khayr Kot", "country": "AF", "coord": {"lon": 68.449722, "lat": 32.85355}}, {"id": 1455430, "name": "Dahan-e Jarf", "country": "AF", "coord": {"lon": 68.464172, "lat": 34.927219}}, {"id": 1456960, "name": "Maidan Shahr", "country": "AF", "coord": {"lon": 68.86618, "lat": 34.395611}}, {"id": 1464922, "name": "Pul-e Hisar", "country": "AF", "coord": {"lon": 69.471336, "lat": 35.617939}}, {"id": 1468514, "name": "Pas Pul", "country": "AF", "coord": {"lon": 70.61586, "lat": 37.474072}}, {"id": 3576361, "name": "Bolands", "country": "AG", "coord": {"lon": -61.87466, "lat": 17.065651}}, {"id": 363320, "name": "Konispol", "country": "AL", "coord": {"lon": 20.181391, "lat": 39.65889}}, {"id": 782632, "name": "Kurbnesh", "country": "AL", "coord": {"lon": 20.083611, "lat": 41.77972}}, {"id": 783214, "name": "Fushe-Arrez", "country": "AL", "coord": {"lon": 20.01667, "lat": 42.062222}}, {"id": 3184197, "name": "Selenice", "country": "AL", "coord": {"lon": 19.63583, "lat": 40.53056}}, {"id": 3184388, "name": "Puke", "country": "AL", "coord": {"lon": 19.899719, "lat": 42.044441}}, {"id": 3184575, "name": "Orikum", "country": "AL", "coord": {"lon": 19.47139, "lat": 40.325279}}, {"id": 3184702, "name": "Milot", "country": "AL", "coord": {"lon": 19.715561, "lat": 41.683891}}, {"id": 3188434, "name": "Uzice", "country": "RS", "coord": {"lon": 19.84878, "lat": 43.858608}}, {"id": 3026227, "name": "Chateauneuf-les-Martigues", "country": "FR", "coord": {"lon": 5.16667, "lat": 43.383331}}, {"id": 6448871, "name": "Castandet", "country": "FR", "coord": {"lon": -0.35, "lat": 43.799999}}, {"id": 3172394, "name": "Napoli", "country": "IT", "coord": {"lon": 14.25, "lat": 40.833328}}, {"id": 6536522, "name": "Sesto San Giovanni", "country": "IT", "coord": {"lon": 9.24175, "lat": 45.539371}}, {"id": 3167961, "name": "San Michele di Pagana", "country": "IT", "coord": {"lon": 9.23564, "lat": 44.352982}}, {"id": 3182748, "name": "Province of Ascoli Piceno", "country": "IT", "coord": {"lon": 13.55306, "lat": 42.88443}}, {"id": 6542154, "name": "Taranto", "country": "IT", "coord": {"lon": 17.240101, "lat": 40.417019}}, {"id": 3172656, "name": "Montoggio", "country": "IT", "coord": {"lon": 9.04816, "lat": 44.517448}}, {"id": 3167431, "name": "Sant\u2019Anna", "country": "IT", "coord": {"lon": 10.48333, "lat": 43.833328}}, {"id": 3168673, "name": "Salerno", "country": "IT", "coord": {"lon": 14.76599, "lat": 40.677971}}, {"id": 6536153, "name": "Seriate", "country": "IT", "coord": {"lon": 9.72286, "lat": 45.68338}}, {"id": 6540063, "name": "Vittoria", "country": "IT", "coord": {"lon": 14.53318, "lat": 36.953739}}, {"id": 6539606, "name": "Asti", "country": "IT", "coord": {"lon": 8.20684, "lat": 44.897949}}, {"id": 6541469, "name": "Trento", "country": "IT", "coord": {"lon": 11.12074, "lat": 46.070431}}, {"id": 6540107, "name": "Viterbo", "country": "IT", "coord": {"lon": 12.10856, "lat": 42.417831}}, {"id": 3173845, "name": "Martignacco", "country": "IT", "coord": {"lon": 13.13778, "lat": 46.09639}}, {"id": 6540390, "name": "Castelfranco Veneto", "country": "IT", "coord": {"lon": 11.926, "lat": 45.676102}}, {"id": 3170622, "name": "Pisticci", "country": "IT", "coord": {"lon": 16.556789, "lat": 40.390621}}, {"id": 6538566, "name": "Sesto Fiorentino", "country": "IT", "coord": {"lon": 11.19522, "lat": 43.834549}}, {"id": 3174658, "name": "Provincia di Livorno", "country": "IT", "coord": {"lon": 10.58333, "lat": 43.23333}}, {"id": 6541852, "name": "Rovigo", "country": "IT", "coord": {"lon": 11.79301, "lat": 45.079979}}, {"id": 3165197, "name": "Trezzo sullAdda", "country": "IT", "coord": {"lon": 9.51995, "lat": 45.602982}}, {"id": 3172980, "name": "Montecchio Emilia", "country": "IT", "coord": {"lon": 10.44709, "lat": 44.701359}}, {"id": 2525755, "name": "Alcamo", "country": "IT", "coord": {"lon": 12.95654, "lat": 37.998348}}, {"id": 6536781, "name": "Senigallia", "country": "IT", "coord": {"lon": 13.21667, "lat": 43.709259}}, {"id": 6538612, "name": "Assisi", "country": "IT", "coord": {"lon": 12.61646, "lat": 43.069141}}, {"id": 2524393, "name": "Licata", "country": "IT", "coord": {"lon": 13.94607, "lat": 37.10714}}, {"id": 6541465, "name": "Vicenza", "country": "IT", "coord": {"lon": 11.5409, "lat": 45.557289}}, {"id": 6542122, "name": "Pisa", "country": "IT", "coord": {"lon": 10.4137, "lat": 43.710838}}, {"id": 3174096, "name": "Manduria", "country": "IT", "coord": {"lon": 17.633511, "lat": 40.401821}}, {"id": 2523045, "name": "Soverato Marina", "country": "IT", "coord": {"lon": 16.54991, "lat": 38.684978}}, {"id": 6458615, "name": "Provincia di Crotone", "country": "IT", "coord": {"lon": 17.081341, "lat": 39.120071}}, {"id": 6541463, "name": "Crotone", "country": "IT", "coord": {"lon": 17.117809, "lat": 39.085098}}, {"id": 2524881, "name": "Crotone", "country": "IT", "coord": {"lon": 17.117809, "lat": 39.085098}}, {"id": 6539766, "name": "Ferentino", "country": "IT", "coord": {"lon": 13.2564, "lat": 41.69532}}, {"id": 3177102, "name": "Ferentino", "country": "IT", "coord": {"lon": 13.2564, "lat": 41.69532}}, {"id": 6542118, "name": "Chieti", "country": "IT", "coord": {"lon": 14.16773, "lat": 42.3503}}, {"id": 3178796, "name": "Chieti", "country": "IT", "coord": {"lon": 14.13801, "lat": 42.360939}}, {"id": 6541116, "name": "Spoleto", "country": "IT", "coord": {"lon": 12.73737, "lat": 42.744839}}, {"id": 3166236, "name": "Spoleto", "country": "IT", "coord": {"lon": 12.73737, "lat": 42.744839}}, {"id": 3175444, "name": "Provincia di Isernia", "country": "IT", "coord": {"lon": 14.25, "lat": 41.666672}}, {"id": 6536505, "name": "Cologno Monzese", "country": "IT", "coord": {"lon": 9.27635, "lat": 45.535671}}, {"id": 6539672, "name": "Sarzana", "country": "IT", "coord": {"lon": 9.95859, "lat": 44.11145}}, {"id": 3167104, "name": "Sarzana", "country": "IT", "coord": {"lon": 9.95859, "lat": 44.11145}}, {"id": 3181995, "name": "Bitonto", "country": "IT", "coord": {"lon": 16.689381, "lat": 41.110828}}, {"id": 6538456, "name": "Mirandola", "country": "IT", "coord": {"lon": 11.0662, "lat": 44.886768}}, {"id": 3180749, "name": "Caorle", "country": "IT", "coord": {"lon": 12.8758, "lat": 45.596561}}, {"id": 6539859, "name": "Gioia Tauro", "country": "IT", "coord": {"lon": 15.899, "lat": 38.423969}}, {"id": 6538674, "name": "Genzano di Roma", "country": "IT", "coord": {"lon": 12.69178, "lat": 41.701321}}, {"id": 6540287, "name": "Fiumicino", "country": "IT", "coord": {"lon": 12.24747, "lat": 41.76281}}, {"id": 2524237, "name": "Mascali", "country": "IT", "coord": {"lon": 15.19589, "lat": 37.75576}}, {"id": 6539444, "name": "Domodossola", "country": "IT", "coord": {"lon": 8.28962, "lat": 46.11348}}, {"id": 6540110, "name": "Matera", "country": "IT", "coord": {"lon": 16.60158, "lat": 40.668522}}, {"id": 6538946, "name": "Putignano", "country": "IT", "coord": {"lon": 17.12129, "lat": 40.85183}}, {"id": 6538943, "name": "Gravina in Puglia", "country": "IT", "coord": {"lon": 16.422779, "lat": 40.819721}}, {"id": 6540781, "name": "Acri", "country": "IT", "coord": {"lon": 16.383789, "lat": 39.492901}}, {"id": 3182966, "name": "San Michele", "country": "IT", "coord": {"lon": 11.26178, "lat": 46.45472}}, {"id": 6540671, "name": "Alba", "country": "IT", "coord": {"lon": 8.02564, "lat": 44.69154}}, {"id": 3179542, "name": "Castelnuovo", "country": "IT", "coord": {"lon": 13.53333, "lat": 43.400002}}, {"id": 2524085, "name": "Monreale", "country": "IT", "coord": {"lon": 13.28854, "lat": 38.080051}}, {"id": 6541098, "name": "Montevarchi", "country": "IT", "coord": {"lon": 11.56893, "lat": 43.527649}}, {"id": 6541032, "name": "Imola", "country": "IT", "coord": {"lon": 11.71582, "lat": 44.352268}}, {"id": 6536054, "name": "Casale Monferrato", "country": "IT", "coord": {"lon": 8.45714, "lat": 45.133362}}, {"id": 6539037, "name": "Corigliano Calabro", "country": "IT", "coord": {"lon": 16.5177, "lat": 39.595001}}, {"id": 2524929, "name": "Corigliano Calabro", "country": "IT", "coord": {"lon": 16.5177, "lat": 39.595001}}, {"id": 3175385, "name": "Ivrea", "country": "IT", "coord": {"lon": 7.87617, "lat": 45.466869}}, {"id": 6539211, "name": "Lentini", "country": "IT", "coord": {"lon": 14.99959, "lat": 37.28545}}, {"id": 6536709, "name": "Sala Baganza", "country": "IT", "coord": {"lon": 10.23178, "lat": 44.720261}}, {"id": 6541462, "name": "Rieti", "country": "IT", "coord": {"lon": 12.85918, "lat": 42.40723}}, {"id": 3169412, "name": "Rieti", "country": "IT", "coord": {"lon": 12.85918, "lat": 42.40723}}, {"id": 3182628, "name": "Avilla", "country": "IT", "coord": {"lon": 13.7, "lat": 42.650002}}, {"id": 6537243, "name": "Avio", "country": "IT", "coord": {"lon": 10.93718, "lat": 45.733791}}, {"id": 3182625, "name": "Avio", "country": "IT", "coord": {"lon": 10.93718, "lat": 45.733791}}, {"id": 2523890, "name": "Pantelleria", "country": "IT", "coord": {"lon": 11.95, "lat": 36.833328}}, {"id": 6538451, "name": "Castelvetro di Modena", "country": "IT", "coord": {"lon": 10.9464, "lat": 44.50576}}, {"id": 2523557, "name": "Salemi", "country": "IT", "coord": {"lon": 12.80564, "lat": 37.823139}}, {"id": 6535904, "name": "Lana - Lana", "country": "IT", "coord": {"lon": 11.15587, "lat": 46.612419}}, {"id": 3175177, "name": "Lana", "country": "IT", "coord": {"lon": 11.15587, "lat": 46.612419}}, {"id": 6540386, "name": "Thiene", "country": "IT", "coord": {"lon": 11.47959, "lat": 45.708801}}, {"id": 2522718, "name": "Vita", "country": "IT", "coord": {"lon": 12.82504, "lat": 37.870541}}, {"id": 6538323, "name": "Scorz\u00e8", "country": "IT", "coord": {"lon": 12.10991, "lat": 45.569}}, {"id": 3182918, "name": "Arceto", "country": "IT", "coord": {"lon": 10.71667, "lat": 44.616669}}, {"id": 6541168, "name": "Torre Annunziata", "country": "IT", "coord": {"lon": 14.46464, "lat": 40.74971}}, {"id": 3172086, "name": "Olbia Marittima", "country": "IT", "coord": {"lon": 9.50528, "lat": 40.922401}}, {"id": 6536871, "name": "Deruta", "country": "IT", "coord": {"lon": 12.41506, "lat": 42.980438}}, {"id": 3165612, "name": "Todi", "country": "IT", "coord": {"lon": 12.40456, "lat": 42.779942}}, {"id": 3178131, "name": "Corato", "country": "IT", "coord": {"lon": 16.41387, "lat": 41.145531}}, {"id": 6536698, "name": "Cormons", "country": "IT", "coord": {"lon": 13.46534, "lat": 45.956921}}, {"id": 6540134, "name": "Savigliano", "country": "IT", "coord": {"lon": 7.65593, "lat": 44.644039}}, {"id": 3180563, "name": "Carbonera", "country": "IT", "coord": {"lon": 12.28833, "lat": 45.680561}}, {"id": 6541812, "name": "Marano di Valpolicella", "country": "IT", "coord": {"lon": 10.91518, "lat": 45.55579}}, {"id": 6536506, "name": "Cormano", "country": "IT", "coord": {"lon": 9.17094, "lat": 45.53957}}, {"id": 3165119, "name": "Tufo", "country": "IT", "coord": {"lon": 13.76667, "lat": 41.26667}}, {"id": 3180916, "name": "Camposanto", "country": "IT", "coord": {"lon": 11.1429, "lat": 44.786968}}, {"id": 3172379, "name": "Nardo", "country": "IT", "coord": {"lon": 18.02972, "lat": 40.175121}}, {"id": 6541923, "name": "Atri", "country": "IT", "coord": {"lon": 13.9848, "lat": 42.577839}}, {"id": 6536651, "name": "Susegana", "country": "IT", "coord": {"lon": 12.25351, "lat": 45.856209}}, {"id": 3182633, "name": "Avigliano", "country": "IT", "coord": {"lon": 15.72004, "lat": 40.73291}}, {"id": 6536661, "name": "Santa Maria di Sala", "country": "IT", "coord": {"lon": 12.03531, "lat": 45.507999}}, {"id": 6536948, "name": "Formello", "country": "IT", "coord": {"lon": 12.40027, "lat": 42.08252}}, {"id": 3176739, "name": "Formello", "country": "IT", "coord": {"lon": 12.39979, "lat": 42.080132}}, {"id": 3172240, "name": "Noci", "country": "IT", "coord": {"lon": 17.131701, "lat": 40.79073}}, {"id": 3166426, "name": "Soliera", "country": "IT", "coord": {"lon": 10.9263, "lat": 44.737968}}, {"id": 3163836, "name": "Zula", "country": "IT", "coord": {"lon": 11.33333, "lat": 44.349998}}, {"id": 6538018, "name": "Poggio a Caiano", "country": "IT", "coord": {"lon": 11.05072, "lat": 43.813648}}, {"id": 3170487, "name": "Poggio a Caiano", "country": "IT", "coord": {"lon": 11.05072, "lat": 43.813648}}, {"id": 3178263, "name": "Colorno", "country": "IT", "coord": {"lon": 10.37678, "lat": 44.92627}}, {"id": 6536328, "name": "Ronchi dei Legionari", "country": "IT", "coord": {"lon": 13.50424, "lat": 45.82832}}, {"id": 6537163, "name": "Breno", "country": "IT", "coord": {"lon": 10.30476, "lat": 45.95779}}, {"id": 6537088, "name": "Somma Lombardo", "country": "IT", "coord": {"lon": 8.70873, "lat": 45.682968}}, {"id": 3167062, "name": "Sasso Marconi", "country": "IT", "coord": {"lon": 11.24951, "lat": 44.39946}}, {"id": 6537231, "name": "Castel Goffredo", "country": "IT", "coord": {"lon": 10.47538, "lat": 45.29858}}, {"id": 3179675, "name": "Castel Goffredo", "country": "IT", "coord": {"lon": 10.47538, "lat": 45.29858}}, {"id": 3181094, "name": "Camerino", "country": "IT", "coord": {"lon": 13.06917, "lat": 43.139851}}, {"id": 6539656, "name": "Castellabate", "country": "IT", "coord": {"lon": 14.95645, "lat": 40.2817}}, {"id": 3167551, "name": "Santa Maria di Castellabate", "country": "IT", "coord": {"lon": 14.95, "lat": 40.283329}}, {"id": 6541644, "name": "Seravezza", "country": "IT", "coord": {"lon": 10.2287, "lat": 43.995041}}, {"id": 3166168, "name": "Stellata", "country": "IT", "coord": {"lon": 11.41667, "lat": 44.883331}}, {"id": 6539726, "name": "Loreto", "country": "IT", "coord": {"lon": 13.60978, "lat": 43.43536}}, {"id": 3174567, "name": "Loreto", "country": "IT", "coord": {"lon": 13.60978, "lat": 43.43536}}, {"id": 2523113, "name": "Siderno", "country": "IT", "coord": {"lon": 16.302, "lat": 38.277882}}, {"id": 6537787, "name": "Butera", "country": "IT", "coord": {"lon": 14.18367, "lat": 37.19104}}, {"id": 6539861, "name": "Monasterace", "country": "IT", "coord": {"lon": 16.55201, "lat": 38.453678}}, {"id": 2523998, "name": "Noto", "country": "IT", "coord": {"lon": 15.06929, "lat": 36.890141}}, {"id": 6537585, "name": "Carpignano Salentino", "country": "IT", "coord": {"lon": 18.338329, "lat": 40.196918}}, {"id": 3166662, "name": "Serrano", "country": "IT", "coord": {"lon": 18.35, "lat": 40.183331}}, {"id": 6539927, "name": "Montagnana", "country": "IT", "coord": {"lon": 11.4635, "lat": 45.22868}}, {"id": 3176328, "name": "Ganna", "country": "IT", "coord": {"lon": 8.81667, "lat": 45.900002}}, {"id": 6539612, "name": "Carro", "country": "IT", "coord": {"lon": 9.60888, "lat": 44.272148}}, {"id": 3182057, "name": "Bibione", "country": "IT", "coord": {"lon": 13.05389, "lat": 45.63583}}, {"id": 6538424, "name": "Langhirano", "country": "IT", "coord": {"lon": 10.26559, "lat": 44.612659}}, {"id": 6543726, "name": "Ronago", "country": "IT", "coord": {"lon": 8.98364, "lat": 45.832279}}, {"id": 6537804, "name": "Adrano", "country": "IT", "coord": {"lon": 14.83478, "lat": 37.661751}}, {"id": 2525616, "name": "Bagnara Calabra", "country": "IT", "coord": {"lon": 15.8078, "lat": 38.288471}}, {"id": 6536808, "name": "Fivizzano", "country": "IT", "coord": {"lon": 10.12599, "lat": 44.23835}}, {"id": 3182479, "name": "Baio Dora", "country": "IT", "coord": {"lon": 7.83333, "lat": 45.5}}, {"id": 3170589, "name": "Pizzolo", "country": "IT", "coord": {"lon": 9.61667, "lat": 44.349998}}, {"id": 6536523, "name": "Trezzano sul Naviglio", "country": "IT", "coord": {"lon": 9.06644, "lat": 45.423069}}, {"id": 6541877, "name": "San Benedetto del Tronto", "country": "IT", "coord": {"lon": 13.88569, "lat": 42.934849}}, {"id": 3168550, "name": "San Benedetto del Tronto", "country": "IT", "coord": {"lon": 13.88157, "lat": 42.945621}}, {"id": 3178709, "name": "Cigliano", "country": "IT", "coord": {"lon": 8.02102, "lat": 45.308361}}, {"id": 6536662, "name": "Santo Stino di Livenza", "country": "IT", "coord": {"lon": 12.68232, "lat": 45.729912}}, {"id": 6536846, "name": "San Giovanni Valdarno", "country": "IT", "coord": {"lon": 11.53183, "lat": 43.56345}}, {"id": 6539110, "name": "Castellammare del Golfo", "country": "IT", "coord": {"lon": 12.88584, "lat": 38.018848}}, {"id": 6539156, "name": "Novara di Sicilia", "country": "IT", "coord": {"lon": 15.13188, "lat": 38.015961}}, {"id": 3168521, "name": "San Biagio di Callalta", "country": "IT", "coord": {"lon": 12.37722, "lat": 45.683609}}, {"id": 6536329, "name": "Savogna d'Isonzo", "country": "IT", "coord": {"lon": 13.57474, "lat": 45.906422}}, {"id": 3169980, "name": "Pra", "country": "IT", "coord": {"lon": 8.79001, "lat": 44.427528}}, {"id": 3170752, "name": "Pieve di Cento", "country": "IT", "coord": {"lon": 11.30761, "lat": 44.712269}}, {"id": 2712995, "name": "Gamla Staden", "country": "SE", "coord": {"lon": 13, "lat": 55.599998}}, {"id": 2687700, "name": "Nykoping", "country": "SE", "coord": {"lon": 17.007879, "lat": 58.752998}}, {"id": 602150, "name": "Umea", "country": "SE", "coord": {"lon": 20.25972, "lat": 63.828419}}, {"id": 2662881, "name": "Vimmerby", "country": "SE", "coord": {"lon": 15.85515, "lat": 57.665878}}, {"id": 2724227, "name": "\u00c5vik", "country": "SE", "coord": {"lon": 17.1, "lat": 61.73333}}, {"id": 8012855, "name": "Cedofeita", "country": "PT", "coord": {"lon": -8.62244, "lat": 41.158352}}, {"id": 8012597, "name": "Pontinha", "country": "PT", "coord": {"lon": -9.20377, "lat": 38.777}}, {"id": 2742031, "name": "Distrito de Braga", "country": "PT", "coord": {"lon": -8.41667, "lat": 41.583328}}, {"id": 8010417, "name": "Aveiro", "country": "PT", "coord": {"lon": -8.61628, "lat": 40.623981}}, {"id": 2261956, "name": "Valejas", "country": "PT", "coord": {"lon": -9.26549, "lat": 38.735001}}, {"id": 8010459, "name": "Vizela", "country": "PT", "coord": {"lon": -8.2931, "lat": 41.37529}}, {"id": 8012966, "name": "Tramagal", "country": "PT", "coord": {"lon": -8.25987, "lat": 39.443241}}, {"id": 2262540, "name": "Tramagal", "country": "PT", "coord": {"lon": -8.25, "lat": 39.450001}}, {"id": 8011143, "name": "Fafe", "country": "PT", "coord": {"lon": -8.17333, "lat": 41.44698}}, {"id": 8012715, "name": "Rio Tinto", "country": "PT", "coord": {"lon": -8.55954, "lat": 41.176891}}, {"id": 8010550, "name": "Marinha Grande", "country": "PT", "coord": {"lon": -8.95005, "lat": 39.77681}}, {"id": 8011327, "name": "Ribeir\u00e3o", "country": "PT", "coord": {"lon": -8.56012, "lat": 41.361649}}, {"id": 8010587, "name": "Penafiel", "country": "PT", "coord": {"lon": -8.28972, "lat": 41.159599}}, {"id": 2740519, "name": "Cortegaca", "country": "PT", "coord": {"lon": -8.6213, "lat": 40.94883}}, {"id": 8014836, "name": "Borda do Campo", "country": "PT", "coord": {"lon": -8.75771, "lat": 40.050621}}, {"id": 8010546, "name": "Caldas da Rainha", "country": "PT", "coord": {"lon": -9.10242, "lat": 39.409809}}, {"id": 2739055, "name": "Gat\u00f5es", "country": "PT", "coord": {"lon": -8.66221, "lat": 41.212662}}, {"id": 2263919, "name": "Riba Fria", "country": "PT", "coord": {"lon": -8.9936, "lat": 39.416939}}, {"id": 8012434, "name": "Ventosa", "country": "PT", "coord": {"lon": -9.09361, "lat": 39.123291}}, {"id": 8010449, "name": "Cabeceiras de Basto", "country": "PT", "coord": {"lon": -7.97198, "lat": 41.52079}}, {"id": 8011197, "name": "Mascotelos", "country": "PT", "coord": {"lon": -8.30995, "lat": 41.425571}}, {"id": 8014395, "name": "Arma\u00e7\u00e3o de P\u00eara", "country": "PT", "coord": {"lon": -8.36463, "lat": 37.115799}}, {"id": 408687, "name": "L\u00edndos", "country": "GR", "coord": {"lon": 28.085711, "lat": 36.091019}}, {"id": 255683, "name": "Patra", "country": "GR", "coord": {"lon": 21.73444, "lat": 38.244438}}, {"id": 8133812, "name": "Dimos Kalymnos", "country": "GR", "coord": {"lon": 26.991211, "lat": 36.987148}}, {"id": 8133988, "name": "Dimos Pylos-Nestoras", "country": "GR", "coord": {"lon": 21.779409, "lat": 36.916351}}, {"id": 253343, "name": "Spili\u00e1", "country": "GR", "coord": {"lon": 20.48333, "lat": 38.166672}}, {"id": 8133759, "name": "Dimos Rethymno", "country": "GR", "coord": {"lon": 24.487341, "lat": 35.315041}}, {"id": 733901, "name": "Vergina", "country": "GR", "coord": {"lon": 22.31361, "lat": 40.48111}}, {"id": 8133695, "name": "Dimos Chersonisos", "country": "GR", "coord": {"lon": 25.34346, "lat": 35.28577}}, {"id": 8133857, "name": "Dimos Eordaia", "country": "GR", "coord": {"lon": 21.71814, "lat": 40.522541}}, {"id": 7297375, "name": "The Gorge", "country": "GB", "coord": {"lon": -2.47239, "lat": 52.635288}}, {"id": 2652708, "name": "Coalbrookdale", "country": "GB", "coord": {"lon": -2.49174, "lat": 52.63821}}, {"id": 2647601, "name": "Borough of Halton", "country": "GB", "coord": {"lon": -2.75, "lat": 53.333328}}, {"id": 2634311, "name": "Weston Point", "country": "GB", "coord": {"lon": -2.75649, "lat": 53.32642}}, {"id": 2650236, "name": "Edgbaston", "country": "GB", "coord": {"lon": -1.92115, "lat": 52.462299}}, {"id": 7291997, "name": "Newbury", "country": "GB", "coord": {"lon": -1.32067, "lat": 51.390831}}, {"id": 7290590, "name": "Lincoln District", "country": "GB", "coord": {"lon": -0.55664, "lat": 53.220119}}, {"id": 2635586, "name": "Town Moor", "country": "GB", "coord": {"lon": -1.61667, "lat": 54.98333}}, {"id": 2656196, "name": "Basford", "country": "GB", "coord": {"lon": -1.18333, "lat": 52.966671}}, {"id": 2646253, "name": "Ince-in-Makerfield", "country": "GB", "coord": {"lon": -2.61667, "lat": 53.533329}}, {"id": 2647516, "name": "Hanwell", "country": "GB", "coord": {"lon": -0.33517, "lat": 51.518089}}, {"id": 2644100, "name": "Llanelli", "country": "GB", "coord": {"lon": -4.16191, "lat": 51.68195}}, {"id": 2657480, "name": "Allesley", "country": "GB", "coord": {"lon": -1.57157, "lat": 52.426048}}, {"id": 3333187, "name": "Richmond upon Thames", "country": "GB", "coord": {"lon": -0.33333, "lat": 51.416672}}, {"id": 2655984, "name": "Belfast", "country": "GB", "coord": {"lon": -5.93333, "lat": 54.583328}}, {"id": 3333229, "name": "City of Edinburgh", "country": "GB", "coord": {"lon": -3.19333, "lat": 55.94973}}, {"id": 3333136, "name": "Borough of Bury", "country": "GB", "coord": {"lon": -2.33333, "lat": 53.583328}}, {"id": 2641557, "name": "Newton Abbot", "country": "GB", "coord": {"lon": -3.61186, "lat": 50.52858}}, {"id": 3333161, "name": "Borough of Kirklees", "country": "GB", "coord": {"lon": -1.75, "lat": 53.583328}}, {"id": 3333137, "name": "Borough of Calderdale", "country": "GB", "coord": {"lon": -2, "lat": 53.700001}}, {"id": 2635028, "name": "Vale of Glamorgan", "country": "GB", "coord": {"lon": -3.41667, "lat": 51.416672}}, {"id": 2633462, "name": "Wycombe", "country": "GB", "coord": {"lon": -0.9, "lat": 51.583328}}, {"id": 2652586, "name": "Coleraine", "country": "GB", "coord": {"lon": -6.66667, "lat": 55.133331}}, {"id": 2634869, "name": "Wallingford", "country": "GB", "coord": {"lon": -1.1248, "lat": 51.599819}}, {"id": 2636066, "name": "Thame", "country": "GB", "coord": {"lon": -0.97624, "lat": 51.748402}}, {"id": 2654092, "name": "Caernarfon", "country": "GB", "coord": {"lon": -4.27016, "lat": 53.141258}}, {"id": 2645093, "name": "Knutsford", "country": "GB", "coord": {"lon": -2.37482, "lat": 53.302891}}, {"id": 7295999, "name": "Carmarthen", "country": "GB", "coord": {"lon": -4.33155, "lat": 51.856049}}, {"id": 2653755, "name": "Carmarthen", "country": "GB", "coord": {"lon": -4.30535, "lat": 51.855518}}, {"id": 7292911, "name": "Huntingdon", "country": "GB", "coord": {"lon": -0.18646, "lat": 52.34251}}, {"id": 2657060, "name": "Armagh", "country": "GB", "coord": {"lon": -6.66667, "lat": 54.349998}}, {"id": 7291791, "name": "Northwood", "country": "GB", "coord": {"lon": -1.31093, "lat": 50.739151}}, {"id": 2641217, "name": "Northwood", "country": "GB", "coord": {"lon": -1.31192, "lat": 50.74102}}, {"id": 7292855, "name": "Crowthorne", "country": "GB", "coord": {"lon": -0.77353, "lat": 51.375}}, {"id": 7292770, "name": "Finchampstead", "country": "GB", "coord": {"lon": -0.866, "lat": 51.371929}}, {"id": 2649445, "name": "Finchampstead", "country": "GB", "coord": {"lon": -0.85728, "lat": 51.361488}}, {"id": 7298372, "name": "Truro", "country": "GB", "coord": {"lon": -5.05831, "lat": 50.263691}}, {"id": 2635412, "name": "Truro", "country": "GB", "coord": {"lon": -5.05436, "lat": 50.265259}}, {"id": 2656913, "name": "Ash Vale", "country": "GB", "coord": {"lon": -0.72115, "lat": 51.26997}}, {"id": 2655049, "name": "Bowness-on-Windermere", "country": "GB", "coord": {"lon": -2.91859, "lat": 54.363312}}, {"id": 3333239, "name": "Bridgend county borough", "country": "GB", "coord": {"lon": -3.58333, "lat": 51.549999}}, {"id": 7292974, "name": "Leighton-Linslade", "country": "GB", "coord": {"lon": -0.66606, "lat": 51.917469}}, {"id": 7290663, "name": "Barrow-in-Furness District", "country": "GB", "coord": {"lon": -3.22326, "lat": 54.128849}}, {"id": 3333152, "name": "Borough of Hartlepool", "country": "GB", "coord": {"lon": -1.25, "lat": 54.666672}}, {"id": 3333236, "name": "South Lanarkshire", "country": "GB", "coord": {"lon": -3.83333, "lat": 55.583328}}, {"id": 2647570, "name": "Hamilton", "country": "GB", "coord": {"lon": -4.03333, "lat": 55.76667}}, {"id": 7290586, "name": "Hinckley and Bosworth District", "country": "GB", "coord": {"lon": -1.38402, "lat": 52.60778}}, {"id": 2656039, "name": "Bedlington", "country": "GB", "coord": {"lon": -1.59319, "lat": 55.130611}}, {"id": 2636518, "name": "Sunninghill", "country": "GB", "coord": {"lon": -0.65557, "lat": 51.401348}}, {"id": 2651386, "name": "Denbigh", "country": "GB", "coord": {"lon": -3.41667, "lat": 53.183331}}, {"id": 7294638, "name": "Penzance", "country": "GB", "coord": {"lon": -5.54554, "lat": 50.105862}}, {"id": 2640377, "name": "Penzance", "country": "GB", "coord": {"lon": -5.53715, "lat": 50.11861}}, {"id": 7290557, "name": "Gosport District", "country": "GB", "coord": {"lon": -1.16165, "lat": 50.806198}}, {"id": 3333232, "name": "North Ayrshire", "country": "GB", "coord": {"lon": -4.89647, "lat": 55.696548}}, {"id": 2654604, "name": "Brodick", "country": "GB", "coord": {"lon": -5.14717, "lat": 55.57539}}, {"id": 7295818, "name": "Meltham", "country": "GB", "coord": {"lon": -1.86003, "lat": 53.589859}}, {"id": 2640968, "name": "Omagh District", "country": "GB", "coord": {"lon": -7.25, "lat": 54.583328}}, {"id": 2640967, "name": "Omagh", "country": "GB", "coord": {"lon": -7.3, "lat": 54.599998}}, {"id": 7292970, "name": "Glyncorrwg", "country": "GB", "coord": {"lon": -3.64345, "lat": 51.673939}}, {"id": 2657807, "name": "Abergwynfi", "country": "GB", "coord": {"lon": -3.6026, "lat": 51.653549}}, {"id": 7292972, "name": "Pelenna", "country": "GB", "coord": {"lon": -3.72255, "lat": 51.656151}}, {"id": 2640118, "name": "Pontrhydyfen", "country": "GB", "coord": {"lon": -3.74469, "lat": 51.63435}}, {"id": 2642330, "name": "Monkseaton", "country": "GB", "coord": {"lon": -1.4659, "lat": 55.042339}}, {"id": 7296375, "name": "Ystalyfera", "country": "GB", "coord": {"lon": -3.80508, "lat": 51.758041}}, {"id": 2633337, "name": "Ystalyfera", "country": "GB", "coord": {"lon": -3.78082, "lat": 51.767159}}, {"id": 2650941, "name": "Drumcree", "country": "GB", "coord": {"lon": -6.46667, "lat": 54.433331}}, {"id": 7296308, "name": "Milford Haven", "country": "GB", "coord": {"lon": -5.03444, "lat": 51.720711}}, {"id": 2642534, "name": "Milford Haven", "country": "GB", "coord": {"lon": -5.0341, "lat": 51.71278}}, {"id": 3333212, "name": "City and Borough of Wakefield", "country": "GB", "coord": {"lon": -1.49895, "lat": 53.680851}}, {"id": 2638035, "name": "Shepton Mallet", "country": "GB", "coord": {"lon": -2.54722, "lat": 51.18972}}, {"id": 7300410, "name": "Thorne", "country": "GB", "coord": {"lon": -0.92887, "lat": 53.621189}}, {"id": 2635997, "name": "Thorne", "country": "GB", "coord": {"lon": -0.96308, "lat": 53.611221}}, {"id": 2636175, "name": "Tavernspite", "country": "GB", "coord": {"lon": -4.64111, "lat": 51.78194}}, {"id": 7290622, "name": "West Oxfordshire District", "country": "GB", "coord": {"lon": -1.50136, "lat": 51.839882}}, {"id": 2643697, "name": "Long Eaton", "country": "GB", "coord": {"lon": -1.27136, "lat": 52.898548}}, {"id": 2649207, "name": "Forfar", "country": "GB", "coord": {"lon": -2.89026, "lat": 56.643131}}, {"id": 7297451, "name": "Hungerford", "country": "GB", "coord": {"lon": -1.52201, "lat": 51.41671}}, {"id": 2646411, "name": "Hungerford", "country": "GB", "coord": {"lon": -1.51556, "lat": 51.415131}}, {"id": 7294533, "name": "Thornbury", "country": "GB", "coord": {"lon": -2.55531, "lat": 52.237991}}, {"id": 7299856, "name": "Blaengwrach", "country": "GB", "coord": {"lon": -3.62173, "lat": 51.728111}}, {"id": 3345326, "name": "Blaengwrach", "country": "GB", "coord": {"lon": -3.63915, "lat": 51.736851}}, {"id": 7295589, "name": "Olney", "country": "GB", "coord": {"lon": -0.71375, "lat": 52.16486}}, {"id": 2640972, "name": "Olney", "country": "GB", "coord": {"lon": -0.70201, "lat": 52.15345}}, {"id": 7301705, "name": "Harden", "country": "GB", "coord": {"lon": -1.87311, "lat": 53.842739}}, {"id": 2639944, "name": "Sir Powys", "country": "GB", "coord": {"lon": -3.41667, "lat": 52.333328}}, {"id": 2654818, "name": "Brecon", "country": "GB", "coord": {"lon": -3.38601, "lat": 51.947651}}, {"id": 2654817, "name": "Brecon", "country": "GB", "coord": {"lon": -3.38887, "lat": 51.946121}}, {"id": 2641910, "name": "Nairn", "country": "GB", "coord": {"lon": -3.87973, "lat": 57.58094}}, {"id": 6620335, "name": "Frankby", "country": "GB", "coord": {"lon": -3.13703, "lat": 53.372581}}, {"id": 7290624, "name": "Sedgemoor District", "country": "GB", "coord": {"lon": -2.9619, "lat": 51.186409}}, {"id": 2639563, "name": "Redcar", "country": "GB", "coord": {"lon": -1.05999, "lat": 54.61657}}, {"id": 2643314, "name": "Lyme Regis", "country": "GB", "coord": {"lon": -2.93477, "lat": 50.72654}}, {"id": 2647393, "name": "Hartpury", "country": "GB", "coord": {"lon": -2.29314, "lat": 51.924191}}, {"id": 2646472, "name": "Hoylake", "country": "GB", "coord": {"lon": -3.18066, "lat": 53.390461}}, {"id": 7292301, "name": "Crymych", "country": "GB", "coord": {"lon": -4.63719, "lat": 51.96452}}, {"id": 2651796, "name": "Crymych", "country": "GB", "coord": {"lon": -4.64722, "lat": 51.97361}}, {"id": 7294618, "name": "Llysfaen", "country": "GB", "coord": {"lon": -3.66256, "lat": 53.28157}}, {"id": 2643867, "name": "Llysfaen", "country": "GB", "coord": {"lon": -3.66667, "lat": 53.283329}}, {"id": 2650797, "name": "Dumfries and Galloway", "country": "GB", "coord": {"lon": -3.83333, "lat": 55.083328}}, {"id": 2657293, "name": "Annan", "country": "GB", "coord": {"lon": -3.25647, "lat": 54.988392}}, {"id": 2641331, "name": "Northiam", "country": "GB", "coord": {"lon": 0.60026, "lat": 50.994389}}, {"id": 7294631, "name": "Marhamchurch", "country": "GB", "coord": {"lon": -4.51644, "lat": 50.79673}}, {"id": 2643040, "name": "Marhamchurch", "country": "GB", "coord": {"lon": -4.52241, "lat": 50.80513}}, {"id": 6945806, "name": "Shepway District", "country": "GB", "coord": {"lon": 1.15391, "lat": 51.081741}}, {"id": 2649258, "name": "Folkestone", "country": "GB", "coord": {"lon": 1.18333, "lat": 51.083328}}, {"id": 2652418, "name": "Cookstown District", "country": "GB", "coord": {"lon": -6.66667, "lat": 54.666672}}, {"id": 2652417, "name": "Cookstown", "country": "GB", "coord": {"lon": -6.74595, "lat": 54.643051}}, {"id": 2652725, "name": "Clunderwen", "country": "GB", "coord": {"lon": -4.73167, "lat": 51.840561}}, {"id": 2634354, "name": "West Lothian", "country": "GB", "coord": {"lon": -3.5, "lat": 55.916672}}, {"id": 2656169, "name": "Bathgate", "country": "GB", "coord": {"lon": -3.64398, "lat": 55.902039}}, {"id": 2648559, "name": "Glastonbury", "country": "GB", "coord": {"lon": -2.71797, "lat": 51.147289}}, {"id": 2646810, "name": "Hodbarrow", "country": "GB", "coord": {"lon": -3.25222, "lat": 54.195381}}, {"id": 6949212, "name": "Ham", "country": "GB", "coord": {"lon": -0.30933, "lat": 51.436192}}, {"id": 2650725, "name": "Dunglass", "country": "GB", "coord": {"lon": -2.36667, "lat": 55.933331}}, {"id": 2646455, "name": "Hugglescote", "country": "GB", "coord": {"lon": -1.37179, "lat": 52.709759}}, {"id": 6619866, "name": "East Croydon Railway Station", "country": "GB", "coord": {"lon": -0.0925, "lat": 51.375}}, {"id": 2654464, "name": "Bruichladdich", "country": "GB", "coord": {"lon": -6.36134, "lat": 55.766151}}, {"id": 7300017, "name": "Lawhitton Rural", "country": "GB", "coord": {"lon": -4.32263, "lat": 50.621391}}, {"id": 7301014, "name": "Llanfyllin", "country": "GB", "coord": {"lon": -3.31067, "lat": 52.774261}}, {"id": 2644053, "name": "Llanfyllin", "country": "GB", "coord": {"lon": -3.27187, "lat": 52.765701}}, {"id": 7298240, "name": "Epworth", "country": "GB", "coord": {"lon": -0.83465, "lat": 53.538929}}, {"id": 2642486, "name": "Milnathort", "country": "GB", "coord": {"lon": -3.4193, "lat": 56.226879}}, {"id": 2649298, "name": "County of Flintshire", "country": "GB", "coord": {"lon": -3.16667, "lat": 53.25}}, {"id": 7301170, "name": "Mostyn", "country": "GB", "coord": {"lon": -3.24684, "lat": 53.31588}}, {"id": 2644159, "name": "Llandarcy", "country": "GB", "coord": {"lon": -3.85657, "lat": 51.642262}}, {"id": 2640551, "name": "Payhembury", "country": "GB", "coord": {"lon": -3.29518, "lat": 50.80674}}, {"id": 7297046, "name": "Llangamarch", "country": "GB", "coord": {"lon": -3.58225, "lat": 52.08548}}, {"id": 7295209, "name": "Bala", "country": "GB", "coord": {"lon": -3.60141, "lat": 52.91077}}, {"id": 2655692, "name": "Biggar", "country": "GB", "coord": {"lon": -3.51667, "lat": 55.616669}}, {"id": 7293134, "name": "North Lodge", "country": "GB", "coord": {"lon": -1.55754, "lat": 54.873711}}, {"id": 2646228, "name": "Inchture", "country": "GB", "coord": {"lon": -3.16956, "lat": 56.445511}}, {"id": 7293619, "name": "Beddgelert", "country": "GB", "coord": {"lon": -4.06923, "lat": 53.028229}}, {"id": 2657340, "name": "Ampney Crucis", "country": "GB", "coord": {"lon": -1.905, "lat": 51.713989}}, {"id": 7298755, "name": "Maesycwmmer", "country": "GB", "coord": {"lon": -3.21639, "lat": 51.63755}}, {"id": 2638043, "name": "Shepherds Bush", "country": "GB", "coord": {"lon": -0.23767, "lat": 51.51569}}, {"id": 2644290, "name": "Little Massingham", "country": "GB", "coord": {"lon": 0.65888, "lat": 52.78561}}, {"id": 7292365, "name": "Bodedern", "country": "GB", "coord": {"lon": -4.49044, "lat": 53.293251}}, {"id": 2652649, "name": "Coedely", "country": "GB", "coord": {"lon": -3.4163, "lat": 51.56189}}, {"id": 2616814, "name": "M\u00f8lholm", "country": "DK", "coord": {"lon": 9.54402, "lat": 55.698959}}, {"id": 2620423, "name": "Herning Kommune", "country": "DK", "coord": {"lon": 9, "lat": 56.166672}}, {"id": 6141256, "name": "Saskatoon", "country": "CA", "coord": {"lon": -106.634521, "lat": 52.116791}}, {"id": 6183858, "name": "Wolfville", "country": "CA", "coord": {"lon": -64.365463, "lat": 45.08345}}, {"id": 6146143, "name": "Sherbrooke", "country": "CA", "coord": {"lon": -71.899078, "lat": 45.400082}}, {"id": 5897321, "name": "Bedford", "country": "CA", "coord": {"lon": -63.66732, "lat": 44.725521}}, {"id": 6160752, "name": "Sydney", "country": "CA", "coord": {"lon": -60.181751, "lat": 46.150139}}, {"id": 6545041, "name": "Lachine", "country": "CA", "coord": {"lon": -73.668991, "lat": 45.43177}}, {"id": 6138517, "name": "Saint John", "country": "CA", "coord": {"lon": -66.067657, "lat": 45.272709}}, {"id": 7798683, "name": "New Westminster", "country": "CA", "coord": {"lon": -122.91111, "lat": 49.20694}}, {"id": 5886182, "name": "Antigonish", "country": "CA", "coord": {"lon": -61.998581, "lat": 45.616852}}, {"id": 6094325, "name": "Orillia", "country": "CA", "coord": {"lon": -79.420677, "lat": 44.608681}}, {"id": 6073349, "name": "Midhurst", "country": "CA", "coord": {"lon": -79.732941, "lat": 44.450111}}, {"id": 5907166, "name": "Bradford", "country": "CA", "coord": {"lon": -79.566322, "lat": 44.11681}}, {"id": 5884051, "name": "Alliston", "country": "CA", "coord": {"lon": -79.866348, "lat": 44.150108}}, {"id": 5978353, "name": "Hull", "country": "CA", "coord": {"lon": -75.741051, "lat": 45.4445}}, {"id": 5925975, "name": "Collingwood", "country": "CA", "coord": {"lon": -80.216377, "lat": 44.483398}}, {"id": 5905308, "name": "Bolton", "country": "CA", "coord": {"lon": -79.737907, "lat": 43.87952}}, {"id": 5955895, "name": "Fort McMurray", "country": "CA", "coord": {"lon": -111.381027, "lat": 56.726761}}, {"id": 7871301, "name": "Kingsview Village", "country": "CA", "coord": {"lon": -79.554657, "lat": 43.700432}}, {"id": 6065566, "name": "Maple", "country": "CA", "coord": {"lon": -79.516312, "lat": 43.850109}}, {"id": 6141190, "name": "Sarnia", "country": "CA", "coord": {"lon": -82.404068, "lat": 42.978661}}, {"id": 5941602, "name": "Don Mills", "country": "CA", "coord": {"lon": -79.332901, "lat": 43.73341}}, {"id": 6185449, "name": "Yennadon", "country": "CA", "coord": {"lon": -122.585899, "lat": 49.232971}}, {"id": 6089426, "name": "North Bay", "country": "CA", "coord": {"lon": -79.466331, "lat": 46.316799}}, {"id": 5951036, "name": "Fairview", "country": "CA", "coord": {"lon": -118.386063, "lat": 56.06675}}, {"id": 6944113, "name": "Mont-Joli", "country": "CA", "coord": {"lon": -68.192139, "lat": 48.583881}}, {"id": 6111253, "name": "Portage", "country": "CA", "coord": {"lon": -64.06543, "lat": 46.66684}}, {"id": 6095246, "name": "Otway", "country": "CA", "coord": {"lon": -114.9188, "lat": 52.366829}}, {"id": 5977783, "name": "Houston", "country": "CA", "coord": {"lon": -126.670082, "lat": 54.399761}}, {"id": 6111867, "name": "Port Hawkesbury", "country": "CA", "coord": {"lon": -61.34853, "lat": 45.616852}}, {"id": 6126245, "name": "Rockcliffe Park", "country": "CA", "coord": {"lon": -75.68264, "lat": 45.4501}}, {"id": 6180550, "name": "Whitehorse", "country": "CA", "coord": {"lon": -135.053757, "lat": 60.71611}}, {"id": 6035615, "name": "Lacombe", "country": "CA", "coord": {"lon": -113.735298, "lat": 52.466808}}, {"id": 5975503, "name": "Hinton", "country": "CA", "coord": {"lon": -117.58567, "lat": 53.400089}}, {"id": 6180285, "name": "Whitecourt", "country": "CA", "coord": {"lon": -115.685478, "lat": 54.15015}}, {"id": 5946222, "name": "East Wiltshire", "country": "CA", "coord": {"lon": -63.213989, "lat": 46.254318}}, {"id": 6091191, "name": "Norwich", "country": "CA", "coord": {"lon": -80.599693, "lat": 42.983398}}, {"id": 5942547, "name": "Drayton Valley", "country": "CA", "coord": {"lon": -114.985443, "lat": 53.21682}}, {"id": 6166580, "name": "Tillsonburg", "country": "CA", "coord": {"lon": -80.726173, "lat": 42.859859}}, {"id": 6064180, "name": "Magog", "country": "CA", "coord": {"lon": -72.149094, "lat": 45.266781}}, {"id": 5964214, "name": "Granby", "country": "CA", "coord": {"lon": -72.73243, "lat": 45.383381}}, {"id": 5909294, "name": "Brockville", "country": "CA", "coord": {"lon": -75.68264, "lat": 44.583408}}, {"id": 6168768, "name": "Trenton", "country": "CA", "coord": {"lon": -77.577553, "lat": 44.099171}}, {"id": 6158027, "name": "Strathroy", "country": "CA", "coord": {"lon": -81.622322, "lat": 42.955101}}, {"id": 6122081, "name": "Richmond", "country": "CA", "coord": {"lon": -75.832657, "lat": 45.183399}}, {"id": 5965812, "name": "Greater Napanee", "country": "CA", "coord": {"lon": -76.94944, "lat": 44.250118}}, {"id": 6050619, "name": "Laval-des-Rapides", "country": "CA", "coord": {"lon": -73.699181, "lat": 45.550079}}, {"id": 6139184, "name": "Saint-Vincent-de-Paul", "country": "CA", "coord": {"lon": -73.649178, "lat": 45.616779}}, {"id": 6101546, "name": "Perth", "country": "CA", "coord": {"lon": -76.24939, "lat": 44.900108}}, {"id": 5937612, "name": "Delson", "country": "CA", "coord": {"lon": -73.549171, "lat": 45.366779}}, {"id": 6107761, "name": "Point Edward", "country": "CA", "coord": {"lon": -82.399834, "lat": 43.00008}}, {"id": 5890542, "name": "Baie-DUrfe", "country": "CA", "coord": {"lon": -73.915863, "lat": 45.413971}}, {"id": 6103581, "name": "Petrolia", "country": "CA", "coord": {"lon": -82.149811, "lat": 42.866779}}, {"id": 6170584, "name": "Turtleford", "country": "CA", "coord": {"lon": -108.951439, "lat": 53.38348}}, {"id": 6087579, "name": "New Glasgow", "country": "CA", "coord": {"lon": -62.648628, "lat": 45.583439}}, {"id": 6095416, "name": "Outlook", "country": "CA", "coord": {"lon": -107.051277, "lat": 51.50008}}, {"id": 5916786, "name": "Cardinal", "country": "CA", "coord": {"lon": -75.382629, "lat": 44.783409}}, {"id": 6067959, "name": "Mattawa", "country": "CA", "coord": {"lon": -78.69957, "lat": 46.316811}}, {"id": 5882142, "name": "Acton Vale", "country": "CA", "coord": {"lon": -72.565819, "lat": 45.65007}}, {"id": 5962442, "name": "Goderich", "country": "CA", "coord": {"lon": -81.716476, "lat": 43.75008}}, {"id": 6139216, "name": "Saint-Zotique", "country": "CA", "coord": {"lon": -74.249237, "lat": 45.250092}}, {"id": 6078636, "name": "Morinville", "country": "CA", "coord": {"lon": -113.652031, "lat": 53.80014}}, {"id": 6073749, "name": "Millbrook", "country": "CA", "coord": {"lon": -78.449539, "lat": 44.15012}}, {"id": 6137696, "name": "Sainte-Adele", "country": "CA", "coord": {"lon": -74.132507, "lat": 45.950081}}, {"id": 6115144, "name": "Queenston", "country": "CA", "coord": {"lon": -79.049568, "lat": 43.166821}}, {"id": 6118091, "name": "Redcliff", "country": "CA", "coord": {"lon": -110.78495, "lat": 50.083359}}, {"id": 6138815, "name": "Saint-Nazaire", "country": "CA", "coord": {"lon": -71.549088, "lat": 48.583389}}, {"id": 5924109, "name": "Cloridorme", "country": "CA", "coord": {"lon": -64.91539, "lat": 49.166801}}, {"id": 4006702, "name": "Ensenada", "country": "MX", "coord": {"lon": -116.616669, "lat": 31.866671}}, {"id": 4008303, "name": "El Pueblito", "country": "MX", "coord": {"lon": -100.449997, "lat": 20.533331}}, {"id": 3514780, "name": "Estado de Veracruz-Llave", "country": "MX", "coord": {"lon": -96.666672, "lat": 19.33333}}, {"id": 3992619, "name": "Piedras Negras", "country": "MX", "coord": {"lon": -100.51667, "lat": 28.700001}}, {"id": 3522509, "name": "Estado de Oaxaca", "country": "MX", "coord": {"lon": -96.5, "lat": 17}}, {"id": 3531732, "name": "Campeche", "country": "MX", "coord": {"lon": -90.533333, "lat": 19.85}}, {"id": 4003626, "name": "La Albarrada", "country": "MX", "coord": {"lon": -103.716667, "lat": 19.23333}}, {"id": 3998655, "name": "Leon", "country": "MX", "coord": {"lon": -101.666672, "lat": 21.116671}}, {"id": 3995523, "name": "Monclova", "country": "MX", "coord": {"lon": -101.416672, "lat": 26.9}}, {"id": 3996472, "name": "Mascota", "country": "MX", "coord": {"lon": -104.783333, "lat": 20.51667}}, {"id": 4019231, "name": "Estado de Aguascalientes", "country": "MX", "coord": {"lon": -102.5, "lat": 22}}, {"id": 3816237, "name": "Ocosingo", "country": "MX", "coord": {"lon": -92.038887, "lat": 16.90556}}, {"id": 4000915, "name": "La Partida", "country": "MX", "coord": {"lon": -103.283333, "lat": 25.58333}}, {"id": 3530757, "name": "Cholula", "country": "MX", "coord": {"lon": -98.30352, "lat": 19.06406}}, {"id": 3988214, "name": "Salamanca", "country": "MX", "coord": {"lon": -101.199997, "lat": 20.566669}}, {"id": 3526621, "name": "Jalapa", "country": "MX", "coord": {"lon": -95.466667, "lat": 16.5}}, {"id": 3981254, "name": "Torreon", "country": "MX", "coord": {"lon": -103.433327, "lat": 25.549999}}, {"id": 6942826, "name": "La Paz", "country": "MX", "coord": {"lon": -110.300003, "lat": 24.133329}}, {"id": 4012176, "name": "Culiacan", "country": "MX", "coord": {"lon": -107.389717, "lat": 24.79944}}, {"id": 4008420, "name": "El Potos\u00ed", "country": "MX", "coord": {"lon": -100.316673, "lat": 24.85}}, {"id": 3992212, "name": "Poncitlan", "country": "MX", "coord": {"lon": -102.916672, "lat": 20.366671}}, {"id": 3514031, "name": "Zimapan", "country": "MX", "coord": {"lon": -99.349998, "lat": 20.75}}, {"id": 3526957, "name": "Huehuetoca", "country": "MX", "coord": {"lon": -99.20417, "lat": 19.84889}}, {"id": 3984717, "name": "Santa Ana", "country": "MX", "coord": {"lon": -111.116669, "lat": 30.549999}}, {"id": 3514876, "name": "Valladolid", "country": "MX", "coord": {"lon": -88.199364, "lat": 20.68812}}, {"id": 3515062, "name": "Tulancingo", "country": "MX", "coord": {"lon": -98.366669, "lat": 20.08333}}, {"id": 3515904, "name": "Tepeaca", "country": "MX", "coord": {"lon": -97.900002, "lat": 18.966669}}, {"id": 3827341, "name": "Tres Marias", "country": "MX", "coord": {"lon": -99.243057, "lat": 19.052219}}, {"id": 4013724, "name": "Ciudad Camargo", "country": "MX", "coord": {"lon": -105.166672, "lat": 27.66667}}, {"id": 3527021, "name": "Hualahuises", "country": "MX", "coord": {"lon": -99.673332, "lat": 24.88472}}, {"id": 3977811, "name": "Minas de Barroteran", "country": "MX", "coord": {"lon": -101.283333, "lat": 27.633329}}, {"id": 3527164, "name": "Halacho", "country": "MX", "coord": {"lon": -90.083328, "lat": 20.48333}}, {"id": 4006532, "name": "Esqueda", "country": "MX", "coord": {"lon": -109.583328, "lat": 30.716669}}, {"id": 2930817, "name": "Elp", "country": "DE", "coord": {"lon": 7, "lat": 51.200001}}, {"id": 2911297, "name": "Freie und Hansestadt Hamburg", "country": "DE", "coord": {"lon": 10, "lat": 53.583328}}, {"id": 2956829, "name": "Altstadt", "country": "DE", "coord": {"lon": 10, "lat": 53.549999}}, {"id": 2812833, "name": "Weihenstephan", "country": "DE", "coord": {"lon": 11.73333, "lat": 48.400002}}, {"id": 2939256, "name": "Dambach", "country": "DE", "coord": {"lon": 10.97363, "lat": 49.46349}}, {"id": 2815239, "name": "Walburger", "country": "DE", "coord": {"lon": 8.11667, "lat": 51.583328}}, {"id": 2852456, "name": "Landkreis Potsdam-Mittelmark", "country": "DE", "coord": {"lon": 12.675, "lat": 52.21944}}, {"id": 6547684, "name": "Stahnsdorf", "country": "DE", "coord": {"lon": 13.1918, "lat": 52.358501}}, {"id": 2829657, "name": "Stahnsdorf", "country": "DE", "coord": {"lon": 13.21667, "lat": 52.383331}}, {"id": 3249071, "name": "Kreisfreie Stadt L\u00fcbeck", "country": "DE", "coord": {"lon": 10.74361, "lat": 53.89333}}, {"id": 2875601, "name": "Luebeck", "country": "DE", "coord": {"lon": 10.68729, "lat": 53.868931}}, {"id": 3221033, "name": "Landkreis Hannover", "country": "DE", "coord": {"lon": 9.74, "lat": 52.448891}}, {"id": 6547528, "name": "Wadgassen", "country": "DE", "coord": {"lon": 6.78333, "lat": 49.266701}}, {"id": 2837291, "name": "Schneverdingen", "country": "DE", "coord": {"lon": 9.8, "lat": 53.116669}}, {"id": 2944388, "name": "Bremen", "country": "DE", "coord": {"lon": 8.80777, "lat": 53.075161}}, {"id": 3220966, "name": "Landkreis Darmstadt-Dieburg", "country": "DE", "coord": {"lon": 8.75667, "lat": 49.856392}}, {"id": 6553169, "name": "Ro\u00dfdorf", "country": "DE", "coord": {"lon": 8.7441, "lat": 49.862301}}, {"id": 2844756, "name": "Rossdorf", "country": "DE", "coord": {"lon": 8.76167, "lat": 49.859718}}, {"id": 2930220, "name": "Engelshof", "country": "DE", "coord": {"lon": 7.75, "lat": 49.450001}}, {"id": 2955486, "name": "Arnoldsweiler", "country": "DE", "coord": {"lon": 6.48992, "lat": 50.838089}}, {"id": 3220811, "name": "Landkreis Landshut", "country": "DE", "coord": {"lon": 12.18056, "lat": 48.57056}}, {"id": 6556508, "name": "Kumhausen", "country": "DE", "coord": {"lon": 12.1667, "lat": 48.5}}, {"id": 2882563, "name": "Kumhausen", "country": "DE", "coord": {"lon": 12.16667, "lat": 48.5}}, {"id": 2814775, "name": "Waldstetten", "country": "DE", "coord": {"lon": 9.82135, "lat": 48.766151}}, {"id": 2941383, "name": "B\u00fcrgerfeld", "country": "DE", "coord": {"lon": 8.2, "lat": 53.166672}}, {"id": 2895992, "name": "Ingolstadt", "country": "DE", "coord": {"lon": 11.43333, "lat": 48.76667}}, {"id": 2879690, "name": "Leerort", "country": "DE", "coord": {"lon": 7.43333, "lat": 53.216671}}, {"id": 2813383, "name": "Wegeleben", "country": "DE", "coord": {"lon": 11.16667, "lat": 51.883331}}, {"id": 2853304, "name": "Pl\u00e4tz", "country": "DE", "coord": {"lon": 11.88669, "lat": 52.738468}}, {"id": 2813308, "name": "Wehingen", "country": "DE", "coord": {"lon": 8.79151, "lat": 48.145329}}, {"id": 3220890, "name": "Kreisfreie Stadt Aschaffenburg", "country": "DE", "coord": {"lon": 9.14778, "lat": 49.966942}}, {"id": 3221017, "name": "Landkreis Peine", "country": "DE", "coord": {"lon": 10.26111, "lat": 52.317219}}, {"id": 6557392, "name": "Peine, Stadt", "country": "DE", "coord": {"lon": 10.23065, "lat": 52.323299}}, {"id": 2885552, "name": "K\u00f6ppern", "country": "DE", "coord": {"lon": 8.64967, "lat": 50.274311}}, {"id": 2933789, "name": "Echterdingen", "country": "DE", "coord": {"lon": 9.16775, "lat": 48.688438}}, {"id": 2905496, "name": "Herzberg am Harz", "country": "DE", "coord": {"lon": 10.33333, "lat": 51.650002}}, {"id": 2866322, "name": "Netze", "country": "DE", "coord": {"lon": 9.0941, "lat": 51.223598}}, {"id": 2949078, "name": "Bierstra\u00df", "country": "DE", "coord": {"lon": 6.1, "lat": 50.866669}}, {"id": 2807465, "name": "Wismar", "country": "DE", "coord": {"lon": 11.46667, "lat": 53.900002}}, {"id": 6555249, "name": "Maxdorf", "country": "DE", "coord": {"lon": 8.29167, "lat": 49.488098}}, {"id": 2872686, "name": "Maxdorf", "country": "DE", "coord": {"lon": 8.29167, "lat": 49.48806}}, {"id": 3220995, "name": "Kreisfreie Stadt Kassel", "country": "DE", "coord": {"lon": 9.46722, "lat": 51.32111}}, {"id": 2906464, "name": "Hengersberg", "country": "DE", "coord": {"lon": 13.05, "lat": 48.783329}}, {"id": 2857792, "name": "Offenhausen", "country": "DE", "coord": {"lon": 10.02258, "lat": 48.40163}}, {"id": 2860051, "name": "Oberkn\u00f6ringen", "country": "DE", "coord": {"lon": 10.4, "lat": 48.433331}}, {"id": 2839420, "name": "Schierenbrink", "country": "DE", "coord": {"lon": 8.85, "lat": 52.166672}}, {"id": 2929670, "name": "Erfurt", "country": "DE", "coord": {"lon": 11.03333, "lat": 50.98333}}, {"id": 2938323, "name": "Delmenhorst", "country": "DE", "coord": {"lon": 8.61667, "lat": 53.049999}}, {"id": 6556329, "name": "Unterf\u00f6hring", "country": "DE", "coord": {"lon": 11.6584, "lat": 48.1884}}, {"id": 2819568, "name": "Unterfohring", "country": "DE", "coord": {"lon": 11.64293, "lat": 48.192532}}, {"id": 2944012, "name": "Brock", "country": "DE", "coord": {"lon": 7.78333, "lat": 51.833328}}, {"id": 2934955, "name": "Driesch", "country": "DE", "coord": {"lon": 7.2, "lat": 50.799999}}, {"id": 2808148, "name": "Windischeschenbach", "country": "DE", "coord": {"lon": 12.15889, "lat": 49.799721}}, {"id": 2806654, "name": "Wolfsburg", "country": "DE", "coord": {"lon": 10.8, "lat": 52.433331}}, {"id": 2890155, "name": "Kitzscher", "country": "DE", "coord": {"lon": 12.56667, "lat": 51.166672}}, {"id": 2948652, "name": "Birkenau", "country": "DE", "coord": {"lon": 8.70694, "lat": 49.5625}}, {"id": 3220830, "name": "Landkreis Eichst\u00e4tt", "country": "DE", "coord": {"lon": 11.37528, "lat": 48.909168}}, {"id": 6556171, "name": "Lenting", "country": "DE", "coord": {"lon": 11.4667, "lat": 48.799999}}, {"id": 2878751, "name": "Lenting", "country": "DE", "coord": {"lon": 11.46667, "lat": 48.799999}}, {"id": 2824732, "name": "Sulzgries", "country": "DE", "coord": {"lon": 9.29804, "lat": 48.75602}}, {"id": 6556320, "name": "Oberschlei\u00dfheim", "country": "DE", "coord": {"lon": 11.5677, "lat": 48.248798}}, {"id": 2859147, "name": "Oberschleissheim", "country": "DE", "coord": {"lon": 11.56667, "lat": 48.25}}, {"id": 3205790, "name": "Br\u00f6mmenkamp", "country": "DE", "coord": {"lon": 6.73333, "lat": 51.566669}}, {"id": 6555704, "name": "Ispringen", "country": "DE", "coord": {"lon": 8.66667, "lat": 48.916698}}, {"id": 2895636, "name": "Ispringen", "country": "DE", "coord": {"lon": 8.66667, "lat": 48.916672}}, {"id": 2950881, "name": "Berchtesgaden", "country": "DE", "coord": {"lon": 13, "lat": 47.633331}}, {"id": 2920203, "name": "Glane", "country": "DE", "coord": {"lon": 8.05, "lat": 52.150002}}, {"id": 2917833, "name": "Greding", "country": "DE", "coord": {"lon": 11.36139, "lat": 49.048328}}, {"id": 3274966, "name": "Lauda-Konigshofen", "country": "DE", "coord": {"lon": 9.70417, "lat": 49.565281}}, {"id": 2847686, "name": "Rheden", "country": "DE", "coord": {"lon": 9.78333, "lat": 52.066669}}, {"id": 2853657, "name": "Kreis Pinneberg", "country": "DE", "coord": {"lon": 9.75722, "lat": 53.73444}}, {"id": 6551708, "name": "Tangstedt", "country": "DE", "coord": {"lon": 9.85, "lat": 53.666698}}, {"id": 2824246, "name": "Tangstedt", "country": "DE", "coord": {"lon": 9.85, "lat": 53.666672}}, {"id": 3220752, "name": "Landkreis Ludwigsburg", "country": "DE", "coord": {"lon": 9.13333, "lat": 48.916672}}, {"id": 6555489, "name": "Schwieberdingen", "country": "DE", "coord": {"lon": 9.07451, "lat": 48.876129}}, {"id": 2834226, "name": "Schwieberdingen", "country": "DE", "coord": {"lon": 9.07439, "lat": 48.876438}}, {"id": 2917698, "name": "Grenzach-Wyhlen", "country": "DE", "coord": {"lon": 7.68333, "lat": 47.549999}}, {"id": 2812084, "name": "Weisenheim am Sand", "country": "DE", "coord": {"lon": 8.24778, "lat": 49.518059}}, {"id": 6556312, "name": "Grasbrunn", "country": "DE", "coord": {"lon": 11.75, "lat": 48.083302}}, {"id": 2918037, "name": "Grasbrunn", "country": "DE", "coord": {"lon": 11.74361, "lat": 48.079048}}, {"id": 3247458, "name": "Landkreis Neuwied", "country": "DE", "coord": {"lon": 7.47806, "lat": 50.53944}}, {"id": 6553853, "name": "Rengsdorf", "country": "DE", "coord": {"lon": 7.5, "lat": 50.5}}, {"id": 2848215, "name": "Rengsdorf", "country": "DE", "coord": {"lon": 7.5, "lat": 50.5}}, {"id": 2862620, "name": "Nienburg", "country": "DE", "coord": {"lon": 9.21667, "lat": 52.633331}}, {"id": 2930341, "name": "Engbr\u00fcck", "country": "DE", "coord": {"lon": 6.51667, "lat": 51.183331}}, {"id": 2941501, "name": "Burg bei Magdeburg", "country": "DE", "coord": {"lon": 11.85493, "lat": 52.271519}}, {"id": 2895044, "name": "Jena", "country": "DE", "coord": {"lon": 11.58333, "lat": 50.933331}}, {"id": 6556231, "name": "Olching", "country": "DE", "coord": {"lon": 11.32783, "lat": 48.207829}}, {"id": 2907851, "name": "Heidenheim an der Brenz", "country": "DE", "coord": {"lon": 10.15162, "lat": 48.677979}}, {"id": 6555416, "name": "Denkendorf", "country": "DE", "coord": {"lon": 9.31847, "lat": 48.695271}}, {"id": 2938253, "name": "Denkendorf", "country": "DE", "coord": {"lon": 9.31675, "lat": 48.695549}}, {"id": 2948164, "name": "Bitterfeld", "country": "DE", "coord": {"lon": 12.31667, "lat": 51.616669}}, {"id": 2812502, "name": "Weil im Schonbuch", "country": "DE", "coord": {"lon": 9.06355, "lat": 48.6227}}, {"id": 2958802, "name": "Alterhofen", "country": "DE", "coord": {"lon": 12.62012, "lat": 48.846588}}, {"id": 2949803, "name": "Besigheim", "country": "DE", "coord": {"lon": 9.13333, "lat": 48.98333}}, {"id": 2942187, "name": "Buchwald", "country": "DE", "coord": {"lon": 14.01667, "lat": 51.51667}}, {"id": 2938540, "name": "Deggendorf", "country": "DE", "coord": {"lon": 12.96667, "lat": 48.833328}}, {"id": 2918752, "name": "Gotha", "country": "DE", "coord": {"lon": 10.70193, "lat": 50.948231}}, {"id": 2959927, "name": "Aalen", "country": "DE", "coord": {"lon": 10.0933, "lat": 48.837769}}, {"id": 2873632, "name": "Marienberg", "country": "DE", "coord": {"lon": 13.16667, "lat": 50.650002}}, {"id": 2838939, "name": "Schlaitdorf", "country": "DE", "coord": {"lon": 9.22268, "lat": 48.604309}}, {"id": 2941119, "name": "Burgstall", "country": "DE", "coord": {"lon": 10.87672, "lat": 49.550049}}, {"id": 2925101, "name": "Freiheit", "country": "DE", "coord": {"lon": 8.98333, "lat": 54.76667}}, {"id": 2922363, "name": "Gasteig", "country": "DE", "coord": {"lon": 12.13333, "lat": 47.783329}}, {"id": 7669417, "name": "St. Mang", "country": "DE", "coord": {"lon": 10.32629, "lat": 47.71265}}, {"id": 2891972, "name": "Keferloh", "country": "DE", "coord": {"lon": 11.72748, "lat": 48.095051}}, {"id": 6556206, "name": "Kranzberg", "country": "DE", "coord": {"lon": 11.6167, "lat": 48.400002}}, {"id": 2884739, "name": "Kranzberg", "country": "DE", "coord": {"lon": 11.61246, "lat": 48.406132}}, {"id": 2892356, "name": "Katrepel", "country": "DE", "coord": {"lon": 8.91667, "lat": 53.133331}}, {"id": 2873759, "name": "Marburg an der Lahn", "country": "DE", "coord": {"lon": 8.76667, "lat": 50.816669}}, {"id": 2824801, "name": "Sulzbach-Rosenberg", "country": "DE", "coord": {"lon": 11.75167, "lat": 49.498329}}, {"id": 2891339, "name": "Ketschendorf", "country": "DE", "coord": {"lon": 10.96667, "lat": 50.25}}, {"id": 2933618, "name": "Eckersbach", "country": "DE", "coord": {"lon": 12.5, "lat": 50.73333}}, {"id": 2835421, "name": "Schwaig", "country": "DE", "coord": {"lon": 11.20111, "lat": 49.46944}}, {"id": 2840293, "name": "Scharnhausen", "country": "DE", "coord": {"lon": 9.26293, "lat": 48.70739}}, {"id": 2850539, "name": "Ramstein", "country": "DE", "coord": {"lon": 7.53333, "lat": 49.450001}}, {"id": 2861315, "name": "Oberbehme", "country": "DE", "coord": {"lon": 8.66667, "lat": 52.183331}}, {"id": 2927939, "name": "Falkenkrug", "country": "DE", "coord": {"lon": 8.89652, "lat": 51.933208}}, {"id": 2944368, "name": "Bremerhaven", "country": "DE", "coord": {"lon": 8.58333, "lat": 53.549999}}, {"id": 2821416, "name": "Trebur", "country": "DE", "coord": {"lon": 8.41611, "lat": 49.93111}}, {"id": 2952406, "name": "Barsinghausen", "country": "DE", "coord": {"lon": 9.45, "lat": 52.299999}}, {"id": 6555290, "name": "Nieder-Olm", "country": "DE", "coord": {"lon": 8.21333, "lat": 49.9142}}, {"id": 2863014, "name": "Nieder-Olm", "country": "DE", "coord": {"lon": 8.20533, "lat": 49.911659}}, {"id": 2837150, "name": "Sch\u00f6ller", "country": "DE", "coord": {"lon": 7.01667, "lat": 51.23333}}, {"id": 2945358, "name": "Brandenburg an der Havel", "country": "DE", "coord": {"lon": 12.55, "lat": 52.416672}}, {"id": 2844588, "name": "Rostock", "country": "DE", "coord": {"lon": 12.14049, "lat": 54.088699}}, {"id": 2814374, "name": "Walthersdorf", "country": "DE", "coord": {"lon": 12.96667, "lat": 50.549999}}, {"id": 2859846, "name": "Oberl\u00fcghausen", "country": "DE", "coord": {"lon": 7.20154, "lat": 50.901649}}, {"id": 2954804, "name": "Au", "country": "DE", "coord": {"lon": 12.13333, "lat": 47.849998}}, {"id": 2893237, "name": "Kandern", "country": "DE", "coord": {"lon": 7.66667, "lat": 47.716671}}, {"id": 2872155, "name": "Meissen", "country": "DE", "coord": {"lon": 13.4737, "lat": 51.161579}}, {"id": 2813040, "name": "Weiden", "country": "DE", "coord": {"lon": 12.15667, "lat": 49.677502}}, {"id": 2836089, "name": "Schriesheim", "country": "DE", "coord": {"lon": 8.67278, "lat": 49.477779}}, {"id": 6554391, "name": "Landscheid", "country": "DE", "coord": {"lon": 6.76667, "lat": 49.983299}}, {"id": 2881500, "name": "Landscheid", "country": "DE", "coord": {"lon": 6.76667, "lat": 49.98333}}, {"id": 2948290, "name": "Bischofsheim", "country": "DE", "coord": {"lon": 8.36722, "lat": 49.993889}}, {"id": 2911144, "name": "Hammerb\u00fchl", "country": "DE", "coord": {"lon": 11.28333, "lat": 49.700001}}, {"id": 2949612, "name": "Beuerlbach", "country": "DE", "coord": {"lon": 10.09137, "lat": 49.156391}}, {"id": 2847889, "name": "Reu\u00dfen", "country": "DE", "coord": {"lon": 12.1, "lat": 51.083328}}, {"id": 2871813, "name": "Mering", "country": "DE", "coord": {"lon": 10.98461, "lat": 48.265598}}, {"id": 6556951, "name": "Kleinostheim", "country": "DE", "coord": {"lon": 9.06195, "lat": 50.002701}}, {"id": 2930695, "name": "Elster", "country": "DE", "coord": {"lon": 12.83333, "lat": 51.833328}}, {"id": 2875014, "name": "Luschendorf", "country": "DE", "coord": {"lon": 10.73333, "lat": 54}}, {"id": 2849913, "name": "Raunheim", "country": "DE", "coord": {"lon": 8.45, "lat": 50.01667}}, {"id": 2902942, "name": "Hochstra\u00df", "country": "DE", "coord": {"lon": 6.65, "lat": 51.450001}}, {"id": 3214112, "name": "Landkreis Waldshut", "country": "DE", "coord": {"lon": 8.255, "lat": 47.705559}}, {"id": 6555919, "name": "Rickenbach", "country": "DE", "coord": {"lon": 7.98333, "lat": 47.616699}}, {"id": 2847442, "name": "Rickenbach", "country": "DE", "coord": {"lon": 7.97873, "lat": 47.61895}}, {"id": 2929350, "name": "Ernst", "country": "DE", "coord": {"lon": 7.23333, "lat": 50.150002}}, {"id": 2847669, "name": "Rheinau", "country": "DE", "coord": {"lon": 8.2, "lat": 48.866669}}, {"id": 2928381, "name": "Eutin", "country": "DE", "coord": {"lon": 10.61667, "lat": 54.133331}}, {"id": 2890957, "name": "Kie\u00dfling", "country": "DE", "coord": {"lon": 11.66667, "lat": 50.416672}}, {"id": 2852144, "name": "Preussisch Oldendorf", "country": "DE", "coord": {"lon": 8.5, "lat": 52.299999}}, {"id": 3220970, "name": "Hochtaunuskreis", "country": "DE", "coord": {"lon": 8.51694, "lat": 50.285278}}, {"id": 6553182, "name": "Wehrheim", "country": "DE", "coord": {"lon": 8.5683, "lat": 50.294498}}, {"id": 2915372, "name": "Grosskrotzenburg", "country": "DE", "coord": {"lon": 8.98333, "lat": 50.083328}}, {"id": 2871705, "name": "Merz", "country": "DE", "coord": {"lon": 14.35, "lat": 52.200001}}, {"id": 6553143, "name": "Wenden", "country": "DE", "coord": {"lon": 7.845, "lat": 50.987999}}, {"id": 2847604, "name": "Rhein-Sieg-Kreis", "country": "DE", "coord": {"lon": 7.26361, "lat": 50.75861}}, {"id": 2812182, "name": "Weingartsgasse", "country": "DE", "coord": {"lon": 7.28565, "lat": 50.78838}}, {"id": 2803463, "name": "Landkreis Aichach-Friedberg", "country": "DE", "coord": {"lon": 11.05472, "lat": 48.417221}}, {"id": 2927054, "name": "Feucht", "country": "DE", "coord": {"lon": 11.21389, "lat": 49.376671}}, {"id": 3247434, "name": "Kreis Neuss", "country": "DE", "coord": {"lon": 6.65389, "lat": 51.165279}}, {"id": 6556232, "name": "Puchheim", "country": "DE", "coord": {"lon": 11.35097, "lat": 48.168999}}, {"id": 2858326, "name": "Ochsenhausen", "country": "DE", "coord": {"lon": 9.95, "lat": 48.066669}}, {"id": 2809191, "name": "Wiesentheid", "country": "DE", "coord": {"lon": 10.35, "lat": 49.799999}}, {"id": 2934728, "name": "Duderstadt", "country": "DE", "coord": {"lon": 10.25951, "lat": 51.513119}}, {"id": 2855499, "name": "Papenmoorland", "country": "DE", "coord": {"lon": 7.95, "lat": 53.533329}}, {"id": 2934495, "name": "Durchhausen", "country": "DE", "coord": {"lon": 8.68333, "lat": 48.033329}}, {"id": 2930522, "name": "Landkreis Emmendingen", "country": "DE", "coord": {"lon": 7.88556, "lat": 48.149719}}, {"id": 6555768, "name": "Malterdingen", "country": "DE", "coord": {"lon": 7.8, "lat": 48.166698}}, {"id": 2928823, "name": "Esseite", "country": "DE", "coord": {"lon": 7.03333, "lat": 52.200001}}, {"id": 2912266, "name": "Hahnenblecher", "country": "DE", "coord": {"lon": 7.11667, "lat": 51.049999}}, {"id": 2821878, "name": "Tonning", "country": "DE", "coord": {"lon": 8.95, "lat": 54.316669}}, {"id": 2933945, "name": "Ebersberg", "country": "DE", "coord": {"lon": 11.97063, "lat": 48.077099}}, {"id": 6555464, "name": "Kuchen", "country": "DE", "coord": {"lon": 9.80011, "lat": 48.63586}}, {"id": 2883151, "name": "Kuchen", "country": "DE", "coord": {"lon": 9.79989, "lat": 48.63583}}, {"id": 2856408, "name": "Osterode", "country": "DE", "coord": {"lon": 10.81667, "lat": 51.566669}}, {"id": 2891640, "name": "Kempenich", "country": "DE", "coord": {"lon": 7.13333, "lat": 50.416672}}, {"id": 2841707, "name": "Sandwisch", "country": "DE", "coord": {"lon": 7.98333, "lat": 52.400002}}, {"id": 6555415, "name": "Deizisau", "country": "DE", "coord": {"lon": 9.38923, "lat": 48.713509}}, {"id": 2938391, "name": "Deizisau", "country": "DE", "coord": {"lon": 9.3861, "lat": 48.7122}}, {"id": 2875909, "name": "Lorch", "country": "DE", "coord": {"lon": 9.6914, "lat": 48.798328}}, {"id": 6555524, "name": "Leingarten", "country": "DE", "coord": {"lon": 9.1089, "lat": 49.147449}}, {"id": 3220835, "name": "Landkreis Miesbach", "country": "DE", "coord": {"lon": 11.81611, "lat": 47.771671}}, {"id": 6556281, "name": "Valley", "country": "DE", "coord": {"lon": 11.7833, "lat": 47.900002}}, {"id": 2817904, "name": "Valley", "country": "DE", "coord": {"lon": 11.77915, "lat": 47.893101}}, {"id": 2861814, "name": "Northeim", "country": "DE", "coord": {"lon": 10, "lat": 51.700001}}, {"id": 6556895, "name": "Schwarzenbruck", "country": "DE", "coord": {"lon": 11.25175, "lat": 49.360199}}, {"id": 2834955, "name": "Schwarzenbruck", "country": "DE", "coord": {"lon": 11.24333, "lat": 49.35778}}, {"id": 2890278, "name": "Kirrweiler", "country": "DE", "coord": {"lon": 8.16556, "lat": 49.301941}}, {"id": 2827574, "name": "Stelle", "country": "DE", "coord": {"lon": 10.11138, "lat": 53.384159}}, {"id": 2953336, "name": "Bad Sooden-Allendorf", "country": "DE", "coord": {"lon": 9.98333, "lat": 51.283329}}, {"id": 2808277, "name": "Windberg", "country": "DE", "coord": {"lon": 6.33333, "lat": 51.299999}}, {"id": 2829456, "name": "Landkreis Starnberg", "country": "DE", "coord": {"lon": 11.29583, "lat": 48.014999}}, {"id": 6556387, "name": "Gauting", "country": "DE", "coord": {"lon": 11.3834, "lat": 48.066399}}, {"id": 2953775, "name": "Babelsberg", "country": "DE", "coord": {"lon": 13.1, "lat": 52.400002}}, {"id": 2903240, "name": "Hochfeld", "country": "DE", "coord": {"lon": 6.96667, "lat": 51.666672}}, {"id": 6555723, "name": "Lo\u00dfburg", "country": "DE", "coord": {"lon": 8.45, "lat": 48.400002}}, {"id": 2875815, "name": "Lossburg", "country": "DE", "coord": {"lon": 8.45, "lat": 48.400002}}, {"id": 2908828, "name": "H\u00e4user", "country": "DE", "coord": {"lon": 10.26667, "lat": 47.549999}}, {"id": 2916611, "name": "Grossenkneten", "country": "DE", "coord": {"lon": 8.26667, "lat": 52.950001}}, {"id": 6556307, "name": "Aschheim", "country": "DE", "coord": {"lon": 11.72255, "lat": 48.171902}}, {"id": 2829318, "name": "Staufen im Breisgau", "country": "DE", "coord": {"lon": 7.73333, "lat": 47.883331}}, {"id": 6553312, "name": "H\u00fcmmel", "country": "DE", "coord": {"lon": 6.78333, "lat": 50.466702}}, {"id": 2864869, "name": "Neuhofen", "country": "DE", "coord": {"lon": 8.42472, "lat": 49.42778}}, {"id": 2867198, "name": "Nagel", "country": "DE", "coord": {"lon": 11.91667, "lat": 49.98333}}, {"id": 2949694, "name": "Bettingerbr\u00fcck", "country": "DE", "coord": {"lon": 6.85, "lat": 49.433331}}, {"id": 2812626, "name": "Weilburg", "country": "DE", "coord": {"lon": 8.25, "lat": 50.48333}}, {"id": 2946001, "name": "B\u00f6rstel", "country": "DE", "coord": {"lon": 8.75, "lat": 52.216671}}, {"id": 2951843, "name": "Bayerisch Gmain", "country": "DE", "coord": {"lon": 12.9, "lat": 47.716671}}, {"id": 2848104, "name": "Reppinghausen", "country": "DE", "coord": {"lon": 7.53333, "lat": 51.083328}}, {"id": 2933792, "name": "Echte", "country": "DE", "coord": {"lon": 10.06667, "lat": 51.783329}}, {"id": 2859002, "name": "Obers\u00f6lden", "country": "DE", "coord": {"lon": 13.48333, "lat": 48.583328}},