[{"id": 6434546, "name": "Sion-les-Mines", "country": "FR", "coord": {"lon": -1.58333, "lat": 47.73333}}, {"id": 2974485, "name": "Sion-les-Mines", "country": "FR", "coord": {"lon": -1.5919, "lat": 47.73476}}, {"id": 6425243, "name": "Sinceny", "country": "FR", "coord": {"lon": 3.25, "lat": 49.599998}}, {"id": 2974506, "name": "Sinceny", "country": "FR", "coord": {"lon": 3.24679, "lat": 49.596191}}, {"id": 6427092, "name": "Simiane-Collongue", "country": "FR", "coord": {"lon": 5.4332, "lat": 43.431301}}, {"id": 2974519, "name": "Simiane-Collongue", "country": "FR", "coord": {"lon": 5.43454, "lat": 43.430672}}, {"id": 6441839, "name": "Simandres", "country": "FR", "coord": {"lon": 4.86667, "lat": 45.616669}}, {"id": 2974524, "name": "Simandres", "country": "FR", "coord": {"lon": 4.87087, "lat": 45.619789}}, {"id": 6442497, "name": "Simandre", "country": "FR", "coord": {"lon": 4.9886, "lat": 46.6227}}, {"id": 2974525, "name": "Simandre", "country": "FR", "coord": {"lon": 4.98777, "lat": 46.623638}}, {"id": 6615081, "name": "Silly-le-Long", "country": "FR", "coord": {"lon": 2.8, "lat": 49.099998}}, {"id": 2974534, "name": "Silly-le-Long", "country": "FR", "coord": {"lon": 2.79226, "lat": 49.107491}}, {"id": 6454673, "name": "Sillingy", "country": "FR", "coord": {"lon": 6.03333, "lat": 45.950001}}, {"id": 2974540, "name": "Sillingy", "country": "FR", "coord": {"lon": 6.03392, "lat": 45.945419}}, {"id": 6436021, "name": "Sillery", "country": "FR", "coord": {"lon": 4.13333, "lat": 49.200001}}, {"id": 2974547, "name": "Sillery", "country": "FR", "coord": {"lon": 4.13244, "lat": 49.198219}}, {"id": 6442738, "name": "Sill\u00e9-le-Guillaume", "country": "FR", "coord": {"lon": -0.1288, "lat": 48.1833}}, {"id": 2974550, "name": "Sille-le-Guillaume", "country": "FR", "coord": {"lon": -0.12642, "lat": 48.182659}}, {"id": 6433421, "name": "Sillans", "country": "FR", "coord": {"lon": 5.38333, "lat": 45.333328}}, {"id": 2974556, "name": "Sillans", "country": "FR", "coord": {"lon": 5.38859, "lat": 45.340679}}, {"id": 2983703, "name": "Arrondissement de Ribeauvill\u00e9", "country": "FR", "coord": {"lon": 7.25, "lat": 48.166672}}, {"id": 6441619, "name": "Sigolsheim", "country": "FR", "coord": {"lon": 7.3, "lat": 48.133331}}, {"id": 2974575, "name": "Sigolsheim", "country": "FR", "coord": {"lon": 7.30137, "lat": 48.134739}}, {"id": 6426118, "name": "Signy-le-Petit", "country": "FR", "coord": {"lon": 4.28333, "lat": 49.900002}}, {"id": 2974579, "name": "Signy-le-Petit", "country": "FR", "coord": {"lon": 4.2799, "lat": 49.902771}}, {"id": 6445070, "name": "Signes", "country": "FR", "coord": {"lon": 5.86667, "lat": 43.299999}}, {"id": 2974586, "name": "Signes", "country": "FR", "coord": {"lon": 5.86232, "lat": 43.2901}}, {"id": 6426873, "name": "Sigean", "country": "FR", "coord": {"lon": 2.98333, "lat": 43.033329}}, {"id": 2974591, "name": "Sigean", "country": "FR", "coord": {"lon": 2.97916, "lat": 43.02776}}, {"id": 6441618, "name": "Sierentz", "country": "FR", "coord": {"lon": 7.4564, "lat": 47.655899}}, {"id": 2974608, "name": "Sierentz", "country": "FR", "coord": {"lon": 7.45426, "lat": 47.65852}}, {"id": 6437873, "name": "Sierck-les-Bains", "country": "FR", "coord": {"lon": 6.35, "lat": 49.433331}}, {"id": 2974609, "name": "Sierck-les-Bains", "country": "FR", "coord": {"lon": 6.36057, "lat": 49.439919}}, {"id": 6431063, "name": "Sibiril", "country": "FR", "coord": {"lon": -4.06667, "lat": 48.666672}}, {"id": 2974629, "name": "Sibiril", "country": "FR", "coord": {"lon": -4.06667, "lat": 48.666672}}, {"id": 6454256, "name": "S\u00e9zanne", "country": "FR", "coord": {"lon": 3.71667, "lat": 48.716671}}, {"id": 2974640, "name": "Sezanne", "country": "FR", "coord": {"lon": 3.72339, "lat": 48.72047}}, {"id": 6433418, "name": "Seyssuel", "country": "FR", "coord": {"lon": 4.85, "lat": 45.566669}}, {"id": 2974643, "name": "Seyssuel", "country": "FR", "coord": {"lon": 4.8532, "lat": 45.560059}}, {"id": 6433416, "name": "Seyssinet-Pariset", "country": "FR", "coord": {"lon": 5.6996, "lat": 45.180901}}, {"id": 2974645, "name": "Seyssinet-Pariset", "country": "FR", "coord": {"lon": 5.69387, "lat": 45.176762}}, {"id": 6453973, "name": "Seysses", "country": "FR", "coord": {"lon": 1.31667, "lat": 43.5}}, {"id": 2974648, "name": "Seysses", "country": "FR", "coord": {"lon": 1.31081, "lat": 43.498009}}, {"id": 6453558, "name": "Seyne", "country": "FR", "coord": {"lon": 6.35, "lat": 44.349998}}, {"id": 2974661, "name": "Seyne", "country": "FR", "coord": {"lon": 6.35634, "lat": 44.350422}}, {"id": 6443055, "name": "S\u00e9vrier", "country": "FR", "coord": {"lon": 6.13333, "lat": 45.866669}}, {"id": 2974675, "name": "Sevrier", "country": "FR", "coord": {"lon": 6.14026, "lat": 45.864151}}, {"id": 6442495, "name": "Sevrey", "country": "FR", "coord": {"lon": 4.85, "lat": 46.73333}}, {"id": 2974676, "name": "Sevrey", "country": "FR", "coord": {"lon": 4.8403, "lat": 46.738251}}, {"id": 6445370, "name": "S\u00e8vres-Anxaumont", "country": "FR", "coord": {"lon": 0.46667, "lat": 46.566669}}, {"id": 2974677, "name": "Sevres-Anxaumont", "country": "FR", "coord": {"lon": 0.46602, "lat": 46.570358}}, {"id": 6429162, "name": "S\u00e9vignac", "country": "FR", "coord": {"lon": -2.35, "lat": 48.333328}}, {"id": 2974691, "name": "Sevignac", "country": "FR", "coord": {"lon": -2.33915, "lat": 48.33297}}, {"id": 6427057, "name": "S\u00e9v\u00e9rac-le-Ch\u00e2teau", "country": "FR", "coord": {"lon": 3.06667, "lat": 44.316669}}, {"id": 2974699, "name": "Severac-le-Chateau", "country": "FR", "coord": {"lon": 3.05929, "lat": 44.324291}}, {"id": 6434545, "name": "S\u00e9v\u00e9rac", "country": "FR", "coord": {"lon": -2.0755, "lat": 47.550598}}, {"id": 2974701, "name": "Severac", "country": "FR", "coord": {"lon": -2.07496, "lat": 47.550079}}, {"id": 6453792, "name": "Seurre", "country": "FR", "coord": {"lon": 5.15, "lat": 47}}, {"id": 2974710, "name": "Seurre", "country": "FR", "coord": {"lon": 5.15138, "lat": 46.999229}}, {"id": 6446339, "name": "Seugy", "country": "FR", "coord": {"lon": 2.4, "lat": 49.116669}}, {"id": 2974717, "name": "Seugy", "country": "FR", "coord": {"lon": 2.39377, "lat": 49.121819}}, {"id": 6432872, "name": "Servon-sur-Vilaine", "country": "FR", "coord": {"lon": -1.45, "lat": 48.116669}}, {"id": 2974745, "name": "Servon-sur-Vilaine", "country": "FR", "coord": {"lon": -1.45971, "lat": 48.12114}}, {"id": 6615066, "name": "Servon", "country": "FR", "coord": {"lon": 2.58333, "lat": 48.716671}}, {"id": 2974747, "name": "Servon", "country": "FR", "coord": {"lon": 2.58737, "lat": 48.716621}}, {"id": 6432660, "name": "Servian", "country": "FR", "coord": {"lon": 3.2993, "lat": 43.4268}}, {"id": 2974775, "name": "Servian", "country": "FR", "coord": {"lon": 3.30032, "lat": 43.427158}}, {"id": 6424413, "name": "Servas", "country": "FR", "coord": {"lon": 5.16667, "lat": 46.133331}}, {"id": 2974782, "name": "Servas", "country": "FR", "coord": {"lon": 5.16538, "lat": 46.1329}}, {"id": 6443856, "name": "Serris", "country": "FR", "coord": {"lon": 2.78333, "lat": 48.849998}}, {"id": 2974799, "name": "Serris", "country": "FR", "coord": {"lon": 2.78701, "lat": 48.84391}}, {"id": 6453585, "name": "Serri\u00e8res", "country": "FR", "coord": {"lon": 4.75, "lat": 45.316669}}, {"id": 2974809, "name": "Serrieres", "country": "FR", "coord": {"lon": 4.76342, "lat": 45.31884}}, {"id": 6615737, "name": "Serres", "country": "FR", "coord": {"lon": 5.7158, "lat": 44.428501}}, {"id": 2974831, "name": "Serres", "country": "FR", "coord": {"lon": 5.71581, "lat": 44.42865}}, {"id": 6613947, "name": "Serre-les-Sapins", "country": "FR", "coord": {"lon": 5.93333, "lat": 47.25}}, {"id": 2974839, "name": "Serre-les-Sapins", "country": "FR", "coord": {"lon": 5.93333, "lat": 47.25}}, {"id": 6430650, "name": "Serquigny", "country": "FR", "coord": {"lon": 0.7127, "lat": 49.110298}}, {"id": 2974867, "name": "Serquigny", "country": "FR", "coord": {"lon": 0.71016, "lat": 49.109428}}, {"id": 6443529, "name": "Serqueux", "country": "FR", "coord": {"lon": 1.55, "lat": 49.633331}}, {"id": 2974868, "name": "Serqueux", "country": "FR", "coord": {"lon": 1.54006, "lat": 49.632019}}, {"id": 6439894, "name": "Serques", "country": "FR", "coord": {"lon": 2.2, "lat": 50.799999}}, {"id": 2974870, "name": "Serques", "country": "FR", "coord": {"lon": 2.20134, "lat": 50.793381}}, {"id": 6433415, "name": "Serpaize", "country": "FR", "coord": {"lon": 4.91667, "lat": 45.566669}}, {"id": 2974873, "name": "Serpaize", "country": "FR", "coord": {"lon": 4.92062, "lat": 45.557079}}, {"id": 6431453, "name": "Sernhac", "country": "FR", "coord": {"lon": 4.55, "lat": 43.916672}}, {"id": 2974879, "name": "Sernhac", "country": "FR", "coord": {"lon": 4.55039, "lat": 43.91116}}, {"id": 6617179, "name": "Sermoise-sur-Loire", "country": "FR", "coord": {"lon": 3.1859, "lat": 46.952099}}, {"id": 2974886, "name": "Sermoise-sur-Loire", "country": "FR", "coord": {"lon": 3.18333, "lat": 46.950001}}, {"id": 6433414, "name": "Serm\u00e9rieu", "country": "FR", "coord": {"lon": 5.41667, "lat": 45.666672}}, {"id": 2974893, "name": "Sermerieu", "country": "FR", "coord": {"lon": 5.40996, "lat": 45.6707}}, {"id": 6612596, "name": "Sermaize-les-Bains", "country": "FR", "coord": {"lon": 4.91667, "lat": 48.783329}}, {"id": 2974901, "name": "Sermaize-les-Bains", "country": "FR", "coord": {"lon": 4.91169, "lat": 48.785069}}, {"id": 6434733, "name": "Sermaises", "country": "FR", "coord": {"lon": 2.2, "lat": 48.299999}}, {"id": 2974904, "name": "Sermaises", "country": "FR", "coord": {"lon": 2.20546, "lat": 48.296501}}, {"id": 6445239, "name": "S\u00e9rign\u00e9", "country": "FR", "coord": {"lon": -0.85, "lat": 46.5}}, {"id": 2974922, "name": "Serigne", "country": "FR", "coord": {"lon": -0.84453, "lat": 46.501068}}, {"id": 6445109, "name": "S\u00e9rignan-du-Comtat", "country": "FR", "coord": {"lon": 4.85, "lat": 44.183331}}, {"id": 2974923, "name": "Serignan-du-Comtat", "country": "FR", "coord": {"lon": 4.84403, "lat": 44.188499}}, {"id": 6432659, "name": "S\u00e9rignan", "country": "FR", "coord": {"lon": 3.28333, "lat": 43.283329}}, {"id": 2974925, "name": "Serignan", "country": "FR", "coord": {"lon": 3.27712, "lat": 43.278728}}, {"id": 6612684, "name": "S\u00e9rifontaine", "country": "FR", "coord": {"lon": 1.76667, "lat": 49.349998}}, {"id": 2974931, "name": "Serifontaine", "country": "FR", "coord": {"lon": 1.76873, "lat": 49.354401}}, {"id": 6424701, "name": "Sergy", "country": "FR", "coord": {"lon": 6, "lat": 46.25}}, {"id": 2974936, "name": "Sergy", "country": "FR", "coord": {"lon": 6.00058, "lat": 46.252571}}, {"id": 6446028, "name": "Sergines", "country": "FR", "coord": {"lon": 3.25, "lat": 48.333328}}, {"id": 2974937, "name": "Sergines", "country": "FR", "coord": {"lon": 3.26213, "lat": 48.34203}}, {"id": 6441838, "name": "S\u00e9r\u00e9zin-du-Rh\u00f4ne", "country": "FR", "coord": {"lon": 4.83333, "lat": 45.633331}}, {"id": 2974942, "name": "Serezin-du-Rhone", "country": "FR", "coord": {"lon": 4.82467, "lat": 45.629021}}, {"id": 6437399, "name": "S\u00e9rent", "country": "FR", "coord": {"lon": -2.5, "lat": 47.816669}}, {"id": 2974949, "name": "Serent", "country": "FR", "coord": {"lon": -2.50571, "lat": 47.82333}}, {"id": 6437870, "name": "Ser\u00e9mange-Erzange", "country": "FR", "coord": {"lon": 6.08333, "lat": 49.316669}}, {"id": 2974955, "name": "Seremange-Erzange", "country": "FR", "coord": {"lon": 6.09025, "lat": 49.318871}}, {"id": 6445470, "name": "S\u00e9reilhac", "country": "FR", "coord": {"lon": 1.08333, "lat": 45.76667}}, {"id": 2974962, "name": "Sereilhac", "country": "FR", "coord": {"lon": 1.08052, "lat": 45.768429}}, {"id": 6446338, "name": "Seraincourt", "country": "FR", "coord": {"lon": 1.86667, "lat": 49.033329}}, {"id": 2974991, "name": "Seraincourt", "country": "FR", "coord": {"lon": 1.86703, "lat": 49.035728}}, {"id": 6438496, "name": "Sequedin", "country": "FR", "coord": {"lon": 2.9861, "lat": 50.626801}}, {"id": 2974996, "name": "Sequedin", "country": "FR", "coord": {"lon": 2.98276, "lat": 50.625751}}, {"id": 6445040, "name": "Septfonds", "country": "FR", "coord": {"lon": 1.61667, "lat": 44.183331}}, {"id": 2975018, "name": "Septfonds", "country": "FR", "coord": {"lon": 1.61806, "lat": 44.178131}}, {"id": 6444083, "name": "Septeuil", "country": "FR", "coord": {"lon": 1.68333, "lat": 48.900002}}, {"id": 2975019, "name": "Septeuil", "country": "FR", "coord": {"lon": 1.68357, "lat": 48.892448}}, {"id": 6427091, "name": "Sept\u00e8mes-les-Vallons", "country": "FR", "coord": {"lon": 5.36667, "lat": 43.400002}}, {"id": 2975020, "name": "Septemes-les-Vallons", "country": "FR", "coord": {"lon": 5.36596, "lat": 43.398338}}, {"id": 6433412, "name": "Sept\u00e8me", "country": "FR", "coord": {"lon": 5.01667, "lat": 45.549999}}, {"id": 2975021, "name": "Septeme", "country": "FR", "coord": {"lon": 5.00345, "lat": 45.55315}}, {"id": 6441613, "name": "Sentheim", "country": "FR", "coord": {"lon": 7.05194, "lat": 47.75589}}, {"id": 2975036, "name": "Sentheim", "country": "FR", "coord": {"lon": 7.05305, "lat": 47.7556}}, {"id": 6432871, "name": "Sens-de-Bretagne", "country": "FR", "coord": {"lon": -1.55, "lat": 48.333328}}, {"id": 2975046, "name": "Sens-de-Bretagne", "country": "FR", "coord": {"lon": -1.53535, "lat": 48.332451}}, {"id": 6454850, "name": "Senones", "country": "FR", "coord": {"lon": 6.98333, "lat": 48.400002}}, {"id": 2975063, "name": "Senones", "country": "FR", "coord": {"lon": 6.97818, "lat": 48.394749}}, {"id": 6430900, "name": "Senonches", "country": "FR", "coord": {"lon": 1.0313, "lat": 48.561298}}, {"id": 2975067, "name": "Senonches", "country": "FR", "coord": {"lon": 1.03069, "lat": 48.55999}}, {"id": 6428894, "name": "Sennecey-l\u00e8s-Dijon", "country": "FR", "coord": {"lon": 5.1, "lat": 47.283329}}, {"id": 2975079, "name": "Sennecey-les-Dijon", "country": "FR", "coord": {"lon": 5.10485, "lat": 47.289841}}, {"id": 6442488, "name": "Sennecey-le-Grand", "country": "FR", "coord": {"lon": 4.86667, "lat": 46.650002}}, {"id": 2975080, "name": "Sennecey-le-Grand", "country": "FR", "coord": {"lon": 4.86707, "lat": 46.641369}}, {"id": 6424478, "name": "S\u00e9n\u00e9", "country": "FR", "coord": {"lon": -2.75, "lat": 47.616669}}, {"id": 2975113, "name": "Sene", "country": "FR", "coord": {"lon": -2.737, "lat": 47.618999}}, {"id": 6427090, "name": "S\u00e9nas", "country": "FR", "coord": {"lon": 5.08333, "lat": 43.75}}, {"id": 2975120, "name": "Senas", "country": "FR", "coord": {"lon": 5.078, "lat": 43.743752}}, {"id": 6613403, "name": "Semussac", "country": "FR", "coord": {"lon": -0.91667, "lat": 45.599998}}, {"id": 2975140, "name": "Semussac", "country": "FR", "coord": {"lon": -0.91667, "lat": 45.599998}}, {"id": 6614505, "name": "Semur-en-Auxois", "country": "FR", "coord": {"lon": 4.3334, "lat": 47.491199}}, {"id": 2975143, "name": "Semur-en-Auxois", "country": "FR", "coord": {"lon": 4.33333, "lat": 47.48333}}, {"id": 6613851, "name": "Semoy", "country": "FR", "coord": {"lon": 1.95, "lat": 47.933331}}, {"id": 2975147, "name": "Semoy", "country": "FR", "coord": {"lon": 1.95, "lat": 47.933331}}, {"id": 6440916, "name": "S\u00e9m\u00e9ac", "country": "FR", "coord": {"lon": 0.11667, "lat": 43.23333}}, {"id": 2975181, "name": "Semeac", "country": "FR", "coord": {"lon": 0.10602, "lat": 43.229149}}, {"id": 6444958, "name": "S\u00e9malens", "country": "FR", "coord": {"lon": 2.11667, "lat": 43.583328}}, {"id": 2975191, "name": "Semalens", "country": "FR", "coord": {"lon": 2.11208, "lat": 43.592251}}, {"id": 6617209, "name": "Walincourt-Selvigny", "country": "FR", "coord": {"lon": 3.3362, "lat": 50.068802}}, {"id": 2975194, "name": "Selvigny", "country": "FR", "coord": {"lon": 3.34899, "lat": 50.079708}}, {"id": 6454555, "name": "Seltz", "country": "FR", "coord": {"lon": 8.10808, "lat": 48.89452}}, {"id": 2975199, "name": "Seltz", "country": "FR", "coord": {"lon": 8.10757, "lat": 48.895199}}, {"id": 6428891, "name": "Selongey", "country": "FR", "coord": {"lon": 5.16667, "lat": 47.583328}}, {"id": 2975203, "name": "Selongey", "country": "FR", "coord": {"lon": 5.18483, "lat": 47.588459}}, {"id": 6429991, "name": "Seloncourt", "country": "FR", "coord": {"lon": 6.86667, "lat": 47.466671}}, {"id": 2975204, "name": "Seloncourt", "country": "FR", "coord": {"lon": 6.85535, "lat": 47.459888}}, {"id": 6434132, "name": "Selles-sur-Cher", "country": "FR", "coord": {"lon": 1.55, "lat": 47.26667}}, {"id": 2975215, "name": "Selles-sur-Cher", "country": "FR", "coord": {"lon": 1.55388, "lat": 47.279041}}, {"id": 6434131, "name": "Selles-Saint-Denis", "country": "FR", "coord": {"lon": 1.91667, "lat": 47.383331}}, {"id": 2975216, "name": "Selles-Saint-Denis", "country": "FR", "coord": {"lon": 1.92295, "lat": 47.386951}}, {"id": 6432134, "name": "Seissan", "country": "FR", "coord": {"lon": 0.6, "lat": 43.5}}, {"id": 2975244, "name": "Seissan", "country": "FR", "coord": {"lon": 0.5925, "lat": 43.492149}}, {"id": 6437868, "name": "Seingbouse", "country": "FR", "coord": {"lon": 6.83333, "lat": 49.116669}}, {"id": 2975245, "name": "Seingbouse", "country": "FR", "coord": {"lon": 6.83024, "lat": 49.117241}}, {"id": 6443855, "name": "Seine-Port", "country": "FR", "coord": {"lon": 2.55, "lat": 48.549999}}, {"id": 2975247, "name": "Seine-Port", "country": "FR", "coord": {"lon": 2.55316, "lat": 48.55743}}, {"id": 6445068, "name": "Seillans", "country": "FR", "coord": {"lon": 6.63333, "lat": 43.633331}}, {"id": 2975265, "name": "Seillans", "country": "FR", "coord": {"lon": 6.64666, "lat": 43.634998}}, {"id": 6428472, "name": "Seilhac", "country": "FR", "coord": {"lon": 1.71667, "lat": 45.366669}}, {"id": 2975268, "name": "Seilhac", "country": "FR", "coord": {"lon": 1.71667, "lat": 45.366669}}, {"id": 6431847, "name": "Seilh", "country": "FR", "coord": {"lon": 1.35, "lat": 43.700001}}, {"id": 2975269, "name": "Seilh", "country": "FR", "coord": {"lon": 1.35509, "lat": 43.694691}}, {"id": 6434129, "name": "Seigy", "country": "FR", "coord": {"lon": 1.3985, "lat": 47.254501}}, {"id": 2975270, "name": "Seigy", "country": "FR", "coord": {"lon": 1.39964, "lat": 47.256882}}, {"id": 6446021, "name": "Seignelay", "country": "FR", "coord": {"lon": 3.6, "lat": 47.900002}}, {"id": 2975278, "name": "Seignelay", "country": "FR", "coord": {"lon": 3.60136, "lat": 47.905418}}, {"id": 6435324, "name": "Seiches-sur-le-Loir", "country": "FR", "coord": {"lon": -0.3556, "lat": 47.573101}}, {"id": 2975288, "name": "Seiches-sur-le-Loir", "country": "FR", "coord": {"lon": -0.35628, "lat": 47.573509}}, {"id": 6436859, "name": "Seichamps", "country": "FR", "coord": {"lon": 6.26667, "lat": 48.716671}}, {"id": 2975292, "name": "Seichamps", "country": "FR", "coord": {"lon": 6.26186, "lat": 48.71114}}, {"id": 6427866, "name": "Segonzac", "country": "FR", "coord": {"lon": -0.21667, "lat": 45.616669}}, {"id": 2975321, "name": "Segonzac", "country": "FR", "coord": {"lon": -0.21667, "lat": 45.616669}}, {"id": 6424699, "name": "S\u00e9gny", "country": "FR", "coord": {"lon": 6.08333, "lat": 46.299999}}, {"id": 2975326, "name": "Segny", "country": "FR", "coord": {"lon": 6.07536, "lat": 46.296009}}, {"id": 6454656, "name": "S\u00e9ez", "country": "FR", "coord": {"lon": 6.8, "lat": 45.616669}}, {"id": 2975339, "name": "Seez", "country": "FR", "coord": {"lon": 6.79957, "lat": 45.622089}}, {"id": 6454473, "name": "S\u00e9es", "country": "FR", "coord": {"lon": 0.16667, "lat": 48.599998}}, {"id": 2975340, "name": "Sees", "country": "FR", "coord": {"lon": 0.17244, "lat": 48.604031}}, {"id": 6444239, "name": "Secondigny", "country": "FR", "coord": {"lon": -0.41667, "lat": 46.616669}}, {"id": 2975358, "name": "Secondigny", "country": "FR", "coord": {"lon": -0.41679, "lat": 46.610241}}, {"id": 6454423, "name": "Seclin", "country": "FR", "coord": {"lon": 3.03333, "lat": 50.549999}}, {"id": 2975361, "name": "Seclin", "country": "FR", "coord": {"lon": 3.02731, "lat": 50.548729}}, {"id": 6438492, "name": "Sebourg", "country": "FR", "coord": {"lon": 3.65, "lat": 50.349998}}, {"id": 2975382, "name": "Sebourg", "country": "FR", "coord": {"lon": 3.64352, "lat": 50.342491}}, {"id": 6425230, "name": "Seboncourt", "country": "FR", "coord": {"lon": 3.48333, "lat": 49.950001}}, {"id": 2975383, "name": "Seboncourt", "country": "FR", "coord": {"lon": 3.47586, "lat": 49.952721}}, {"id": 6427054, "name": "S\u00e9bazac-Concour\u00e8s", "country": "FR", "coord": {"lon": 2.6009, "lat": 44.403301}}, {"id": 2975387, "name": "Sebazac-Concoures", "country": "FR", "coord": {"lon": 2.60324, "lat": 44.404839}}, {"id": 6437866, "name": "Scy-Chazelles", "country": "FR", "coord": {"lon": 6.11667, "lat": 49.116669}}, {"id": 2975392, "name": "Scy-Chazelles", "country": "FR", "coord": {"lon": 6.1161, "lat": 49.113602}}, {"id": 6445368, "name": "Scorb\u00e9-Clairvaux", "country": "FR", "coord": {"lon": 0.41667, "lat": 46.816669}}, {"id": 2975400, "name": "Scorbe-Clairvaux", "country": "FR", "coord": {"lon": 0.41369, "lat": 46.810612}}, {"id": 6441354, "name": "Schwindratzheim", "country": "FR", "coord": {"lon": 7.59855, "lat": 48.75576}}, {"id": 2975419, "name": "Schwindratzheim", "country": "FR", "coord": {"lon": 7.59898, "lat": 48.755821}}, {"id": 6617425, "name": "Schweighouse-sur-Moder", "country": "FR", "coord": {"lon": 7.7282, "lat": 48.819599}}, {"id": 2975424, "name": "Schweighouse-sur-Moder", "country": "FR", "coord": {"lon": 7.73333, "lat": 48.816669}}, {"id": 6615147, "name": "Sch\u0153neck", "country": "FR", "coord": {"lon": 6.91667, "lat": 49.216671}}, {"id": 2975432, "name": "Schoeneck", "country": "FR", "coord": {"lon": 6.91667, "lat": 49.216671}}, {"id": 6441352, "name": "Schnersheim", "country": "FR", "coord": {"lon": 7.56615, "lat": 48.657349}}, {"id": 2975435, "name": "Schnersheim", "country": "FR", "coord": {"lon": 7.56701, "lat": 48.65741}}, {"id": 6441348, "name": "Schirmeck", "country": "FR", "coord": {"lon": 7.21667, "lat": 48.48333}}, {"id": 2975445, "name": "Schirmeck", "country": "FR", "coord": {"lon": 7.2151, "lat": 48.47942}}, {"id": 2975449, "name": "Scherwiller", "country": "FR", "coord": {"lon": 7.42135, "lat": 48.287128}}, {"id": 6442111, "name": "Scey-sur-Sa\u00f4ne-et-Saint-Albin", "country": "FR", "coord": {"lon": 5.96667, "lat": 47.666672}}, {"id": 2975460, "name": "Scey-sur-Saone-et-Saint-Albin", "country": "FR", "coord": {"lon": 5.97451, "lat": 47.663979}}, {"id": 2975485, "name": "Scaer", "country": "FR", "coord": {"lon": -3.7, "lat": 48.033329}}, {"id": 6431451, "name": "Saze", "country": "FR", "coord": {"lon": 4.68333, "lat": 43.933331}}, {"id": 2975492, "name": "Saze", "country": "FR", "coord": {"lon": 4.68096, "lat": 43.943401}}, {"id": 6440239, "name": "Sayat", "country": "FR", "coord": {"lon": 3.06667, "lat": 45.833328}}, {"id": 2975495, "name": "Sayat", "country": "FR", "coord": {"lon": 3.05206, "lat": 45.827541}}, {"id": 6439888, "name": "Savy-Berlette", "country": "FR", "coord": {"lon": 2.55, "lat": 50.349998}}, {"id": 2975501, "name": "Savy-Berlette", "country": "FR", "coord": {"lon": 2.56456, "lat": 50.352489}}, {"id": 6433130, "name": "Savonni\u00e8res", "country": "FR", "coord": {"lon": 0.55, "lat": 47.349998}}, {"id": 2975513, "name": "Savonnieres", "country": "FR", "coord": {"lon": 0.54962, "lat": 47.347691}}, {"id": 6434128, "name": "Savigny-sur-Braye", "country": "FR", "coord": {"lon": 0.80981, "lat": 47.87923}}, {"id": 2975528, "name": "Savigny-sur-Braye", "country": "FR", "coord": {"lon": 0.80981, "lat": 47.87923}}, {"id": 6445366, "name": "Savigny-L\u00e9vescault", "country": "FR", "coord": {"lon": 0.5, "lat": 46.533329}}, {"id": 2975535, "name": "Savigny-Levescault", "country": "FR", "coord": {"lon": 0.47719, "lat": 46.535019}}, {"id": 6428882, "name": "Savigny-l\u00e8s-Beaune", "country": "FR", "coord": {"lon": 4.81667, "lat": 47.066669}}, {"id": 2975538, "name": "Savigny-les-Beaune", "country": "FR", "coord": {"lon": 4.81821, "lat": 47.063568}}, {"id": 6433129, "name": "Savigny-en-V\u00e9ron", "country": "FR", "coord": {"lon": 0.14457, "lat": 47.20071}}, {"id": 2975540, "name": "Savigny-en-Veron", "country": "FR", "coord": {"lon": 0.14457, "lat": 47.20071}}, {"id": 6428301, "name": "Savigny-en-Sancerre", "country": "FR", "coord": {"lon": 2.81667, "lat": 47.433331}}, {"id": 2975543, "name": "Savigny-en-Sancerre", "country": "FR", "coord": {"lon": 2.80953, "lat": 47.441422}}, {"id": 6613823, "name": "Savigny", "country": "FR", "coord": {"lon": 4.56667, "lat": 45.816669}}, {"id": 2975553, "name": "Savigny", "country": "FR", "coord": {"lon": 4.57543, "lat": 45.817322}}, {"id": 6454141, "name": "Savigneux", "country": "FR", "coord": {"lon": 4.0832, "lat": 45.606602}}, {"id": 2975556, "name": "Savigneux", "country": "FR", "coord": {"lon": 4.0833, "lat": 45.616699}}, {"id": 6433128, "name": "Savign\u00e9-sur-Lathan", "country": "FR", "coord": {"lon": 0.31667, "lat": 47.450001}}, {"id": 2975558, "name": "Savigne-sur-Lathan", "country": "FR", "coord": {"lon": 0.32093, "lat": 47.444832}}, {"id": 6445365, "name": "Savign\u00e9", "country": "FR", "coord": {"lon": 0.31667, "lat": 46.166672}}, {"id": 2975561, "name": "Savigne", "country": "FR", "coord": {"lon": 0.31936, "lat": 46.1595}}, {"id": 6426312, "name": "Saverdun", "country": "FR", "coord": {"lon": 1.58333, "lat": 43.23333}}, {"id": 2975592, "name": "Saverdun", "country": "FR", "coord": {"lon": 1.57398, "lat": 43.23526}}, {"id": 6435322, "name": "Savenni\u00e8res", "country": "FR", "coord": {"lon": -0.65742, "lat": 47.382721}}, {"id": 2975593, "name": "Savennieres", "country": "FR", "coord": {"lon": -0.65708, "lat": 47.382252}}, {"id": 6434544, "name": "Savenay", "country": "FR", "coord": {"lon": -1.95, "lat": 47.366669}}, {"id": 2975597, "name": "Savenay", "country": "FR", "coord": {"lon": -1.94215, "lat": 47.360722}}, {"id": 6453880, "name": "Savasse", "country": "FR", "coord": {"lon": 4.78333, "lat": 44.599998}}, {"id": 2975606, "name": "Savasse", "country": "FR", "coord": {"lon": 4.77931, "lat": 44.602291}}, {"id": 6444235, "name": "Sauz\u00e9-Vaussais", "country": "FR", "coord": {"lon": 0.1, "lat": 46.133331}}, {"id": 2975612, "name": "Sauze-Vaussais", "country": "FR", "coord": {"lon": 0.10673, "lat": 46.13369}}, {"id": 6453879, "name": "Sauzet", "country": "FR", "coord": {"lon": 4.81667, "lat": 44.599998}}, {"id": 2975616, "name": "Sauzet", "country": "FR", "coord": {"lon": 4.81789, "lat": 44.602879}}, {"id": 6454494, "name": "Sauxillanges", "country": "FR", "coord": {"lon": 3.3722, "lat": 45.5508}}, {"id": 2975625, "name": "Sauxillanges", "country": "FR", "coord": {"lon": 3.3738, "lat": 45.55267}}, {"id": 6438093, "name": "Sauvigny-les-Bois", "country": "FR", "coord": {"lon": 3.26667, "lat": 46.966671}}, {"id": 2975635, "name": "Sauvigny-les-Bois", "country": "FR", "coord": {"lon": 3.2719, "lat": 46.966759}}, {"id": 6612873, "name": "Sauviat-sur-Vige", "country": "FR", "coord": {"lon": 1.61667, "lat": 45.900002}}, {"id": 2975647, "name": "Sauviat-sur-Vige", "country": "FR", "coord": {"lon": 1.60827, "lat": 45.9072}}, {"id": 6432658, "name": "Sauvian", "country": "FR", "coord": {"lon": 3.26667, "lat": 43.299999}}, {"id": 2975649, "name": "Sauvian", "country": "FR", "coord": {"lon": 3.26024, "lat": 43.292931}}, {"id": 6616454, "name": "Sauveterre", "country": "FR", "coord": {"lon": 4.7933, "lat": 44.025299}}, {"id": 2975659, "name": "Sauveterre", "country": "FR", "coord": {"lon": 4.79347, "lat": 44.02282}}, {"id": 6424698, "name": "Sauverny", "country": "FR", "coord": {"lon": 6.11667, "lat": 46.316669}}, {"id": 2975667, "name": "Sauverny", "country": "FR", "coord": {"lon": 6.11826, "lat": 46.31514}}, {"id": 6431448, "name": "Sauve", "country": "FR", "coord": {"lon": 3.95, "lat": 43.933331}}, {"id": 2975674, "name": "Sauve", "country": "FR", "coord": {"lon": 3.94903, "lat": 43.941502}}, {"id": 6434543, "name": "Sautron", "country": "FR", "coord": {"lon": -1.66667, "lat": 47.26667}}, {"id": 2975702, "name": "Sautron", "country": "FR", "coord": {"lon": -1.67107, "lat": 47.262741}}, {"id": 6427089, "name": "Sausset-les-Pins", "country": "FR", "coord": {"lon": 5.11667, "lat": 43.333328}}, {"id": 2975726, "name": "Sausset-les-Pins", "country": "FR", "coord": {"lon": 5.10431, "lat": 43.33136}}, {"id": 6612442, "name": "Saussay", "country": "FR", "coord": {"lon": 1.41667, "lat": 48.849998}}, {"id": 2975740, "name": "Saussay", "country": "FR", "coord": {"lon": 1.40889, "lat": 48.855709}}, {"id": 6432656, "name": "Saussan", "country": "FR", "coord": {"lon": 3.7754, "lat": 43.571701}}, {"id": 2975741, "name": "Saussan", "country": "FR", "coord": {"lon": 3.775, "lat": 43.572201}}, {"id": 6441609, "name": "Sausheim", "country": "FR", "coord": {"lon": 7.36667, "lat": 47.783329}}, {"id": 2975743, "name": "Sausheim", "country": "FR", "coord": {"lon": 7.37134, "lat": 47.789761}}, {"id": 6438491, "name": "Saulzoir", "country": "FR", "coord": {"lon": 3.45, "lat": 50.23333}}, {"id": 2975771, "name": "Saulzoir", "country": "FR", "coord": {"lon": 3.4443, "lat": 50.240582}}, {"id": 6445748, "name": "Saulxures-sur-Moselotte", "country": "FR", "coord": {"lon": 6.76667, "lat": 47.950001}}, {"id": 2975776, "name": "Saulxures-sur-Moselotte", "country": "FR", "coord": {"lon": 6.7704, "lat": 47.94894}}, {"id": 6436856, "name": "Saulxures-l\u00e8s-Nancy", "country": "FR", "coord": {"lon": 6.25, "lat": 48.683331}}, {"id": 2975778, "name": "Saulxures-les-Nancy", "country": "FR", "coord": {"lon": 6.24587, "lat": 48.689072}}, {"id": 6426104, "name": "Sault-l\u00e8s-Rethel", "country": "FR", "coord": {"lon": 4.36667, "lat": 49.5}}, {"id": 2975797, "name": "Sault-les-Rethel", "country": "FR", "coord": {"lon": 4.36227, "lat": 49.499802}}, {"id": 6617837, "name": "Sault", "country": "FR", "coord": {"lon": 5.4089, "lat": 44.091}}, {"id": 2975798, "name": "Sault", "country": "FR", "coord": {"lon": 5.41667, "lat": 44.083328}}, {"id": 6424697, "name": "Sault-Br\u00e9naz", "country": "FR", "coord": {"lon": 5.41667, "lat": 45.849998}}, {"id": 2975801, "name": "Sault-Brenaz", "country": "FR", "coord": {"lon": 5.41424, "lat": 45.854309}}, {"id": 6438490, "name": "Saultain", "country": "FR", "coord": {"lon": 3.58333, "lat": 50.333328}}, {"id": 2975802, "name": "Saultain", "country": "FR", "coord": {"lon": 3.57723, "lat": 50.336761}}, {"id": 6437859, "name": "Saulny", "country": "FR", "coord": {"lon": 6.1, "lat": 49.166672}}, {"id": 2975808, "name": "Saulny", "country": "FR", "coord": {"lon": 6.10498, "lat": 49.158352}}, {"id": 6436854, "name": "Saulnes", "country": "FR", "coord": {"lon": 5.81667, "lat": 49.533329}}, {"id": 2975814, "name": "Saulnes", "country": "FR", "coord": {"lon": 5.82629, "lat": 49.535549}}, {"id": 6428877, "name": "Saulieu", "country": "FR", "coord": {"lon": 4.229, "lat": 47.279701}}, {"id": 2975819, "name": "Saulieu", "country": "FR", "coord": {"lon": 4.22857, "lat": 47.280231}}, {"id": 2975826, "name": "Saulge", "country": "FR", "coord": {"lon": 0.87577, "lat": 46.377579}}, {"id": 6445746, "name": "Saulcy-sur-Meurthe", "country": "FR", "coord": {"lon": 6.96667, "lat": 48.23333}}, {"id": 2975833, "name": "Saulcy-sur-Meurthe", "country": "FR", "coord": {"lon": 6.96443, "lat": 48.237579}}, {"id": 6430244, "name": "Saulce-sur-Rh\u00f4ne", "country": "FR", "coord": {"lon": 4.78333, "lat": 44.700001}}, {"id": 2975840, "name": "Saulce-sur-Rhone", "country": "FR", "coord": {"lon": 4.80169, "lat": 44.702801}}, {"id": 6428134, "name": "Saujon", "country": "FR", "coord": {"lon": -0.91667, "lat": 45.666672}}, {"id": 2975844, "name": "Saujon", "country": "FR", "coord": {"lon": -0.9262, "lat": 45.673092}}, {"id": 6433410, "name": "Satolas-et-Bonce", "country": "FR", "coord": {"lon": 5.13333, "lat": 45.700001}}, {"id": 2975891, "name": "Satolas-et-Bonce", "country": "FR", "coord": {"lon": 5.13099, "lat": 45.692989}}, {"id": 6425858, "name": "Satillieu", "country": "FR", "coord": {"lon": 4.61667, "lat": 45.150002}}, {"id": 2975893, "name": "Satillieu", "country": "FR", "coord": {"lon": 4.61493, "lat": 45.150349}}, {"id": 6441837, "name": "Sathonay-Village", "country": "FR", "coord": {"lon": 4.88333, "lat": 45.833328}}, {"id": 2975894, "name": "Sathonay-Village", "country": "FR", "coord": {"lon": 4.88121, "lat": 45.832699}}, {"id": 6441836, "name": "Sathonay-Camp", "country": "FR", "coord": {"lon": 4.86667, "lat": 45.816669}}, {"id": 2975895, "name": "Sathonay-Camp", "country": "FR", "coord": {"lon": 4.86754, "lat": 45.823101}}, {"id": 6442481, "name": "Sassenay", "country": "FR", "coord": {"lon": 4.93333, "lat": 46.833328}}, {"id": 2975907, "name": "Sassenay", "country": "FR", "coord": {"lon": 4.92523, "lat": 46.830742}}, {"id": 6433409, "name": "Sassenage", "country": "FR", "coord": {"lon": 5.66667, "lat": 45.200001}}, {"id": 2975908, "name": "Sassenage", "country": "FR", "coord": {"lon": 5.66515, "lat": 45.205311}}, {"id": 6437396, "name": "Sarzeau", "country": "FR", "coord": {"lon": -2.76667, "lat": 47.533329}}, {"id": 2975916, "name": "Sarzeau", "country": "FR", "coord": {"lon": -2.76933, "lat": 47.527721}}, {"id": 6431123, "name": "Sart\u00e8ne", "country": "FR", "coord": {"lon": 8.98333, "lat": 41.616669}}, {"id": 2975931, "name": "Sartene", "country": "FR", "coord": {"lon": 8.98333, "lat": 41.616669}}, {"id": 2975939, "name": "Sarry", "country": "FR", "coord": {"lon": 4.40621, "lat": 48.918522}}, {"id": 6431122, "name": "Sarrola-Carcopino", "country": "FR", "coord": {"lon": 8.8433, "lat": 42.027302}}, {"id": 6445105, "name": "Sarrians", "country": "FR", "coord": {"lon": 4.96667, "lat": 44.083328}}, {"id": 2975953, "name": "Sarrians", "country": "FR", "coord": {"lon": 4.96965, "lat": 44.084011}}, {"id": 6441337, "name": "Sarrewerden", "country": "FR", "coord": {"lon": 7.08258, "lat": 48.92318}}, {"id": 2975956, "name": "Sarrewerden", "country": "FR", "coord": {"lon": 7.08412, "lat": 48.922611}}, {"id": 6441336, "name": "Sarre-Union", "country": "FR", "coord": {"lon": 7.09528, "lat": 48.93784}}, {"id": 2975957, "name": "Sarre-Union", "country": "FR", "coord": {"lon": 7.09373, "lat": 48.938179}}, {"id": 2975961, "name": "Sarreinsming", "country": "FR", "coord": {"lon": 7.10958, "lat": 49.089661}}, {"id": 2975967, "name": "Sarrebourg", "country": "FR", "coord": {"lon": 7.05, "lat": 48.73333}}, {"id": 6612249, "name": "Sarras", "country": "FR", "coord": {"lon": 4.8, "lat": 45.183331}}, {"id": 2975980, "name": "Sarras", "country": "FR", "coord": {"lon": 4.80004, "lat": 45.18679}}, {"id": 6454373, "name": "Sarralbe", "country": "FR", "coord": {"lon": 7.02919, "lat": 48.998692}}, {"id": 6431120, "name": "Sari-Solenzara", "country": "FR", "coord": {"lon": 9.375, "lat": 41.834999}}, {"id": 2976014, "name": "Sari-Solenzara", "country": "FR", "coord": {"lon": 9.3747, "lat": 41.83519}}, {"id": 6612534, "name": "Sarg\u00e9-sur-Braye", "country": "FR", "coord": {"lon": 0.85, "lat": 47.916672}}, {"id": 2976017, "name": "Sarge-sur-Braye", "country": "FR", "coord": {"lon": 0.8534, "lat": 47.923519}}, {"id": 6613905, "name": "Sarg\u00e9-l\u00e8s-le-Mans", "country": "FR", "coord": {"lon": 0.23333, "lat": 48.033329}}, {"id": 2976019, "name": "Sarge-les-le-Mans", "country": "FR", "coord": {"lon": 0.23333, "lat": 48.033329}}, {"id": 2976084, "name": "Saone", "country": "FR", "coord": {"lon": 6.11682, "lat": 47.22311}}, {"id": 6442479, "name": "Sanvignes-les-Mines", "country": "FR", "coord": {"lon": 4.3, "lat": 46.666672}}, {"id": 2976090, "name": "Sanvignes-les-Mines", "country": "FR", "coord": {"lon": 4.29188, "lat": 46.66444}}, {"id": 6438486, "name": "Santes", "country": "FR", "coord": {"lon": 2.95, "lat": 50.599998}}, {"id": 2976108, "name": "Santes", "country": "FR", "coord": {"lon": 2.96289, "lat": 50.593159}}, {"id": 6452033, "name": "Santeny", "country": "FR", "coord": {"lon": 2.56667, "lat": 48.716671}}, {"id": 2976109, "name": "Santeny", "country": "FR", "coord": {"lon": 2.57346, "lat": 48.727299}}, {"id": 6431060, "name": "Santec", "country": "FR", "coord": {"lon": -4.03333, "lat": 48.700001}}, {"id": 2976117, "name": "Santec", "country": "FR", "coord": {"lon": -4.03333, "lat": 48.700001}}, {"id": 6431254, "name": "Santa-Maria-di-Lota", "country": "FR", "coord": {"lon": 9.43333, "lat": 42.75}}, {"id": 2976140, "name": "Santa-Maria-di-Lota", "country": "FR", "coord": {"lon": 9.43202, "lat": 42.747829}}, {"id": 6431253, "name": "Santa-Lucia-di-Moriani", "country": "FR", "coord": {"lon": 9.5, "lat": 42.383331}}, {"id": 2976145, "name": "Santa-Lucia-di-Moriani", "country": "FR", "coord": {"lon": 9.52242, "lat": 42.382118}}, {"id": 6431256, "name": "San-Nicolao", "country": "FR", "coord": {"lon": 9.5, "lat": 42.366669}}, {"id": 2976180, "name": "San-Nicolao", "country": "FR", "coord": {"lon": 9.50943, "lat": 42.369389}}, {"id": 6431251, "name": "San-Martino-di-Lota", "country": "FR", "coord": {"lon": 9.41667, "lat": 42.716671}}, {"id": 2976186, "name": "San-Martino-di-Lota", "country": "FR", "coord": {"lon": 9.43966, "lat": 42.731628}}, {"id": 6439879, "name": "Sangatte", "country": "FR", "coord": {"lon": 1.7576, "lat": 50.947201}}, {"id": 2976217, "name": "Sangatte", "country": "FR", "coord": {"lon": 1.75321, "lat": 50.945641}}, {"id": 6434727, "name": "Sandillon", "country": "FR", "coord": {"lon": 2.03333, "lat": 47.849998}}, {"id": 2976224, "name": "Sandillon", "country": "FR", "coord": {"lon": 2.03155, "lat": 47.8451}}, {"id": 6441335, "name": "Sand", "country": "FR", "coord": {"lon": 7.61667, "lat": 48.383331}}, {"id": 2976231, "name": "Sand", "country": "FR", "coord": {"lon": 7.6126, "lat": 48.382381}}, {"id": 2981836, "name": "Arrondissement de Saint-Amand-Montrond", "country": "FR", "coord": {"lon": 2.5, "lat": 46.75}}, {"id": 6428297, "name": "Sancoins", "country": "FR", "coord": {"lon": 2.91667, "lat": 46.833328}}, {"id": 2976245, "name": "Sancoins", "country": "FR", "coord": {"lon": 2.92238, "lat": 46.833141}}, {"id": 6429984, "name": "Sancey-le-Grand", "country": "FR", "coord": {"lon": 6.58333, "lat": 47.299999}}, {"id": 2976249, "name": "Sancey-le-Grand", "country": "FR", "coord": {"lon": 6.58287, "lat": 47.294891}}, {"id": 6442477, "name": "Sanc\u00e9", "country": "FR", "coord": {"lon": 4.83333, "lat": 46.333328}}, {"id": 2976254, "name": "Sance", "country": "FR", "coord": {"lon": 4.83049, "lat": 46.33926}}, {"id": 6443851, "name": "Samoreau", "country": "FR", "coord": {"lon": 2.75, "lat": 48.416672}}, {"id": 2976279, "name": "Samoreau", "country": "FR", "coord": {"lon": 2.75587, "lat": 48.429459}}, {"id": 6443850, "name": "Samois-sur-Seine", "country": "FR", "coord": {"lon": 2.75, "lat": 48.450001}}, {"id": 2976281, "name": "Samois-sur-Seine", "country": "FR", "coord": {"lon": 2.7504, "lat": 48.452511}}, {"id": 6443849, "name": "Sammeron", "country": "FR", "coord": {"lon": 3.08398, "lat": 48.947201}}, {"id": 2976285, "name": "Sammeron", "country": "FR", "coord": {"lon": 3.08333, "lat": 48.947208}}, {"id": 6439878, "name": "Samer", "country": "FR", "coord": {"lon": 1.75, "lat": 50.633331}}, {"id": 2976291, "name": "Samer", "country": "FR", "coord": {"lon": 1.74628, "lat": 50.638401}}, {"id": 6438484, "name": "Sam\u00e9on", "country": "FR", "coord": {"lon": 3.33333, "lat": 50.48333}}, {"id": 2976292, "name": "Sameon", "country": "FR", "coord": {"lon": 3.33544, "lat": 50.471352}}, {"id": 6432121, "name": "Samatan", "country": "FR", "coord": {"lon": 0.93333, "lat": 43.5}}, {"id": 2976301, "name": "Samatan", "country": "FR", "coord": {"lon": 0.92976, "lat": 43.492859}}, {"id": 6434913, "name": "Salviac", "country": "FR", "coord": {"lon": 1.26667, "lat": 44.683331}}, {"id": 2976310, "name": "Salviac", "country": "FR", "coord": {"lon": 1.26506, "lat": 44.680801}}, {"id": 6444744, "name": "Salou\u00ebl", "country": "FR", "coord": {"lon": 2.25, "lat": 49.866669}}, {"id": 2976337, "name": "Salouel", "country": "FR", "coord": {"lon": 2.2434, "lat": 49.869881}}, {"id": 6438483, "name": "Salom\u00e9", "country": "FR", "coord": {"lon": 2.83333, "lat": 50.533329}}, {"id": 2976348, "name": "Salome", "country": "FR", "coord": {"lon": 2.84709, "lat": 50.53352}}, {"id": 6428133, "name": "Salles-sur-Mer", "country": "FR", "coord": {"lon": -1.05, "lat": 46.099998}}, {"id": 2976358, "name": "Salles-sur-Mer", "country": "FR", "coord": {"lon": -1.05741, "lat": 46.105431}}, {"id": 6427047, "name": "Salles-la-Source", "country": "FR", "coord": {"lon": 2.51667, "lat": 44.433331}}, {"id": 2976366, "name": "Salles-la-Source", "country": "FR", "coord": {"lon": 2.51283, "lat": 44.435051}}, {"id": 6427046, "name": "Salles-Curan", "country": "FR", "coord": {"lon": 2.8, "lat": 44.183331}}, {"id": 2976375, "name": "Salles-Curan", "country": "FR", "coord": {"lon": 2.78821, "lat": 44.182201}}, {"id": 6616574, "name": "Salles", "country": "FR", "coord": {"lon": -0.8686, "lat": 44.5518}}, {"id": 2976384, "name": "Salles", "country": "FR", "coord": {"lon": -0.86073, "lat": 44.549999}}, {"id": 6445238, "name": "Sallertaine", "country": "FR", "coord": {"lon": -1.9567, "lat": 46.860298}}, {"id": 2976387, "name": "Sallertaine", "country": "FR", "coord": {"lon": -1.95522, "lat": 46.860168}}, {"id": 6614749, "name": "Salleb\u0153uf", "country": "FR", "coord": {"lon": -0.4, "lat": 44.833328}}, {"id": 2976399, "name": "Salleboeuf", "country": "FR", "coord": {"lon": -0.4, "lat": 44.833328}}, {"id": 6439876, "name": "Sallaumines", "country": "FR", "coord": {"lon": 2.86667, "lat": 50.416672}}, {"id": 2976404, "name": "Sallaumines", "country": "FR", "coord": {"lon": 2.86174, "lat": 50.417488}}, {"id": 6442906, "name": "Salins-les-Thermes", "country": "FR", "coord": {"lon": 6.52914, "lat": 45.47163}}, {"id": 2976412, "name": "Salins-les-Thermes", "country": "FR", "coord": {"lon": 6.53051, "lat": 45.471691}}, {"id": 6433750, "name": "Salins-les-Bains", "country": "FR", "coord": {"lon": 5.88333, "lat": 46.950001}}, {"id": 2976413, "name": "Salins-les-Bains", "country": "FR", "coord": {"lon": 5.87763, "lat": 46.946629}}, {"id": 6431444, "name": "Salindres", "country": "FR", "coord": {"lon": 4.16667, "lat": 44.166672}}, {"id": 2976421, "name": "Salindres", "country": "FR", "coord": {"lon": 4.1602, "lat": 44.171741}}, {"id": 6445237, "name": "Saligny", "country": "FR", "coord": {"lon": -1.41667, "lat": 46.799999}}, {"id": 2976433, "name": "Saligny", "country": "FR", "coord": {"lon": -1.42726, "lat": 46.808331}}, {"id": 6613505, "name": "Salignac", "country": "FR", "coord": {"lon": -0.36667, "lat": 45.01667}}, {"id": 2976439, "name": "Salignac", "country": "FR", "coord": {"lon": -0.37964, "lat": 45.016071}}, {"id": 6431833, "name": "Salies-du-Salat", "country": "FR", "coord": {"lon": 0.9593, "lat": 43.103699}}, {"id": 2976443, "name": "Salies-du-Salat", "country": "FR", "coord": {"lon": 0.95866, "lat": 43.100739}}, {"id": 6444743, "name": "Saleux", "country": "FR", "coord": {"lon": 2.25, "lat": 49.866669}}, {"id": 2976459, "name": "Saleux", "country": "FR", "coord": {"lon": 2.23698, "lat": 49.8563}}, {"id": 6454672, "name": "Sales", "country": "FR", "coord": {"lon": 5.95, "lat": 45.866669}}, {"id": 2976470, "name": "Sales", "country": "FR", "coord": {"lon": 5.95998, "lat": 45.875759}}, {"id": 6445066, "name": "Salernes", "country": "FR", "coord": {"lon": 6.2342, "lat": 43.563599}}, {"id": 2976472, "name": "Salernes", "country": "FR", "coord": {"lon": 6.23398, "lat": 43.563492}}, {"id": 6441032, "name": "Saleilles", "country": "FR", "coord": {"lon": 2.95, "lat": 42.650002}}, {"id": 2976481, "name": "Saleilles", "country": "FR", "coord": {"lon": 2.95309, "lat": 42.654179}}, {"id": 6617403, "name": "Salses-le-Ch\u00e2teau", "country": "FR", "coord": {"lon": 2.9195, "lat": 42.832802}}, {"id": 2976489, "name": "Salses-le-Chateau", "country": "FR", "coord": {"lon": 2.91667, "lat": 42.833328}}, {"id": 6434123, "name": "Salbris", "country": "FR", "coord": {"lon": 2.05, "lat": 47.433331}}, {"id": 2976490, "name": "Salbris", "country": "FR", "coord": {"lon": 2.05124, "lat": 47.424198}}, {"id": 6617939, "name": "\u00c9vette-Salbert", "country": "FR", "coord": {"lon": 6.7985, "lat": 47.674801}}, {"id": 2976491, "name": "Salbert", "country": "FR", "coord": {"lon": 6.82209, "lat": 47.672359}}, {"id": 6433406, "name": "Salaise-sur-Sanne", "country": "FR", "coord": {"lon": 4.8194, "lat": 45.3447}}, {"id": 2976507, "name": "Salaise-sur-Sanne", "country": "FR", "coord": {"lon": 4.81829, "lat": 45.342339}}, {"id": 6433405, "name": "Salagnon", "country": "FR", "coord": {"lon": 5.35, "lat": 45.666672}}, {"id": 2976509, "name": "Salagnon", "country": "FR", "coord": {"lon": 5.35809, "lat": 45.66713}}, {"id": 6436852, "name": "Saizerais", "country": "FR", "coord": {"lon": 6.05, "lat": 48.799999}}, {"id": 2976516, "name": "Saizerais", "country": "FR", "coord": {"lon": 6.04472, "lat": 48.790829}}, {"id": 6613999, "name": "Sa\u00efx", "country": "FR", "coord": {"lon": 2.18333, "lat": 43.583328}}, {"id": 2976520, "name": "Saix", "country": "FR", "coord": {"lon": 2.18333, "lat": 43.583328}}, {"id": 6444232, "name": "Saivres", "country": "FR", "coord": {"lon": -0.23333, "lat": 46.433331}}, {"id": 2976521, "name": "Saivres", "country": "FR", "coord": {"lon": -0.23677, "lat": 46.432621}}, {"id": 6445065, "name": "Saint-Zacharie", "country": "FR", "coord": {"lon": 5.71667, "lat": 43.383331}}, {"id": 2976534, "name": "Saint-Zacharie", "country": "FR", "coord": {"lon": 5.70808, "lat": 43.385208}}, {"id": 6615111, "name": "Saint-Yvi", "country": "FR", "coord": {"lon": -3.93333, "lat": 47.966671}}, {"id": 2976537, "name": "Saint-Yvi", "country": "FR", "coord": {"lon": -3.93333, "lat": 47.966671}}, {"id": 6427858, "name": "Saint-Yrieix-sur-Charente", "country": "FR", "coord": {"lon": 0.11667, "lat": 45.683331}}, {"id": 2976542, "name": "Saint-Yrieix-sur-Charente", "country": "FR", "coord": {"lon": 0.11667, "lat": 45.683331}}, {"id": 6445467, "name": "Saint-Yrieix-la-Perche", "country": "FR", "coord": {"lon": 1.2, "lat": 45.51667}}, {"id": 2976546, "name": "Saint-Yrieix-la-Perche", "country": "FR", "coord": {"lon": 1.20569, "lat": 45.516041}}, {"id": 6428129, "name": "Saint-Xandre", "country": "FR", "coord": {"lon": -1.1, "lat": 46.200001}}, {"id": 2976556, "name": "Saint-Xandre", "country": "FR", "coord": {"lon": -1.10267, "lat": 46.204441}}, {"id": 6446334, "name": "Saint-Witz", "country": "FR", "coord": {"lon": 2.56667, "lat": 49.083328}}, {"id": 2976557, "name": "Saint-Witz", "country": "FR", "coord": {"lon": 2.57122, "lat": 49.091}}, {"id": 6443518, "name": "Saint-Wandrille-Ran\u00e7on", "country": "FR", "coord": {"lon": 0.76667, "lat": 49.533329}}, {"id": 2976558, "name": "Saint-Wandrille-Rancon", "country": "FR", "coord": {"lon": 0.76497, "lat": 49.526581}}, {"id": 6454882, "name": "Saint-Vrain", "country": "FR", "coord": {"lon": 2.33333, "lat": 48.533329}}, {"id": 2976565, "name": "Saint-Vrain", "country": "FR", "coord": {"lon": 2.33331, "lat": 48.543018}}, {"id": 6435086, "name": "Saint-Vite", "country": "FR", "coord": {"lon": 0.96667, "lat": 44.48333}}, {"id": 2976577, "name": "Saint-Vite", "country": "FR", "coord": {"lon": 0.93876, "lat": 44.471329}}, {"id": 6429982, "name": "Saint-Vit", "country": "FR", "coord": {"lon": 5.81667, "lat": 47.183331}}, {"id": 2976579, "name": "Saint-Vit", "country": "FR", "coord": {"lon": 5.81667, "lat": 47.183331}}, {"id": 6437395, "name": "Saint-Vincent-sur-Oust", "country": "FR", "coord": {"lon": -2.15, "lat": 47.700001}}, {"id": 2976581, "name": "Saint-Vincent-sur-Oust", "country": "FR", "coord": {"lon": -2.14657, "lat": 47.7001}}, {"id": 6445235, "name": "Saint-Vincent-sur-Graon", "country": "FR", "coord": {"lon": -1.38333, "lat": 46.51667}}, {"id": 2976585, "name": "Saint-Vincent-sur-Graon", "country": "FR", "coord": {"lon": -1.38881, "lat": 46.516899}}, {"id": 6434542, "name": "Saint-Vincent-des-Landes", "country": "FR", "coord": {"lon": -1.5, "lat": 47.650002}}, {"id": 2976603, "name": "Saint-Vincent-des-Landes", "country": "FR", "coord": {"lon": -1.49572, "lat": 47.656952}}, {"id": 6614012, "name": "Saint-Vincent-de-Paul", "country": "FR", "coord": {"lon": -0.4681, "lat": 44.954102}}, {"id": 2976607, "name": "Saint-Vincent-de-Paul", "country": "FR", "coord": {"lon": -0.46751, "lat": 44.954288}}, {"id": 6433404, "name": "Saint-Vincent-de-Mercuze", "country": "FR", "coord": {"lon": 5.95, "lat": 45.366669}}, {"id": 2976609, "name": "Saint-Vincent-de-Mercuze", "country": "FR", "coord": {"lon": 5.95182, "lat": 45.370628}}, {"id": 6427499, "name": "Saint-Vigor-le-Grand", "country": "FR", "coord": {"lon": -0.68333, "lat": 49.283329}}, {"id": 2976637, "name": "Saint-Vigor-le-Grand", "country": "FR", "coord": {"lon": -0.68579, "lat": 49.282421}}, {"id": 2983290, "name": "Arrondissement de Rochechouart", "country": "FR", "coord": {"lon": 0.82543, "lat": 45.749859}}, {"id": 6445465, "name": "Saint-Victurnien", "country": "FR", "coord": {"lon": 1, "lat": 45.883331}}, {"id": 2976643, "name": "Saint-Victurnien", "country": "FR", "coord": {"lon": 1.01376, "lat": 45.878551}}, {"id": 6431441, "name": "Saint-Victor-la-Coste", "country": "FR", "coord": {"lon": 4.63333, "lat": 44.066669}}, {"id": 2976653, "name": "Saint-Victor-la-Coste", "country": "FR", "coord": {"lon": 4.64238, "lat": 44.06295}}, {"id": 6427087, "name": "Saint-Victoret", "country": "FR", "coord": {"lon": 5.23333, "lat": 43.416672}}, {"id": 2976656, "name": "Saint-Victoret", "country": "FR", "coord": {"lon": 5.23396, "lat": 43.419571}}, {"id": 6433402, "name": "Saint-Victor-de-Cessieu", "country": "FR", "coord": {"lon": 5.4, "lat": 45.549999}}, {"id": 2976663, "name": "Saint-Victor-de-Cessieu", "country": "FR", "coord": {"lon": 5.4, "lat": 45.549999}}, {"id": 3015425, "name": "Gozini\u00e8re", "country": "FR", "coord": {"lon": 2.85591, "lat": 46.596951}}, {"id": 6615697, "name": "Saint-Victor", "country": "FR", "coord": {"lon": 2.609, "lat": 46.395}}, {"id": 2976667, "name": "Saint-Victor", "country": "FR", "coord": {"lon": 2.60858, "lat": 46.394669}}, {"id": 6434541, "name": "Saint-Viaud", "country": "FR", "coord": {"lon": -2.01667, "lat": 47.25}}, {"id": 2976678, "name": "Saint-Viaud", "country": "FR", "coord": {"lon": -2.01833, "lat": 47.256191}}, {"id": 6434122, "name": "Saint-Vi\u00e2tre", "country": "FR", "coord": {"lon": 1.93333, "lat": 47.51667}}, {"id": 2976679, "name": "Saint-Viatre", "country": "FR", "coord": {"lon": 1.93276, "lat": 47.52438}}, {"id": 6428464, "name": "Saint-Viance", "country": "FR", "coord": {"lon": 1.45, "lat": 45.216671}}, {"id": 2976680, "name": "Saint-Viance", "country": "FR", "coord": {"lon": 1.45284, "lat": 45.217522}}, {"id": 6613638, "name": "Saint-V\u00e9rand", "country": "FR", "coord": {"lon": 4.53333, "lat": 45.916672}}, {"id": 2976683, "name": "Saint-Verand", "country": "FR", "coord": {"lon": 4.52791, "lat": 45.91996}}, {"id": 6616676, "name": "Saint-V\u00e9rand", "country": "FR", "coord": {"lon": 5.3324, "lat": 45.172798}}, {"id": 2976684, "name": "Saint-Verand", "country": "FR", "coord": {"lon": 5.33195, "lat": 45.172771}}, {"id": 6439875, "name": "Saint-Venant", "country": "FR", "coord": {"lon": 2.55, "lat": 50.616669}}, {"id": 2976690, "name": "Saint-Venant", "country": "FR", "coord": {"lon": 2.53946, "lat": 50.61956}}, {"id": 6429318, "name": "Saint-Vaury", "country": "FR", "coord": {"lon": 1.75, "lat": 46.200001}}, {"id": 2976691, "name": "Saint-Vaury", "country": "FR", "coord": {"lon": 1.75654, "lat": 46.20417}}, {"id": 6454749, "name": "Saint-Varent", "country": "FR", "coord": {"lon": -0.23333, "lat": 46.883331}}, {"id": 2976693, "name": "Saint-Varent", "country": "FR", "coord": {"lon": -0.2321, "lat": 46.889339}}, {"id": 6430240, "name": "Saint-Vallier", "country": "FR", "coord": {"lon": 4.8158, "lat": 45.1782}}, {"id": 2976699, "name": "Saint-Vallier", "country": "FR", "coord": {"lon": 4.81514, "lat": 45.175919}}, {"id": 6443514, "name": "Saint-Valery-en-Caux", "country": "FR", "coord": {"lon": 0.73333, "lat": 49.866669}}, {"id": 2976703, "name": "Saint-Valery-en-Caux", "country": "FR", "coord": {"lon": 0.73333, "lat": 49.866669}}, {"id": 6446011, "name": "Saint-Val\u00e9rien", "country": "FR", "coord": {"lon": 3.1, "lat": 48.183331}}, {"id": 2976704, "name": "Saint-Valerien", "country": "FR", "coord": {"lon": 3.09523, "lat": 48.178051}}, {"id": 6435654, "name": "Saint-Vaast-la-Hougue", "country": "FR", "coord": {"lon": -1.2664, "lat": 49.5882}}, {"id": 2976712, "name": "Saint-Vaast-la-Hougue", "country": "FR", "coord": {"lon": -1.26931, "lat": 49.588428}}, {"id": 6430239, "name": "Saint-Uze", "country": "FR", "coord": {"lon": 4.86667, "lat": 45.183331}}, {"id": 2976719, "name": "Saint-Uze", "country": "FR", "coord": {"lon": 4.86561, "lat": 45.18502}}, {"id": 6442467, "name": "Saint-Usuge", "country": "FR", "coord": {"lon": 5.25, "lat": 46.683331}}, {"id": 2976721, "name": "Saint-Usuge", "country": "FR", "coord": {"lon": 5.25089, "lat": 46.679001}}, {"id": 6428872, "name": "Saint-Usage", "country": "FR", "coord": {"lon": 5.26667, "lat": 47.099998}}, {"id": 2976724, "name": "Saint-Usage", "country": "FR", "coord": {"lon": 5.26044, "lat": 47.110088}}, {"id": 6431058, "name": "Saint-Urbain", "country": "FR", "coord": {"lon": -4.23333, "lat": 48.400002}}, {"id": 2976730, "name": "Saint-Urbain", "country": "FR", "coord": {"lon": -4.23333, "lat": 48.400002}}, {"id": 6445232, "name": "Saint-Urbain", "country": "FR", "coord": {"lon": -2.01667, "lat": 46.866669}}, {"id": 2976731, "name": "Saint-Urbain", "country": "FR", "coord": {"lon": -2.00961, "lat": 46.875568}}, {"id": 6445064, "name": "Saint-Tropez", "country": "FR", "coord": {"lon": 6.63333, "lat": 43.26667}}, {"id": 2976742, "name": "Saint-Tropez", "country": "FR", "coord": {"lon": 6.63981, "lat": 43.269321}}, {"id": 6424692, "name": "Saint-Trivier-sur-Moignans", "country": "FR", "coord": {"lon": 4.9, "lat": 46.066669}}, {"id": 2976747, "name": "Saint-Trivier-sur-Moignans", "country": "FR", "coord": {"lon": 4.89755, "lat": 46.07233}}, {"id": 6424691, "name": "Saint-Trivier-de-Courtes", "country": "FR", "coord": {"lon": 5.08333, "lat": 46.466671}}, {"id": 2976748, "name": "Saint-Trivier-de-Courtes", "country": "FR", "coord": {"lon": 5.08047, "lat": 46.459042}}, {"id": 6437394, "name": "Saint-Thuriau", "country": "FR", "coord": {"lon": -2.95, "lat": 48.01667}}, {"id": 2976756, "name": "Saint-Thuriau", "country": "FR", "coord": {"lon": -2.95, "lat": 48.01667}}, {"id": 6432868, "name": "Saint-Thurial", "country": "FR", "coord": {"lon": -1.93333, "lat": 48.033329}}, {"id": 2976757, "name": "Saint-Thurial", "country": "FR", "coord": {"lon": -1.93181, "lat": 48.02924}}, {"id": 6431056, "name": "Saint-Thonan", "country": "FR", "coord": {"lon": -4.33333, "lat": 48.48333}}, {"id": 2976759, "name": "Saint-Thonan", "country": "FR", "coord": {"lon": -4.33333, "lat": 48.48333}}, {"id": 6432652, "name": "Saint-Thib\u00e9ry", "country": "FR", "coord": {"lon": 3.41667, "lat": 43.400002}}, {"id": 2976777, "name": "Saint-Thibery", "country": "FR", "coord": {"lon": 3.41774, "lat": 43.39658}}, {"id": 6443847, "name": "Saint-Thibault-des-Vignes", "country": "FR", "coord": {"lon": 2.68333, "lat": 48.866669}}, {"id": 2976780, "name": "Saint-Thibault-des-Vignes", "country": "FR", "coord": {"lon": 2.68041, "lat": 48.871109}}, {"id": 6453936, "name": "Saint-Th\u00e9gonnec", "country": "FR", "coord": {"lon": -3.95, "lat": 48.51667}}, {"id": 2976791, "name": "Saint-Thegonnec", "country": "FR", "coord": {"lon": -3.95, "lat": 48.51667}}, {"id": 2976794, "name": "Saint-Symphorien-sur-Coise", "country": "FR", "coord": {"lon": 4.45811, "lat": 45.632}}, {"id": 6434319, "name": "Saint-Symphorien-de-Lay", "country": "FR", "coord": {"lon": 4.21667, "lat": 45.950001}}, {"id": 2976805, "name": "Saint-Symphorien-de-Lay", "country": "FR", "coord": {"lon": 4.21204, "lat": 45.94849}}, {"id": 2976816, "name": "Saint-Symphorien", "country": "FR", "coord": {"lon": -0.4922, "lat": 46.26442}}, {"id": 6432456, "name": "Saint-Symphorien", "country": "FR", "coord": {"lon": -0.48333, "lat": 44.433331}}, {"id": 2976818, "name": "Saint-Symphorien", "country": "FR", "coord": {"lon": -0.49047, "lat": 44.429409}}, {"id": 6438481, "name": "Saint-Sylvestre-Cappel", "country": "FR", "coord": {"lon": 2.555, "lat": 50.7771}}, {"id": 2976823, "name": "Saint-Sylvestre-Cappel", "country": "FR", "coord": {"lon": 2.55622, "lat": 50.776249}}, {"id": 6431828, "name": "Saint-Sulpice-sur-L\u00e8ze", "country": "FR", "coord": {"lon": 1.33333, "lat": 43.333328}}, {"id": 2976837, "name": "Saint-Sulpice-sur-Leze", "country": "FR", "coord": {"lon": 1.32091, "lat": 43.330761}}, {"id": 6445462, "name": "Saint-Sulpice-les-Feuilles", "country": "FR", "coord": {"lon": 1.36667, "lat": 46.316669}}, {"id": 2976840, "name": "Saint-Sulpice-les-Feuilles", "country": "FR", "coord": {"lon": 1.36792, "lat": 46.31868}}, {"id": 6429316, "name": "Saint-Sulpice-le-Gu\u00e9r\u00e9tois", "country": "FR", "coord": {"lon": 1.83333, "lat": 46.200001}}, {"id": 2976843, "name": "Saint-Sulpice-le-Gueretois", "country": "FR", "coord": {"lon": 1.82826, "lat": 46.20097}}, {"id": 6432866, "name": "Saint-Sulpice-la-For\u00eat", "country": "FR", "coord": {"lon": -1.58333, "lat": 48.216671}}, {"id": 2976846, "name": "Saint-Sulpice-la-Foret", "country": "FR", "coord": {"lon": -1.57972, "lat": 48.216671}}, {"id": 6428125, "name": "Saint-Sulpice-de-Royan", "country": "FR", "coord": {"lon": -1.01667, "lat": 45.666672}}, {"id": 2976855, "name": "Saint-Sulpice-de-Royan", "country": "FR", "coord": {"lon": -1.01252, "lat": 45.670349}}, {"id": 6427855, "name": "Saint-Sulpice-de-Cognac", "country": "FR", "coord": {"lon": -0.38333, "lat": 45.76667}}, {"id": 2976863, "name": "Saint-Sulpice-de-Cognac", "country": "FR", "coord": {"lon": -0.38093, "lat": 45.759781}}, {"id": 6613237, "name": "Saint-Sulpice", "country": "FR", "coord": {"lon": 2.12105, "lat": 49.351299}}, {"id": 2976866, "name": "Saint-Sulpice", "country": "FR", "coord": {"lon": 2.12314, "lat": 49.350491}}, {"id": 6614954, "name": "Saint-Sulpice-de-Pommeray", "country": "FR", "coord": {"lon": 1.26667, "lat": 47.599998}}, {"id": 2976868, "name": "Saint-Sulpice-de-Pommeray", "country": "FR", "coord": {"lon": 1.26667, "lat": 47.599998}}, {"id": 6617799, "name": "Saint-Sulpice", "country": "FR", "coord": {"lon": 1.6874, "lat": 43.7742}}, {"id": 2976879, "name": "Saint-Sulpice", "country": "FR", "coord": {"lon": 1.68511, "lat": 43.775002}}, {"id": 6443846, "name": "Saint-Soupplets", "country": "FR", "coord": {"lon": 2.8, "lat": 49.033329}}, {"id": 2976883, "name": "Saint-Soupplets", "country": "FR", "coord": {"lon": 2.80723, "lat": 49.038658}}, {"id": 6438480, "name": "Saint-Souplet", "country": "FR", "coord": {"lon": 3.53333, "lat": 50.049999}}, {"id": 2976885, "name": "Saint-Souplet", "country": "FR", "coord": {"lon": 3.53179, "lat": 50.056389}}, {"id": 6430237, "name": "Saint-Sorlin-en-Valloire", "country": "FR", "coord": {"lon": 4.95, "lat": 45.283329}}, {"id": 2976895, "name": "Saint-Sorlin-en-Valloire", "country": "FR", "coord": {"lon": 4.95205, "lat": 45.28986}}, {"id": 6424690, "name": "Saint-Sorlin-en-Bugey", "country": "FR", "coord": {"lon": 5.36667, "lat": 45.883331}}, {"id": 2976896, "name": "Saint-Sorlin-en-Bugey", "country": "FR", "coord": {"lon": 5.3711, "lat": 45.884682}}, {"id": 6427654, "name": "Saint-Simon", "country": "FR", "coord": {"lon": 2.48333, "lat": 44.966671}}, {"id": 2976914, "name": "Saint-Simon", "country": "FR", "coord": {"lon": 2.4909, "lat": 44.96492}}, {"id": 6433398, "name": "Saint-Sim\u00e9on-de-Bressieux", "country": "FR", "coord": {"lon": 5.26649, "lat": 45.329491}}, {"id": 2976919, "name": "Saint-Simeon-de-Bressieux", "country": "FR", "coord": {"lon": 5.26591, "lat": 45.338501}}, {"id": 6433974, "name": "Saint-Sever", "country": "FR", "coord": {"lon": -0.56667, "lat": 43.76667}}, {"id": 2976942, "name": "Saint-Sever", "country": "FR", "coord": {"lon": -0.57357, "lat": 43.757271}}, {"id": 6432450, "name": "Saint-Seurin-sur-l'Isle", "country": "FR", "coord": {"lon": 0, "lat": 45.01667}}, {"id": 2976944, "name": "Saint-Seurin-sur-lIsle", "country": "FR", "coord": {"lon": 0, "lat": 45.01667}}, {"id": 6442463, "name": "Saint-Sernin-du-Bois", "country": "FR", "coord": {"lon": 4.43333, "lat": 46.833328}}, {"id": 2976962, "name": "Saint-Sernin-du-Bois", "country": "FR", "coord": {"lon": 4.43271, "lat": 46.84074}}, {"id": 6425849, "name": "Saint-Sernin", "country": "FR", "coord": {"lon": 4.4, "lat": 44.566669}}, {"id": 2976964, "name": "Saint-Sernin", "country": "FR", "coord": {"lon": 4.39163, "lat": 44.572079}}, {"id": 6432864, "name": "Saint-Senoux", "country": "FR", "coord": {"lon": -1.78333, "lat": 47.900002}}, {"id": 2976969, "name": "Saint-Senoux", "country": "FR", "coord": {"lon": -1.78819, "lat": 47.905521}}, {"id": 6430636, "name": "Saint-S\u00e9bastien-de-Morsent", "country": "FR", "coord": {"lon": 1.08333, "lat": 49.01667}}, {"id": 2976986, "name": "Saint-Sebastien-de-Morsent", "country": "FR", "coord": {"lon": 1.0873, "lat": 49.01096}}, {"id": 6427086, "name": "Saint-Savournin", "country": "FR", "coord": {"lon": 5.53333, "lat": 43.400002}}, {"id": 2976994, "name": "Saint-Savournin", "country": "FR", "coord": {"lon": 5.5269, "lat": 43.408482}}, {"id": 6428117, "name": "Saint-Savinien", "country": "FR", "coord": {"lon": -0.68333, "lat": 45.883331}}, {"id": 2976996, "name": "Saint-Savinien", "country": "FR", "coord": {"lon": -0.67919, "lat": 45.87711}}, {"id": 6616573, "name": "Saint-Savin", "country": "FR", "coord": {"lon": -0.4483, "lat": 45.138599}}, {"id": 2976997, "name": "Saint-Savin", "country": "FR", "coord": {"lon": -0.45, "lat": 45.150002}}, {"id": 6445358, "name": "Saint-Savin", "country": "FR", "coord": {"lon": 0.86667, "lat": 46.566669}}, {"id": 2977000, "name": "Saint-Savin", "country": "FR", "coord": {"lon": 0.86709, "lat": 46.565281}}, {"id": 6433396, "name": "Saint-Savin", "country": "FR", "coord": {"lon": 5.3, "lat": 45.633331}}, {"id": 2977001, "name": "Saint-Savin", "country": "FR", "coord": {"lon": 5.30722, "lat": 45.627701}}, {"id": 6443844, "name": "Saint-Sauveur-sur-\u00c9cole", "country": "FR", "coord": {"lon": 2.5487, "lat": 48.496498}}, {"id": 2977006, "name": "Saint-Sauveur-sur-Ecole", "country": "FR", "coord": {"lon": 2.54711, "lat": 48.497501}}, {"id": 6434318, "name": "Saint-Sauveur-en-Rue", "country": "FR", "coord": {"lon": 4.5, "lat": 45.26667}}, {"id": 2977015, "name": "Saint-Sauveur-en-Rue", "country": "FR", "coord": {"lon": 4.4953, "lat": 45.27021}}, {"id": 6432862, "name": "Saint-Sauveur-des-Landes", "country": "FR", "coord": {"lon": -1.31667, "lat": 48.333328}}, {"id": 2977019, "name": "Saint-Sauveur-des-Landes", "country": "FR", "coord": {"lon": -1.31248, "lat": 48.342781}}, {"id": 6425848, "name": "Saint-Sauveur-de-Montagut", "country": "FR", "coord": {"lon": 4.58333, "lat": 44.816669}}, {"id": 2977023, "name": "Saint-Sauveur-de-Montagut", "country": "FR", "coord": {"lon": 4.57993, "lat": 44.821419}}, {"id": 6613799, "name": "Saint-Sauveur", "country": "FR", "coord": {"lon": 2.21667, "lat": 49.933331}}, {"id": 2977033, "name": "Saint-Sauveur", "country": "FR", "coord": {"lon": 2.21162, "lat": 49.93792}}, {"id": 6614001, "name": "Saint-Sauveur", "country": "FR", "coord": {"lon": 2.78333, "lat": 49.316669}}, {"id": 2977034, "name": "Saint-Sauveur", "country": "FR", "coord": {"lon": 2.78321, "lat": 49.318569}}, {"id": 6454603, "name": "Saint-Sauveur", "country": "FR", "coord": {"lon": 6.38333, "lat": 47.799999}}, {"id": 2977038, "name": "Saint-Sauveur", "country": "FR", "coord": {"lon": 6.38583, "lat": 47.805302}}, {"id": 6613457, "name": "Saint-Sauveur", "country": "FR", "coord": {"lon": 0.61667, "lat": 46.799999}}, {"id": 2977041, "name": "Saint-Sauveur", "country": "FR", "coord": {"lon": 0.62277, "lat": 46.808418}}, {"id": 6616572, "name": "Saint-Sauveur", "country": "FR", "coord": {"lon": -0.8344, "lat": 45.202499}}, {"id": 2977043, "name": "Saint-Sauveur", "country": "FR", "coord": {"lon": -0.83433, "lat": 45.202721}}, {"id": 6454093, "name": "Saint-Sauveur", "country": "FR", "coord": {"lon": 5.35, "lat": 45.150002}}, {"id": 2977044, "name": "Saint-Sauveur", "country": "FR", "coord": {"lon": 5.3528, "lat": 45.153351}}, {"id": 6616488, "name": "Saint-Sauveur", "country": "FR", "coord": {"lon": 1.4012, "lat": 43.749001}}, {"id": 2977049, "name": "Saint-Sauveur", "country": "FR", "coord": {"lon": 1.40085, "lat": 43.748299}}, {"id": 6618447, "name": "Saint-Sauves-d'Auvergne", "country": "FR", "coord": {"lon": 2.6882, "lat": 45.606602}}, {"id": 2977050, "name": "Saint-Sauves-dAuvergne", "country": "FR", "coord": {"lon": 2.68333, "lat": 45.599998}}, {"id": 6614497, "name": "Saint-Sauvant", "country": "FR", "coord": {"lon": 0.0566, "lat": 46.359901}}, {"id": 2977054, "name": "Saint-Sauvant", "country": "FR", "coord": {"lon": 0.05634, "lat": 46.35965}}, {"id": 6438479, "name": "Saint-Saulve", "country": "FR", "coord": {"lon": 3.55, "lat": 50.366669}}, {"id": 2977058, "name": "Saint-Saulve", "country": "FR", "coord": {"lon": 3.55612, "lat": 50.37141}}, {"id": 6435316, "name": "Saint-Saturnin-sur-Loire", "country": "FR", "coord": {"lon": -0.43333, "lat": 47.400002}}, {"id": 2977062, "name": "Saint-Saturnin-sur-Loire", "country": "FR", "coord": {"lon": -0.43565, "lat": 47.394379}}, {"id": 6445102, "name": "Saint-Saturnin-l\u00e8s-Avignon", "country": "FR", "coord": {"lon": 4.93333, "lat": 43.950001}}, {"id": 2977063, "name": "Saint-Saturnin-les-Avignon", "country": "FR", "coord": {"lon": 4.92548, "lat": 43.955009}}, {"id": 6617836, "name": "Saint-Saturnin-l\u00e8s-Apt", "country": "FR", "coord": {"lon": 5.3846, "lat": 43.944302}}, {"id": 2977068, "name": "Saint-Saturnin-les-Apt", "country": "FR", "coord": {"lon": 5.38333, "lat": 43.933331}}, {"id": 6454645, "name": "Saint-Saturnin", "country": "FR", "coord": {"lon": 0.15, "lat": 48.049999}}, {"id": 2977070, "name": "Saint-Saturnin", "country": "FR", "coord": {"lon": 0.15218, "lat": 48.057961}}, {"id": 6453714, "name": "Saint-Saturnin", "country": "FR", "coord": {"lon": 0.05, "lat": 45.666672}}, {"id": 2977072, "name": "Saint-Saturnin", "country": "FR", "coord": {"lon": 0.05, "lat": 45.666672}}, {"id": 6613859, "name": "Saint-Saturnin", "country": "FR", "coord": {"lon": 3.1, "lat": 45.650002}}, {"id": 2977073, "name": "Saint-Saturnin", "country": "FR", "coord": {"lon": 3.09019, "lat": 45.659451}}, {"id": 6428291, "name": "Saint-Satur", "country": "FR", "coord": {"lon": 2.85, "lat": 47.333328}}, {"id": 2977077, "name": "Saint-Satur", "country": "FR", "coord": {"lon": 2.83734, "lat": 47.339142}}, {"id": 6429156, "name": "Saint-Samson-sur-Rance", "country": "FR", "coord": {"lon": -2.03333, "lat": 48.5}}, {"id": 2977085, "name": "Saint-Samson-sur-Rance", "country": "FR", "coord": {"lon": -2.02865, "lat": 48.492519}}, {"id": 6443507, "name": "Saint-Sa\u00ebns", "country": "FR", "coord": {"lon": 1.28333, "lat": 49.666672}}, {"id": 2977100, "name": "Saint-Saens", "country": "FR", "coord": {"lon": 1.28525, "lat": 49.673019}}, {"id": 6443842, "name": "Saints", "country": "FR", "coord": {"lon": 3.05, "lat": 48.75}}, {"id": 2977101, "name": "Saints", "country": "FR", "coord": {"lon": 3.04645, "lat": 48.760658}}, {"id": 6446206, "name": "Saintry-sur-Seine", "country": "FR", "coord": {"lon": 2.5, "lat": 48.599998}}, {"id": 2977103, "name": "Saintry-sur-Seine", "country": "FR", "coord": {"lon": 2.49515, "lat": 48.596401}}, {"id": 6433395, "name": "Saint-Romans", "country": "FR", "coord": {"lon": 5.31667, "lat": 45.116669}}, {"id": 2977114, "name": "Saint-Romans", "country": "FR", "coord": {"lon": 5.32751, "lat": 45.11507}}, {"id": 6434121, "name": "Saint-Romain-sur-Cher", "country": "FR", "coord": {"lon": 1.4, "lat": 47.316669}}, {"id": 2977122, "name": "Saint-Romain-sur-Cher", "country": "FR", "coord": {"lon": 1.39956, "lat": 47.318771}}, {"id": 6434315, "name": "Saint-Romain-la-Motte", "country": "FR", "coord": {"lon": 3.98333, "lat": 46.083328}}, {"id": 2977131, "name": "Saint-Romain-la-Motte", "country": "FR", "coord": {"lon": 3.9816, "lat": 46.084599}}, {"id": 6612755, "name": "Saint-Romain-en-Gal", "country": "FR", "coord": {"lon": 4.86667, "lat": 45.533329}}, {"id": 2977137, "name": "Saint-Romain-en-Gal", "country": "FR", "coord": {"lon": 4.86074, "lat": 45.53159}}, {"id": 6441790, "name": "Saint-Romain-de-Popey", "country": "FR", "coord": {"lon": 4.53333, "lat": 45.849998}}, {"id": 2977142, "name": "Saint-Romain-de-Popey", "country": "FR", "coord": {"lon": 4.53082, "lat": 45.847618}}, {"id": 6433393, "name": "Saint-Romain-de-Jalionas", "country": "FR", "coord": {"lon": 5.21667, "lat": 45.75}}, {"id": 2977145, "name": "Saint-Romain-de-Jalionas", "country": "FR", "coord": {"lon": 5.21527, "lat": 45.756969}}, {"id": 6443506, "name": "Saint-Romain-de-Colbosc", "country": "FR", "coord": {"lon": 0.36667, "lat": 49.533329}}, {"id": 2977146, "name": "Saint-Romain-de-Colbosc", "country": "FR", "coord": {"lon": 0.35719, "lat": 49.53093}}, {"id": 6428114, "name": "Saint-Romain-de-Benet", "country": "FR", "coord": {"lon": -0.85, "lat": 45.700001}}, {"id": 2977147, "name": "Saint-Romain-de-Benet", "country": "FR", "coord": {"lon": -0.84765, "lat": 45.691502}}, {"id": 6428112, "name": "Saint-Rogatien", "country": "FR", "coord": {"lon": -1.06667, "lat": 46.150002}}, {"id": 2977159, "name": "Saint-Rogatien", "country": "FR", "coord": {"lon": -1.06963, "lat": 46.150002}}, {"id": 6444739, "name": "Saint-Riquier", "country": "FR", "coord": {"lon": 1.95, "lat": 50.133331}}, {"id": 2977178, "name": "Saint-Riquier", "country": "FR", "coord": {"lon": 1.94756, "lat": 50.132359}}, {"id": 6612411, "name": "Saint-Restitut", "country": "FR", "coord": {"lon": 4.78333, "lat": 44.333328}}, {"id": 2977187, "name": "Saint-Restitut", "country": "FR", "coord": {"lon": 4.79155, "lat": 44.335072}}, {"id": 6431051, "name": "Saint-Renan", "country": "FR", "coord": {"lon": -4.61667, "lat": 48.433331}}, {"id": 2977189, "name": "Saint-Renan", "country": "FR", "coord": {"lon": -4.61667, "lat": 48.433331}}, {"id": 6444078, "name": "Saint-R\u00e9my-l\u00e8s-Chevreuse", "country": "FR", "coord": {"lon": 2.08333, "lat": 48.700001}}, {"id": 2977197, "name": "Saint-Remy-les-Chevreuse", "country": "FR", "coord": {"lon": 2.07692, "lat": 48.707081}}, {"id": 6435314, "name": "Saint-R\u00e9my-en-Mauges", "country": "FR", "coord": {"lon": -1.06667, "lat": 47.26667}}, {"id": 2977204, "name": "Saint-Remy-en-Mauges", "country": "FR", "coord": {"lon": -1.075, "lat": 47.272018}}, {"id": 6617592, "name": "Saint-R\u00e9my-de-Maurienne", "country": "FR", "coord": {"lon": 6.2657, "lat": 45.392399}}, {"id": 2977235, "name": "Saint-Remy-de-Maurienne", "country": "FR", "coord": {"lon": 6.26667, "lat": 45.400002}}, {"id": 6433392, "name": "Saint-Quentin-sur-Is\u00e8re", "country": "FR", "coord": {"lon": 5.55, "lat": 45.283329}}, {"id": 2977262, "name": "Saint-Quentin-sur-Isere", "country": "FR", "coord": {"lon": 5.54221, "lat": 45.278809}}, {"id": 6433391, "name": "Saint-Quentin-Fallavier", "country": "FR", "coord": {"lon": 5.11667, "lat": 45.633331}}, {"id": 2977277, "name": "Saint-Quentin-Fallavier", "country": "FR", "coord": {"lon": 5.10924, "lat": 45.630501}}, {"id": 6435312, "name": "Saint-Quentin-en-Mauges", "country": "FR", "coord": {"lon": -0.91667, "lat": 47.283329}}, {"id": 2977280, "name": "Saint-Quentin-en-Mauges", "country": "FR", "coord": {"lon": -0.91191, "lat": 47.291302}}, {"id": 6429154, "name": "Saint-Quay-Portrieux", "country": "FR", "coord": {"lon": -2.83333, "lat": 48.650002}}, {"id": 2977299, "name": "Saint-Quay-Portrieux", "country": "FR", "coord": {"lon": -2.83058, "lat": 48.649921}}, {"id": 6429153, "name": "Saint-Quay-Perros", "country": "FR", "coord": {"lon": -3.45, "lat": 48.783329}}, {"id": 2977300, "name": "Saint-Quay-Perros", "country": "FR", "coord": {"lon": -3.45, "lat": 48.783329}}, {"id": 6438477, "name": "Saint-Python", "country": "FR", "coord": {"lon": 3.48333, "lat": 50.183331}}, {"id": 2977304, "name": "Saint-Python", "country": "FR", "coord": {"lon": 3.48027, "lat": 50.19001}}, {"id": 6434725, "name": "Saint-Pryv\u00e9-Saint-Mesmin", "country": "FR", "coord": {"lon": 1.86667, "lat": 47.883331}}, {"id": 2977308, "name": "Saint-Pryve-Saint-Mesmin", "country": "FR", "coord": {"lon": 1.8695, "lat": 47.881771}}, {"id": 6445227, "name": "Saint-Prouant", "country": "FR", "coord": {"lon": -0.96667, "lat": 46.76667}}, {"id": 2977309, "name": "Saint-Prouant", "country": "FR", "coord": {"lon": -0.95703, "lat": 46.758221}}, {"id": 6427849, "name": "Saint-Projet-Saint-Constant", "country": "FR", "coord": {"lon": 0.35, "lat": 45.73333}}, {"id": 2977310, "name": "Saint-Projet-Saint-Constant", "country": "FR", "coord": {"lon": 0.33851, "lat": 45.72802}}, {"id": 6446333, "name": "Saint-Prix", "country": "FR", "coord": {"lon": 2.26667, "lat": 49.01667}}, {"id": 2977317, "name": "Saint-Prix", "country": "FR", "coord": {"lon": 2.26667, "lat": 49.01667}}, {"id": 6437851, "name": "Saint-Privat-la-Montagne", "country": "FR", "coord": {"lon": 6.05, "lat": 49.183331}}, {"id": 2977323, "name": "Saint-Privat-la-Montagne", "country": "FR", "coord": {"lon": 6.03832, "lat": 49.187889}}, {"id": 6431435, "name": "Saint-Privat-des-Vieux", "country": "FR", "coord": {"lon": 4.13, "lat": 44.1441}}, {"id": 2977327, "name": "Saint-Privat-des-Vieux", "country": "FR", "coord": {"lon": 4.12988, "lat": 44.14415}}, {"id": 6428456, "name": "Saint-Privat", "country": "FR", "coord": {"lon": 2.1, "lat": 45.133331}}, {"id": 2977332, "name": "Saint-Privat", "country": "FR", "coord": {"lon": 2.09869, "lat": 45.138569}}, {"id": 6425842, "name": "Saint-Privat", "country": "FR", "coord": {"lon": 4.41667, "lat": 44.633331}}, {"id": 2977333, "name": "Saint-Privat", "country": "FR", "coord": {"lon": 4.41656, "lat": 44.63002}}, {"id": 6445458, "name": "Saint-Priest-Taurion", "country": "FR", "coord": {"lon": 1.4, "lat": 45.883331}}, {"id": 2977336, "name": "Saint-Priest-Taurion", "country": "FR", "coord": {"lon": 1.40016, "lat": 45.88686}}, {"id": 6445457, "name": "Saint-Priest-sous-Aixe", "country": "FR", "coord": {"lon": 1.1, "lat": 45.816669}}, {"id": 2977337, "name": "Saint-Priest-sous-Aixe", "country": "FR", "coord": {"lon": 1.1, "lat": 45.816669}}, {"id": 6434307, "name": "Saint-Priest-en-Jarez", "country": "FR", "coord": {"lon": 4.36667, "lat": 45.466671}}, {"id": 2977350, "name": "Saint-Priest-en-Jarez", "country": "FR", "coord": {"lon": 4.37614, "lat": 45.47501}}, {"id": 6615784, "name": "Saint-Priest", "country": "FR", "coord": {"lon": 4.5467, "lat": 44.716499}}, {"id": 2977358, "name": "Saint-Priest", "country": "FR", "coord": {"lon": 4.5462, "lat": 44.71767}}, {"id": 6430891, "name": "Saint-Prest", "country": "FR", "coord": {"lon": 1.53333, "lat": 48.5}}, {"id": 2977360, "name": "Saint-Prest", "country": "FR", "coord": {"lon": 1.53034, "lat": 48.49107}}, {"id": 6425466, "name": "Saint-Pour\u00e7ain-sur-Sioule", "country": "FR", "coord": {"lon": 3.28333, "lat": 46.299999}}, {"id": 2977365, "name": "Saint-Pourcain-sur-Sioule", "country": "FR", "coord": {"lon": 3.28787, "lat": 46.309269}}, {"id": 6426571, "name": "Saint-Pouange", "country": "FR", "coord": {"lon": 4.03333, "lat": 48.23333}}, {"id": 2977368, "name": "Saint-Pouange", "country": "FR", "coord": {"lon": 4.03979, "lat": 48.226559}}, {"id": 6445037, "name": "Saint-Porquier", "country": "FR", "coord": {"lon": 1.18333, "lat": 44}}, {"id": 2977371, "name": "Saint-Porquier", "country": "FR", "coord": {"lon": 1.17932, "lat": 44.003441}}, {"id": 6613763, "name": "Saint-Porchaire", "country": "FR", "coord": {"lon": -0.78333, "lat": 45.816669}}, {"id": 2977373, "name": "Saint-Porchaire", "country": "FR", "coord": {"lon": -0.78235, "lat": 45.820751}}, {"id": 6616595, "name": "Saint-Pons-de-Thomi\u00e8res", "country": "FR", "coord": {"lon": 2.7611, "lat": 43.488899}}, {"id": 2977382, "name": "Saint-Pons-de-Thomieres", "country": "FR", "coord": {"lon": 2.76667, "lat": 43.48333}}, {"id": 6439873, "name": "Saint-Pol-sur-Ternoise", "country": "FR", "coord": {"lon": 2.33333, "lat": 50.383331}}, {"id": 2977387, "name": "Saint-Pol-sur-Ternoise", "country": "FR", "coord": {"lon": 2.33407, "lat": 50.38113}}, {"id": 6427492, "name": "Saint-Pierre-sur-Dives", "country": "FR", "coord": {"lon": -0.03333, "lat": 49.01667}}, {"id": 2977411, "name": "Saint-Pierre-sur-Dives", "country": "FR", "coord": {"lon": -0.03333, "lat": 49.01667}}, {"id": 6437392, "name": "Saint-Pierre-Quiberon", "country": "FR", "coord": {"lon": -3.13333, "lat": 47.51667}}, {"id": 2977414, "name": "Saint-Pierre-Quiberon", "country": "FR", "coord": {"lon": -3.13084, "lat": 47.520611}}, {"id": 6435311, "name": "Saint-Pierre-Montlimart", "country": "FR", "coord": {"lon": -1.03333, "lat": 47.26667}}, {"id": 2977415, "name": "Saint-Pierre-Montlimart", "country": "FR", "coord": {"lon": -1.02738, "lat": 47.26976}}, {"id": 6443840, "name": "Saint-Pierre-l\u00e8s-Nemours", "country": "FR", "coord": {"lon": 2.68333, "lat": 48.26667}}, {"id": 2977425, "name": "Saint-Pierre-les-Nemours", "country": "FR", "coord": {"lon": 2.67966, "lat": 48.26733}}, {"id": 6612790, "name": "Saint-Pierre-l\u00e8s-Elbeuf", "country": "FR", "coord": {"lon": 1.0412, "lat": 49.277699}}, {"id": 2977428, "name": "Saint-Pierre-les-Elbeuf", "country": "FR", "coord": {"lon": 1.04305, "lat": 49.279011}}, {"id": 6438088, "name": "Saint-Pierre-le-Mo\u00fbtier", "country": "FR", "coord": {"lon": 3.11667, "lat": 46.799999}}, {"id": 2977432, "name": "Saint-Pierre-le-Moutier", "country": "FR", "coord": {"lon": 3.11657, "lat": 46.79277}}, {"id": 6441788, "name": "Saint-Pierre-la-Palud", "country": "FR", "coord": {"lon": 4.61667, "lat": 45.783329}}, {"id": 2977441, "name": "Saint-Pierre-la-Palud", "country": "FR", "coord": {"lon": 4.61291, "lat": 45.789558}}, {"id": 6612620, "name": "Saint-Pierre-la-Cour", "country": "FR", "coord": {"lon": -1.03333, "lat": 48.116669}}, {"id": 2977446, "name": "Saint-Pierre-la-Cour", "country": "FR", "coord": {"lon": -1.02496, "lat": 48.112579}}, {"id": 6443497, "name": "Saint-Pierre-en-Val", "country": "FR", "coord": {"lon": 1.45, "lat": 50.01667}}, {"id": 2977451, "name": "Saint-Pierre-en-Val", "country": "FR", "coord": {"lon": 1.44707, "lat": 50.021679}}, {"id": 6435636, "name": "Saint-Pierre-\u00c9glise", "country": "FR", "coord": {"lon": -1.4, "lat": 49.666672}}, {"id": 2977453, "name": "Saint-Pierre-Eglise", "country": "FR", "coord": {"lon": -1.40358, "lat": 49.66848}}, {"id": 6430632, "name": "Saint-Pierre-du-Vauvray", "country": "FR", "coord": {"lon": 1.21667, "lat": 49.23333}}, {"id": 2977454, "name": "Saint-Pierre-du-Vauvray", "country": "FR", "coord": {"lon": 1.22125, "lat": 49.232079}}, {"id": 6439295, "name": "Saint-Pierre-du-Regard", "country": "FR", "coord": {"lon": -0.55, "lat": 48.849998}}, {"id": 2977456, "name": "Saint-Pierre-du-Regard", "country": "FR", "coord": {"lon": -0.54631, "lat": 48.842861}}, {"id": 6446205, "name": "Saint-Pierre-du-Perray", "country": "FR", "coord": {"lon": 2.5, "lat": 48.616669}}, {"id": 2977458, "name": "Saint-Pierre-du-Perray", "country": "FR", "coord": {"lon": 2.49429, "lat": 48.610641}}, {"id": 6445225, "name": "Saint-Pierre-du-Chemin", "country": "FR", "coord": {"lon": -0.6994, "lat": 46.696499}}, {"id": 2977467, "name": "Saint-Pierre-du-Chemin", "country": "FR", "coord": {"lon": -0.70095, "lat": 46.695229}}, {"id": 6443495, "name": "Saint-Pierre-de-Varengeville", "country": "FR", "coord": {"lon": 0.93333, "lat": 49.5}}, {"id": 2977477, "name": "Saint-Pierre-de-Varengeville", "country": "FR", "coord": {"lon": 0.93118, "lat": 49.502399}}, {"id": 6612619, "name": "Saint-Pierre-des-Nids", "country": "FR", "coord": {"lon": -0.1, "lat": 48.400002}}, {"id": 2977482, "name": "Saint-Pierre-des-Nids", "country": "FR", "coord": {"lon": -0.09984, "lat": 48.398258}}, {"id": 6430627, "name": "Saint-Pierre-des-Fleurs", "country": "FR", "coord": {"lon": 0.96667, "lat": 49.25}}, {"id": 2977488, "name": "Saint-Pierre-des-Fleurs", "country": "FR", "coord": {"lon": 0.96667, "lat": 49.25}}, {"id": 6444225, "name": "Saint-Pierre-des-\u00c9chaubrognes", "country": "FR", "coord": {"lon": -0.75, "lat": 46.98333}}, {"id": 2977490, "name": "Saint-Pierre-des-Echaubrognes", "country": "FR", "coord": {"lon": -0.74441, "lat": 46.98988}}, {"id": 6432861, "name": "Saint-Pierre-de-Plesguen", "country": "FR", "coord": {"lon": -1.91667, "lat": 48.450001}}, {"id": 2977497, "name": "Saint-Pierre-de-Plesguen", "country": "FR", "coord": {"lon": -1.91278, "lat": 48.446381}}, {"id": 6441834, "name": "Saint-Pierre-de-Chandieu", "country": "FR", "coord": {"lon": 5.01667, "lat": 45.650002}}, {"id": 2977530, "name": "Saint-Pierre-de-Chandieu", "country": "FR", "coord": {"lon": 5.01128, "lat": 45.64558}}, {"id": 6614947, "name": "Saint-Pierre-de-B\u0153uf", "country": "FR", "coord": {"lon": 4.7501, "lat": 45.3825}}, {"id": 2977535, "name": "Saint-Pierre-de-Boeuf", "country": "FR", "coord": {"lon": 4.75, "lat": 45.366669}}, {"id": 6430890, "name": "Saint-Piat", "country": "FR", "coord": {"lon": 1.58333, "lat": 48.549999}}, {"id": 2977587, "name": "Saint-Piat", "country": "FR", "coord": {"lon": 1.58363, "lat": 48.54668}}, {"id": 6437391, "name": "Saint-Philibert", "country": "FR", "coord": {"lon": -3, "lat": 47.583328}}, {"id": 2977593, "name": "Saint-Philibert", "country": "FR", "coord": {"lon": -2.99978, "lat": 47.588211}}, {"id": 6435309, "name": "Saint-Philbert-du-Peuple", "country": "FR", "coord": {"lon": -0.05, "lat": 47.400002}}, {"id": 2977600, "name": "Saint-Philbert-du-Peuple", "country": "FR", "coord": {"lon": -0.0436, "lat": 47.393139}}, {"id": 6434538, "name": "Saint-Philbert-de-Grand-Lieu", "country": "FR", "coord": {"lon": -1.63333, "lat": 47.033329}}, {"id": 2977602, "name": "Saint-Philbert-de-Grand-Lieu", "country": "FR", "coord": {"lon": -1.6412, "lat": 47.035801}}, {"id": 6445224, "name": "Saint-Philbert-de-Bouaine", "country": "FR", "coord": {"lon": -1.51667, "lat": 46.98333}}, {"id": 2977603, "name": "Saint-Philbert-de-Bouaine", "country": "FR", "coord": {"lon": -1.52022, "lat": 46.98568}}, {"id": 6437390, "name": "Saint-Perreux", "country": "FR", "coord": {"lon": -2.1, "lat": 47.666672}}, {"id": 2977610, "name": "Saint-Perreux", "country": "FR", "coord": {"lon": -2.10809, "lat": 47.669521}}, {"id": 6434537, "name": "Saint-P\u00e8re-en-Retz", "country": "FR", "coord": {"lon": -2.03333, "lat": 47.200001}}, {"id": 2977614, "name": "Saint-Pere-en-Retz", "country": "FR", "coord": {"lon": -2.04095, "lat": 47.205589}}, {"id": 6432859, "name": "Saint-P\u00e8re", "country": "FR", "coord": {"lon": -1.91667, "lat": 48.583328}}, {"id": 2977616, "name": "Saint-Pere", "country": "FR", "coord": {"lon": -1.92413, "lat": 48.587261}}, {"id": 6425837, "name": "Saint-P\u00e9ray", "country": "FR", "coord": {"lon": 4.83333, "lat": 44.950001}}, {"id": 2977623, "name": "Saint-Peray", "country": "FR", "coord": {"lon": 4.8463, "lat": 44.94799}}, {"id": 6440896, "name": "Saint-P\u00e9-de-Bigorre", "country": "FR", "coord": {"lon": -0.1585, "lat": 43.101898}}, {"id": 2977636, "name": "Saint-Pe-de-Bigorre", "country": "FR", "coord": {"lon": -0.15, "lat": 43.116669}}, {"id": 6430232, "name": "Saint-Paul-Trois-Ch\u00e2teaux", "country": "FR", "coord": {"lon": 4.76667, "lat": 44.349998}}, {"id": 2977638, "name": "Saint-Paul-Trois-Chateaux", "country": "FR", "coord": {"lon": 4.76574, "lat": 44.349091}}, {"id": 6430231, "name": "Saint-Paul-l\u00e8s-Romans", "country": "FR", "coord": {"lon": 5.13333, "lat": 45.066669}}, {"id": 2977645, "name": "Saint-Paul-les-Romans", "country": "FR", "coord": {"lon": 5.13575, "lat": 45.069462}}, {"id": 6431431, "name": "Saint-Paulet-de-Caisson", "country": "FR", "coord": {"lon": 4.6, "lat": 44.26667}}, {"id": 2977657, "name": "Saint-Paulet-de-Caisson", "country": "FR", "coord": {"lon": 4.59785, "lat": 44.260551}}, {"id": 6445222, "name": "Saint-Paul-en-Pareds", "country": "FR", "coord": {"lon": -1, "lat": 46.816669}}, {"id": 2977659, "name": "Saint-Paul-en-Pareds", "country": "FR", "coord": {"lon": -0.98977, "lat": 46.82214}}, {"id": 6434304, "name": "Saint-Paul-en-Jarez", "country": "FR", "coord": {"lon": 4.58333, "lat": 45.48333}}, {"id": 2977660, "name": "Saint-Paul-en-Jarez", "country": "FR", "coord": {"lon": 4.57132, "lat": 45.482391}}, {"id": 6445062, "name": "Saint-Paul-en-For\u00eat", "country": "FR", "coord": {"lon": 6.68333, "lat": 43.566669}}, {"id": 2977662, "name": "Saint-Paul-en-Foret", "country": "FR", "coord": {"lon": 6.69475, "lat": 43.567619}}, {"id": 6434303, "name": "Saint-Paul-en-Cornillon", "country": "FR", "coord": {"lon": 4.23333, "lat": 45.400002}}, {"id": 2977663, "name": "Saint-Paul-en-Cornillon", "country": "FR", "coord": {"lon": 4.22694, "lat": 45.396469}}, {"id": 6443044, "name": "Saint-Paul-en-Chablais", "country": "FR", "coord": {"lon": 6.63333, "lat": 46.383331}}, {"id": 2977664, "name": "Saint-Paul-en-Chablais", "country": "FR", "coord": {"lon": 6.63711, "lat": 46.37569}}, {"id": 6433381, "name": "Saint-Paul-de-Varces", "country": "FR", "coord": {"lon": 5.64251, "lat": 45.07185}}, {"id": 2977673, "name": "Saint-Paul-de-Varces", "country": "FR", "coord": {"lon": 5.64247, "lat": 45.071751}}, {"id": 6424688, "name": "Saint-Paul-de-Varax", "country": "FR", "coord": {"lon": 5.13333, "lat": 46.099998}}, {"id": 2977674, "name": "Saint-Paul-de-Varax", "country": "FR", "coord": {"lon": 5.12897, "lat": 46.09848}}, {"id": 6426303, "name": "Saint-Paul-de-Jarrat", "country": "FR", "coord": {"lon": 1.65, "lat": 42.916672}}, {"id": 2977681, "name": "Saint-Paul-de-Jarrat", "country": "FR", "coord": {"lon": 1.65437, "lat": 42.91404}}, {"id": 6441030, "name": "Saint-Paul-de-Fenouillet", "country": "FR", "coord": {"lon": 2.5, "lat": 42.816669}}, {"id": 2977683, "name": "Saint-Paul-de-Fenouillet", "country": "FR", "coord": {"lon": 2.50374, "lat": 42.80938}}, {"id": 6444951, "name": "Saint-Paul-Cap-de-Joux", "country": "FR", "coord": {"lon": 1.98333, "lat": 43.650002}}, {"id": 2977686, "name": "Saint-Paul-Cap-de-Joux", "country": "FR", "coord": {"lon": 1.97559, "lat": 43.6479}}, {"id": 2977691, "name": "Saint-Paul", "country": "FR", "coord": {"lon": 2.00755, "lat": 49.429619}}, {"id": 6617886, "name": "Saint-Paul", "country": "FR", "coord": {"lon": 1.4327, "lat": 45.750599}}, {"id": 2977696, "name": "Saint-Paul", "country": "FR", "coord": {"lon": 1.43238, "lat": 45.751141}}, {"id": 6618143, "name": "Saint-Paul-de-Vence", "country": "FR", "coord": {"lon": 7.1225, "lat": 43.6959}}, {"id": 2977701, "name": "Saint-Paul-de-Vence", "country": "FR", "coord": {"lon": 7.11667, "lat": 43.700001}}, {"id": 2977709, "name": "Saint-Pathus", "country": "FR", "coord": {"lon": 2.79886, "lat": 49.071362}}, {"id": 2977710, "name": "Saint-Paterne-Racan", "country": "FR", "coord": {"lon": 0.48478, "lat": 47.602131}}, {"id": 6442717, "name": "Saint-Paterne", "country": "FR", "coord": {"lon": 0.1124, "lat": 48.415501}}, {"id": 2977712, "name": "Saint-Paterne", "country": "FR", "coord": {"lon": 0.11271, "lat": 48.416142}}, {"id": 6426568, "name": "Saint-Parres-aux-Tertres", "country": "FR", "coord": {"lon": 4.11667, "lat": 48.299999}}, {"id": 2977718, "name": "Saint-Parres-aux-Tertres", "country": "FR", "coord": {"lon": 4.11752, "lat": 48.297798}}, {"id": 6438085, "name": "Saint-Parize-le-Ch\u00e2tel", "country": "FR", "coord": {"lon": 3.18333, "lat": 46.849998}}, {"id": 2977719, "name": "Saint-Parize-le-Chatel", "country": "FR", "coord": {"lon": 3.18267, "lat": 46.854469}}, {"id": 2997935, "name": "Arrondissement de Lod\u00e8ve", "country": "FR", "coord": {"lon": 3.33333, "lat": 43.75}}, {"id": 6432648, "name": "Saint-Pargoire", "country": "FR", "coord": {"lon": 3.51667, "lat": 43.533329}}, {"id": 2977721, "name": "Saint-Pargoire", "country": "FR", "coord": {"lon": 3.5187, "lat": 43.52766}}, {"id": 6444223, "name": "Saint-Pardoux", "country": "FR", "coord": {"lon": -0.3, "lat": 46.566669}}, {"id": 2977739, "name": "Saint-Pardoux", "country": "FR", "coord": {"lon": -0.30542, "lat": 46.571548}}, {"id": 6428450, "name": "Saint-Pantal\u00e9on-de-Larche", "country": "FR", "coord": {"lon": 1.45, "lat": 45.133331}}, {"id": 2977750, "name": "Saint-Pantaleon-de-Larche", "country": "FR", "coord": {"lon": 1.44608, "lat": 45.14138}}, {"id": 6434435, "name": "Saint-Pal-de-Mons", "country": "FR", "coord": {"lon": 4.2749, "lat": 45.246601}}, {"id": 2977762, "name": "Saint-Pal-de-Mons", "country": "FR", "coord": {"lon": 4.27412, "lat": 45.246281}}, {"id": 6428104, "name": "Saint-Palais-sur-Mer", "country": "FR", "coord": {"lon": -1.0873, "lat": 45.643501}}, {"id": 2977764, "name": "Saint-Palais-sur-Mer", "country": "FR", "coord": {"lon": -1.0881, "lat": 45.642551}}, {"id": 6613387, "name": "Saint-Palais", "country": "FR", "coord": {"lon": -1.03333, "lat": 43.333328}}, {"id": 2977772, "name": "Saint-Palais", "country": "FR", "coord": {"lon": -1.03333, "lat": 43.328671}}, {"id": 6613396, "name": "Saint-Pa\u00ebr", "country": "FR", "coord": {"lon": 0.88333, "lat": 49.51667}}, {"id": 2977777, "name": "Saint-Paer", "country": "FR", "coord": {"lon": 0.87936, "lat": 49.514519}}, {"id": 6616357, "name": "Saint-Pabu", "country": "FR", "coord": {"lon": -4.5964, "lat": 48.564899}}, {"id": 2977780, "name": "Saint-Pabu", "country": "FR", "coord": {"lon": -4.6, "lat": 48.566669}}, {"id": 6442715, "name": "Saint-Ouen-en-Belin", "country": "FR", "coord": {"lon": 0.21667, "lat": 47.833328}}, {"id": 2977804, "name": "Saint-Ouen-en-Belin", "country": "FR", "coord": {"lon": 0.20924, "lat": 47.833019}}, {"id": 6430619, "name": "Saint-Ouen-du-Tilleul", "country": "FR", "coord": {"lon": 0.9485, "lat": 49.2939}}, {"id": 2977805, "name": "Saint-Ouen-du-Tilleul", "country": "FR", "coord": {"lon": 0.9476, "lat": 49.29723}}, {"id": 6430617, "name": "Saint-Ouen-de-Thouberville", "country": "FR", "coord": {"lon": 0.88333, "lat": 49.349998}}, {"id": 2977808, "name": "Saint-Ouen-de-Thouberville", "country": "FR", "coord": {"lon": 0.88848, "lat": 49.357262}}, {"id": 6613809, "name": "Saint-Ou\u00ebn-des-Toits", "country": "FR", "coord": {"lon": -0.9, "lat": 48.133331}}, {"id": 2977810, "name": "Saint-Ouen-des-Toits", "country": "FR", "coord": {"lon": -0.9, "lat": 48.133331}}, {"id": 6432857, "name": "Saint-Ouen-des-Alleux", "country": "FR", "coord": {"lon": -1.41667, "lat": 48.333328}}, {"id": 2977814, "name": "Saint-Ouen-des-Alleux", "country": "FR", "coord": {"lon": -1.4259, "lat": 48.328049}}, {"id": 6454773, "name": "Saint-Ouen", "country": "FR", "coord": {"lon": 2.11667, "lat": 50.033329}}, {"id": 2977821, "name": "Saint-Ouen", "country": "FR", "coord": {"lon": 2.12088, "lat": 50.038189}}, {"id": 6454134, "name": "Saint-Ouen", "country": "FR", "coord": {"lon": 1.08333, "lat": 47.816669}}, {"id": 2977825, "name": "Saint-Ouen", "country": "FR", "coord": {"lon": 1.08067, "lat": 47.814041}}, {"id": 6431821, "name": "Saint-Orens-de-Gameville", "country": "FR", "coord": {"lon": 1.53333, "lat": 43.549999}}, {"id": 2977832, "name": "Saint-Orens-de-Gameville", "country": "FR", "coord": {"lon": 1.53411, "lat": 43.55402}}, {"id": 6438963, "name": "Saint-Omer-en-Chauss\u00e9e", "country": "FR", "coord": {"lon": 2, "lat": 49.533329}}, {"id": 2977841, "name": "Saint-Omer-en-Chaussee", "country": "FR", "coord": {"lon": 2.00336, "lat": 49.531422}}, {"id": 6614195, "name": "Saint-Nom-la-Bret\u00e8che", "country": "FR", "coord": {"lon": 2.0222, "lat": 48.8601}}, {"id": 2977854, "name": "Saint-Nom-la-Breteche", "country": "FR", "coord": {"lon": 2.02233, "lat": 48.859421}}, {"id": 6437389, "name": "Saint-Nolff", "country": "FR", "coord": {"lon": -2.65, "lat": 47.700001}}, {"id": 2977855, "name": "Saint-Nolff", "country": "FR", "coord": {"lon": -2.65209, "lat": 47.703651}}, {"id": 6434300, "name": "Saint-Nizier-sous-Charlieu", "country": "FR", "coord": {"lon": 4.13333, "lat": 46.150002}}, {"id": 2977857, "name": "Saint-Nizier-sous-Charlieu", "country": "FR", "coord": {"lon": 4.12279, "lat": 46.1535}}, {"id": 6429151, "name": "Saint-Nicolas-du-P\u00e9lem", "country": "FR", "coord": {"lon": -3.16667, "lat": 48.316669}}, {"id": 2977869, "name": "Saint-Nicolas-du-Pelem", "country": "FR", "coord": {"lon": -3.16465, "lat": 48.312222}}, {"id": 6612552, "name": "Saint-Nicolas-de-Redon", "country": "FR", "coord": {"lon": -2.06667, "lat": 47.650002}}, {"id": 2977879, "name": "Saint-Nicolas-de-Redon", "country": "FR", "coord": {"lon": -2.06305, "lat": 47.643429}}, {"id": 2977880, "name": "Saint-Nicolas-de-Port", "country": "FR", "coord": {"lon": 6.30038, "lat": 48.63089}}, {"id": 6443488, "name": "Saint-Nicolas-de-la-Taille", "country": "FR", "coord": {"lon": 0.46667, "lat": 49.51667}}, {"id": 2977883, "name": "Saint-Nicolas-de-la-Taille", "country": "FR", "coord": {"lon": 0.47405, "lat": 49.510849}}, {"id": 6445035, "name": "Saint-Nicolas-de-la-Grave", "country": "FR", "coord": {"lon": 1.03333, "lat": 44.066669}}, {"id": 2977885, "name": "Saint-Nicolas-de-la-Grave", "country": "FR", "coord": {"lon": 1.0228, "lat": 44.064171}}, {"id": 6433119, "name": "Saint-Nicolas-de-Bourgueil", "country": "FR", "coord": {"lon": 0.11667, "lat": 47.283329}}, {"id": 2977889, "name": "Saint-Nicolas-de-Bourgueil", "country": "FR", "coord": {"lon": 0.12728, "lat": 47.284931}}, {"id": 6443485, "name": "Saint-Nicolas-d'Aliermont", "country": "FR", "coord": {"lon": 1.21667, "lat": 49.883331}}, {"id": 2977892, "name": "Saint-Nicolas-dAliermont", "country": "FR", "coord": {"lon": 1.22486, "lat": 49.878559}}, {"id": 6618321, "name": "Saint-Nicolas", "country": "FR", "coord": {"lon": 2.7782, "lat": 50.302799}}, {"id": 2977901, "name": "Saint-Nicolas", "country": "FR", "coord": {"lon": 2.77939, "lat": 50.304131}}, {"id": 6616673, "name": "Saint-Nazaire-les-Eymes", "country": "FR", "coord": {"lon": 5.8535, "lat": 45.249298}}, {"id": 2977922, "name": "Saint-Nazaire-les-Eymes", "country": "FR", "coord": {"lon": 5.85254, "lat": 45.24921}}, {"id": 6616450, "name": "Saint-Nazaire", "country": "FR", "coord": {"lon": 4.625, "lat": 44.198101}}, {"id": 2977925, "name": "Saint-Nazaire", "country": "FR", "coord": {"lon": 4.62413, "lat": 44.19833}}, {"id": 6617402, "name": "Saint-Nazaire", "country": "FR", "coord": {"lon": 2.9924, "lat": 42.667198}}, {"id": 2977926, "name": "Saint-Nazaire", "country": "FR", "coord": {"lon": 2.99168, "lat": 42.6679}}, {"id": 2977927, "name": "Saint-Nauphary", "country": "FR", "coord": {"lon": 1.42549, "lat": 43.967121}}, {"id": 6445734, "name": "Saint-Nabord", "country": "FR", "coord": {"lon": 6.58333, "lat": 48.049999}}, {"id": 2977929, "name": "Saint-Nabord", "country": "FR", "coord": {"lon": 6.58248, "lat": 48.051708}}, {"id": 6434533, "name": "Saint-Molf", "country": "FR", "coord": {"lon": -2.41667, "lat": 47.383331}}, {"id": 2977943, "name": "Saint-Molf", "country": "FR", "coord": {"lon": -2.42357, "lat": 47.39167}}, {"id": 6447173, "name": "Saint-Mitre-les-Remparts", "country": "FR", "coord": {"lon": 5.01667, "lat": 43.450001}}, {"id": 2977947, "name": "Saint-Mitre-les-Remparts", "country": "FR", "coord": {"lon": 5.01702, "lat": 43.45488}}, {"id": 6454333, "name": "Saint-Mihiel", "country": "FR", "coord": {"lon": 5.5403, "lat": 48.889801}}, {"id": 2977948, "name": "Saint-Mihiel", "country": "FR", "coord": {"lon": 5.55099, "lat": 48.887459}}, {"id": 6445733, "name": "Saint-Michel-sur-Meurthe", "country": "FR", "coord": {"lon": 6.9, "lat": 48.316669}}, {"id": 2977953, "name": "Saint-Michel-sur-Meurthe", "country": "FR", "coord": {"lon": 6.89024, "lat": 48.322189}}, {"id": 6445221, "name": "Saint-Michel-Mont-Mercure", "country": "FR", "coord": {"lon": -0.88333, "lat": 46.833328}}, {"id": 2977957, "name": "Saint-Michel-Mont-Mercure", "country": "FR", "coord": {"lon": -0.88298, "lat": 46.829411}}, {"id": 6445220, "name": "Saint-Michel-le-Cloucq", "country": "FR", "coord": {"lon": -0.75, "lat": 46.48333}}, {"id": 2977962, "name": "Saint-Michel-le-Cloucq", "country": "FR", "coord": {"lon": -0.75262, "lat": 46.485001}}, {"id": 6442890, "name": "Saint-Michel-de-Maurienne", "country": "FR", "coord": {"lon": 6.46667, "lat": 45.216671}}, {"id": 2977986, "name": "Saint-Michel-de-Maurienne", "country": "FR", "coord": {"lon": 6.47258, "lat": 45.218418}}, {"id": 6434532, "name": "Saint-Michel-Chef-Chef", "country": "FR", "coord": {"lon": -2.15, "lat": 47.183331}}, {"id": 2978004, "name": "Saint-Michel-Chef-Chef", "country": "FR", "coord": {"lon": -2.14869, "lat": 47.180721}}, {"id": 6427846, "name": "Saint-Michel", "country": "FR", "coord": {"lon": 0.1, "lat": 45.650002}}, {"id": 2978023, "name": "Saint-Michel", "country": "FR", "coord": {"lon": 0.1, "lat": 45.650002}}, {"id": 6613855, "name": "Saint-Mexant", "country": "FR", "coord": {"lon": 1.65, "lat": 45.283329}}, {"id": 2978040, "name": "Saint-Mexant", "country": "FR", "coord": {"lon": 1.65, "lat": 45.283329}}, {"id": 6445218, "name": "Saint-Mesmin", "country": "FR", "coord": {"lon": -0.73333, "lat": 46.799999}}, {"id": 2978043, "name": "Saint-Mesmin", "country": "FR", "coord": {"lon": -0.73262, "lat": 46.79369}}, {"id": 6426093, "name": "Saint-Menges", "country": "FR", "coord": {"lon": 4.93333, "lat": 49.73333}}, {"id": 2978053, "name": "Saint-Menges", "country": "FR", "coord": {"lon": 4.92628, "lat": 49.738731}}, {"id": 6435997, "name": "Saint-Memmie", "country": "FR", "coord": {"lon": 4.38333, "lat": 48.950001}}, {"id": 2978056, "name": "Saint-Memmie", "country": "FR", "coord": {"lon": 4.38409, "lat": 48.952469}}, {"id": 6434531, "name": "Saint-M\u00eame-le-Tenu", "country": "FR", "coord": {"lon": -1.78333, "lat": 47.01667}}, {"id": 2978057, "name": "Saint-Meme-le-Tenu", "country": "FR", "coord": {"lon": -1.79459, "lat": 47.02005}}, {"id": 6427845, "name": "Saint-M\u00eame-les-Carri\u00e8res", "country": "FR", "coord": {"lon": -0.15, "lat": 45.650002}}, {"id": 2978058, "name": "Saint-Meme-les-Carrieres", "country": "FR", "coord": {"lon": -0.15, "lat": 45.650002}}, {"id": 6432854, "name": "Saint-M\u00e9loir-des-Ondes", "country": "FR", "coord": {"lon": -1.9018, "lat": 48.637798}}, {"id": 2978062, "name": "Saint-Meloir-des-Ondes", "country": "FR", "coord": {"lon": -1.90448, "lat": 48.637901}}, {"id": 6458655, "name": "Saint-Melaine-sur-Aubance", "country": "FR", "coord": {"lon": -0.5, "lat": 47.366669}}, {"id": 2978065, "name": "Saint-Melaine-sur-Aubance", "country": "FR", "coord": {"lon": -0.5, "lat": 47.366669}}, {"id": 6432853, "name": "Saint-M\u00e9en-le-Grand", "country": "FR", "coord": {"lon": -2.2, "lat": 48.183331}}, {"id": 2978067, "name": "Saint-Meen-le-Grand", "country": "FR", "coord": {"lon": -2.19486, "lat": 48.189709}}, {"id": 6432852, "name": "Saint-M\u00e9dard-sur-Ille", "country": "FR", "coord": {"lon": -1.66667, "lat": 48.26667}}, {"id": 2978070, "name": "Saint-Medard-sur-Ille", "country": "FR", "coord": {"lon": -1.65968, "lat": 48.272018}}, {"id": 6429588, "name": "Saint-M\u00e9dard-de-Mussidan", "country": "FR", "coord": {"lon": 0.3473, "lat": 45.044102}}, {"id": 2978078, "name": "Saint-Medard-de-Mussidan", "country": "FR", "coord": {"lon": 0.35, "lat": 45.033329}}, {"id": 6444220, "name": "Saint-Maxire", "country": "FR", "coord": {"lon": -0.48333, "lat": 46.400002}}, {"id": 2978099, "name": "Saint-Maxire", "country": "FR", "coord": {"lon": -0.47988, "lat": 46.399109}}, {"id": 6438962, "name": "Saint-Maximin", "country": "FR", "coord": {"lon": 2.45, "lat": 49.216671}}, {"id": 2978101, "name": "Saint-Maximin", "country": "FR", "coord": {"lon": 2.4536, "lat": 49.221821}}, {"id": 2978105, "name": "Saint-Max", "country": "FR", "coord": {"lon": 6.20999, "lat": 48.704288}}, {"id": 6445731, "name": "Saint-Maurice-sur-Moselle", "country": "FR", "coord": {"lon": 6.83333, "lat": 47.866669}}, {"id": 2978112, "name": "Saint-Maurice-sur-Moselle", "country": "FR", "coord": {"lon": 6.82478, "lat": 47.858891}}, {"id": 6434723, "name": "Saint-Maurice-sur-Fessard", "country": "FR", "coord": {"lon": 2.61667, "lat": 48}}, {"id": 2978116, "name": "Saint-Maurice-sur-Fessard", "country": "FR", "coord": {"lon": 2.62157, "lat": 47.99231}}, {"id": 6441785, "name": "Saint-Maurice-sur-Dargoire", "country": "FR", "coord": {"lon": 4.63333, "lat": 45.583328}}, {"id": 2978118, "name": "Saint-Maurice-sur-Dargoire", "country": "FR", "coord": {"lon": 4.63113, "lat": 45.581169}}, {"id": 6446203, "name": "Saint-Maurice-Montcouronne", "country": "FR", "coord": {"lon": 2.11667, "lat": 48.583328}}, {"id": 2978126, "name": "Saint-Maurice-Montcouronne", "country": "FR", "coord": {"lon": 2.12504, "lat": 48.582878}},