[{"id": 2875246, "name": "Luhe-Wildenau", "country": "DE", "coord": {"lon": 12.15, "lat": 49.583328}}, {"id": 2875233, "name": "Luhmannsdorf", "country": "DE", "coord": {"lon": 13.63333, "lat": 54}}, {"id": 6551879, "name": "Luhnstedt", "country": "DE", "coord": {"lon": 9.7, "lat": 54.166698}}, {"id": 2875221, "name": "Luhnstedt", "country": "DE", "coord": {"lon": 9.7, "lat": 54.166672}}, {"id": 702662, "name": "Luhove", "country": "UA", "coord": {"lon": 35.716667, "lat": 45.233334}}, {"id": 1802095, "name": "Luhua", "country": "CN", "coord": {"lon": 102.987862, "lat": 32.067081}}, {"id": 1802166, "name": "Luhua", "country": "CN", "coord": {"lon": 113.224442, "lat": 36.33139}}, {"id": 702679, "name": "Luhyny", "country": "UA", "coord": {"lon": 28.40057, "lat": 51.08202}}, {"id": 1264720, "name": "Luh\u0101ru", "country": "IN", "coord": {"lon": 77.316666, "lat": 27.166668}}, {"id": 674526, "name": "Luica", "country": "RO", "coord": {"lon": 26.58333, "lat": 44.23333}}, {"id": 2962943, "name": "Luimneach", "country": "IE", "coord": {"lon": -8.62306, "lat": 52.664719}}, {"id": 3174483, "name": "Luino", "country": "IT", "coord": {"lon": 8.74512, "lat": 46.00185}}, {"id": 3111822, "name": "Luintra", "country": "ES", "coord": {"lon": -7.72682, "lat": 42.409641}}, {"id": 3396121, "name": "Luis Correia", "country": "BR", "coord": {"lon": -41.666939, "lat": -2.87917}}, {"id": 3824520, "name": "Luis C\u00e1rdenas", "country": "MX", "coord": {"lon": -97.48333, "lat": 20.58333}}, {"id": 3523828, "name": "Luis Gil Perez", "country": "MX", "coord": {"lon": -93.050003, "lat": 17.866671}}, {"id": 3430992, "name": "Luis Guill\u00f3n", "country": "AR", "coord": {"lon": -58.449471, "lat": -34.79882}}, {"id": 3430990, "name": "Luis J. Garc\u00eda", "country": "AR", "coord": {"lon": -58.466671, "lat": -34.683331}}, {"id": 4566096, "name": "Luis Llorens Torres", "country": "PR", "coord": {"lon": -66.52684, "lat": 18.05691}}, {"id": 5477402, "name": "Luis Lopez", "country": "US", "coord": {"lon": -106.8853, "lat": 33.988949}}, {"id": 4566098, "name": "Luis M. Cintron", "country": "PR", "coord": {"lon": -65.638489, "lat": 18.299681}}, {"id": 3997017, "name": "Luis Moya", "country": "MX", "coord": {"lon": -102.248642, "lat": 22.432369}}, {"id": 6535130, "name": "Luisago", "country": "IT", "coord": {"lon": 9.03544, "lat": 45.762878}}, {"id": 2997148, "name": "Luisant", "country": "FR", "coord": {"lon": 1.47383, "lat": 48.429501}}, {"id": 3458362, "name": "Luisburgo", "country": "BR", "coord": {"lon": -42.102779, "lat": -20.43972}}, {"id": 2875196, "name": "Luisenfels", "country": "DE", "coord": {"lon": 13.36667, "lat": 48.916672}}, {"id": 6550089, "name": "Luisenthal", "country": "DE", "coord": {"lon": 10.7333, "lat": 50.783298}}, {"id": 2875183, "name": "Luisenthal", "country": "DE", "coord": {"lon": 10.73333, "lat": 50.783329}}, {"id": 1705289, "name": "Luisiana", "country": "PH", "coord": {"lon": 121.510902, "lat": 14.185}}, {"id": 6361011, "name": "Luisiana (La)", "country": "ES", "coord": {"lon": -5.22339, "lat": 37.549629}}, {"id": 2875179, "name": "Luit", "country": "DE", "coord": {"lon": 6.56667, "lat": 51.400002}}, {"id": 2997146, "name": "Luitre", "country": "FR", "coord": {"lon": -1.11866, "lat": 48.282459}}, {"id": 3458367, "name": "Luiz Alves", "country": "BR", "coord": {"lon": -48.932781, "lat": -26.72056}}, {"id": 674523, "name": "Luizi-Calugara", "country": "RO", "coord": {"lon": 26.83333, "lat": 46.533329}}, {"id": 3458354, "name": "Luizi\u00e2nia", "country": "BR", "coord": {"lon": -50.326672, "lat": -21.675831}}, {"id": 3845398, "name": "Lujan", "country": "AR", "coord": {"lon": -65.929604, "lat": -32.375702}}, {"id": 3430988, "name": "Lujan", "country": "AR", "coord": {"lon": -59.105, "lat": -34.570278}}, {"id": 2514371, "name": "Lujar", "country": "ES", "coord": {"lon": -3.404, "lat": 36.788311}}, {"id": 1802078, "name": "Lujia", "country": "CN", "coord": {"lon": 121.044724, "lat": 31.3125}}, {"id": 7514579, "name": "Lujiawan", "country": "CN", "coord": {"lon": 106.583481, "lat": 36.374409}}, {"id": 1916743, "name": "Lujiawu", "country": "CN", "coord": {"lon": 118.249199, "lat": 29.00753}}, {"id": 7516890, "name": "Lujing Zhen", "country": "CN", "coord": {"lon": 104.557243, "lat": 34.319778}}, {"id": 3071390, "name": "Luka nad Jihlavou", "country": "CZ", "coord": {"lon": 15.70194, "lat": 49.374031}}, {"id": 5303304, "name": "Lukachukai", "country": "US", "coord": {"lon": -109.228706, "lat": 36.41695}}, {"id": 6609558, "name": "Lukanino", "country": "RU", "coord": {"lon": 42.720001, "lat": 56.689999}}, {"id": 616464, "name": "Lukashin", "country": "AM", "coord": {"lon": 44.018608, "lat": 40.175831}}, {"id": 1705372, "name": "Lukatan", "country": "PH", "coord": {"lon": 126.421181, "lat": 7.0096}}, {"id": 3071388, "name": "Lukavec", "country": "CZ", "coord": {"lon": 14.99041, "lat": 49.565411}}, {"id": 3196072, "name": "Lukavec", "country": "HR", "coord": {"lon": 15.99, "lat": 45.704441}}, {"id": 3196066, "name": "Lukavica", "country": "BA", "coord": {"lon": 18.16889, "lat": 44.762779}}, {"id": 3071381, "name": "Lukavice", "country": "CZ", "coord": {"lon": 16.482071, "lat": 50.060291}}, {"id": 2962776, "name": "Lukeswell", "country": "IE", "coord": {"lon": -7.17833, "lat": 52.39917}}, {"id": 533555, "name": "Lukh", "country": "RU", "coord": {"lon": 42.258381, "lat": 57.012421}}, {"id": 533543, "name": "Lukhovitsy", "country": "RU", "coord": {"lon": 39.03611, "lat": 54.972778}}, {"id": 533541, "name": "Lukhovka", "country": "RU", "coord": {"lon": 45.257278, "lat": 54.148441}}, {"id": 729509, "name": "Luki", "country": "BG", "coord": {"lon": 24.816669, "lat": 41.849998}}, {"id": 788421, "name": "Lukicevo", "country": "RS", "coord": {"lon": 20.49889, "lat": 45.338612}}, {"id": 533513, "name": "Lukinichi", "country": "RU", "coord": {"lon": 31.683332, "lat": 54.650002}}, {"id": 533484, "name": "Lukino", "country": "RU", "coord": {"lon": 43.629318, "lat": 56.44183}}, {"id": 533498, "name": "Lukino", "country": "RU", "coord": {"lon": 37.464836, "lat": 54.975243}}, {"id": 533493, "name": "Lukino", "country": "RU", "coord": {"lon": 37.855556, "lat": 55.506943}}, {"id": 533487, "name": "Lukino", "country": "RU", "coord": {"lon": 37.926388, "lat": 55.830833}}, {"id": 533488, "name": "Lukino", "country": "RU", "coord": {"lon": 36.807777, "lat": 55.834167}}, {"id": 533492, "name": "Lukino", "country": "RU", "coord": {"lon": 37.339722, "lat": 55.651669}}, {"id": 533475, "name": "Lukino", "country": "RU", "coord": {"lon": 43.832779, "lat": 57.076389}}, {"id": 533455, "name": "Lukinskaya", "country": "RU", "coord": {"lon": 42.483334, "lat": 59.916668}}, {"id": 533448, "name": "Lukinskoye", "country": "RU", "coord": {"lon": 40.533333, "lat": 56}}, {"id": 702612, "name": "Lukiv", "country": "UA", "coord": {"lon": 25.400591, "lat": 51.052101}}, {"id": 7555989, "name": "Lukkarya", "country": "ID", "coord": {"lon": 117.288101, "lat": -8.4288}}, {"id": 1283113, "name": "Lukla", "country": "NP", "coord": {"lon": 86.716667, "lat": 27.700001}}, {"id": 1705276, "name": "Luklukan", "country": "PH", "coord": {"lon": 122.712402, "lat": 14.3254}}, {"id": 533432, "name": "Luknovo", "country": "RU", "coord": {"lon": 42.040001, "lat": 56.19833}}, {"id": 2591272, "name": "Lukole", "country": "CD", "coord": {"lon": 18.795561, "lat": -5.00917}}, {"id": 2313371, "name": "Lukolela", "country": "CD", "coord": {"lon": 17.1821, "lat": -1.06046}}, {"id": 1802040, "name": "Lukou", "country": "CN", "coord": {"lon": 113.152138, "lat": 27.69187}}, {"id": 1802036, "name": "Lukou", "country": "CN", "coord": {"lon": 118.868172, "lat": 31.770821}}, {"id": 1802037, "name": "Lukou", "country": "CN", "coord": {"lon": 114.936394, "lat": 30.49255}}, {"id": 1802038, "name": "Lukou", "country": "CN", "coord": {"lon": 114.206161, "lat": 29.57098}}, {"id": 1802042, "name": "Lukou", "country": "CN", "coord": {"lon": 114.100197, "lat": 27.28363}}, {"id": 7745054, "name": "Lukou", "country": "CN", "coord": {"lon": 114.088463, "lat": 29.080759}}, {"id": 3071374, "name": "Lukov", "country": "CZ", "coord": {"lon": 17.729589, "lat": 49.290272}}, {"id": 533418, "name": "Lukovetskiy", "country": "RU", "coord": {"lon": 41.921101, "lat": 64.295601}}, {"id": 3196049, "name": "Lukovica pri Domzalah", "country": "SI", "coord": {"lon": 14.7, "lat": 46.166672}}, {"id": 729507, "name": "Lukovit", "country": "BG", "coord": {"lon": 24.16667, "lat": 43.200001}}, {"id": 533417, "name": "Lukovitsy", "country": "RU", "coord": {"lon": 37.316666, "lat": 54.333332}}, {"id": 788415, "name": "Lukovo", "country": "MK", "coord": {"lon": 20.604719, "lat": 41.349442}}, {"id": 533406, "name": "Lukovskaya", "country": "RU", "coord": {"lon": 44.63345, "lat": 43.729519}}, {"id": 765749, "name": "Lukow", "country": "PL", "coord": {"lon": 22.37956, "lat": 51.929001}}, {"id": 765745, "name": "Lukowa", "country": "PL", "coord": {"lon": 22.943489, "lat": 50.37426}}, {"id": 765747, "name": "Lukowa", "country": "PL", "coord": {"lon": 20.975479, "lat": 50.092999}}, {"id": 765736, "name": "Lukowica", "country": "PL", "coord": {"lon": 20.482889, "lat": 49.611099}}, {"id": 533400, "name": "Lukoyanov", "country": "RU", "coord": {"lon": 44.478649, "lat": 55.027721}}, {"id": 533399, "name": "Lukoyanovo", "country": "RU", "coord": {"lon": 44.5, "lat": 55.033329}}, {"id": 7036757, "name": "Lukrejo", "country": "ID", "coord": {"lon": 112.393898, "lat": -7.0194}}, {"id": 1705271, "name": "Luksuhin", "country": "PH", "coord": {"lon": 120.880829, "lat": 14.09667}}, {"id": 878195, "name": "Lukuledi", "country": "TZ", "coord": {"lon": 38.799999, "lat": -10.56667}}, {"id": 909488, "name": "Lukulu", "country": "ZM", "coord": {"lon": 23.241961, "lat": -14.37067}}, {"id": 7645369, "name": "Lukunor", "country": "FM", "coord": {"lon": 153.820496, "lat": 5.507}}, {"id": 533377, "name": "Luk\u2019yanovo", "country": "RU", "coord": {"lon": 37.423553, "lat": 54.869431}}, {"id": 533374, "name": "Luk\u2019yanovo", "country": "RU", "coord": {"lon": 38.607498, "lat": 55.256111}}, {"id": 3174482, "name": "Lula", "country": "IT", "coord": {"lon": 9.48644, "lat": 40.47036}}, {"id": 4207098, "name": "Lula", "country": "US", "coord": {"lon": -83.66629, "lat": 34.3876}}, {"id": 604490, "name": "Lulea", "country": "SE", "coord": {"lon": 22.15465, "lat": 65.584152}}, {"id": 741855, "name": "Luleburgaz", "country": "TR", "coord": {"lon": 27.35918, "lat": 41.403851}}, {"id": 3845391, "name": "Lules", "country": "AR", "coord": {"lon": -65.338692, "lat": -26.9277}}, {"id": 604488, "name": "Lule\u00e5 Kommun", "country": "SE", "coord": {"lon": 22.16667, "lat": 65.683327}}, {"id": 7653983, "name": "Lulin", "country": "CN", "coord": {"lon": 113.076759, "lat": 31.31354}}, {"id": 878184, "name": "Lulindi", "country": "TZ", "coord": {"lon": 39.133331, "lat": -10.81667}}, {"id": 1552361, "name": "Luling", "country": "CN", "coord": {"lon": 118.126518, "lat": 30.84893}}, {"id": 4332109, "name": "Luling", "country": "US", "coord": {"lon": -90.36647, "lat": 29.93215}}, {"id": 4708320, "name": "Luling", "country": "US", "coord": {"lon": -97.647499, "lat": 29.68051}}, {"id": 2960319, "name": "Lullange", "country": "LU", "coord": {"lon": 5.94194, "lat": 50.060001}}, {"id": 7669745, "name": "Lullier", "country": "CH", "coord": {"lon": 6.25729, "lat": 46.228851}}, {"id": 2875154, "name": "Lulsfeld", "country": "DE", "coord": {"lon": 10.33333, "lat": 49.866669}}, {"id": 2643400, "name": "Lulsgate Bottom", "country": "GB", "coord": {"lon": -2.70377, "lat": 51.38847}}, {"id": 2960318, "name": "Lultzhausen", "country": "LU", "coord": {"lon": 5.89083, "lat": 49.909439}}, {"id": 1637090, "name": "Lumajang", "country": "ID", "coord": {"lon": 113.2248, "lat": -8.1335}}, {"id": 1705245, "name": "Lumangan", "country": "PH", "coord": {"lon": 122.26667, "lat": 10.71667}}, {"id": 1705240, "name": "Lumangbayan", "country": "PH", "coord": {"lon": 121.034798, "lat": 13.419}}, {"id": 1705243, "name": "Lumangbayan", "country": "PH", "coord": {"lon": 121.498718, "lat": 13.0483}}, {"id": 6534693, "name": "Lumarzo", "country": "IT", "coord": {"lon": 9.13956, "lat": 44.433651}}, {"id": 1705222, "name": "Lumatil", "country": "PH", "coord": {"lon": 124.888329, "lat": 5.87472}}, {"id": 1705225, "name": "Lumazal", "country": "PH", "coord": {"lon": 124.849442, "lat": 5.88528}}, {"id": 1978540, "name": "Lumbac", "country": "PH", "coord": {"lon": 124.252777, "lat": 7.73417}}, {"id": 1705190, "name": "Lumbang", "country": "PH", "coord": {"lon": 121.459801, "lat": 14.2973}}, {"id": 1705183, "name": "Lumbangan", "country": "PH", "coord": {"lon": 120.666702, "lat": 14.0524}}, {"id": 3196039, "name": "Lumbarda", "country": "HR", "coord": {"lon": 17.167219, "lat": 42.922779}}, {"id": 788536, "name": "Lumbardhi", "country": "XK", "coord": {"lon": 20.34667, "lat": 42.546669}}, {"id": 1705177, "name": "Lumbatan", "country": "PH", "coord": {"lon": 124.256393, "lat": 7.785}}, {"id": 1705174, "name": "Lumbayan", "country": "PH", "coord": {"lon": 122.141113, "lat": 6.94722}}, {"id": 1705171, "name": "Lumbayanague", "country": "PH", "coord": {"lon": 124.279999, "lat": 7.7825}}, {"id": 1705169, "name": "Lumbayao", "country": "PH", "coord": {"lon": 125.166672, "lat": 8.01667}}, {"id": 4207114, "name": "Lumber City", "country": "US", "coord": {"lon": -82.679581, "lat": 31.92935}}, {"id": 4477525, "name": "Lumberton", "country": "US", "coord": {"lon": -79.008636, "lat": 34.618221}}, {"id": 4434435, "name": "Lumberton", "country": "US", "coord": {"lon": -89.452293, "lat": 31.001289}}, {"id": 4708328, "name": "Lumberton", "country": "US", "coord": {"lon": -94.199631, "lat": 30.26577}}, {"id": 1705166, "name": "Lumbia", "country": "PH", "coord": {"lon": 124.593887, "lat": 8.39583}}, {"id": 6359707, "name": "Lumbier", "country": "ES", "coord": {"lon": -1.26584, "lat": 42.654369}}, {"id": 3117804, "name": "Lumbier", "country": "ES", "coord": {"lon": -1.30669, "lat": 42.65303}}, {"id": 2997143, "name": "Lumbin", "country": "FR", "coord": {"lon": 5.91136, "lat": 45.305679}}, {"id": 1283112, "name": "Lumbin\u012b Zone", "country": "NP", "coord": {"lon": 83.5, "lat": 27.75}}, {"id": 1958319, "name": "Lumbog", "country": "PH", "coord": {"lon": 123.201401, "lat": 7.5581}}, {"id": 6360415, "name": "Lumbrales", "country": "ES", "coord": {"lon": -6.69283, "lat": 40.941059}}, {"id": 3117803, "name": "Lumbrales", "country": "ES", "coord": {"lon": -6.71948, "lat": 40.935009}}, {"id": 6359079, "name": "Lumbreras", "country": "ES", "coord": {"lon": -2.58602, "lat": 42.083302}}, {"id": 3117802, "name": "Lumbreras", "country": "ES", "coord": {"lon": -2.62189, "lat": 42.104771}}, {"id": 2997142, "name": "Lumbres", "country": "FR", "coord": {"lon": 2.12082, "lat": 50.706928}}, {"id": 8046818, "name": "Lumbung Kidul", "country": "ID", "coord": {"lon": 108.328499, "lat": -7.1619}}, {"id": 533336, "name": "Lumbushi-Krasil\u2019nikovo", "country": "RU", "coord": {"lon": 34.516666, "lat": 62.916668}}, {"id": 188617, "name": "Lumbwa", "country": "KE", "coord": {"lon": 35.468472, "lat": -0.19675}}, {"id": 6061958, "name": "Lumby", "country": "CA", "coord": {"lon": -118.96904, "lat": 50.24979}}, {"id": 7302859, "name": "Lumding Railway Colony", "country": "IN", "coord": {"lon": 93.169983, "lat": 25.749029}}, {"id": 876123, "name": "Lumeje", "country": "AO", "coord": {"lon": 20.783331, "lat": -11.55}}, {"id": 1802015, "name": "Lumeng", "country": "CN", "coord": {"lon": 117.171623, "lat": 29.26956}}, {"id": 2997139, "name": "Lumes", "country": "FR", "coord": {"lon": 4.78616, "lat": 49.734612}}, {"id": 3174478, "name": "Lumezzane", "country": "IT", "coord": {"lon": 10.25, "lat": 45.650002}}, {"id": 6534216, "name": "Lumezzane", "country": "IT", "coord": {"lon": 10.26487, "lat": 45.647881}}, {"id": 1910099, "name": "Lumiao", "country": "CN", "coord": {"lon": 113.715393, "lat": 33.320301}}, {"id": 8012475, "name": "Lumiar", "country": "PT", "coord": {"lon": -9.16268, "lat": 38.771412}}, {"id": 2997137, "name": "Lumigny-Nesles-Ormeaux", "country": "FR", "coord": {"lon": 2.95, "lat": 48.73333}}, {"id": 647472, "name": "Lumijoki", "country": "FI", "coord": {"lon": 25.16667, "lat": 64.833328}}, {"id": 647471, "name": "Lumijoki", "country": "FI", "coord": {"lon": 25.186069, "lat": 64.83744}}, {"id": 1705144, "name": "Lumil", "country": "PH", "coord": {"lon": 121.013649, "lat": 14.18168}}, {"id": 674517, "name": "Lumina", "country": "RO", "coord": {"lon": 28.566669, "lat": 44.283329}}, {"id": 2659831, "name": "Lumino", "country": "CH", "coord": {"lon": 9.06634, "lat": 46.230721}}, {"id": 3458343, "name": "Lumin\u00e1rias", "country": "BR", "coord": {"lon": -44.903332, "lat": -21.51111}}, {"id": 2997132, "name": "Lumio", "country": "FR", "coord": {"lon": 8.8355, "lat": 42.575901}}, {"id": 2792008, "name": "Lummen", "country": "BE", "coord": {"lon": 5.1943, "lat": 50.988041}}, {"id": 2792007, "name": "Lummen", "country": "BE", "coord": {"lon": 5.19121, "lat": 50.98772}}, {"id": 647457, "name": "Lumparland", "country": "AX", "coord": {"lon": 20.25, "lat": 60.116669}}, {"id": 647455, "name": "Lumparland", "country": "AX", "coord": {"lon": 20.25819, "lat": 60.116951}}, {"id": 1830377, "name": "Lumphat", "country": "KH", "coord": {"lon": 106.981583, "lat": 13.48784}}, {"id": 6362838, "name": "Lumpiaque", "country": "ES", "coord": {"lon": -1.35147, "lat": 41.643009}}, {"id": 3117798, "name": "Lumpiaque", "country": "ES", "coord": {"lon": -1.30156, "lat": 41.629532}}, {"id": 4207128, "name": "Lumpkin", "country": "US", "coord": {"lon": -84.799088, "lat": 32.050991}}, {"id": 4207132, "name": "Lumpkin County", "country": "US", "coord": {"lon": -84.016579, "lat": 34.566761}}, {"id": 1105460, "name": "Lumpundu", "country": "CD", "coord": {"lon": 25.512779, "lat": -10.74139}}, {"id": 6550548, "name": "Lumpzig", "country": "DE", "coord": {"lon": 12.2609, "lat": 50.9454}}, {"id": 2875138, "name": "Lumpzig", "country": "DE", "coord": {"lon": 12.26667, "lat": 50.950001}}, {"id": 6061979, "name": "Lumsden", "country": "CA", "coord": {"lon": -104.867828, "lat": 50.650089}}, {"id": 2188128, "name": "Lumsden", "country": "NZ", "coord": {"lon": 168.449997, "lat": -45.73333}}, {"id": 1735450, "name": "Lumut", "country": "MY", "coord": {"lon": 100.629799, "lat": 4.2323}}, {"id": 1705117, "name": "Lumuyon", "country": "PH", "coord": {"lon": 124.786942, "lat": 5.91583}}, {"id": 388578, "name": "Lumwe", "country": "CD", "coord": {"lon": 25.23667, "lat": -8.6575}}, {"id": 1705028, "name": "Lun Pequeno", "country": "PH", "coord": {"lon": 125.28389, "lat": 6.03778}}, {"id": 6362839, "name": "Luna", "country": "ES", "coord": {"lon": -0.92446, "lat": 42.179539}}, {"id": 3117797, "name": "Luna", "country": "ES", "coord": {"lon": -0.93292, "lat": 42.167599}}, {"id": 1705093, "name": "Luna", "country": "PH", "coord": {"lon": 121.353607, "lat": 18.32583}}, {"id": 1705096, "name": "Luna", "country": "PH", "coord": {"lon": 121.72924, "lat": 16.969749}}, {"id": 1705097, "name": "Luna", "country": "PH", "coord": {"lon": 120.376099, "lat": 16.8528}}, {"id": 1705105, "name": "Luna", "country": "PH", "coord": {"lon": 123.23333, "lat": 10.96667}}, {"id": 1705109, "name": "Luna", "country": "PH", "coord": {"lon": 125.501671, "lat": 9.73389}}, {"id": 1705111, "name": "Luna", "country": "PH", "coord": {"lon": 125.667221, "lat": 7.57639}}, {"id": 1730479, "name": "Luna", "country": "PH", "coord": {"lon": 123.733597, "lat": 12.5492}}, {"id": 5477433, "name": "Luna County", "country": "US", "coord": {"lon": -107.975868, "lat": 32.590359}}, {"id": 5000334, "name": "Luna Pier", "country": "US", "coord": {"lon": -83.442429, "lat": 41.806992}}, {"id": 2524357, "name": "Lunamatrona", "country": "IT", "coord": {"lon": 8.9, "lat": 39.648891}}, {"id": 2053192, "name": "Lunan", "country": "CN", "coord": {"lon": 122.300819, "lat": 40.688202}}, {"id": 3174472, "name": "Lunano", "country": "IT", "coord": {"lon": 12.44355, "lat": 43.731159}}, {"id": 1705089, "name": "Lunao", "country": "PH", "coord": {"lon": 125.056389, "lat": 8.85028}}, {"id": 3458341, "name": "Lunardelli", "country": "BR", "coord": {"lon": -51.200001, "lat": -23}}, {"id": 6429421, "name": "Lunas", "country": "FR", "coord": {"lon": 0.4, "lat": 44.916672}}, {"id": 2997125, "name": "Lunas", "country": "FR", "coord": {"lon": 0.40361, "lat": 44.916962}}, {"id": 1705084, "name": "Lunas", "country": "PH", "coord": {"lon": 123.752502, "lat": 10.6402}}, {"id": 1264700, "name": "Lunavada", "country": "IN", "coord": {"lon": 73.616669, "lat": 23.133329}}, {"id": 2997123, "name": "Lunay", "country": "FR", "coord": {"lon": 0.91499, "lat": 47.80864}}, {"id": 674488, "name": "Lunca", "country": "RO", "coord": {"lon": 24.01667, "lat": 45.150002}}, {"id": 674461, "name": "Lunca", "country": "RO", "coord": {"lon": 26.98333, "lat": 47.616669}}, {"id": 674467, "name": "Lunca", "country": "RO", "coord": {"lon": 24.566669, "lat": 46.849998}}, {"id": 674470, "name": "Lunca", "country": "RO", "coord": {"lon": 22.466669, "lat": 46.51667}}, {"id": 674497, "name": "Lunca", "country": "RO", "coord": {"lon": 24.76667, "lat": 43.833328}}, {"id": 674439, "name": "Lunca Banului", "country": "RO", "coord": {"lon": 28.168329, "lat": 46.595001}}, {"id": 674430, "name": "Lunca Bradului", "country": "RO", "coord": {"lon": 25.111401, "lat": 46.955952}}, {"id": 674426, "name": "Lunca Cernii de Jos", "country": "RO", "coord": {"lon": 22.616671, "lat": 45.633331}}, {"id": 674421, "name": "Lunca Corbului", "country": "RO", "coord": {"lon": 24.75, "lat": 44.700001}}, {"id": 674402, "name": "Lunca Ilvei", "country": "RO", "coord": {"lon": 24.98333, "lat": 47.366669}}, {"id": 674384, "name": "Lunca Muresului", "country": "RO", "coord": {"lon": 23.9, "lat": 46.433331}}, {"id": 674419, "name": "Lunca de Jos", "country": "RO", "coord": {"lon": 25.98333, "lat": 46.566669}}, {"id": 674413, "name": "Lunca de Sus", "country": "RO", "coord": {"lon": 25.966669, "lat": 46.533329}}, {"id": 2643391, "name": "Luncarty", "country": "GB", "coord": {"lon": -3.47007, "lat": 56.453079}}, {"id": 674349, "name": "Luncavita", "country": "RO", "coord": {"lon": 28.26667, "lat": 45.283329}}, {"id": 674350, "name": "Luncavita", "country": "RO", "coord": {"lon": 22.26667, "lat": 45.083328}}, {"id": 674340, "name": "Luncoiu de Jos", "country": "RO", "coord": {"lon": 22.76667, "lat": 46.099998}}, {"id": 4708350, "name": "Lund", "country": "US", "coord": {"lon": -97.396393, "lat": 30.406601}}, {"id": 2693678, "name": "Lund", "country": "SE", "coord": {"lon": 13.19321, "lat": 55.705841}}, {"id": 2643390, "name": "Lund", "country": "GB", "coord": {"lon": -0.52211, "lat": 53.919201}}, {"id": 145702, "name": "Lunda Norte Province", "country": "AO", "coord": {"lon": 19.64852, "lat": -8.63543}}, {"id": 3146831, "name": "Lundamo", "country": "NO", "coord": {"lon": 10.3, "lat": 63.133331}}, {"id": 909299, "name": "Lundazi", "country": "ZM", "coord": {"lon": 33.1782, "lat": -12.29292}}, {"id": 3146811, "name": "Lunde", "country": "NO", "coord": {"lon": 9.13333, "lat": 59.316669}}, {"id": 6551350, "name": "Lunden", "country": "DE", "coord": {"lon": 9.01667, "lat": 54.333302}}, {"id": 2875130, "name": "Lunden", "country": "DE", "coord": {"lon": 9.01667, "lat": 54.333328}}, {"id": 2875129, "name": "Lundenberg", "country": "DE", "coord": {"lon": 9, "lat": 54.549999}}, {"id": 2617312, "name": "Lunderskov", "country": "DK", "coord": {"lon": 9.29917, "lat": 55.483749}}, {"id": 2643385, "name": "Lundin Links", "country": "GB", "coord": {"lon": -2.95296, "lat": 56.212399}}, {"id": 8058038, "name": "Lundo", "country": "ID", "coord": {"lon": 111.201599, "lat": -6.7717}}, {"id": 2693555, "name": "Lunds Kommun", "country": "SE", "coord": {"lon": 13.2, "lat": 55.716671}}, {"id": 6425388, "name": "Luneau", "country": "FR", "coord": {"lon": 3.95, "lat": 46.366669}}, {"id": 2997119, "name": "Luneau", "country": "FR", "coord": {"lon": 3.95098, "lat": 46.362801}}, {"id": 2875117, "name": "Lunebach", "country": "DE", "coord": {"lon": 6.35, "lat": 50.133331}}, {"id": 2875115, "name": "Luneburg", "country": "DE", "coord": {"lon": 10.4, "lat": 53.25}}, {"id": 1705067, "name": "Lunec", "country": "PH", "coord": {"lon": 120.491203, "lat": 15.9524}}, {"id": 6454031, "name": "Lunel", "country": "FR", "coord": {"lon": 4.13333, "lat": 43.683331}}, {"id": 2997116, "name": "Lunel", "country": "FR", "coord": {"lon": 4.13611, "lat": 43.67778}}, {"id": 2997113, "name": "Lunel-Viel", "country": "FR", "coord": {"lon": 4.0925, "lat": 43.678902}}, {"id": 2875107, "name": "Lunen", "country": "DE", "coord": {"lon": 7.51667, "lat": 51.616669}}, {"id": 1705066, "name": "Lunen", "country": "PH", "coord": {"lon": 124.904716, "lat": 6.35917}}, {"id": 6062069, "name": "Lunenburg", "country": "CA", "coord": {"lon": -64.315453, "lat": 44.38345}}, {"id": 4770995, "name": "Lunenburg", "country": "US", "coord": {"lon": -78.265549, "lat": 36.960979}}, {"id": 4942767, "name": "Lunenburg", "country": "US", "coord": {"lon": -71.724518, "lat": 42.594528}}, {"id": 3174469, "name": "Lunense", "country": "IT", "coord": {"lon": 9.84761, "lat": 44.13208}}, {"id": 2997112, "name": "Luneray", "country": "FR", "coord": {"lon": 0.91581, "lat": 49.82795}}, {"id": 2997111, "name": "Lunery", "country": "FR", "coord": {"lon": 2.26895, "lat": 46.935692}}, {"id": 6552598, "name": "Lunestedt", "country": "DE", "coord": {"lon": 8.75, "lat": 53.4333}}, {"id": 2875102, "name": "Lunestedt", "country": "DE", "coord": {"lon": 8.75, "lat": 53.433331}}, {"id": 3174468, "name": "Lunetta", "country": "IT", "coord": {"lon": 8.06667, "lat": 44.48333}}, {"id": 6698635, "name": "Lunetten", "country": "NL", "coord": {"lon": 5.13474, "lat": 52.061779}}, {"id": 2997110, "name": "Luneville", "country": "FR", "coord": {"lon": 6.5, "lat": 48.599998}}, {"id": 617879, "name": "Lunga", "country": "MD", "coord": {"lon": 29.16667, "lat": 47.246109}}, {"id": 674323, "name": "Lungani", "country": "RO", "coord": {"lon": 27.15, "lat": 47.183331}}, {"id": 1705060, "name": "Lungaog", "country": "PH", "coord": {"lon": 125.687782, "lat": 7.52944}}, {"id": 6540359, "name": "Lungavilla", "country": "IT", "coord": {"lon": 9.08135, "lat": 45.040661}}, {"id": 3174463, "name": "Lungavilla", "country": "IT", "coord": {"lon": 9.08135, "lat": 45.040661}}, {"id": 7286390, "name": "Lungern", "country": "CH", "coord": {"lon": 8.16736, "lat": 46.786781}}, {"id": 2659828, "name": "Lungern", "country": "CH", "coord": {"lon": 8.15984, "lat": 46.785782}}, {"id": 674318, "name": "Lungesti", "country": "RO", "coord": {"lon": 24.183331, "lat": 44.566669}}, {"id": 1264688, "name": "Lunglei", "country": "IN", "coord": {"lon": 92.73333, "lat": 22.883329}}, {"id": 1705051, "name": "Lungog", "country": "PH", "coord": {"lon": 120.478401, "lat": 17.4645}}, {"id": 2524356, "name": "Lungro", "country": "IT", "coord": {"lon": 16.12458, "lat": 39.7383}}, {"id": 674307, "name": "Lunguletu", "country": "RO", "coord": {"lon": 25.65, "lat": 44.616669}}, {"id": 1919191, "name": "Luniao", "country": "CN", "coord": {"lon": 119.754539, "lat": 30.45413}}, {"id": 533284, "name": "Lunino", "country": "RU", "coord": {"lon": 45.227089, "lat": 53.591759}}, {"id": 625818, "name": "Luninyets", "country": "BY", "coord": {"lon": 26.804701, "lat": 52.2472}}, {"id": 3845366, "name": "Lunlunta", "country": "AR", "coord": {"lon": -68.822617, "lat": -33.041229}}, {"id": 2693524, "name": "Lunna", "country": "SE", "coord": {"lon": 11.99306, "lat": 57.458328}}, {"id": 869073, "name": "Lunnaya Polyana", "country": "RU", "coord": {"lon": 41.164501, "lat": 43.554298}}, {"id": 3208438, "name": "Lunne", "country": "DE", "coord": {"lon": 7.43333, "lat": 52.433331}}, {"id": 2406916, "name": "Lunsar", "country": "SL", "coord": {"lon": -12.53333, "lat": 8.68333}}, {"id": 1705019, "name": "Luntal", "country": "PH", "coord": {"lon": 120.7174, "lat": 14.0292}}, {"id": 7036537, "name": "Luntas", "country": "ID", "coord": {"lon": 112.433998, "lat": -7.0612}}, {"id": 2751385, "name": "Lunteren", "country": "NL", "coord": {"lon": 5.62222, "lat": 52.084999}}, {"id": 7873030, "name": "Lunz am See", "country": "AT", "coord": {"lon": 15.02406, "lat": 47.85321}}, {"id": 2772186, "name": "Lunz am See", "country": "AT", "coord": {"lon": 15.02998, "lat": 47.861198}}, {"id": 2875067, "name": "Lunzenau", "country": "DE", "coord": {"lon": 12.76667, "lat": 50.950001}}, {"id": 6550507, "name": "Lunzig", "country": "DE", "coord": {"lon": 12.1, "lat": 50.716702}}, {"id": 2875063, "name": "Lunzig", "country": "DE", "coord": {"lon": 12.09294, "lat": 50.713249}}, {"id": 6454301, "name": "Lun\u00e9ville", "country": "FR", "coord": {"lon": 6.5024, "lat": 48.589199}}, {"id": 1802001, "name": "Luoao", "country": "CN", "coord": {"lon": 115.292953, "lat": 25.934731}}, {"id": 1917368, "name": "Luoba", "country": "CN", "coord": {"lon": 114.208252, "lat": 24.862499}}, {"id": 1801998, "name": "Luobei", "country": "CN", "coord": {"lon": 115.703133, "lat": 27.15073}}, {"id": 1280425, "name": "Luobuqiongzi", "country": "CN", "coord": {"lon": 89.25, "lat": 29.16667}}, {"id": 7661844, "name": "Luochang", "country": "CN", "coord": {"lon": 112.334709, "lat": 30.359699}}, {"id": 1801983, "name": "Luocheng", "country": "CN", "coord": {"lon": 104.028618, "lat": 29.384809}}, {"id": 1801982, "name": "Luocheng", "country": "CN", "coord": {"lon": 104.280807, "lat": 30.980209}}, {"id": 1801984, "name": "Luocheng", "country": "CN", "coord": {"lon": 118.794952, "lat": 25.03231}}, {"id": 7690142, "name": "Luocheng", "country": "CN", "coord": {"lon": 114.553658, "lat": 28.287029}}, {"id": 1801980, "name": "Luochuan", "country": "CN", "coord": {"lon": 106.001671, "lat": 36.612202}}, {"id": 7326271, "name": "Luoda", "country": "CN", "coord": {"lon": 103.980812, "lat": 33.986191}}, {"id": 1801912, "name": "Luodian", "country": "CN", "coord": {"lon": 113.779381, "lat": 31.5473}}, {"id": 1801970, "name": "Luodian", "country": "CN", "coord": {"lon": 113.392128, "lat": 31.11273}}, {"id": 1801955, "name": "Luofang", "country": "CN", "coord": {"lon": 115.112701, "lat": 27.85482}}, {"id": 1801958, "name": "Luofang", "country": "CN", "coord": {"lon": 116.683693, "lat": 25.750681}}, {"id": 1801948, "name": "Luofu", "country": "CN", "coord": {"lon": 120.650002, "lat": 28.033331}}, {"id": 1801951, "name": "Luofu", "country": "CN", "coord": {"lon": 115.576462, "lat": 24.52705}}, {"id": 1919368, "name": "Luogang", "country": "CN", "coord": {"lon": 115.634132, "lat": 24.424841}}, {"id": 1555227, "name": "Luogangzhen", "country": "CN", "coord": {"lon": 117.308327, "lat": 31.79167}}, {"id": 2524354, "name": "Luogo Grande", "country": "IT", "coord": {"lon": 12.51154, "lat": 37.925781}}, {"id": 3174451, "name": "Luogo Santo", "country": "IT", "coord": {"lon": 9.20602, "lat": 41.049469}}, {"id": 3174452, "name": "Luogosano", "country": "IT", "coord": {"lon": 14.99084, "lat": 40.987221}}, {"id": 1801934, "name": "Luohe", "country": "CN", "coord": {"lon": 114.035278, "lat": 33.571671}}, {"id": 6825481, "name": "Luohe", "country": "CN", "coord": {"lon": 102.389168, "lat": 24.330339}}, {"id": 7065656, "name": "Luohe", "country": "CN", "coord": {"lon": 117.177368, "lat": 28.210171}}, {"id": 1801928, "name": "Luohong", "country": "CN", "coord": {"lon": 111.075279, "lat": 27.555559}}, {"id": 1917143, "name": "Luohu", "country": "CN", "coord": {"lon": 114.874031, "lat": 24.04837}}, {"id": 1801909, "name": "Luojiang", "country": "CN", "coord": {"lon": 104.504837, "lat": 31.30497}}, {"id": 1923474, "name": "Luojiang", "country": "CN", "coord": {"lon": 115.252548, "lat": 25.880011}}, {"id": 1801907, "name": "Luojiaping", "country": "CN", "coord": {"lon": 110.698502, "lat": 29.75518}}, {"id": 1801895, "name": "Luojing", "country": "CN", "coord": {"lon": 121.339073, "lat": 31.478201}}, {"id": 1801894, "name": "Luojiu", "country": "CN", "coord": {"lon": 109.808891, "lat": 27.515829}}, {"id": 1801891, "name": "Luokeng", "country": "CN", "coord": {"lon": 113.333328, "lat": 24.51667}}, {"id": 1801889, "name": "Luokou", "country": "CN", "coord": {"lon": 116.070183, "lat": 26.853239}}, {"id": 2035911, "name": "Luoluopu", "country": "CN", "coord": {"lon": 121.714203, "lat": 41.55291}}, {"id": 1801864, "name": "Luoping", "country": "CN", "coord": {"lon": 115.257378, "lat": 29.231819}}, {"id": 647383, "name": "Luopioinen", "country": "FI", "coord": {"lon": 24.66667, "lat": 61.366669}}, {"id": 1801858, "name": "Luoqiao", "country": "CN", "coord": {"lon": 119.010277, "lat": 26.46694}}, {"id": 1801850, "name": "Luorong", "country": "CN", "coord": {"lon": 109.608612, "lat": 24.40583}}, {"id": 1923210, "name": "Luoshan", "country": "CN", "coord": {"lon": 115.816452, "lat": 25.144751}}, {"id": 7514837, "name": "Luoshanchuan", "country": "CN", "coord": {"lon": 106.947273, "lat": 36.796211}}, {"id": 1801843, "name": "Luoshe", "country": "CN", "coord": {"lon": 120.08889, "lat": 30.634439}}, {"id": 1801954, "name": "Luoshi", "country": "CN", "coord": {"lon": 115.066673, "lat": 28.683331}}, {"id": 1925026, "name": "Luoshi", "country": "CN", "coord": {"lon": 115.829651, "lat": 27.99225}}, {"id": 1941079, "name": "Luoshui", "country": "CN", "coord": {"lon": 110.253662, "lat": 29.26829}}, {"id": 1801836, "name": "Luoshuwan", "country": "CN", "coord": {"lon": 119.800003, "lat": 31.91667}}, {"id": 1927945, "name": "Luotache", "country": "CN", "coord": {"lon": 109.522659, "lat": 29.208679}}, {"id": 7372475, "name": "Luotang", "country": "CN", "coord": {"lon": 105.264847, "lat": 33.067749}}, {"id": 1941077, "name": "Luotaping", "country": "CN", "coord": {"lon": 110.125153, "lat": 29.18713}}, {"id": 1801829, "name": "Luotian", "country": "CN", "coord": {"lon": 115.049088, "lat": 27.54026}}, {"id": 1801830, "name": "Luotian", "country": "CN", "coord": {"lon": 115.538979, "lat": 27.012991}}, {"id": 1925027, "name": "Luoting", "country": "CN", "coord": {"lon": 115.787071, "lat": 28.89012}}, {"id": 1801826, "name": "Luotuo", "country": "CN", "coord": {"lon": 121.584442, "lat": 29.98}}, {"id": 1801825, "name": "Luotuoao", "country": "CN", "coord": {"lon": 115.39257, "lat": 30.686411}}, {"id": 1801821, "name": "Luowa", "country": "CN", "coord": {"lon": 106.581619, "lat": 36.26038}}, {"id": 1801811, "name": "Luoxi", "country": "CN", "coord": {"lon": 114.982552, "lat": 29.089809}}, {"id": 1801812, "name": "Luoxi", "country": "CN", "coord": {"lon": 116.150742, "lat": 28.4149}}, {"id": 1919743, "name": "Luoxi", "country": "CN", "coord": {"lon": 115.620911, "lat": 23.38253}}, {"id": 1801806, "name": "Luoxiong", "country": "CN", "coord": {"lon": 104.292252, "lat": 24.88558}}, {"id": 1801797, "name": "Luoyang", "country": "CN", "coord": {"lon": 118.681107, "lat": 24.962219}}, {"id": 1801792, "name": "Luoyang", "country": "CN", "coord": {"lon": 112.453613, "lat": 34.683609}}, {"id": 1801799, "name": "Luoyang", "country": "CN", "coord": {"lon": 114.273422, "lat": 23.162439}}, {"id": 1550044, "name": "Luoyang", "country": "CN", "coord": {"lon": 119.107018, "lat": 34.710812}}, {"id": 1801791, "name": "Luoyang", "country": "CN", "coord": {"lon": 113.425323, "lat": 31.472919}}, {"id": 6999282, "name": "Luoyang", "country": "CN", "coord": {"lon": 102.805222, "lat": 24.929741}}, {"id": 7373480, "name": "Luoyu", "country": "CN", "coord": {"lon": 105.231171, "lat": 33.84103}}, {"id": 1801782, "name": "Luoyuan", "country": "CN", "coord": {"lon": 109.817284, "lat": 34.200142}}, {"id": 1925029, "name": "Luozhen", "country": "CN", "coord": {"lon": 116.262733, "lat": 28.12048}}, {"id": 6646315, "name": "Luozhou", "country": "CN", "coord": {"lon": 110.273727, "lat": 21.632839}}, {"id": 2035900, "name": "Luozigou", "country": "CN", "coord": {"lon": 130.340424, "lat": 43.729321}}, {"id": 674305, "name": "Lupac", "country": "RO", "coord": {"lon": 21.81278, "lat": 45.279999}}, {"id": 888225, "name": "Lupane", "country": "ZW", "coord": {"lon": 27.806959, "lat": -18.93149}}, {"id": 1704994, "name": "Lupao", "country": "PH", "coord": {"lon": 120.8983, "lat": 15.8793}}, {"id": 3174450, "name": "Lupara", "country": "IT", "coord": {"lon": 14.73543, "lat": 41.760231}}, {"id": 2875060, "name": "Lupburg", "country": "DE", "coord": {"lon": 11.7564, "lat": 49.155102}}, {"id": 2875057, "name": "Lupendorf", "country": "DE", "coord": {"lon": 12.65, "lat": 53.633331}}, {"id": 674295, "name": "Lupeni", "country": "RO", "coord": {"lon": 23.238319, "lat": 45.360291}}, {"id": 674294, "name": "Lupeni", "country": "RO", "coord": {"lon": 25.216669, "lat": 46.383331}}, {"id": 3497350, "name": "Luperon", "country": "DO", "coord": {"lon": -70.962044, "lat": 19.891319}}, {"id": 1704984, "name": "Lupi", "country": "PH", "coord": {"lon": 123.150002, "lat": 13.53333}}, {"id": 1704982, "name": "Lupi Viejo", "country": "PH", "coord": {"lon": 122.909798, "lat": 13.7897}}, {"id": 6357936, "name": "Lupiana", "country": "ES", "coord": {"lon": -3.04345, "lat": 40.618561}}, {"id": 3117791, "name": "Lupiana", "country": "ES", "coord": {"lon": -3.05118, "lat": 40.608459}}, {"id": 6062100, "name": "Lupin", "country": "CA", "coord": {"lon": -111.223221, "lat": 65.764259}}, {"id": 7518387, "name": "Luping", "country": "CN", "coord": {"lon": 107.05687, "lat": 36.354351}}, {"id": 2514369, "name": "Lupion", "country": "ES", "coord": {"lon": -3.54699, "lat": 37.996529}}, {"id": 3458339, "name": "Lupion\u00f3polis", "country": "BR", "coord": {"lon": -51.657219, "lat": -22.75528}}, {"id": 155584, "name": "Lupiro", "country": "TZ", "coord": {"lon": 36.666672, "lat": -8.38333}}, {"id": 3117790, "name": "Lupi\u00f1\u00e9n", "country": "ES", "coord": {"lon": -0.58257, "lat": 42.17461}}, {"id": 6358451, "name": "Lupi\u00f1\u00e9n-Ortilla", "country": "ES", "coord": {"lon": -0.65241, "lat": 42.15493}}, {"id": 6358507, "name": "Lupi\u00f3n", "country": "ES", "coord": {"lon": -3.57789, "lat": 38.015781}}, {"id": 1705563, "name": "Lupo", "country": "PH", "coord": {"lon": 122.479103, "lat": 11.5076}}, {"id": 3196019, "name": "Lupoglav", "country": "HR", "coord": {"lon": 16.34639, "lat": 45.796391}}, {"id": 533234, "name": "Lupolovo", "country": "RU", "coord": {"lon": 42.700001, "lat": 56.566666}}, {"id": 1704968, "name": "Lupon", "country": "PH", "coord": {"lon": 126.009613, "lat": 6.89814}}, {"id": 674272, "name": "Lupsa", "country": "RO", "coord": {"lon": 23.200001, "lat": 46.366669}}, {"id": 674267, "name": "Lupsanu", "country": "RO", "coord": {"lon": 26.9, "lat": 44.383331}}, {"id": 3458340, "name": "Lup\u00e9rcio", "country": "BR", "coord": {"lon": -49.817219, "lat": -22.415001}}, {"id": 617874, "name": "Lup\u0103ria", "country": "MD", "coord": {"lon": 27.55389, "lat": 47.875832}}, {"id": 2562788, "name": "Luqa", "country": "MT", "coord": {"lon": 14.48861, "lat": 35.858891}}, {"id": 1801757, "name": "Luqiao", "country": "CN", "coord": {"lon": 121.377151, "lat": 28.580839}}, {"id": 1801753, "name": "Luqiao", "country": "CN", "coord": {"lon": 108.917778, "lat": 34.685001}}, {"id": 3845365, "name": "Luque", "country": "AR", "coord": {"lon": -63.343231, "lat": -31.647511}}, {"id": 2514367, "name": "Luque", "country": "ES", "coord": {"lon": -4.27974, "lat": 37.557968}}, {"id": 4566103, "name": "Luquillo", "country": "PR", "coord": {"lon": -65.716553, "lat": 18.37245}}, {"id": 4566106, "name": "Luquillo Municipio", "country": "PR", "coord": {"lon": -65.724609, "lat": 18.33967}}, {"id": 7621141, "name": "Lurad", "country": "PH", "coord": {"lon": 121.192337, "lat": 16.52158}}, {"id": 3174438, "name": "Lurago Marinone", "country": "IT", "coord": {"lon": 8.98134, "lat": 45.70578}}, {"id": 3174439, "name": "Lurago dErba", "country": "IT", "coord": {"lon": 9.21974, "lat": 45.751781}}, {"id": 1637026, "name": "Luragung", "country": "ID", "coord": {"lon": 108.6381, "lat": -7.0172}}, {"id": 8073784, "name": "Luragung Tonggoh", "country": "ID", "coord": {"lon": 108.635902, "lat": -7.0208}}, {"id": 7844325, "name": "Lurah", "country": "ID", "coord": {"lon": 106.385696, "lat": -6.5332}}, {"id": 6535174, "name": "Lurano", "country": "IT", "coord": {"lon": 9.64016, "lat": 45.565681}}, {"id": 3174437, "name": "Luras", "country": "IT", "coord": {"lon": 9.17532, "lat": 40.935268}}, {"id": 3174436, "name": "Lurate Caccivio", "country": "IT", "coord": {"lon": 9, "lat": 45.76667}}, {"id": 3174435, "name": "Lurate Caccivio", "country": "IT", "coord": {"lon": 8.99784, "lat": 45.770679}}, {"id": 2997084, "name": "Luray", "country": "FR", "coord": {"lon": 1.39889, "lat": 48.720348}}, {"id": 4771014, "name": "Luray", "country": "US", "coord": {"lon": -78.45945, "lat": 38.665401}}, {"id": 2997079, "name": "Lurcy-Levis", "country": "FR", "coord": {"lon": 2.93876, "lat": 46.73056}}, {"id": 6425389, "name": "Lurcy-L\u00e9vis", "country": "FR", "coord": {"lon": 2.9393, "lat": 46.729801}}, {"id": 2997076, "name": "Lure", "country": "FR", "coord": {"lon": 6.5, "lat": 47.683331}}, {"id": 2159354, "name": "Lurg", "country": "AU", "coord": {"lon": 146.133331, "lat": -36.583328}}, {"id": 3695117, "name": "Lurifico", "country": "PE", "coord": {"lon": -79.449997, "lat": -7.21667}}, {"id": 1280679, "name": "Luring", "country": "CN", "coord": {"lon": 84.199997, "lat": 32.26667}}, {"id": 3845359, "name": "Luro", "country": "AR", "coord": {"lon": -62.133331, "lat": -36.633331}}, {"id": 7626395, "name": "Luroy", "country": "NO", "coord": {"lon": 12.84248, "lat": 66.418869}}, {"id": 2875027, "name": "Lurschau", "country": "DE", "coord": {"lon": 9.5, "lat": 54.549999}}, {"id": 2659824, "name": "Lurtigen", "country": "CH", "coord": {"lon": 7.17329, "lat": 46.92844}}, {"id": 3675826, "name": "Luruaco", "country": "CO", "coord": {"lon": -75.143089, "lat": 10.60921}}, {"id": 1704960, "name": "Lurugan", "country": "PH", "coord": {"lon": 124.966667, "lat": 8.01667}}, {"id": 2875023, "name": "Lurup", "country": "DE", "coord": {"lon": 9.87697, "lat": 53.592659}}, {"id": 7567562, "name": "Lurut", "country": "ID", "coord": {"lon": 120.659103, "lat": -8.6528}}, {"id": 3935720, "name": "Lur\u00edn", "country": "PE", "coord": {"lon": -76.866669, "lat": -12.28333}}, {"id": 3117786, "name": "Lusa", "country": "ES", "coord": {"lon": -3.20562, "lat": 43.35265}}, {"id": 1704959, "name": "Lusacan", "country": "PH", "coord": {"lon": 121.346939, "lat": 13.95278}}, {"id": 909137, "name": "Lusaka", "country": "ZM", "coord": {"lon": 28.28713, "lat": -15.40669}}, {"id": 909129, "name": "Lusaka Province", "country": "ZM", "coord": {"lon": 29, "lat": -15.41667}}, {"id": 210379, "name": "Lusambo", "country": "CD", "coord": {"lon": 23.450001, "lat": -4.96667}}, {"id": 2997064, "name": "Lusanger", "country": "FR", "coord": {"lon": -1.58857, "lat": 47.68153}}, {"id": 4361365, "name": "Lusby", "country": "US", "coord": {"lon": -76.455231, "lat": 38.410679}}, {"id": 2875014, "name": "Luschendorf", "country": "DE", "coord": {"lon": 10.73333, "lat": 54}}, {"id": 6534277, "name": "Lusciano", "country": "IT", "coord": {"lon": 14.19043, "lat": 40.970009}}, {"id": 2997060, "name": "Lusclade", "country": "FR", "coord": {"lon": 3.09546, "lat": 45.155609}}, {"id": 6062129, "name": "Luseland", "country": "CA", "coord": {"lon": -109.401497, "lat": 52.083431}}, {"id": 3174430, "name": "Luserna", "country": "IT", "coord": {"lon": 11.32289, "lat": 45.9226}}, {"id": 3174429, "name": "Luserna San Giovanni", "country": "IT", "coord": {"lon": 7.25132, "lat": 44.815441}}, {"id": 6535809, "name": "Lusernetta", "country": "IT", "coord": {"lon": 7.24672, "lat": 44.803139}}, {"id": 3174428, "name": "Lusevera", "country": "IT", "coord": {"lon": 13.27139, "lat": 46.276939}}, {"id": 1801735, "name": "Lushan", "country": "CN", "coord": {"lon": 119.917908, "lat": 30.93022}}, {"id": 7686241, "name": "Lushan", "country": "CN", "coord": {"lon": 119.903809, "lat": 30.008989}}, {"id": 1801734, "name": "Lushar", "country": "CN", "coord": {"lon": 101.597221, "lat": 36.49556}}, {"id": 1917871, "name": "Lushikeng", "country": "CN", "coord": {"lon": 117.255341, "lat": 23.76058}}, {"id": 3184862, "name": "Lushnje", "country": "AL", "coord": {"lon": 19.705, "lat": 40.94194}}, {"id": 155569, "name": "Lushoto", "country": "TZ", "coord": {"lon": 38.283329, "lat": -4.78333}}, {"id": 1801727, "name": "Lushui", "country": "CN", "coord": {"lon": 113.553886, "lat": 26.9575}}, {"id": 2035899, "name": "Lushuihe", "country": "CN", "coord": {"lon": 127.782578, "lat": 42.519001}}, {"id": 1801722, "name": "Lushun", "country": "CN", "coord": {"lon": 121.26667, "lat": 38.799999}}, {"id": 1801719, "name": "Lusi", "country": "CN", "coord": {"lon": 117.303383, "lat": 28.898741}}, {"id": 3174427, "name": "Lusia", "country": "IT", "coord": {"lon": 11.66511, "lat": 45.09848}}, {"id": 3174426, "name": "Lusiana", "country": "IT", "coord": {"lon": 11.5756, "lat": 45.784901}}, {"id": 1801720, "name": "Lusigang", "country": "CN", "coord": {"lon": 121.595543, "lat": 32.055328}}, {"id": 1925031, "name": "Lusigang", "country": "CN", "coord": {"lon": 116.649834, "lat": 28.75433}}, {"id": 6535402, "name": "Lusiglie", "country": "IT", "coord": {"lon": 7.76462, "lat": 45.318451}}, {"id": 6429422, "name": "Lusignac", "country": "FR", "coord": {"lon": 0.3131, "lat": 45.327599}}, {"id": 2997059, "name": "Lusignac", "country": "FR", "coord": {"lon": 0.3, "lat": 45.316669}}, {"id": 2997058, "name": "Lusignan", "country": "FR", "coord": {"lon": 0.1262, "lat": 46.435982}}, {"id": 6434992, "name": "Lusignan-Petit", "country": "FR", "coord": {"lon": 0.5255, "lat": 44.271}}, {"id": 2997056, "name": "Lusignan-Petit", "country": "FR", "coord": {"lon": 0.52465, "lat": 44.271198}}, {"id": 2997054, "name": "Lusigny", "country": "FR", "coord": {"lon": 3.49002, "lat": 46.58849}}, {"id": 2997052, "name": "Lusigny-sur-Barse", "country": "FR", "coord": {"lon": 4.2689, "lat": 48.254509}}, {"id": 2962769, "name": "Lusk", "country": "IE", "coord": {"lon": -6.16423, "lat": 53.527431}}, {"id": 5831333, "name": "Lusk", "country": "US", "coord": {"lon": -104.452171, "lat": 42.76247}}, {"id": 3312838, "name": "Luska", "country": "IE", "coord": {"lon": -8.26583, "lat": 52.953331}}, {"id": 8010805, "name": "Luso", "country": "PT", "coord": {"lon": -8.39286, "lat": 40.37384}}, {"id": 2738108, "name": "Luso", "country": "PT", "coord": {"lon": -8.37845, "lat": 40.384289}}, {"id": 3174425, "name": "Luson", "country": "IT", "coord": {"lon": 11.76098, "lat": 46.746231}}, {"id": 1704836, "name": "Lusong", "country": "PH", "coord": {"lon": 120.442001, "lat": 16.867001}}, {"id": 2997048, "name": "Lussac", "country": "FR", "coord": {"lon": -0.1, "lat": 44.950001}}, {"id": 2997044, "name": "Lussac-les-Chateaux", "country": "FR", "coord": {"lon": 0.72524, "lat": 46.403271}}, {"id": 6440493, "name": "Lussagnet-Lusson", "country": "FR", "coord": {"lon": -0.2, "lat": 43.433331}}, {"id": 2997041, "name": "Lussagnet-Lusson", "country": "FR", "coord": {"lon": -0.2, "lat": 43.433331}}, {"id": 6429423, "name": "Lussas-et-Nontronneau", "country": "FR", "coord": {"lon": 0.58333, "lat": 45.5}}, {"id": 2997034, "name": "Lussas-et-Nontronneau", "country": "FR", "coord": {"lon": 0.58407, "lat": 45.505569}}, {"id": 6440071, "name": "Lussat", "country": "FR", "coord": {"lon": 3.23333, "lat": 45.833328}}, {"id": 2997033, "name": "Lussat", "country": "FR", "coord": {"lon": 3.21689, "lat": 45.838089}}, {"id": 2997026, "name": "Lussolle", "country": "FR", "coord": {"lon": -0.15561, "lat": 44.095612}}, {"id": 2874987, "name": "Lussow", "country": "DE", "coord": {"lon": 12.14264, "lat": 53.838551}}, {"id": 2874984, "name": "Lussow", "country": "DE", "coord": {"lon": 13.03333, "lat": 54.283329}}, {"id": 2874979, "name": "Lust", "country": "DE", "coord": {"lon": 9.68333, "lat": 52.616669}}, {"id": 6555014, "name": "Lustadt", "country": "DE", "coord": {"lon": 8.26944, "lat": 49.250801}}, {"id": 2874978, "name": "Lustadt", "country": "DE", "coord": {"lon": 8.26944, "lat": 49.250832}}, {"id": 7872674, "name": "Lustenau", "country": "AT", "coord": {"lon": 9.67525, "lat": 47.425652}}, {"id": 2772173, "name": "Lustenau", "country": "AT", "coord": {"lon": 9.65851, "lat": 47.426418}}, {"id": 3071351, "name": "Lustenice", "country": "CZ", "coord": {"lon": 14.93667, "lat": 50.32296}}, {"id": 2874969, "name": "Lustheide", "country": "DE", "coord": {"lon": 7.11667, "lat": 50.950001}}, {"id": 2643344, "name": "Lustleigh", "country": "GB", "coord": {"lon": -3.71925, "lat": 50.618351}}, {"id": 8012727, "name": "Lustosa", "country": "PT", "coord": {"lon": -8.31312, "lat": 41.33173}}, {"id": 2738106, "name": "Lustosa", "country": "PT", "coord": {"lon": -8.31715, "lat": 41.34082}}, {"id": 3174423, "name": "Lustra", "country": "IT", "coord": {"lon": 15.06826, "lat": 40.2883}}, {"id": 3092676, "name": "Luszowice", "country": "PL", "coord": {"lon": 19.404261, "lat": 50.174149}}, {"id": 1704892, "name": "Lut-od", "country": "PH", "coord": {"lon": 123.62944, "lat": 10.25722}}, {"id": 2206066, "name": "Lutana", "country": "AU", "coord": {"lon": 147.311111, "lat": -42.836109}}, {"id": 2874958, "name": "Lutau", "country": "DE", "coord": {"lon": 10.55, "lat": 53.433331}}, {"id": 1704897, "name": "Lutayan", "country": "PH", "coord": {"lon": 124.883057, "lat": 6.62}}, {"id": 4332152, "name": "Lutcher", "country": "US", "coord": {"lon": -90.698982, "lat": 30.04048}}, {"id": 2659823, "name": "Luterbach", "country": "CH", "coord": {"lon": 8.44896, "lat": 47.08857}}, {"id": 7286398, "name": "Luterbach", "country": "CH", "coord": {"lon": 7.58677, "lat": 47.215961}}, {"id": 2659822, "name": "Luterbach", "country": "CH", "coord": {"lon": 7.58463, "lat": 47.21426}}, {"id": 2874955, "name": "Lutetsburg", "country": "DE", "coord": {"lon": 7.25, "lat": 53.599998}}, {"id": 2874937, "name": "Luthe", "country": "DE", "coord": {"lon": 9.48333, "lat": 52.433331}}, {"id": 4541984, "name": "Luther", "country": "US", "coord": {"lon": -97.195587, "lat": 35.661732}}, {"id": 6548371, "name": "Lutheran", "country": "DE", "coord": {"lon": 12, "lat": 53.450001}}, {"id": 2874936, "name": "Lutheran", "country": "DE", "coord": {"lon": 12.00119, "lat": 53.458309}}, {"id": 7286401, "name": "Luthern", "country": "CH", "coord": {"lon": 7.90784, "lat": 47.051441}}, {"id": 2659821, "name": "Luthern", "country": "CH", "coord": {"lon": 7.91692, "lat": 47.057529}}, {"id": 4361379, "name": "Lutherville", "country": "US", "coord": {"lon": -76.626083, "lat": 39.421219}}, {"id": 1801709, "name": "Lutian", "country": "CN", "coord": {"lon": 113.945107, "lat": 23.81336}}, {"id": 7328929, "name": "Lutianxiang", "country": "CN", "coord": {"lon": 116.925468, "lat": 28.94759}}, {"id": 3071350, "name": "Lutin", "country": "CZ", "coord": {"lon": 17.135719, "lat": 49.558449}}, {"id": 2659820, "name": "Lutisburg", "country": "CH", "coord": {"lon": 9.08312, "lat": 47.394508}}, {"id": 2874919, "name": "Lutjenburg", "country": "DE", "coord": {"lon": 10.58945, "lat": 54.291882}}, {"id": 2874911, "name": "Lutjenholm", "country": "DE", "coord": {"lon": 9.01667, "lat": 54.683331}}, {"id": 2874902, "name": "Lutjensee", "country": "DE", "coord": {"lon": 10.36667, "lat": 53.650002}}, {"id": 2874900, "name": "Lutjenwestedt", "country": "DE", "coord": {"lon": 9.48333, "lat": 54.133331}}, {"id": 799386, "name": "Lutkun", "country": "RU", "coord": {"lon": 47.68578, "lat": 41.480839}}, {"id": 3092669, "name": "Lutocin", "country": "PL", "coord": {"lon": 19.76655, "lat": 52.981522}}, {"id": 3092657, "name": "Lutomiersk", "country": "PL", "coord": {"lon": 19.21097, "lat": 51.753761}}, {"id": 2643339, "name": "Luton", "country": "GB", "coord": {"lon": -0.41748, "lat": 51.879669}}, {"id": 765683, "name": "Lutoryz", "country": "PL", "coord": {"lon": 21.912399, "lat": 49.967121}}, {"id": 533182, "name": "Lutoshkino", "country": "RU", "coord": {"lon": 38.046944, "lat": 55.400002}}, {"id": 2874877, "name": "Lutow", "country": "DE", "coord": {"lon": 13.88333, "lat": 54.01667}}, {"id": 765681, "name": "Lutowiska", "country": "PL", "coord": {"lon": 22.69252, "lat": 49.253181}}, {"id": 7286403, "name": "Lutry", "country": "CH", "coord": {"lon": 6.69902, "lat": 46.515079}}, {"id": 2659819, "name": "Lutry", "country": "CH", "coord": {"lon": 6.68647, "lat": 46.502411}}, {"id": 702569, "name": "Lutsk", "country": "UA", "coord": {"lon": 25.34244, "lat": 50.759319}}, {"id": 2874857, "name": "Lutten", "country": "DE", "coord": {"lon": 8.34309, "lat": 52.762581}}, {"id": 6549800, "name": "Lutter", "country": "DE", "coord": {"lon": 10.1167, "lat": 51.333302}}, {"id": 2874842, "name": "Lutter", "country": "DE", "coord": {"lon": 10.11667, "lat": 51.333328}}, {"id": 2874832, "name": "Lutter am Barenberge", "country": "DE", "coord": {"lon": 10.2693, "lat": 51.989429}}, {"id": 6558862, "name": "Lutter am Barenberge, Flecken", "country": "DE", "coord": {"lon": 10.2667, "lat": 51.983299}}, {"id": 2997010, "name": "Lutterbach", "country": "FR", "coord": {"lon": 7.27695, "lat": 47.75835}}, {"id": 6551753, "name": "Lutterbek", "country": "DE", "coord": {"lon": 10.2833, "lat": 54.400002}}, {"id": 2874828, "name": "Lutterbek", "country": "DE", "coord": {"lon": 10.28333, "lat": 54.400002}}, {"id": 2874826, "name": "Lutterberg", "country": "DE", "coord": {"lon": 9.6145, "lat": 51.373119}}, {"id": 2874823, "name": "Lutterhausen", "country": "DE", "coord": {"lon": 9.85, "lat": 51.650002}}, {"id": 2874821, "name": "Lutterloh", "country": "DE", "coord": {"lon": 10.21231, "lat": 52.827969}}, {"id": 2643337, "name": "Lutterworth", "country": "GB", "coord": {"lon": -1.20218, "lat": 52.456341}}, {"id": 2874801, "name": "Luttingen", "country": "DE", "coord": {"lon": 8.09847, "lat": 47.572559}}, {"id": 2874789, "name": "Luttow", "country": "DE", "coord": {"lon": 13.28333, "lat": 54.349998}}, {"id": 4638738, "name": "Luttrell", "country": "US", "coord": {"lon": -83.741852, "lat": 36.199532}}, {"id": 702563, "name": "Lutugino", "country": "UA", "coord": {"lon": 39.226749, "lat": 48.405071}}, {"id": 2053181, "name": "Lutun", "country": "CN", "coord": {"lon": 122.189362, "lat": 40.263988}}, {"id": 3092646, "name": "Lututow", "country": "PL", "coord": {"lon": 18.434799, "lat": 51.370331}}, {"id": 2874778, "name": "Lutz", "country": "DE", "coord": {"lon": 7.35, "lat": 50.166672}}, {"id": 4163033, "name": "Lutz", "country": "US", "coord": {"lon": -82.461479, "lat": 28.151119}}, {"id": 2874768, "name": "Lutzelbach", "country": "DE", "coord": {"lon": 8.7675, "lat": 49.7425}}, {"id": 3278304, "name": "Lutzelbach", "country": "DE", "coord": {"lon": 9.07528, "lat": 49.78833}}, {"id": 2659814, "name": "Lutzelfluh", "country": "CH", "coord": {"lon": 7.69165, "lat": 47.007568}}, {"id": 6441209, "name": "Lutzelhouse", "country": "FR", "coord": {"lon": 7.28333, "lat": 48.51667}}, {"id": 2997007, "name": "Lutzelhouse", "country": "FR", "coord": {"lon": 7.28609, "lat": 48.51963}}, {"id": 2874747, "name": "Lutzen", "country": "DE", "coord": {"lon": 12.14164, "lat": 51.25671}}, {"id": 6553705, "name": "Lutzerath", "country": "DE", "coord": {"lon": 7, "lat": 50.133301}}, {"id": 2874728, "name": "Lutzerath", "country": "DE", "coord": {"lon": 7, "lat": 50.133331}}, {"id": 6551699, "name": "Lutzhorn", "country": "DE", "coord": {"lon": 9.76667, "lat": 53.833302}}, {"id": 2874721, "name": "Lutzhorn", "country": "DE", "coord": {"lon": 9.76667, "lat": 53.833328}}, {"id": 6557163, "name": "Lutzingen", "country": "DE", "coord": {"lon": 10.55, "lat": 48.650002}}, {"id": 2874719, "name": "Lutzingen", "country": "DE", "coord": {"lon": 10.55, "lat": 48.650002}}, {"id": 2874716, "name": "Lutzkampen", "country": "DE", "coord": {"lon": 6.18333, "lat": 50.150002}}, {"id": 7872728, "name": "Lutzmannsburg", "country": "AT", "coord": {"lon": 16.634541, "lat": 47.46817}}, {"id": 2772168, "name": "Lutzmannsburg", "country": "AT", "coord": {"lon": 16.633329, "lat": 47.466671}}, {"id": 2874710, "name": "Lutzow", "country": "DE", "coord": {"lon": 11.18333, "lat": 53.650002}}, {"id": 1704876, "name": "Luuk Datan", "country": "PH", "coord": {"lon": 119.845284, "lat": 4.81194}}, {"id": 8051538, "name": "Luuka Town", "country": "UG", "coord": {"lon": 33.300201, "lat": 0.70076}}, {"id": 647288, "name": "Luumaki", "country": "FI", "coord": {"lon": 27.58135, "lat": 60.926182}}, {"id": 647289, "name": "Luum\u00e4ki", "country": "FI", "coord": {"lon": 27.58333, "lat": 60.916672}}, {"id": 590468, "name": "Luunja", "country": "EE", "coord": {"lon": 26.880831, "lat": 58.355831}}, {"id": 7522334, "name": "Luunja vald", "country": "EE", "coord": {"lon": 26.95574, "lat": 58.391781}}, {"id": 54715, "name": "Luuq", "country": "SO", "coord": {"lon": 42.544498, "lat": 3.79376}}, {"id": 5036062, "name": "Luverne", "country": "US", "coord": {"lon": -96.212807, "lat": 43.65414}}, {"id": 4073985, "name": "Luverne", "country": "US", "coord": {"lon": -86.263847, "lat": 31.716551}}, {"id": 647261, "name": "Luvia", "country": "FI", "coord": {"lon": 21.66667, "lat": 61.383331}}, {"id": 647260, "name": "Luvia", "country": "FI", "coord": {"lon": 21.625561, "lat": 61.36375}}, {"id": 3997000, "name": "Luvianos", "country": "MX", "coord": {"lon": -100.400002, "lat": 18.91667}}, {"id": 6543094, "name": "Luvinate", "country": "IT", "coord": {"lon": 8.77193, "lat": 45.839581}}, {"id": 6535108, "name": "Luvinate", "country": "IT", "coord": {"lon": 8.77193, "lat": 45.839581}}, {"id": 2659813, "name": "Luvis", "country": "CH", "coord": {"lon": 9.19853, "lat": 46.76112}}, {"id": 1801696, "name": "Luwan", "country": "CN", "coord": {"lon": 121.463348, "lat": 31.20908}}, {"id": 2035897, "name": "Luwang", "country": "CN", "coord": {"lon": 122.872917, "lat": 40.399712}}, {"id": 229746, "name": "Luwero", "country": "UG", "coord": {"lon": 32.473061, "lat": 0.84917}}, {"id": 443350, "name": "Luwero District", "country": "UG", "coord": {"lon": 32.5, "lat": 0.83}}, {"id": 908913, "name": "Luwingu", "country": "ZM", "coord": {"lon": 29.92712, "lat": -10.2621}}, {"id": 1637001, "name": "Luwuk", "country": "ID", "coord": {"lon": 122.787498, "lat": -0.9516}}, {"id": 7038876, "name": "Luwus", "country": "ID", "coord": {"lon": 115.195602, "lat": -8.3984}}, {"id": 6553768, "name": "Luxem", "country": "DE", "coord": {"lon": 7.1, "lat": 50.333302}}, {"id": 2874702, "name": "Luxem", "country": "DE", "coord": {"lon": 7.1, "lat": 50.333328}}, {"id": 2960316, "name": "Luxembourg", "country": "LU", "coord": {"lon": 6.13, "lat": 49.611671}}, {"id": 5261340, "name": "Luxemburg", "country": "US", "coord": {"lon": -87.703979, "lat": 44.538609}}, {"id": 2996995, "name": "Luxeuil-les-Bains", "country": "FR", "coord": {"lon": 6.365, "lat": 47.817101}}, {"id": 6433877, "name": "Luxey", "country": "FR", "coord": {"lon": -0.51667, "lat": 44.26667}}, {"id": 2996994, "name": "Luxey", "country": "FR", "coord": {"lon": -0.52116, "lat": 44.263149}}, {"id": 1801688, "name": "Luxi", "country": "CN", "coord": {"lon": 117.506523, "lat": 29.707359}}, {"id": 1801689, "name": "Luxi", "country": "CN", "coord": {"lon": 114.035294, "lat": 27.636181}}, {"id": 1917000, "name": "Luxi", "country": "CN", "coord": {"lon": 114.274399, "lat": 23.562679}}, {"id": 7746311, "name": "Luxi", "country": "CN", "coord": {"lon": 115.233177, "lat": 29.434799}}, {"id": 1801684, "name": "Luxia", "country": "CN", "coord": {"lon": 118.80722, "lat": 26.93}}, {"id": 1914358, "name": "Luxia", "country": "CN", "coord": {"lon": 118.296112, "lat": 26.49004}}, {"id": 1801682, "name": "Luxiang", "country": "CN", "coord": {"lon": 121.170097, "lat": 30.829849}}, {"id": 360502, "name": "Luxor", "country": "EG", "coord": {"lon": 32.642101, "lat": 25.698931}}, {"id": 4120104, "name": "Luxora", "country": "US", "coord": {"lon": -89.928139, "lat": 35.756191}}, {"id": 1816338, "name": "Luxu", "country": "CN", "coord": {"lon": 108.802162, "lat": 23.22378}}, {"id": 3117782, "name": "Luyando", "country": "ES", "coord": {"lon": -2.99729, "lat": 43.101601}}, {"id": 4566110, "name": "Luyando", "country": "PR", "coord": {"lon": -67.157402, "lat": 18.364389}}, {"id": 1801669, "name": "Luyang", "country": "CN", "coord": {"lon": 110.098892, "lat": 27.62389}}, {"id": 1801738, "name": "Luyang", "country": "CN", "coord": {"lon": 112.905083, "lat": 33.735641}}, {"id": 2035896, "name": "Luyang", "country": "CN", "coord": {"lon": 121.666321, "lat": 41.38192}}, {"id": 6358633, "name": "Luyego", "country": "ES", "coord": {"lon": -6.23714, "lat": 42.347691}}, {"id": 3117781, "name": "Luyego", "country": "ES", "coord": {"lon": -6.23333, "lat": 42.366669}}, {"id": 1908861, "name": "Luyi", "country": "CN", "coord": {"lon": 112.047188, "lat": 33.10062}}, {"id": 2996986, "name": "Luynes", "country": "FR", "coord": {"lon": 0.5547, "lat": 47.384411}}, {"id": 1801654, "name": "Luyuan", "country": "CN", "coord": {"lon": 109.085083, "lat": 34.535961}}, {"id": 3458333, "name": "Luz", "country": "BR", "coord": {"lon": -45.685558, "lat": -19.80139}}, {"id": 2266938, "name": "Luz", "country": "PT", "coord": {"lon": -7.70433, "lat": 37.092159}}, {"id": 2996959, "name": "Luz-Saint-Sauveur", "country": "FR", "coord": {"lon": -0.00322, "lat": 42.87191}}, {"id": 533143, "name": "Luza", "country": "RU", "coord": {"lon": 47.251179, "lat": 60.630821}}, {"id": 6357937, "name": "Luzaga", "country": "ES", "coord": {"lon": -2.44975, "lat": 40.965759}}, {"id": 3117779, "name": "Luzaga", "country": "ES", "coord": {"lon": -2.44497, "lat": 40.973381}}, {"id": 3107060, "name": "Luzaide", "country": "ES", "coord": {"lon": -1.3, "lat": 43.099998}}, {"id": 6359795, "name": "Luzaide/Valcarlos", "country": "ES", "coord": {"lon": -1.30466, "lat": 43.067909}}, {"id": 3196000, "name": "Luzani", "country": "HR", "coord": {"lon": 17.70694, "lat": 45.16806}}, {"id": 2996982, "name": "Luzarches", "country": "FR", "coord": {"lon": 2.4223, "lat": 49.11319}}, {"id": 3071339, "name": "Luze", "country": "CZ", "coord": {"lon": 16.0285, "lat": 49.89341}}, {"id": 3071333, "name": "Luzec nad Vltavou", "country": "CZ", "coord": {"lon": 14.40022, "lat": 50.321381}}, {"id": 2996978, "name": "Luzech", "country": "FR", "coord": {"lon": 1.28704, "lat": 44.47818}}, {"id": 2659812, "name": "Luzein", "country": "CH", "coord": {"lon": 9.7608, "lat": 46.919571}}, {"id": 7286409, "name": "Luzern", "country": "CH", "coord": {"lon": 8.32518, "lat": 47.047138}}, {"id": 2659811, "name": "Luzern", "country": "CH", "coord": {"lon": 8.30635, "lat": 47.05048}}, {"id": 3458330, "name": "Luzerna", "country": "BR", "coord": {"lon": -51.46722, "lat": -27.13278}}, {"id": 4559367, "name": "Luzerne", "country": "US", "coord": {"lon": -79.96283, "lat": 39.999241}}, {"id": 5199308, "name": "Luzerne", "country": "US", "coord": {"lon": -75.901031, "lat": 41.285641}}, {"id": 5199309, "name": "Luzerne County", "country": "US", "coord": {"lon": -76.249931, "lat": 41.375359}}, {"id": 1801650, "name": "Luzhai", "country": "CN", "coord": {"lon": 109.733147, "lat": 24.49754}}, {"id": 1280659, "name": "Luzhang", "country": "CN", "coord": {"lon": 98.823448, "lat": 25.973089}}, {"id": 702557, "name": "Luzhany", "country": "UA", "coord": {"lon": 25.77173, "lat": 48.364922}}, {"id": 1801645, "name": "Luzhi", "country": "CN", "coord": {"lon": 120.868889, "lat": 31.27389}}, {"id": 533106, "name": "Luzhki", "country": "RU", "coord": {"lon": 39.33889, "lat": 54.667778}}, {"id": 6423267, "name": "Luzhki", "country": "RU", "coord": {"lon": 41.779446, "lat": 56.824444}}, {"id": 533097, "name": "Luzhki", "country": "RU", "coord": {"lon": 36.964443, "lat": 55.852222}}, {"id": 533104, "name": "Luzhki", "country": "RU", "coord": {"lon": 37.554298, "lat": 54.858639}}, {"id": 533072, "name": "Luzhna", "country": "RU", "coord": {"lon": 36.083328, "lat": 53.01667}}, {"id": 533067, "name": "Luzhniki", "country": "RU", "coord": {"lon": 37.553761, "lat": 55.715992}}, {"id": 1801640, "name": "Luzhou", "country": "CN", "coord": {"lon": 105.440491, "lat": 28.872391}}, {"id": 7005968, "name": "Luzhou", "country": "CN", "coord": {"lon": 114.522133, "lat": 23.369341}}, {"id": 7690139, "name": "Luzhou", "country": "CN", "coord": {"lon": 114.837891, "lat": 28.20697}}, {"id": 3458329, "name": "Luziania", "country": "BR", "coord": {"lon": -47.950279, "lat": -16.252501}}, {"id": 3071330, "name": "Luzice", "country": "CZ", "coord": {"lon": 17.071039, "lat": 48.840981}}, {"id": 3396101, "name": "Luzilandia", "country": "BR", "coord": {"lon": -42.370281, "lat": -3.45778}}, {"id": 2996963, "name": "Luzinay", "country": "FR", "coord": {"lon": 4.95829, "lat": 45.588951}}, {"id": 1500207, "name": "Luzino", "country": "RU", "coord": {"lon": 73.035309, "lat": 54.948109}}, {"id": 3092643, "name": "Luzino", "country": "PL", "coord": {"lon": 18.10907, "lat": 54.56604}}, {"id": 3117777, "name": "Luzmela", "country": "ES", "coord": {"lon": -4.20884, "lat": 43.296848}}, {"id": 765673, "name": "Luzna", "country": "PL", "coord": {"lon": 21.04637, "lat": 49.712879}}, {"id": 3071319, "name": "Luzna", "country": "CZ", "coord": {"lon": 13.77004, "lat": 50.123772}}, {"id": 3117776, "name": "Luzon", "country": "ES", "coord": {"lon": -2.27691, "lat": 41.026909}}, {"id": 1704845, "name": "Luzon", "country": "PH", "coord": {"lon": 126.094078, "lat": 6.51904}}, {"id": 3845350, "name": "Luzuriaga", "country": "AR", "coord": {"lon": -68.816673, "lat": -32.950001}}, {"id": 2996957, "name": "Luzy", "country": "FR", "coord": {"lon": 3.97036, "lat": 46.790112}}, {"id": 3174418, "name": "Luzzana", "country": "IT", "coord": {"lon": 9.88316, "lat": 45.716179}}, {"id": 3174416, "name": "Luzzara", "country": "IT", "coord": {"lon": 10.69039, "lat": 44.957569}}, {"id": 6537671, "name": "Luzzi", "country": "IT", "coord": {"lon": 16.28829, "lat": 39.446098}}, {"id": 2524352, "name": "Luzzi", "country": "IT", "coord": {"lon": 16.28829, "lat": 39.446098}}, {"id": 6357938, "name": "Luz\u00f3n", "country": "ES", "coord": {"lon": -2.27394, "lat": 41.03371}}, {"id": 1043298, "name": "Lu\u00edee", "country": "MZ", "coord": {"lon": 33.176392, "lat": -15.90389}}, {"id": 3396116, "name": "Lu\u00eds Gomes", "country": "BR", "coord": {"lon": -38.388611, "lat": -6.41389}}, {"id": 1802206, "name": "Lu\u2019an", "country": "CN", "coord": {"lon": 116.491386, "lat": 31.756941}}, {"id": 702550, "name": "Lviv", "country": "UA", "coord": {"lon": 24.023239, "lat": 49.838261}}, {"id": 533008, "name": "Lvovskiy", "country": "RU", "coord": {"lon": 37.515831, "lat": 55.314171}}, {"id": 229630, "name": "Lwengo", "country": "UG", "coord": {"lon": 31.40806, "lat": -0.41611}}, {"id": 3092639, "name": "Lwowek", "country": "PL", "coord": {"lon": 16.181061, "lat": 52.447979}}, {"id": 3092638, "name": "Lwowek Slaski", "country": "PL", "coord": {"lon": 15.58582, "lat": 51.110741}}, {"id": 7533128, "name": "Lw\u00f3wek \u015al\u0105ski", "country": "PL", "coord": {"lon": 15.5866, "lat": 51.111118}}, {"id": 625777, "name": "Lyady", "country": "BY", "coord": {"lon": 31.172222, "lat": 54.602779}}, {"id": 625772, "name": "Lyakhavichy", "country": "BY", "coord": {"lon": 26.2656, "lat": 53.038799}}, {"id": 532936, "name": "Lyakhi", "country": "RU", "coord": {"lon": 41.925556, "lat": 55.335556}}, {"id": 532928, "name": "Lyakhovitsy", "country": "RU", "coord": {"lon": 40.616669, "lat": 56.416668}}, {"id": 2159346, "name": "Lyal", "country": "AU", "coord": {"lon": 144.483337, "lat": -36.950001}}, {"id": 2020644, "name": "Lyalichi", "country": "RU", "coord": {"lon": 132.38472, "lat": 44.071945}}, {"id": 532895, "name": "Lyambir", "country": "RU", "coord": {"lon": 45.124939, "lat": 54.281719}}, {"id": 532887, "name": "Lyamino", "country": "RU", "coord": {"lon": 57.724998, "lat": 58.283901}}, {"id": 532867, "name": "Lyamtsino", "country": "RU", "coord": {"lon": 37.882629, "lat": 55.382431}}, {"id": 532860, "name": "Lyangasovo", "country": "RU", "coord": {"lon": 49.447182, "lat": 58.51759}}, {"id": 229599, "name": "Lyantonde", "country": "UG", "coord": {"lon": 31.157221, "lat": -0.40306}}, {"id": 1541359, "name": "Lyantor", "country": "RU", "coord": {"lon": 72.155457, "lat": 61.61945}}, {"id": 532834, "name": "Lyapuny", "country": "RU", "coord": {"lon": 44.985222, "lat": 55.988991}}, {"id": 532830, "name": "Lyashchi", "country": "RU", "coord": {"lon": 31.200001, "lat": 54.583332}}, {"id": 532825, "name": "Lyaskelya", "country": "RU", "coord": {"lon": 31.01667, "lat": 61.76667}}, {"id": 729489, "name": "Lyaskovets", "country": "BG", "coord": {"lon": 25.728331, "lat": 43.111111}}, {"id": 8247407, "name": "Lyasny", "country": "BY", "coord": {"lon": 27.696301, "lat": 54.007198}}, {"id": 2996953, "name": "Lyaud", "country": "FR", "coord": {"lon": 6.52868, "lat": 46.33662}}, {"id": 626095, "name": "Lyawki", "country": "BY", "coord": {"lon": 28.049999, "lat": 53.200001}}, {"id": 6610271, "name": "Lyazgino", "country": "RU", "coord": {"lon": 42.810001, "lat": 56.66}}, {"id": 2874695, "name": "Lychen", "country": "DE", "coord": {"lon": 13.3, "lat": 53.200001}}, {"id": 6422657, "name": "Lych\u00ebvo", "country": "RU", "coord": {"lon": 41.436668, "lat": 56.500832}}, {"id": 532794, "name": "Lych\u00ebvo", "country": "RU", "coord": {"lon": 39.433334, "lat": 56.383331}}, {"id": 2693347, "name": "Lycksele", "country": "SE", "coord": {"lon": 18.67351, "lat": 64.595367}}, {"id": 2693346, "name": "Lycksele Kommun", "country": "SE", "coord": {"lon": 18.16667, "lat": 64.599998}}, {"id": 5199318, "name": "Lycoming County", "country": "US", "coord": {"lon": -77.499977, "lat": 41.500351}}, {"id": 2643329, "name": "Lydbrook", "country": "GB", "coord": {"lon": -2.57818, "lat": 51.837631}}, {"id": 2643327, "name": "Lydd", "country": "GB", "coord": {"lon": 0.9074, "lat": 50.952259}}, {"id": 981158, "name": "Lydenburg", "country": "ZA", "coord": {"lon": 30.459669, "lat": -25.097799}}, {"id": 2643323, "name": "Lydham", "country": "GB", "coord": {"lon": -2.9797, "lat": 52.514759}}, {"id": 5445900, "name": "Lydia", "country": "US", "coord": {"lon": -101.29155, "lat": 38.278351}}, {"id": 2643321, "name": "Lydiard Tregoze", "country": "GB", "coord": {"lon": -1.85, "lat": 51.549999}}, {"id": 2643318, "name": "Lydney", "country": "GB", "coord": {"lon": -2.52605, "lat": 51.725979}}, {"id": 626188, "name": "Lyelchytsy", "country": "BY", "coord": {"lon": 28.3288, "lat": 51.786201}}, {"id": 908734, "name": "Lyembo", "country": "ZM", "coord": {"lon": 28.23333, "lat": -14.23333}}, {"id": 625743, "name": "Lyepyel", "country": "BY", "coord": {"lon": 28.69323, "lat": 54.881432}}, {"id": 8247406, "name": "Lyeskawka", "country": "BY", "coord": {"lon": 27.7108, "lat": 54.002399}}, {"id": 4708403, "name": "Lyford", "country": "US", "coord": {"lon": -97.789719, "lat": 26.412291}}, {"id": 868740, "name": "Lygotkh", "country": "RU", "coord": {"lon": 39.358612, "lat": 44.006111}}, {"id": 5199324, "name": "Lykens", "country": "US", "coord": {"lon": -76.700523, "lat": 40.56675}}, {"id": 6554062, "name": "Lykershausen", "country": "DE", "coord": {"lon": 7.66667, "lat": 50.200001}}, {"id": 2874690, "name": "Lykershausen", "country": "DE", "coord": {"lon": 7.66667, "lat": 50.200001}}, {"id": 703079, "name": "Lykhivka", "country": "UA", "coord": {"lon": 33.922791, "lat": 48.687351}}, {"id": 625742, "name": "Lykovichi", "country": "BY", "coord": {"lon": 26.283333, "lat": 53.516666}}, {"id": 258332, "name": "Lykovrysi", "country": "GR", "coord": {"lon": 23.783331, "lat": 38.066669}}, {"id": 6062256, "name": "Lyleton", "country": "CA", "coord": {"lon": -101.178673, "lat": 49.057838}}, {"id": 703071, "name": "Lyman", "country": "UA", "coord": {"lon": 36.46711, "lat": 49.594799}}, {"id": 4434459, "name": "Lyman", "country": "US", "coord": {"lon": -89.12561, "lat": 30.49474}}, {"id": 4585988, "name": "Lyman", "country": "US", "coord": {"lon": -82.127327, "lat": 34.94817}}, {"id": 5831346, "name": "Lyman", "country": "US", "coord": {"lon": -110.292931, "lat": 41.32745}}, {"id": 5229494, "name": "Lyman County", "country": "US", "coord": {"lon": -99.875389, "lat": 43.933319}}, {"id": 703061, "name": "Lymanske", "country": "UA", "coord": {"lon": 29.96722, "lat": 46.655701}}, {"id": 146362, "name": "Lymbia", "country": "CY", "coord": {"lon": 33.462502, "lat": 35}}, {"id": 5089108, "name": "Lyme", "country": "US", "coord": {"lon": -72.155922, "lat": 43.809509}}, {"id": 2643314, "name": "Lyme Regis", "country": "GB", "coord": {"lon": -2.93477, "lat": 50.72654}}, {"id": 7648916, "name": "Lyme Town Offices", "country": "US", "coord": {"lon": -72.149422, "lat": 43.81525}}, {"id": 2643313, "name": "Lyminge", "country": "GB", "coord": {"lon": 1.08896, "lat": 51.129509}}, {"id": 2643312, "name": "Lymington", "country": "GB", "coord": {"lon": -1.5443, "lat": 50.757671}}, {"id": 2643309, "name": "Lymm", "country": "GB", "coord": {"lon": -2.47763, "lat": 53.38105}}, {"id": 5125523, "name": "Lynbrook", "country": "US", "coord": {"lon": -73.671799, "lat": 40.654831}}, {"id": 3430975, "name": "Lynch", "country": "AR", "coord": {"lon": -58.524929, "lat": -34.59256}}, {"id": 4771075, "name": "Lynchburg", "country": "US", "coord": {"lon": -79.14225, "lat": 37.41375}}, {"id": 4434465, "name": "Lynchburg", "country": "US", "coord": {"lon": -90.095932, "lat": 34.962318}}, {"id": 4434466, "name": "Lynchburg", "country": "US", "coord": {"lon": -90.548988, "lat": 32.44014}}, {"id": 4517264, "name": "Lynchburg", "country": "US", "coord": {"lon": -83.791313, "lat": 39.24173}}, {"id": 4638782, "name": "Lynchburg", "country": "US", "coord": {"lon": -86.374161, "lat": 35.283138}}, {"id": 5125529, "name": "Lyncourt", "country": "US", "coord": {"lon": -76.125763, "lat": 43.081459}}, {"id": 5089118, "name": "Lyndeborough", "country": "US", "coord": {"lon": -71.766457, "lat": 42.907581}}, {"id": 5802035, "name": "Lynden", "country": "US", "coord": {"lon": -122.45211, "lat": 48.946499}}, {"id": 7258899, "name": "Lyndhurst", "country": "US", "coord": {"lon": -74.110184, "lat": 40.796589}}, {"id": 2159318, "name": "Lyndhurst", "country": "AU", "coord": {"lon": 145.25, "lat": -38.049999}}, {"id": 2067335, "name": "Lyndhurst", "country": "AU", "coord": {"lon": 138.350006, "lat": -30.283331}}, {"id": 981139, "name": "Lyndhurst", "country": "ZA", "coord": {"lon": 28.109051, "lat": -26.12752}}, {"id": 5100706, "name": "Lyndhurst", "country": "US", "coord": {"lon": -74.124313, "lat": 40.812038}}, {"id": 2643304, "name": "Lyndhurst", "country": "GB", "coord": {"lon": -1.57662, "lat": 50.872589}}, {"id": 4771100, "name": "Lyndhurst", "country": "US", "coord": {"lon": -78.945023, "lat": 38.029301}}, {"id": 5161493, "name": "Lyndhurst", "country": "US", "coord": {"lon": -81.488731, "lat": 41.52005}}, {"id": 2067333, "name": "Lyndoch", "country": "AU", "coord": {"lon": 138.883331, "lat": -34.616669}}, {"id": 4274906, "name": "Lyndon", "country": "US", "coord": {"lon": -95.684433, "lat": 38.610008}}, {"id": 4299562, "name": "Lyndon", "country": "US", "coord": {"lon": -85.601631, "lat": 38.256741}}, {"id": 5238190, "name": "Lyndon", "country": "US", "coord": {"lon": -72.010933, "lat": 44.514221}}, {"id": 5238203, "name": "Lyndonville", "country": "US", "coord": {"lon": -72.003151, "lat": 44.533669}}, {"id": 2643298, "name": "Lyneham", "country": "GB", "coord": {"lon": -1.96667, "lat": 51.51667}}, {"id": 3210207, "name": "Lynemouth", "country": "GB", "coord": {"lon": -1.5425, "lat": 55.213058}}, {"id": 7300087, "name": "Lynesack and Softley", "country": "GB", "coord": {"lon": -1.85208, "lat": 54.63538}}, {"id": 2617227, "name": "Lyngby-T\u00e5rb\u00e6k Kommune", "country": "DK", "coord": {"lon": 12.50508, "lat": 55.784561}}, {"id": 3146684, "name": "Lyngdal", "country": "NO", "coord": {"lon": 7.07002, "lat": 58.1376}}, {"id": 2617220, "name": "Lynge", "country": "DK", "coord": {"lon": 12.27725, "lat": 55.839409}}, {"id": 2617211, "name": "Lyngs", "country": "DK", "coord": {"lon": 8.45206, "lat": 56.665741}}, {"id": 778829, "name": "Lyngseidet", "country": "NO", "coord": {"lon": 20.21887, "lat": 69.576286}}, {"id": 2693313, "name": "Lyngsj\u00f6", "country": "SE", "coord": {"lon": 14.06667, "lat": 55.933331}}, {"id": 6062326, "name": "Lynn", "country": "CA", "coord": {"lon": -64.098747, "lat": 45.466862}}, {"id": 4207192, "name": "Lynn", "country": "US", "coord": {"lon": -84.614922, "lat": 30.980459}}, {"id": 4942807, "name": "Lynn", "country": "US", "coord": {"lon": -70.949493, "lat": 42.466759}}, {"id": 4923096, "name": "Lynn", "country": "US", "coord": {"lon": -84.93969, "lat": 40.04977}}, {"id": 5525637, "name": "Lynn County", "country": "US", "coord": {"lon": -101.833771, "lat": 33.166759}}, {"id": 4163049, "name": "Lynn Haven", "country": "US", "coord": {"lon": -85.648262, "lat": 30.24548}}, {"id": 6062333, "name": "Lynn Lake", "country": "CA", "coord": {"lon": -101.04734, "lat": 56.85194}}, {"id": 7234710, "name": "Lynn Mobile Manor", "country": "US", "coord": {"lon": -80.676941, "lat": 40.884171}}, {"id": 4942821, "name": "Lynnfield", "country": "US", "coord": {"lon": -71.048111, "lat": 42.538979}}, {"id": 981117, "name": "Lynnwood", "country": "ZA", "coord": {"lon": 28.26506, "lat": -25.759741}}, {"id": 5802049, "name": "Lynnwood", "country": "US", "coord": {"lon": -122.315132, "lat": 47.82093}}, {"id": 7258901, "name": "Lynnwood-Pricedale", "country": "US", "coord": {"lon": -79.851349, "lat": 40.130711}}, {"id": 625737, "name": "Lyntupy", "country": "BY", "coord": {"lon": 26.31073, "lat": 55.049431}}, {"id": 5369367, "name": "Lynwood", "country": "US", "coord": {"lon": -118.211456, "lat": 33.93029}}, {"id": 4900739, "name": "Lynwood", "country": "US", "coord": {"lon": -87.538651, "lat": 41.526421}}, {"id": 4900740, "name": "Lynwood", "country": "US", "coord": {"lon": -88.393677, "lat": 41.68364}}, {"id": 6454573, "name": "Lyon", "country": "FR", "coord": {"lon": 4.83107, "lat": 45.7686}}, {"id": 2996944, "name": "Lyon", "country": "FR", "coord": {"lon": 4.84671, "lat": 45.748459}}, {"id": 5507669, "name": "Lyon County", "country": "US", "coord": {"lon": -119.126259, "lat": 39.000198}}, {"id": 4274916, "name": "Lyon County", "country": "US", "coord": {"lon": -96.150269, "lat": 38.450008}}, {"id": 4865744, "name": "Lyon County", "country": "US", "coord": {"lon": -96.250862, "lat": 43.383308}}, {"id": 5036131, "name": "Lyon County", "country": "US", "coord": {"lon": -95.850304, "lat": 44.41663}}, {"id": 4207205, "name": "Lyons", "country": "US", "coord": {"lon": -82.321793, "lat": 32.20435}}, {"id": 4274927, "name": "Lyons", "country": "US", "coord": {"lon": -98.201729, "lat": 38.345009}}, {"id": 4900749, "name": "Lyons", "country": "US", "coord": {"lon": -87.818108, "lat": 41.81337}}, {"id": 5125554, "name": "Lyons", "country": "US", "coord": {"lon": -76.99025, "lat": 43.064232}}, {"id": 5579453, "name": "Lyons", "country": "US", "coord": {"lon": -105.271378, "lat": 40.224709}}, {"id": 5738587, "name": "Lyons", "country": "US", "coord": {"lon": -122.615089, "lat": 44.77457}}, {"id": 2159296, "name": "Lyonville", "country": "AU", "coord": {"lon": 144.266663, "lat": -37.383331}}, {"id": 626064, "name": "Lyozna", "country": "BY", "coord": {"lon": 30.795561, "lat": 55.02486}}, {"id": 703042, "name": "Lypcha", "country": "UA", "coord": {"lon": 23.38336, "lat": 48.261082}}, {"id": 703017, "name": "Lypnyazhka", "country": "UA", "coord": {"lon": 31.076111, "lat": 48.446941}}, {"id": 703015, "name": "Lypova Dolyna", "country": "UA", "coord": {"lon": 33.797932, "lat": 50.564281}}, {"id": 2159292, "name": "Lyrup", "country": "AU", "coord": {"lon": 140.649994, "lat": -34.26667}}, {"id": 2996927, "name": "Lys-lez-Lannoy", "country": "FR", "coord": {"lon": 3.21667, "lat": 50.666672}}, {"id": 702507, "name": "Lysa Hora", "country": "UA", "coord": {"lon": 31.10994, "lat": 48.170589}}, {"id": 3071304, "name": "Lysa nad Labem", "country": "CZ", "coord": {"lon": 14.83281, "lat": 50.201431}}, {"id": 3146631, "name": "Lysaker", "country": "NO", "coord": {"lon": 10.63545, "lat": 59.909939}}, {"id": 532729, "name": "Lysaya Gora", "country": "RU", "coord": {"lon": 45.953888, "lat": 56.107777}}, {"id": 532731, "name": "Lysaya Gora", "country": "RU", "coord": {"lon": 44.020401, "lat": 54.4907}}, {"id": 765642, "name": "Lyse", "country": "PL", "coord": {"lon": 21.564871, "lat": 53.364429}}, {"id": 2693301, "name": "Lysekil", "country": "SE", "coord": {"lon": 11.43576, "lat": 58.274288}}, {"id": 3071302, "name": "Lysice", "country": "CZ", "coord": {"lon": 16.537161, "lat": 49.451599}}, {"id": 3092622, "name": "Lyski", "country": "PL", "coord": {"lon": 18.39146, "lat": 50.119919}}, {"id": 532715, "name": "Lyskovo", "country": "RU", "coord": {"lon": 45.042198, "lat": 56.032822}}, {"id": 532706, "name": "Lysogorskaya", "country": "RU", "coord": {"lon": 43.275558, "lat": 44.106392}}, {"id": 3092618, "name": "Lysomice", "country": "PL", "coord": {"lon": 18.62002, "lat": 53.086288}}, {"id": 7286410, "name": "Lyss", "country": "CH", "coord": {"lon": 7.31655, "lat": 47.07653}}, {"id": 2659808, "name": "Lyss", "country": "CH", "coord": {"lon": 7.30655, "lat": 47.0741}}, {"id": 7286411, "name": "Lyssach", "country": "CH", "coord": {"lon": 7.57866, "lat": 47.066711}}, {"id": 2659807, "name": "Lyssach", "country": "CH", "coord": {"lon": 7.58228, "lat": 47.064449}}, {"id": 2159291, "name": "Lysterfield", "country": "AU", "coord": {"lon": 145.300003, "lat": -37.933331}}, {"id": 2617176, "name": "Lystrup", "country": "DK", "coord": {"lon": 10.23778, "lat": 56.237499}}, {"id": 2617179, "name": "Lystrup", "country": "DK", "coord": {"lon": 12.24028, "lat": 55.36055}}, {"id": 532675, "name": "Lysva", "country": "RU", "coord": {"lon": 57.805279, "lat": 58.108608}}, {"id": 702491, "name": "Lysyanka", "country": "UA", "coord": {"lon": 30.82946, "lat": 49.252289}}, {"id": 702971, "name": "Lysychovo", "country": "UA", "coord": {"lon": 23.289921, "lat": 48.496769}}, {"id": 532664, "name": "Lysyye Gory", "country": "RU", "coord": {"lon": 44.841438, "lat": 51.550629}}, {"id": 3092616, "name": "Lyszkowice", "country": "PL", "coord": {"lon": 19.90654, "lat": 51.985512}}, {"id": 2643276, "name": "Lytchett Matravers", "country": "GB", "coord": {"lon": -2.07806, "lat": 50.758259}}, {"id": 2643273, "name": "Lytham", "country": "GB", "coord": {"lon": -2.96293, "lat": 53.73695}}, {"id": 6693470, "name": "Lytham St Annes", "country": "GB", "coord": {"lon": -2.997, "lat": 53.742599}}, {"id": 146358, "name": "Lythrodhondas", "country": "CY", "coord": {"lon": 33.29583, "lat": 34.950001}}, {"id": 532657, "name": "Lytkarino", "country": "RU", "coord": {"lon": 37.905834, "lat": 55.58139}}, {"id": 4708477, "name": "Lytle", "country": "US", "coord": {"lon": -98.79641, "lat": 29.23329}}, {"id": 981084, "name": "Lyttelton", "country": "ZA", "coord": {"lon": 28.2012, "lat": -25.82988}}, {"id": 2159289, "name": "Lytton", "country": "AU", "coord": {"lon": 153.166672, "lat": -27.41667}}, {"id": 6062479, "name": "Lytton", "country": "CA", "coord": {"lon": -121.56929, "lat": 50.23304}}, {"id": 532637, "name": "Lyuban", "country": "RU", "coord": {"lon": 31.216669, "lat": 59.349998}}, {"id": 625721, "name": "Lyuban", "country": "BY", "coord": {"lon": 28.004801, "lat": 52.7985}}, {"id": 702486, "name": "Lyubar", "country": "UA", "coord": {"lon": 27.75918, "lat": 49.920448}}, {"id": 702898, "name": "Lyubashivka", "country": "UA", "coord": {"lon": 30.25976, "lat": 47.837158}}, {"id": 625712, "name": "Lyubcha", "country": "BY", "coord": {"lon": 26.060301, "lat": 53.752201}}, {"id": 702477, "name": "Lyubech", "country": "UA", "coord": {"lon": 30.656919, "lat": 51.702599}}, {"id": 532615, "name": "Lyubertsy", "country": "RU", "coord": {"lon": 37.883331, "lat": 55.677776}}, {"id": 729467, "name": "Lyubichevo", "country": "BG", "coord": {"lon": 26.283331, "lat": 43.166672}}, {"id": 532600, "name": "Lyubim", "country": "RU", "coord": {"lon": 40.68433, "lat": 58.362499}}, {"id": 729466, "name": "Lyubimets", "country": "BG", "coord": {"lon": 26.08333, "lat": 41.833328}}, {"id": 532598, "name": "Lyubimezh", "country": "RU", "coord": {"lon": 38.799999, "lat": 56.083332}}, {"id": 827222, "name": "Lyubimovka", "country": "RU", "coord": {"lon": 43.580555, "lat": 57.591667}}, {"id": 532576, "name": "Lyubimovo", "country": "RU", "coord": {"lon": 40.566669, "lat": 57.450001}}, {"id": 532568, "name": "Lyubimtsevo", "country": "RU", "coord": {"lon": 41.509998, "lat": 58.04361}}, {"id": 1500125, "name": "Lyubinskiy", "country": "RU", "coord": {"lon": 72.692467, "lat": 55.154209}}, {"id": 532535, "name": "Lyublino", "country": "RU", "coord": {"lon": 37.749722, "lat": 55.680557}}, {"id": 532518, "name": "Lyubokhna", "country": "RU", "coord": {"lon": 34.38847, "lat": 53.503319}}, {"id": 702421, "name": "Lyuboml", "country": "UA", "coord": {"lon": 24.03727, "lat": 51.226009}}, {"id": 702417, "name": "Lyubotyn", "country": "UA", "coord": {"lon": 35.966671, "lat": 49.950001}}, {"id": 532489, "name": "Lyubovnikovo", "country": "RU", "coord": {"lon": 41.66861, "lat": 54.960278}}, {"id": 532477, "name": "Lyubuchany", "country": "RU", "coord": {"lon": 37.545555, "lat": 55.25111}}, {"id": 532471, "name": "Lyubyatino", "country": "RU", "coord": {"lon": 36.216667, "lat": 56.099998}}, {"id": 702463, "name": "Lyubymivka", "country": "UA", "coord": {"lon": 33.566666, "lat": 44.666668}}, {"id": 702459, "name": "Lyubymivka", "country": "UA", "coord": {"lon": 33.568619, "lat": 46.810631}}, {"id": 532463, "name": "Lyubytino", "country": "RU", "coord": {"lon": 33.39222, "lat": 58.812222}}, {"id": 532459, "name": "Lyudinovo", "country": "RU", "coord": {"lon": 34.447781, "lat": 53.86639}}, {"id": 532422, "name": "Lyulikh", "country": "RU", "coord": {"lon": 42.733334, "lat": 56.366669}}, {"id": 532406, "name": "Lyushino", "country": "RU", "coord": {"lon": 35.692661, "lat": 56.484299}}, {"id": 532393, "name": "Lyutik", "country": "RU", "coord": {"lon": 40.383331, "lat": 53.966671}}, {"id": 532382, "name": "Lyutoretskoye", "country": "RU", "coord": {"lon": 37.509998, "lat": 55.112499}}, {"id": 3663684, "name": "L\u00e1brea", "country": "BR", "coord": {"lon": -64.798058, "lat": -7.25861}}, {"id": 6357730, "name": "L\u00e1char", "country": "ES", "coord": {"lon": -3.84406, "lat": 37.1917}}, {"id": 6359187, "name": "L\u00e1ncara", "country": "ES", "coord": {"lon": -7.37458, "lat": 42.852428}}, {"id": 718180, "name": "L\u00e1szl\u00f3tanya", "country": "HU", "coord": {"lon": 21.91667, "lat": 48.116669}}, {"id": 3499829, "name": "L\u00e1zaro", "country": "DO", "coord": {"lon": -71.326149, "lat": 19.455839}}, {"id": 3072263, "name": "L\u00e1zn\u011b Luha\u010dovice", "country": "CZ", "coord": {"lon": 17.76667, "lat": 49.099998}}, {"id": 6552211, "name": "L\u00e4gerdorf", "country": "DE", "coord": {"lon": 9.5786, "lat": 53.884899}}, {"id": 6552900, "name": "L\u00e4hden", "country": "DE", "coord": {"lon": 7.56667, "lat": 52.75}}, {"id": 2881708, "name": "L\u00e4mpelberg", "country": "DE", "coord": {"lon": 12.46667, "lat": 50.366669}}, {"id": 2880520, "name": "L\u00e4ngwitz", "country": "DE", "coord": {"lon": 10.95, "lat": 50.833328}}, {"id": 6548073, "name": "L\u00e4rz", "country": "DE", "coord": {"lon": 12.75, "lat": 53.299999}}, {"id": 7286276, "name": "L\u00e4ufelfingen", "country": "CH", "coord": {"lon": 7.85572, "lat": 47.393631}}, {"id": 590854, "name": "L\u00e4\u00e4ne-Virumaa", "country": "EE", "coord": {"lon": 26.33333, "lat": 59.366669}}, {"id": 590856, "name": "L\u00e4\u00e4nemaa", "country": "EE", "coord": {"lon": 23.549999, "lat": 58.933331}}, {"id": 2617382, "name": "L\u00e6so Kommune", "country": "DK", "coord": {"lon": 11, "lat": 57.25}}, {"id": 6440468, "name": "L\u00e8me", "country": "FR", "coord": {"lon": -0.36667, "lat": 43.5}}, {"id": 3003489, "name": "L\u00e8me", "country": "FR", "coord": {"lon": -0.36667, "lat": 43.5}}, {"id": 6427283, "name": "L\u00e9caude", "country": "FR", "coord": {"lon": 0.08333, "lat": 49.099998}}, {"id": 3004829, "name": "L\u00e9caude", "country": "FR", "coord": {"lon": 0.07371, "lat": 49.10405}}, {"id": 6362825, "name": "L\u00e9cera", "country": "ES", "coord": {"lon": -0.70424, "lat": 41.198631}}, {"id": 7286297, "name": "L\u00e9chelles", "country": "CH", "coord": {"lon": 7.02894, "lat": 46.83334}}, {"id": 2659975, "name": "L\u00e9chelles", "country": "CH", "coord": {"lon": 7.01621, "lat": 46.82896}}, {"id": 6434986, "name": "L\u00e9dat", "country": "FR", "coord": {"lon": 0.6686, "lat": 44.454601}}, {"id": 3004372, "name": "L\u00e9dat", "country": "FR", "coord": {"lon": 0.66987, "lat": 44.452839}}, {"id": 6440467, "name": "L\u00e9es-Athas", "country": "FR", "coord": {"lon": -0.61667, "lat": 42.966671}}, {"id": 3004312, "name": "L\u00e9es-Athas", "country": "FR", "coord": {"lon": -0.61667, "lat": 42.966671}}, {"id": 2792986, "name": "L\u00e9glise", "country": "BE", "coord": {"lon": 5.55, "lat": 49.816669}}, {"id": 6616165, "name": "L\u00e9guillac-de-l'Auche", "country": "FR", "coord": {"lon": 0.557, "lat": 45.184502}}, {"id": 3003866, "name": "L\u00e9guillac-de-l'Auche", "country": "FR", "coord": {"lon": 0.55, "lat": 45.183331}}, {"id": 6432273, "name": "L\u00e9ogeats", "country": "FR", "coord": {"lon": -0.36667, "lat": 44.51667}}, {"id": 3003068, "name": "L\u00e9ogeats", "country": "FR", "coord": {"lon": -0.36619, "lat": 44.512379}}, {"id": 6432274, "name": "L\u00e9ognan", "country": "FR", "coord": {"lon": -0.6, "lat": 44.73333}}, {"id": 6454120, "name": "L\u00e9on", "country": "FR", "coord": {"lon": -1.3, "lat": 43.883331}}, {"id": 2595998, "name": "L\u00e9ona", "country": "SN", "coord": {"lon": -16.497499, "lat": 16.01722}}, {"id": 6434369, "name": "L\u00e9otoing", "country": "FR", "coord": {"lon": 3.23333, "lat": 45.366669}}, {"id": 3003058, "name": "L\u00e9otoing", "country": "FR", "coord": {"lon": 3.22242, "lat": 45.36208}}, {"id": 3002405, "name": "L\u00e9rable", "country": "FR", "coord": {"lon": 0.38333, "lat": 48.416672}}, {"id": 6454506, "name": "L\u00e9ren", "country": "FR", "coord": {"lon": -1.03333, "lat": 43.5}}, {"id": 3002370, "name": "L\u00e9ren", "country": "FR", "coord": {"lon": -1.0418, "lat": 43.502708}}, {"id": 7874189, "name": "L\u00e9rida", "country": "ES", "coord": {"lon": 0.62556, "lat": 41.613892}}, {"id": 6434987, "name": "L\u00e9vignac-de-Guyenne", "country": "FR", "coord": {"lon": 0.2, "lat": 44.633331}}, {"id": 2998805, "name": "L\u00e9vignac-de-Guyenne", "country": "FR", "coord": {"lon": 0.19986, "lat": 44.62846}}, {"id": 6433865, "name": "L\u00e9vignacq", "country": "FR", "coord": {"lon": -1.16667, "lat": 44}}, {"id": 2998804, "name": "L\u00e9vignacq", "country": "FR", "coord": {"lon": -1.1673, "lat": 44.005161}}, {"id": 6613353, "name": "L\u00e9zan", "country": "FR", "coord": {"lon": 4.05, "lat": 44.01667}}, {"id": 6426723, "name": "L\u00e9zignan-Corbi\u00e8res", "country": "FR", "coord": {"lon": 2.76667, "lat": 43.200001}}, {"id": 536408, "name": "L\u00ebdovo", "country": "RU", "coord": {"lon": 38.399441, "lat": 54.748058}}, {"id": 258312, "name": "L\u00edmnai", "country": "GR", "coord": {"lon": 22.883329, "lat": 37.716671}}, {"id": 408687, "name": "L\u00edndos", "country": "GR", "coord": {"lon": 28.085711, "lat": 36.091019}}, {"id": 6356937, "name": "L\u00ednea de la Concepci\u00f3n (La)", "country": "ES", "coord": {"lon": -5.3467, "lat": 36.182991}}, {"id": 6359706, "name": "L\u00f3nguida/Longida", "country": "ES", "coord": {"lon": -1.36043, "lat": 42.786831}}, {"id": 718045, "name": "L\u00f3r\u00e1ntffykert", "country": "HU", "coord": {"lon": 21.51667, "lat": 47.666672}}, {"id": 590540, "name": "L\u00f5o", "country": "EE", "coord": {"lon": 23.693609, "lat": 58.593891}}, {"id": 6550379, "name": "L\u00f6bersch\u00fctz", "country": "DE", "coord": {"lon": 11.7, "lat": 50.966702}}, {"id": 2876711, "name": "L\u00f6bersdorf", "country": "DE", "coord": {"lon": 12.08333, "lat": 51.633331}}, {"id": 6550547, "name": "L\u00f6bichau", "country": "DE", "coord": {"lon": 12.309, "lat": 50.894299}}, {"id": 2876705, "name": "L\u00f6bitz", "country": "DE", "coord": {"lon": 11.88333, "lat": 51.083328}}, {"id": 7602440, "name": "L\u00f6bnitz", "country": "DE", "coord": {"lon": 12.71929, "lat": 54.295368}}, {"id": 6548743, "name": "L\u00f6bnitz", "country": "DE", "coord": {"lon": 12.4667, "lat": 51.599998}}, {"id": 2876696, "name": "L\u00f6bnitz an der Linde", "country": "DE", "coord": {"lon": 11.88333, "lat": 51.73333}}, {"id": 2876683, "name": "L\u00f6btau", "country": "DE", "coord": {"lon": 13.7, "lat": 51.049999}}, {"id": 6555484, "name": "L\u00f6chgau", "country": "DE", "coord": {"lon": 9.1044, "lat": 49.004299}}, {"id": 6548465, "name": "L\u00f6cknitz", "country": "DE", "coord": {"lon": 14.2239, "lat": 53.4856}}, {"id": 2876513, "name": "L\u00f6dderitz", "country": "DE", "coord": {"lon": 11.95, "lat": 51.883331}}, {"id": 7873379, "name": "L\u00f6dersdorf", "country": "AT", "coord": {"lon": 15.95838, "lat": 46.964439}}, {"id": 2876491, "name": "L\u00f6dingsen", "country": "DE", "coord": {"lon": 9.78333, "lat": 51.599998}}, {"id": 6547401, "name": "L\u00f6dla", "country": "DE", "coord": {"lon": 12.3891, "lat": 50.997601}}, {"id": 6553802, "name": "L\u00f6f", "country": "DE", "coord": {"lon": 7.43333, "lat": 50.233299}}, {"id": 2876468, "name": "L\u00f6ffelscheid", "country": "DE", "coord": {"lon": 7.31667, "lat": 50.01667}}, {"id": 6295288, "name": "L\u00f6ffler", "country": "CH", "coord": {"lon": 8.43063, "lat": 47.350361}}, {"id": 2876241, "name": "L\u00f6hlbach", "country": "DE", "coord": {"lon": 8.98333, "lat": 51.066669}}, {"id": 6550451, "name": "L\u00f6hma", "country": "DE", "coord": {"lon": 11.85, "lat": 50.616699}}, {"id": 6553226, "name": "L\u00f6hnberg", "country": "DE", "coord": {"lon": 8.26667, "lat": 50.516701}}, {"id": 7286365, "name": "L\u00f6hningen", "country": "CH", "coord": {"lon": 8.54659, "lat": 47.703339}}, {"id": 2694283, "name": "L\u00f6kn\u00e4s", "country": "SE", "coord": {"lon": 18.66667, "lat": 59.366669}}, {"id": 718058, "name": "L\u00f6k\u00f6sihat\u00e1r", "country": "HU", "coord": {"lon": 21.25, "lat": 46.533329}}, {"id": 6553511, "name": "L\u00f6llbach", "country": "DE", "coord": {"lon": 7.58333, "lat": 49.6833}}, {"id": 2875922, "name": "L\u00f6psingen", "country": "DE", "coord": {"lon": 10.53333, "lat": 48.883331}}, {"id": 2875920, "name": "L\u00f6pten", "country": "DE", "coord": {"lon": 13.68333, "lat": 52.150002}}, {"id": 6551752, "name": "L\u00f6ptin", "country": "DE", "coord": {"lon": 10.2167, "lat": 54.1833}}, {"id": 2875869, "name": "L\u00f6rzenbach", "country": "DE", "coord": {"lon": 8.76, "lat": 49.640282}}, {"id": 6555282, "name": "L\u00f6rzweiler", "country": "DE", "coord": {"lon": 8.29472, "lat": 49.8983}}, {"id": 2875862, "name": "L\u00f6sau", "country": "DE", "coord": {"lon": 12.03333, "lat": 51.23333}}, {"id": 2875851, "name": "L\u00f6schenrod", "country": "DE", "coord": {"lon": 9.6787, "lat": 50.499229}}, {"id": 6554346, "name": "L\u00f6snich", "country": "DE", "coord": {"lon": 7.03333, "lat": 49.966702}}, {"id": 2875801, "name": "L\u00f6ssnig", "country": "DE", "coord": {"lon": 12.4, "lat": 51.299999}}, {"id": 6554387, "name": "L\u00f6tzbeuren", "country": "DE", "coord": {"lon": 7.21667, "lat": 49.9333}}, {"id": 2875728, "name": "L\u00f6tzschen", "country": "DE", "coord": {"lon": 13.74304, "lat": 51.27969}}, {"id": 2875696, "name": "L\u00f6venich", "country": "DE", "coord": {"lon": 6.66667, "lat": 50.683331}}, {"id": 604496, "name": "L\u00f6v\u00f6n", "country": "SE", "coord": {"lon": 20.383329, "lat": 63.716671}}, {"id": 2875680, "name": "L\u00f6wenberg", "country": "DE", "coord": {"lon": 13.15441, "lat": 52.89756}}, {"id": 6551574, "name": "L\u00f6wenstedt", "country": "DE", "coord": {"lon": 9.16667, "lat": 54.616699}}, {"id": 2875650, "name": "L\u00f6witz", "country": "DE", "coord": {"lon": 13.73333, "lat": 53.716671}}, {"id": 2875792, "name": "L\u00f6\u00dfnitztal", "country": "DE", "coord": {"lon": 13.18333, "lat": 50.816669}}, {"id": 2962793, "name": "L\u00fa", "country": "IE", "coord": {"lon": -6.5, "lat": 53.833328}}, {"id": 6355573, "name": "L\u00facar", "country": "ES", "coord": {"lon": -2.43463, "lat": 37.437}}, {"id": 6357738, "name": "L\u00fajar", "country": "ES", "coord": {"lon": -3.37406, "lat": 36.778461}}, {"id": 6552707, "name": "L\u00fcbberstedt", "country": "DE", "coord": {"lon": 8.8, "lat": 53.333302}}, {"id": 6548197, "name": "L\u00fcbberstorf", "country": "DE", "coord": {"lon": 11.7333, "lat": 53.866699}}, {"id": 6552661, "name": "L\u00fcbbow", "country": "DE", "coord": {"lon": 11.1833, "lat": 52.916698}}, {"id": 2875602, "name": "L\u00fcbbrechtsen", "country": "DE", "coord": {"lon": 9.72831, "lat": 52.033539}}, {"id": 6547955, "name": "L\u00fcbesse", "country": "DE", "coord": {"lon": 11.4667, "lat": 53.483299}}, {"id": 6547956, "name": "L\u00fcblow", "country": "DE", "coord": {"lon": 11.4667, "lat": 53.416698}}, {"id": 6548198, "name": "L\u00fcbow", "country": "DE", "coord": {"lon": 11.5167, "lat": 53.849998}}, {"id": 2875573, "name": "L\u00fcbrassen", "country": "DE", "coord": {"lon": 8.61667, "lat": 52.033329}}, {"id": 6548486, "name": "L\u00fcbs", "country": "DE", "coord": {"lon": 13.8833, "lat": 53.733299}}, {"id": 6559264, "name": "L\u00fcbstorf", "country": "DE", "coord": {"lon": 11.41471, "lat": 53.725609}}, {"id": 2875556, "name": "L\u00fcbzin", "country": "DE", "coord": {"lon": 11.93333, "lat": 53.75}}, {"id": 6551479, "name": "L\u00fcchow", "country": "DE", "coord": {"lon": 10.5333, "lat": 53.6833}}, {"id": 2875498, "name": "L\u00fcckenbach", "country": "DE", "coord": {"lon": 6.91349, "lat": 50.424919}}, {"id": 6554348, "name": "L\u00fcckenburg", "country": "DE", "coord": {"lon": 6.96667, "lat": 49.733299}}, {"id": 2875464, "name": "L\u00fcdelsen", "country": "DE", "coord": {"lon": 10.93333, "lat": 52.683331}}, {"id": 6552824, "name": "L\u00fcder", "country": "DE", "coord": {"lon": 10.6667, "lat": 52.8167}}, {"id": 6552681, "name": "L\u00fcdersburg", "country": "DE", "coord": {"lon": 10.5667, "lat": 53.3167}}, {"id": 2875437, "name": "L\u00fcdersb\u00fcttel", "country": "DE", "coord": {"lon": 9.35, "lat": 54.216671}}, {"id": 6548199, "name": "L\u00fcdersdorf", "country": "DE", "coord": {"lon": 10.8167, "lat": 53.833302}}, {"id": 2875428, "name": "L\u00fcdersen", "country": "DE", "coord": {"lon": 9.67003, "lat": 52.25481}}, {"id": 6558451, "name": "L\u00fcdersfeld", "country": "DE", "coord": {"lon": 9.25057, "lat": 52.349701}}, {"id": 2875426, "name": "L\u00fcdershagen", "country": "DE", "coord": {"lon": 12.26315, "lat": 53.719261}}, {"id": 6548128, "name": "L\u00fcdershagen", "country": "DE", "coord": {"lon": 12.6167, "lat": 54.299999}}, {"id": 2875415, "name": "L\u00fcdingworth", "country": "DE", "coord": {"lon": 8.76667, "lat": 53.799999}}, {"id": 6552515, "name": "L\u00fcerdissen", "country": "DE", "coord": {"lon": 9.61667, "lat": 51.950001}}, {"id": 590497, "name": "L\u00fcganuse", "country": "EE", "coord": {"lon": 27.030279, "lat": 59.380562}}, {"id": 7522335, "name": "L\u00fcganuse vald", "country": "EE", "coord": {"lon": 27.07641, "lat": 59.39262}}, {"id": 2875281, "name": "L\u00fcge", "country": "DE", "coord": {"lon": 11.35, "lat": 52.76667}}, {"id": 6547897, "name": "L\u00fchburg", "country": "DE", "coord": {"lon": 12.6, "lat": 53.983299}}, {"id": 6548290, "name": "L\u00fchmannsdorf", "country": "DE", "coord": {"lon": 13.6333, "lat": 54}}, {"id": 2875229, "name": "L\u00fchnde", "country": "DE", "coord": {"lon": 9.9507, "lat": 52.273621}}, {"id": 2875159, "name": "L\u00fcllau", "country": "DE", "coord": {"lon": 9.91453, "lat": 53.288139}}, {"id": 2875155, "name": "L\u00fclsdorf", "country": "DE", "coord": {"lon": 7, "lat": 50.833328}}, {"id": 6557063, "name": "L\u00fclsfeld", "country": "DE", "coord": {"lon": 10.3333, "lat": 49.866699}}, {"id": 6554567, "name": "L\u00fcnebach", "country": "DE", "coord": {"lon": 6.35, "lat": 50.133301}}, {"id": 6552908, "name": "L\u00fcnne", "country": "DE", "coord": {"lon": 7.43333, "lat": 52.4333}}, {"id": 2875080, "name": "L\u00fcnow", "country": "DE", "coord": {"lon": 12.66667, "lat": 52.48333}}, {"id": 2875075, "name": "L\u00fcnsfeld", "country": "DE", "coord": {"lon": 7.55, "lat": 52.48333}}, {"id": 2875037, "name": "L\u00fcptitz", "country": "DE", "coord": {"lon": 12.76989, "lat": 51.391708}}, {"id": 6551977, "name": "L\u00fcrschau", "country": "DE", "coord": {"lon": 9.5, "lat": 54.549999}}, {"id": 2874993, "name": "L\u00fcsse", "country": "DE", "coord": {"lon": 12.66667, "lat": 52.150002}}, {"id": 6547898, "name": "L\u00fcssow", "country": "DE", "coord": {"lon": 12.15, "lat": 53.833302}},