[{"id": 3526485, "name": "Jiutepec", "country": "MX", "coord": {"lon": -99.183327, "lat": 18.866671}}, {"id": 7843640, "name": "Jiuting", "country": "CN", "coord": {"lon": 121.316277, "lat": 31.13055}}, {"id": 1805097, "name": "Jiuxi", "country": "CN", "coord": {"lon": 111.271744, "lat": 29.181021}}, {"id": 1805090, "name": "Jiuxian", "country": "CN", "coord": {"lon": 113.299652, "lat": 33.495449}}, {"id": 1805096, "name": "Jiuxian", "country": "CN", "coord": {"lon": 116.497597, "lat": 25.22397}}, {"id": 6422035, "name": "Jiuyi", "country": "CN", "coord": {"lon": 111.989166, "lat": 25.364719}}, {"id": 1928111, "name": "Jiuyuan", "country": "CN", "coord": {"lon": 111.920464, "lat": 29.56613}}, {"id": 2036396, "name": "Jiuzhai", "country": "CN", "coord": {"lon": 122.104088, "lat": 40.091148}}, {"id": 7405558, "name": "Jiuzhongjin", "country": "CN", "coord": {"lon": 106.215858, "lat": 33.5247}}, {"id": 1805052, "name": "Jiuzhou", "country": "CN", "coord": {"lon": 110.403557, "lat": 19.762659}}, {"id": 1175712, "name": "Jiwani", "country": "PK", "coord": {"lon": 61.741669, "lat": 25.049999}}, {"id": 8074026, "name": "Jiworejo", "country": "ID", "coord": {"lon": 111.507599, "lat": -6.9815}}, {"id": 2036389, "name": "Jixi", "country": "CN", "coord": {"lon": 130.966675, "lat": 45.299999}}, {"id": 2036387, "name": "Jixian", "country": "CN", "coord": {"lon": 117.400002, "lat": 40.049999}}, {"id": 1805032, "name": "Jixian", "country": "CN", "coord": {"lon": 108.397827, "lat": 34.088631}}, {"id": 1805026, "name": "Jixiang", "country": "CN", "coord": {"lon": 118.912193, "lat": 26.67275}}, {"id": 7630156, "name": "Jixing", "country": "CN", "coord": {"lon": 127.911583, "lat": 46.006039}}, {"id": 1805022, "name": "Jiyang", "country": "CN", "coord": {"lon": 118.131668, "lat": 27.13932}}, {"id": 7661841, "name": "Jiyukou", "country": "CN", "coord": {"lon": 112.590248, "lat": 30.455339}}, {"id": 105299, "name": "Jizan", "country": "SA", "coord": {"lon": 42.551109, "lat": 16.88917}}, {"id": 355015, "name": "Jizayy", "country": "EG", "coord": {"lon": 30.84684, "lat": 30.463051}}, {"id": 1908952, "name": "Jizhong", "country": "CN", "coord": {"lon": 112.678429, "lat": 33.636238}}, {"id": 1484844, "name": "Jizzakh Province", "country": "UZ", "coord": {"lon": 67.666672, "lat": 40.333328}}, {"id": 1513886, "name": "Jizzax", "country": "UZ", "coord": {"lon": 67.842216, "lat": 40.115829}}, {"id": 1861006, "name": "Jiz\u014dd\u014d", "country": "JP", "coord": {"lon": 138.850006, "lat": 37.616669}}, {"id": 3074111, "name": "Ji\u0159ina", "country": "CZ", "coord": {"lon": 14.77009, "lat": 50.168652}}, {"id": 8074097, "name": "Jlodro", "country": "ID", "coord": {"lon": 111.5839, "lat": -6.9274}}, {"id": 4897897, "name": "Jo Daviess County", "country": "US", "coord": {"lon": -90.183456, "lat": 42.35001}}, {"id": 7626389, "name": "Joa", "country": "NO", "coord": {"lon": 11.26535, "lat": 64.659103}}, {"id": 3459869, "name": "Joacaba", "country": "BR", "coord": {"lon": -51.504719, "lat": -27.178061}}, {"id": 2894884, "name": "Joachimsthal", "country": "DE", "coord": {"lon": 13.74493, "lat": 52.97945}}, {"id": 3459867, "name": "Joaima", "country": "BR", "coord": {"lon": -41.03056, "lat": -16.654169}}, {"id": 2251084, "name": "Joal-Fadiout", "country": "SN", "coord": {"lon": -16.83333, "lat": 14.16667}}, {"id": 2738658, "name": "Joane", "country": "PT", "coord": {"lon": -8.40846, "lat": 41.43906}}, {"id": 3442238, "name": "Joanico", "country": "UY", "coord": {"lon": -56.252781, "lat": -34.589439}}, {"id": 2162239, "name": "Joanna", "country": "AU", "coord": {"lon": 140.833328, "lat": -37.099998}}, {"id": 4583491, "name": "Joanna", "country": "US", "coord": {"lon": -81.811218, "lat": 34.414848}}, {"id": 3459855, "name": "Joanopolis", "country": "BR", "coord": {"lon": -46.275558, "lat": -22.930281}}, {"id": 3459860, "name": "Joan\u00e9sia", "country": "BR", "coord": {"lon": -42.678612, "lat": -19.17222}}, {"id": 3397319, "name": "Joao Alfredo", "country": "BR", "coord": {"lon": -35.588329, "lat": -7.85583}}, {"id": 3397315, "name": "Joao Camara", "country": "BR", "coord": {"lon": -35.819721, "lat": -5.5375}}, {"id": 3459796, "name": "Joao Monlevade", "country": "BR", "coord": {"lon": -43.173611, "lat": -19.809999}}, {"id": 3459795, "name": "Joao Neiva", "country": "BR", "coord": {"lon": -40.385559, "lat": -19.7575}}, {"id": 3397277, "name": "Joao Pessoa", "country": "BR", "coord": {"lon": -34.86306, "lat": -7.115}}, {"id": 3459785, "name": "Joao Pinheiro", "country": "BR", "coord": {"lon": -46.172501, "lat": -17.7425}}, {"id": 3397262, "name": "Joaquim Nabuco", "country": "BR", "coord": {"lon": -35.533329, "lat": -8.62444}}, {"id": 3442236, "name": "Joaquin Suarez", "country": "UY", "coord": {"lon": -56.036671, "lat": -34.733608}}, {"id": 3853491, "name": "Joaquin V. Gonzalez", "country": "AR", "coord": {"lon": -64.183327, "lat": -25.08333}}, {"id": 6358629, "name": "Joarilla de las Matas", "country": "ES", "coord": {"lon": -5.19254, "lat": 42.29472}}, {"id": 3120130, "name": "Joarilla de las Matas", "country": "ES", "coord": {"lon": -5.17855, "lat": 42.287552}}, {"id": 3012329, "name": "Job", "country": "FR", "coord": {"lon": 3.74602, "lat": 45.61776}}, {"id": 3504033, "name": "Joba Arriba", "country": "DO", "coord": {"lon": -70.26667, "lat": 19.566669}}, {"id": 3556077, "name": "Jobabo", "country": "CU", "coord": {"lon": -76.299438, "lat": 20.96917}}, {"id": 1268875, "name": "Jobat", "country": "IN", "coord": {"lon": 74.566673, "lat": 22.41667}}, {"id": 3050872, "name": "Jobbagyi", "country": "HU", "coord": {"lon": 19.67762, "lat": 47.832378}}, {"id": 5228827, "name": "Jobee Acres", "country": "US", "coord": {"lon": -98.394257, "lat": 45.446079}}, {"id": 1268874, "name": "Jobner", "country": "IN", "coord": {"lon": 75.383331, "lat": 26.966669}}, {"id": 4565689, "name": "Jobos", "country": "PR", "coord": {"lon": -66.165443, "lat": 17.95524}}, {"id": 6435457, "name": "Jobourg", "country": "FR", "coord": {"lon": -1.9, "lat": 49.683331}}, {"id": 3012327, "name": "Jobourg", "country": "FR", "coord": {"lon": -1.90419, "lat": 49.682861}}, {"id": 7872558, "name": "Jochberg", "country": "AT", "coord": {"lon": 12.40863, "lat": 47.356789}}, {"id": 2775068, "name": "Jochberg", "country": "AT", "coord": {"lon": 12.4, "lat": 47.383331}}, {"id": 2894869, "name": "Jochenstein", "country": "DE", "coord": {"lon": 13.71667, "lat": 48.51667}}, {"id": 6555009, "name": "Jockgrim", "country": "DE", "coord": {"lon": 8.26778, "lat": 49.0989}}, {"id": 2894855, "name": "Jockgrim", "country": "DE", "coord": {"lon": 8.26778, "lat": 49.098888}}, {"id": 3608635, "name": "Jocon", "country": "HN", "coord": {"lon": -86.966667, "lat": 15.28333}}, {"id": 3608631, "name": "Joconal", "country": "HN", "coord": {"lon": -88.635559, "lat": 15.35444}}, {"id": 3585427, "name": "Jocoro", "country": "SV", "coord": {"lon": -88.01667, "lat": 13.61667}}, {"id": 3595181, "name": "Jocotan", "country": "GT", "coord": {"lon": -89.383331, "lat": 14.81667}}, {"id": 3595171, "name": "Jocotenango", "country": "GT", "coord": {"lon": -90.743607, "lat": 14.58194}}, {"id": 4003908, "name": "Jocotepec", "country": "MX", "coord": {"lon": -103.433327, "lat": 20.299999}}, {"id": 3526473, "name": "Jocotitlan", "country": "MX", "coord": {"lon": -99.787781, "lat": 19.70583}}, {"id": 2516304, "name": "Jodar", "country": "ES", "coord": {"lon": -3.35262, "lat": 37.840641}}, {"id": 1268865, "name": "Jodhpur", "country": "IN", "coord": {"lon": 73.029999, "lat": 26.286667}}, {"id": 1268866, "name": "Jodhpur", "country": "IN", "coord": {"lon": 70.033333, "lat": 21.883329}}, {"id": 2894851, "name": "Joditz", "country": "DE", "coord": {"lon": 11.83777, "lat": 50.371471}}, {"id": 1268863, "name": "Jodiya Bandar", "country": "IN", "coord": {"lon": 70.283333, "lat": 22.716669}}, {"id": 770036, "name": "Jodlowa", "country": "PL", "coord": {"lon": 21.278971, "lat": 49.872292}}, {"id": 770033, "name": "Jodlowka", "country": "PL", "coord": {"lon": 20.54821, "lat": 49.99295}}, {"id": 770034, "name": "Jodlowka", "country": "PL", "coord": {"lon": 22.46653, "lat": 49.894299}}, {"id": 756197, "name": "Jodlowka-Walki", "country": "PL", "coord": {"lon": 21.13332, "lat": 50.049919}}, {"id": 2794896, "name": "Jodoigne", "country": "BE", "coord": {"lon": 4.87226, "lat": 50.72765}}, {"id": 2794895, "name": "Jodoigne", "country": "BE", "coord": {"lon": 4.86914, "lat": 50.723572}}, {"id": 2162229, "name": "Joel Joel", "country": "AU", "coord": {"lon": 142.983337, "lat": -37.01667}}, {"id": 2162228, "name": "Joel South", "country": "AU", "coord": {"lon": 143.066666, "lat": -37.133331}}, {"id": 655823, "name": "Joensuu", "country": "FI", "coord": {"lon": 29.75, "lat": 62.583328}}, {"id": 655808, "name": "Joensuu", "country": "FI", "coord": {"lon": 29.763161, "lat": 62.601181}}, {"id": 5426615, "name": "Joes", "country": "US", "coord": {"lon": -102.678818, "lat": 39.65638}}, {"id": 6825489, "name": "Joetsu", "country": "JP", "coord": {"lon": 138.23642, "lat": 37.148281}}, {"id": 3012322, "name": "Joeuf", "country": "FR", "coord": {"lon": 6.01667, "lat": 49.23333}}, {"id": 1268855, "name": "Jogbani", "country": "IN", "coord": {"lon": 87.25, "lat": 26.41667}}, {"id": 591902, "name": "Jogeva", "country": "EE", "coord": {"lon": 26.39389, "lat": 58.74667}}, {"id": 5986991, "name": "Joggins", "country": "CA", "coord": {"lon": -64.432053, "lat": 45.683449}}, {"id": 1268851, "name": "Jogighopa", "country": "IN", "coord": {"lon": 90.583328, "lat": 26.23333}}, {"id": 1268849, "name": "Jogindarnagar", "country": "IN", "coord": {"lon": 76.76667, "lat": 31.98333}}, {"id": 1642437, "name": "Jogonalan", "country": "ID", "coord": {"lon": 110.53611, "lat": -7.70361}}, {"id": 2162222, "name": "Johanna", "country": "AU", "coord": {"lon": 143.366669, "lat": -38.75}}, {"id": 2894847, "name": "Johannashall", "country": "DE", "coord": {"lon": 11.78333, "lat": 51.583328}}, {"id": 2703038, "name": "Johannedal", "country": "SE", "coord": {"lon": 17.371111, "lat": 62.433609}}, {"id": 6556950, "name": "Johannesberg", "country": "DE", "coord": {"lon": 9.13333, "lat": 50.033298}}, {"id": 2894833, "name": "Johannesberg", "country": "DE", "coord": {"lon": 9.13333, "lat": 50.033329}}, {"id": 993800, "name": "Johannesburg", "country": "ZA", "coord": {"lon": 28.043631, "lat": -26.202271}}, {"id": 2894814, "name": "Johanngeorgenstadt", "country": "DE", "coord": {"lon": 12.73333, "lat": 50.433331}}, {"id": 2894754, "name": "Johannis-Vorstadt", "country": "DE", "coord": {"lon": 11.46667, "lat": 51.75}}, {"id": 2894792, "name": "Johannisberg", "country": "DE", "coord": {"lon": 11.36667, "lat": 47.75}}, {"id": 2894791, "name": "Johannisberg", "country": "DE", "coord": {"lon": 7.98333, "lat": 50}}, {"id": 6556561, "name": "Johanniskirchen", "country": "DE", "coord": {"lon": 12.95, "lat": 48.533298}}, {"id": 2894771, "name": "Johanniskirchen", "country": "DE", "coord": {"lon": 12.95, "lat": 48.533329}}, {"id": 2894760, "name": "Johannisthal", "country": "DE", "coord": {"lon": 11.16667, "lat": 49.549999}}, {"id": 1175678, "name": "Johi", "country": "PK", "coord": {"lon": 67.613297, "lat": 26.69206}}, {"id": 5733770, "name": "John Day", "country": "US", "coord": {"lon": -118.953011, "lat": 44.415989}}, {"id": 4359489, "name": "John Town", "country": "US", "coord": {"lon": -75.918549, "lat": 39.425671}}, {"id": 6331909, "name": "Johns Creek", "country": "US", "coord": {"lon": -84.198578, "lat": 34.028931}}, {"id": 2162199, "name": "Johns River", "country": "AU", "coord": {"lon": 152.699997, "lat": -31.75}}, {"id": 7873497, "name": "Johnsbach", "country": "AT", "coord": {"lon": 14.6376, "lat": 47.545509}}, {"id": 2775043, "name": "Johnsbach", "country": "AT", "coord": {"lon": 14.58333, "lat": 47.533329}}, {"id": 5987236, "name": "Johnsborough", "country": "CA", "coord": {"lon": -109.384811, "lat": 50.600101}}, {"id": 4897967, "name": "Johnsburg", "country": "US", "coord": {"lon": -88.242027, "lat": 42.38002}}, {"id": 4116660, "name": "Johnson", "country": "US", "coord": {"lon": -94.165482, "lat": 36.132858}}, {"id": 5237538, "name": "Johnson", "country": "US", "coord": {"lon": -72.680397, "lat": 44.635609}}, {"id": 5445688, "name": "Johnson", "country": "US", "coord": {"lon": -101.750999, "lat": 37.570572}}, {"id": 4633419, "name": "Johnson City", "country": "US", "coord": {"lon": -82.35347, "lat": 36.313438}}, {"id": 5122794, "name": "Johnson City", "country": "US", "coord": {"lon": -75.958809, "lat": 42.115631}}, {"id": 4701346, "name": "Johnson City", "country": "US", "coord": {"lon": -98.411972, "lat": 30.276871}}, {"id": 4701348, "name": "Johnson County", "country": "US", "coord": {"lon": -97.366959, "lat": 32.38348}}, {"id": 4259727, "name": "Johnson County", "country": "US", "coord": {"lon": -86.054993, "lat": 39.48061}}, {"id": 5828957, "name": "Johnson County", "country": "US", "coord": {"lon": -106.567261, "lat": 44.03331}}, {"id": 4392606, "name": "Johnson County", "country": "US", "coord": {"lon": -93.800217, "lat": 38.75029}}, {"id": 4862732, "name": "Johnson County", "country": "US", "coord": {"lon": -91.533501, "lat": 41.666679}}, {"id": 4116689, "name": "Johnson County", "country": "US", "coord": {"lon": -93.45018, "lat": 35.56675}}, {"id": 4273638, "name": "Johnson County", "country": "US", "coord": {"lon": -94.866913, "lat": 38.866669}}, {"id": 5257996, "name": "Johnson Creek", "country": "US", "coord": {"lon": -88.774269, "lat": 43.076111}}, {"id": 5506353, "name": "Johnson Lane", "country": "US", "coord": {"lon": -119.722122, "lat": 39.047958}}, {"id": 5195549, "name": "Johnsonburg", "country": "US", "coord": {"lon": -78.675034, "lat": 41.49062}}, {"id": 5195550, "name": "Johnsonburg", "country": "US", "coord": {"lon": -78.877808, "lat": 40.886181}}, {"id": 2162200, "name": "Johnsonville", "country": "AU", "coord": {"lon": 147.800003, "lat": -37.816669}}, {"id": 4583632, "name": "Johnsonville", "country": "US", "coord": {"lon": -79.449219, "lat": 33.81794}}, {"id": 4633573, "name": "Johnsonville", "country": "US", "coord": {"lon": -87.952812, "lat": 36.060059}}, {"id": 4862760, "name": "Johnston", "country": "US", "coord": {"lon": -93.697723, "lat": 41.673038}}, {"id": 2645952, "name": "Johnston", "country": "GB", "coord": {"lon": -4.99667, "lat": 51.755562}}, {"id": 4583636, "name": "Johnston", "country": "US", "coord": {"lon": -81.800941, "lat": 33.832081}}, {"id": 4241934, "name": "Johnston City", "country": "US", "coord": {"lon": -88.927567, "lat": 37.82061}}, {"id": 4473631, "name": "Johnston County", "country": "US", "coord": {"lon": -78.399719, "lat": 35.533489}}, {"id": 2645951, "name": "Johnstone", "country": "GB", "coord": {"lon": -4.51605, "lat": 55.82906}}, {"id": 5566004, "name": "Johnstonville", "country": "US", "coord": {"lon": -120.587448, "lat": 40.384338}}, {"id": 5195561, "name": "Johnstown", "country": "US", "coord": {"lon": -78.921967, "lat": 40.32674}}, {"id": 2963567, "name": "Johnstown", "country": "IE", "coord": {"lon": -7.55417, "lat": 52.749168}}, {"id": 5122833, "name": "Johnstown", "country": "US", "coord": {"lon": -74.367638, "lat": 43.006741}}, {"id": 5159309, "name": "Johnstown", "country": "US", "coord": {"lon": -82.685173, "lat": 40.153671}}, {"id": 5578536, "name": "Johnstown", "country": "US", "coord": {"lon": -104.912201, "lat": 40.336929}}, {"id": 5258066, "name": "Johnstown Center", "country": "US", "coord": {"lon": -88.839546, "lat": 42.69585}}, {"id": 8073255, "name": "Joho", "country": "ID", "coord": {"lon": 111.586098, "lat": -6.8664}}, {"id": 8068674, "name": "Johogunung", "country": "ID", "coord": {"lon": 111.502502, "lat": -6.7175}}, {"id": 1733049, "name": "Johor", "country": "MY", "coord": {"lon": 103.5, "lat": 2}}, {"id": 1732752, "name": "Johor Bahru", "country": "MY", "coord": {"lon": 103.757797, "lat": 1.4655}}, {"id": 2894737, "name": "Johstadt", "country": "DE", "coord": {"lon": 13.1, "lat": 50.51667}}, {"id": 591893, "name": "Johvi", "country": "EE", "coord": {"lon": 27.42111, "lat": 59.359169}}, {"id": 3012319, "name": "Joigny", "country": "FR", "coord": {"lon": 3.40096, "lat": 47.98288}}, {"id": 3459712, "name": "Joinville", "country": "BR", "coord": {"lon": -48.845558, "lat": -26.30444}}, {"id": 3012315, "name": "Joinville", "country": "FR", "coord": {"lon": 5.14144, "lat": 48.44363}}, {"id": 6452022, "name": "Joinville-le-Pont", "country": "FR", "coord": {"lon": 2.46667, "lat": 48.816669}}, {"id": 3012313, "name": "Joinville-le-Pont", "country": "FR", "coord": {"lon": 2.47458, "lat": 48.825378}}, {"id": 7871588, "name": "Jois", "country": "AT", "coord": {"lon": 16.79607, "lat": 47.955231}}, {"id": 2775040, "name": "Jois", "country": "AT", "coord": {"lon": 16.79604, "lat": 47.961651}}, {"id": 675193, "name": "Joita", "country": "RO", "coord": {"lon": 25.853889, "lat": 44.494171}}, {"id": 1642420, "name": "Jojogan", "country": "ID", "coord": {"lon": 111.788101, "lat": -6.9709}}, {"id": 2408399, "name": "Jojoima", "country": "SL", "coord": {"lon": -10.78778, "lat": 7.87917}}, {"id": 3526467, "name": "Jojutla de Juarez", "country": "MX", "coord": {"lon": -99.183327, "lat": 18.616671}}, {"id": 655693, "name": "Jokioinen", "country": "FI", "coord": {"lon": 23.5, "lat": 60.833328}}, {"id": 655692, "name": "Jokioinen", "country": "FI", "coord": {"lon": 23.48004, "lat": 60.80162}}, {"id": 2702997, "name": "Jokkmokk", "country": "SE", "coord": {"lon": 19.82324, "lat": 66.606651}}, {"id": 2702996, "name": "Jokkmokks Kommun", "country": "SE", "coord": {"lon": 19.25, "lat": 66.666672}}, {"id": 3819050, "name": "Jolalpan", "country": "MX", "coord": {"lon": -98.841667, "lat": 18.325001}}, {"id": 1268834, "name": "Jolarpettai", "country": "IN", "coord": {"lon": 78.583328, "lat": 12.56667}}, {"id": 6551560, "name": "Joldelund", "country": "DE", "coord": {"lon": 9.13333, "lat": 54.650002}}, {"id": 2894734, "name": "Joldelund", "country": "DE", "coord": {"lon": 9.13333, "lat": 54.650002}}, {"id": 4898015, "name": "Joliet", "country": "US", "coord": {"lon": -88.081734, "lat": 41.525028}}, {"id": 5987650, "name": "Joliette", "country": "CA", "coord": {"lon": -73.44915, "lat": 46.016769}}, {"id": 4767082, "name": "Jolivue", "country": "US", "coord": {"lon": -79.073082, "lat": 38.109852}}, {"id": 4701458, "name": "Jollyville", "country": "US", "coord": {"lon": -97.775009, "lat": 30.442699}}, {"id": 1710143, "name": "Jolo", "country": "PH", "coord": {"lon": 121.01667, "lat": 6.05}}, {"id": 1710141, "name": "Jolo", "country": "PH", "coord": {"lon": 121.00222, "lat": 6.05222}}, {"id": 8068130, "name": "Jolotundo", "country": "ID", "coord": {"lon": 111.446503, "lat": -6.7039}}, {"id": 3041761, "name": "Jomala", "country": "AX", "coord": {"lon": 19.91667, "lat": 60.166672}}, {"id": 3041760, "name": "Jomala", "country": "AX", "coord": {"lon": 19.951, "lat": 60.149021}}, {"id": 1642414, "name": "Jombang", "country": "ID", "coord": {"lon": 112.23307, "lat": -7.54595}}, {"id": 7350563, "name": "Jombang", "country": "ID", "coord": {"lon": 113.302597, "lat": -8.2329}}, {"id": 7333215, "name": "Jomblang", "country": "ID", "coord": {"lon": 111.440002, "lat": -7.0184}}, {"id": 8075125, "name": "Jombok", "country": "ID", "coord": {"lon": 111.645798, "lat": -6.8823}}, {"id": 1217414, "name": "Jomboy", "country": "UZ", "coord": {"lon": 67.09333, "lat": 39.698891}}, {"id": 1280927, "name": "Jomda", "country": "CN", "coord": {"lon": 98.26667, "lat": 31.5}}, {"id": 1283295, "name": "Jomosom", "country": "NP", "coord": {"lon": 83.73333, "lat": 28.783333}}, {"id": 7800940, "name": "Jomsom", "country": "NP", "coord": {"lon": 83.770432, "lat": 28.76696}}, {"id": 7910491, "name": "Jomsom", "country": "NP", "coord": {"lon": 83.73513, "lat": 28.784361}}, {"id": 2660221, "name": "Jona", "country": "CH", "coord": {"lon": 8.83884, "lat": 47.229832}}, {"id": 3526458, "name": "Jonacatepec de Leandro Valle", "country": "MX", "coord": {"lon": -98.800003, "lat": 18.683331}}, {"id": 6534832, "name": "Jonadi", "country": "IT", "coord": {"lon": 16.061001, "lat": 38.629879}}, {"id": 3012303, "name": "Jonage", "country": "FR", "coord": {"lon": 5.0453, "lat": 45.796398}}, {"id": 6550543, "name": "Jonaswalde", "country": "DE", "coord": {"lon": 12.2879, "lat": 50.839199}}, {"id": 2894724, "name": "Jonaswalde", "country": "DE", "coord": {"lon": 12.3, "lat": 50.833328}}, {"id": 4473661, "name": "Jonathan", "country": "US", "coord": {"lon": -83.017921, "lat": 35.5676}}, {"id": 598818, "name": "Jonava", "country": "LT", "coord": {"lon": 24.283331, "lat": 55.083328}}, {"id": 3012298, "name": "Joncherey", "country": "FR", "coord": {"lon": 7.00158, "lat": 47.526161}}, {"id": 3012295, "name": "Jonchery-sur-Vesle", "country": "FR", "coord": {"lon": 3.81346, "lat": 49.28952}}, {"id": 6691643, "name": "Jonction", "country": "CH", "coord": {"lon": 6.1302, "lat": 46.201279}}, {"id": 3150805, "name": "Jondal", "country": "NO", "coord": {"lon": 6.25229, "lat": 60.275612}}, {"id": 2162187, "name": "Jondaryan", "country": "AU", "coord": {"lon": 151.600006, "lat": -27.366671}}, {"id": 7286164, "name": "Jonen", "country": "CH", "coord": {"lon": 8.40219, "lat": 47.299679}}, {"id": 2660220, "name": "Jonen", "country": "CH", "coord": {"lon": 8.39337, "lat": 47.297401}}, {"id": 4539726, "name": "Jones", "country": "US", "coord": {"lon": -97.28698, "lat": 35.565891}}, {"id": 1710122, "name": "Jones", "country": "PH", "coord": {"lon": 121.702904, "lat": 16.5571}}, {"id": 4160443, "name": "Jones Corner", "country": "US", "coord": {"lon": -81.814247, "lat": 28.03335}}, {"id": 4862800, "name": "Jones County", "country": "US", "coord": {"lon": -91.133476, "lat": 42.116669}}, {"id": 4431982, "name": "Jones County", "country": "US", "coord": {"lon": -89.157562, "lat": 31.672661}}, {"id": 4701510, "name": "Jones Creek", "country": "US", "coord": {"lon": -95.455223, "lat": 28.96858}}, {"id": 4070245, "name": "Jones Crossroads", "country": "US", "coord": {"lon": -85.484657, "lat": 31.21073}}, {"id": 4862816, "name": "Jones Siding", "country": "US", "coord": {"lon": -94.208023, "lat": 42.67997}}, {"id": 4116834, "name": "Jonesboro", "country": "US", "coord": {"lon": -90.704277, "lat": 35.8423}}, {"id": 4203316, "name": "Jonesboro", "country": "US", "coord": {"lon": -84.353813, "lat": 33.5215}}, {"id": 4241992, "name": "Jonesboro", "country": "US", "coord": {"lon": -89.268143, "lat": 37.451721}}, {"id": 4329308, "name": "Jonesboro", "country": "US", "coord": {"lon": -92.715988, "lat": 32.241268}}, {"id": 4922150, "name": "Jonesboro", "country": "US", "coord": {"lon": -85.627747, "lat": 40.479759}}, {"id": 4633848, "name": "Jonesborough", "country": "US", "coord": {"lon": -82.47348, "lat": 36.29427}}, {"id": 4968499, "name": "Jonesport", "country": "US", "coord": {"lon": -67.598328, "lat": 44.53286}}, {"id": 4432041, "name": "Jonestown", "country": "US", "coord": {"lon": -90.45565, "lat": 34.31955}}, {"id": 4701592, "name": "Jonestown", "country": "US", "coord": {"lon": -97.923347, "lat": 30.49547}}, {"id": 5195606, "name": "Jonestown", "country": "US", "coord": {"lon": -76.478302, "lat": 40.4137}}, {"id": 4070315, "name": "Jonesville", "country": "US", "coord": {"lon": -85.904121, "lat": 31.893209}}, {"id": 5987855, "name": "Jonesville", "country": "CA", "coord": {"lon": -86.952759, "lat": 49.706532}}, {"id": 4329317, "name": "Jonesville", "country": "US", "coord": {"lon": -91.818176, "lat": 31.62656}}, {"id": 4473796, "name": "Jonesville", "country": "US", "coord": {"lon": -80.844521, "lat": 36.2393}}, {"id": 4767229, "name": "Jonesville", "country": "US", "coord": {"lon": -83.111, "lat": 36.68898}}, {"id": 4997698, "name": "Jonesville", "country": "US", "coord": {"lon": -84.661903, "lat": 41.984211}}, {"id": 408662, "name": "Jonglei State", "country": "SS", "coord": {"lon": 32.400002, "lat": 7.4}}, {"id": 7286165, "name": "Jongny", "country": "CH", "coord": {"lon": 6.84659, "lat": 46.48761}}, {"id": 6697711, "name": "Jongny", "country": "CH", "coord": {"lon": 6.84114, "lat": 46.478828}}, {"id": 8052335, "name": "Jongorsari", "country": "ID", "coord": {"lon": 108.279602, "lat": -7.1008}}, {"id": 770028, "name": "Joniec", "country": "PL", "coord": {"lon": 20.58177, "lat": 52.60128}}, {"id": 598796, "name": "Joniskis", "country": "LT", "coord": {"lon": 23.61528, "lat": 56.24028}}, {"id": 598803, "name": "Joni\u0161k\u0117lis", "country": "LT", "coord": {"lon": 24.16889, "lat": 56.02528}}, {"id": 2702979, "name": "Jonkoping", "country": "SE", "coord": {"lon": 14.15618, "lat": 57.781448}}, {"id": 770025, "name": "Jonkowo", "country": "PL", "coord": {"lon": 20.310539, "lat": 53.828171}}, {"id": 3012282, "name": "Jonquerettes", "country": "FR", "coord": {"lon": 4.93286, "lat": 43.946548}}, {"id": 7303786, "name": "Jonquiere", "country": "CA", "coord": {"lon": -71.24884, "lat": 48.416481}}, {"id": 3012277, "name": "Jonquieres", "country": "FR", "coord": {"lon": 4.90003, "lat": 44.114311}}, {"id": 3012275, "name": "Jonquieres-Saint-Vincent", "country": "FR", "coord": {"lon": 4.56327, "lat": 43.828091}}, {"id": 3012274, "name": "Jons", "country": "FR", "coord": {"lon": 5.08032, "lat": 45.807968}}, {"id": 7286166, "name": "Jonschwil", "country": "CH", "coord": {"lon": 9.08848, "lat": 47.42831}}, {"id": 2660219, "name": "Jonschwil", "country": "CH", "coord": {"lon": 9.08689, "lat": 47.424019}}, {"id": 2702923, "name": "Jonstorp", "country": "SE", "coord": {"lon": 12.71667, "lat": 58}}, {"id": 8058326, "name": "Jontro", "country": "ID", "coord": {"lon": 111.070801, "lat": -6.692}}, {"id": 3526453, "name": "Jonuta", "country": "MX", "coord": {"lon": -92.133331, "lat": 18.08333}}, {"id": 3012266, "name": "Jonzac", "country": "FR", "coord": {"lon": -0.43333, "lat": 45.450001}}, {"id": 3012262, "name": "Jonzieux", "country": "FR", "coord": {"lon": 4.36041, "lat": 45.315819}}, {"id": 1268831, "name": "Jon\u0101pura", "country": "IN", "coord": {"lon": 78.23333, "lat": 26.299999}}, {"id": 7839517, "name": "Joondalup", "country": "AU", "coord": {"lon": 115.764977, "lat": -31.779619}}, {"id": 6695255, "name": "Joondalup", "country": "AU", "coord": {"lon": 115.768349, "lat": -31.74445}}, {"id": 4392768, "name": "Joplin", "country": "US", "coord": {"lon": -94.513283, "lat": 37.084229}}, {"id": 4359619, "name": "Joppatowne", "country": "US", "coord": {"lon": -76.35524, "lat": 39.45789}}, {"id": 6535725, "name": "Joppolo", "country": "IT", "coord": {"lon": 15.89709, "lat": 38.583382}}, {"id": 3526450, "name": "Joquicingo de Leon Guzman", "country": "MX", "coord": {"lon": -99.466667, "lat": 19.049999}}, {"id": 1268823, "name": "Jora", "country": "IN", "coord": {"lon": 77.816673, "lat": 26.33333}}, {"id": 675182, "name": "Jorasti", "country": "RO", "coord": {"lon": 27.866671, "lat": 45.98333}}, {"id": 6356133, "name": "Jorba", "country": "ES", "coord": {"lon": 1.5285, "lat": 41.603291}}, {"id": 3120122, "name": "Jorba", "country": "ES", "coord": {"lon": 1.5475, "lat": 41.601929}}, {"id": 6361541, "name": "Jorcas", "country": "ES", "coord": {"lon": -0.75389, "lat": 40.548271}}, {"id": 3120121, "name": "Jorcas", "country": "ES", "coord": {"lon": -0.75308, "lat": 40.542759}}, {"id": 2753201, "name": "Jordaan", "country": "NL", "coord": {"lon": 4.88059, "lat": 52.37439}}, {"id": 5258115, "name": "Jordan", "country": "US", "coord": {"lon": -89.505119, "lat": 44.574692}}, {"id": 1710116, "name": "Jordan", "country": "PH", "coord": {"lon": 122.596298, "lat": 10.65836}}, {"id": 5032106, "name": "Jordan", "country": "US", "coord": {"lon": -93.6269, "lat": 44.666908}}, {"id": 5122893, "name": "Jordan", "country": "US", "coord": {"lon": -76.472992, "lat": 43.065338}}, {"id": 5659996, "name": "Jordan", "country": "US", "coord": {"lon": -106.910072, "lat": 47.320831}}, {"id": 2516298, "name": "Jordana", "country": "ES", "coord": {"lon": -0.76333, "lat": 37.613899}}, {"id": 3097107, "name": "Jordanow", "country": "PL", "coord": {"lon": 19.829809, "lat": 49.649349}}, {"id": 3097104, "name": "Jordanow Slaski", "country": "PL", "coord": {"lon": 16.868731, "lat": 50.864208}}, {"id": 7531432, "name": "Jordan\u00f3w", "country": "PL", "coord": {"lon": 19.83713, "lat": 49.64888}}, {"id": 2702908, "name": "Jordbro", "country": "SE", "coord": {"lon": 18.116671, "lat": 59.149719}}, {"id": 2894707, "name": "Jordenstorf", "country": "DE", "coord": {"lon": 12.61667, "lat": 53.883331}}, {"id": 7279751, "name": "Jorethang", "country": "IN", "coord": {"lon": 88.323318, "lat": 27.10696}}, {"id": 2544968, "name": "Jorf", "country": "MA", "coord": {"lon": -4.40598, "lat": 31.494419}}, {"id": 1268820, "name": "Jorhat", "country": "IN", "coord": {"lon": 94.216667, "lat": 26.75}}, {"id": 6552803, "name": "Jork", "country": "DE", "coord": {"lon": 9.68333, "lat": 53.533298}}, {"id": 2894702, "name": "Jork", "country": "DE", "coord": {"lon": 9.68333, "lat": 53.533329}}, {"id": 2894699, "name": "Jorl", "country": "DE", "coord": {"lon": 9.3, "lat": 54.599998}}, {"id": 1710112, "name": "Joroan", "country": "PH", "coord": {"lon": 123.618896, "lat": 13.4885}}, {"id": 3913271, "name": "Jorochito", "country": "BO", "coord": {"lon": -63.433331, "lat": -18.049999}}, {"id": 655627, "name": "Joroinen", "country": "FI", "coord": {"lon": 27.83333, "lat": 62.166672}}, {"id": 655626, "name": "Joroinen", "country": "FI", "coord": {"lon": 27.83165, "lat": 62.17823}}, {"id": 7377900, "name": "Jorok Dalam", "country": "ID", "coord": {"lon": 117.1353, "lat": -8.4112}}, {"id": 7086717, "name": "Jorong Lauk", "country": "ID", "coord": {"lon": 116.575104, "lat": -8.5666}}, {"id": 7335362, "name": "Jorowaru Daya", "country": "ID", "coord": {"lon": 116.4814, "lat": -8.7872}}, {"id": 3150742, "name": "Jorpeland", "country": "NO", "coord": {"lon": 6.04078, "lat": 59.022511}}, {"id": 6355332, "name": "Jorquera", "country": "ES", "coord": {"lon": -1.54245, "lat": 39.156281}}, {"id": 2516295, "name": "Jorquera", "country": "ES", "coord": {"lon": -1.51667, "lat": 39.166672}}, {"id": 6427271, "name": "Jort", "country": "FR", "coord": {"lon": -0.08333, "lat": 48.966671}}, {"id": 3012255, "name": "Jort", "country": "FR", "coord": {"lon": -0.07982, "lat": 48.972851}}, {"id": 2335953, "name": "Jos", "country": "NG", "coord": {"lon": 8.9, "lat": 9.91667}}, {"id": 6361542, "name": "Josa", "country": "ES", "coord": {"lon": -0.77276, "lat": 40.962791}}, {"id": 3120118, "name": "Josa", "country": "ES", "coord": {"lon": -0.76683, "lat": 40.955502}}, {"id": 3442233, "name": "Jose Batlle y Ordonez", "country": "UY", "coord": {"lon": -55.116669, "lat": -33.466671}}, {"id": 3459667, "name": "Jose Bonifacio", "country": "BR", "coord": {"lon": -49.688332, "lat": -21.05278}}, {"id": 3442231, "name": "Jose Enrique Rodo", "country": "UY", "coord": {"lon": -57.566669, "lat": -33.683331}}, {"id": 1710103, "name": "Jose Panganiban", "country": "PH", "coord": {"lon": 122.691704, "lat": 14.2906}}, {"id": 3442221, "name": "Jose Pedro Varela", "country": "UY", "coord": {"lon": -54.533329, "lat": -33.450001}}, {"id": 3397230, "name": "Jose de Freitas", "country": "BR", "coord": {"lon": -42.575562, "lat": -4.75639}}, {"id": 3853479, "name": "Jose de San Martin", "country": "AR", "coord": {"lon": -70.469673, "lat": -44.05032}}, {"id": 3853477, "name": "Josefina", "country": "AR", "coord": {"lon": -61.991829, "lat": -31.406219}}, {"id": 1710105, "name": "Josefina", "country": "PH", "coord": {"lon": 123.533333, "lat": 8.2}}, {"id": 993643, "name": "Josefsdeel", "country": "ZA", "coord": {"lon": 26.21751, "lat": -30.58157}}, {"id": 3074049, "name": "Josefuv Dul", "country": "CZ", "coord": {"lon": 15.23146, "lat": 50.78191}}, {"id": 675171, "name": "Joseni", "country": "RO", "coord": {"lon": 25.5, "lat": 46.700001}}, {"id": 675168, "name": "Josenii Bargaului", "country": "RO", "coord": {"lon": 24.683331, "lat": 47.216671}}, {"id": 3459605, "name": "Josen\u00f3polis", "country": "BR", "coord": {"lon": -42.515282, "lat": -16.54722}}, {"id": 5734100, "name": "Joseph", "country": "US", "coord": {"lon": -117.229607, "lat": 45.354321}}, {"id": 5300182, "name": "Joseph City", "country": "US", "coord": {"lon": -110.334007, "lat": 34.95586}}, {"id": 5987945, "name": "Josephburg", "country": "CA", "coord": {"lon": -113.085281, "lat": 53.716839}}, {"id": 5734120, "name": "Josephine County", "country": "US", "coord": {"lon": -123.584511, "lat": 42.4165}}, {"id": 2162151, "name": "Josephville", "country": "AU", "coord": {"lon": 152.933334, "lat": -28.033331}}, {"id": 3198582, "name": "Joseva", "country": "RS", "coord": {"lon": 19.408331, "lat": 44.586391}}, {"id": 1268814, "name": "Joshimath", "country": "IN", "coord": {"lon": 79.566673, "lat": 30.566669}}, {"id": 4701659, "name": "Joshua", "country": "US", "coord": {"lon": -97.388069, "lat": 32.461529}}, {"id": 5361298, "name": "Joshua Tree", "country": "US", "coord": {"lon": -116.313072, "lat": 34.134731}}, {"id": 3198576, "name": "Josipovac", "country": "HR", "coord": {"lon": 18.58139, "lat": 45.582779}}, {"id": 2894667, "name": "Jossa", "country": "DE", "coord": {"lon": 9.6, "lat": 50.23333}}, {"id": 6433843, "name": "Josse", "country": "FR", "coord": {"lon": -1.21667, "lat": 43.633331}}, {"id": 3012249, "name": "Josse", "country": "FR", "coord": {"lon": -1.21952, "lat": 43.641899}}, {"id": 3012248, "name": "Josselin", "country": "FR", "coord": {"lon": -2.54713, "lat": 47.957199}}, {"id": 598787, "name": "Josvainiai", "country": "LT", "coord": {"lon": 23.83333, "lat": 55.25}}, {"id": 3459681, "name": "Jos\u00e9 Alves", "country": "BR", "coord": {"lon": -45.383331, "lat": -20.950001}}, {"id": 3526446, "name": "Jos\u00e9 Cardel", "country": "MX", "coord": {"lon": -96.366669, "lat": 19.366671}}, {"id": 3433321, "name": "Jos\u00e9 M\u00e1rmol", "country": "AR", "coord": {"lon": -58.374889, "lat": -34.787998}}, {"id": 3433319, "name": "Jos\u00e9 Santos Ar\u00e9valo", "country": "AR", "coord": {"lon": -59.223129, "lat": -35.17421}}, {"id": 3397233, "name": "Jos\u00e9 da Penha", "country": "BR", "coord": {"lon": -38.281391, "lat": -6.31667}}, {"id": 3012241, "name": "Jouanicot", "country": "FR", "coord": {"lon": 1.23542, "lat": 44.669239}}, {"id": 3012236, "name": "Jouarre", "country": "FR", "coord": {"lon": 3.13168, "lat": 48.926609}}, {"id": 3012234, "name": "Jouars-Pontchartrain", "country": "FR", "coord": {"lon": 1.89898, "lat": 48.788879}}, {"id": 273185, "name": "Joubb Jannine", "country": "LB", "coord": {"lon": 35.784168, "lat": 33.626942}}, {"id": 3012232, "name": "Joubert", "country": "FR", "coord": {"lon": 3.6707, "lat": 45.490181}}, {"id": 3012227, "name": "Joudreville", "country": "FR", "coord": {"lon": 5.77832, "lat": 49.285599}}, {"id": 3012219, "name": "Joue-les-Tours", "country": "FR", "coord": {"lon": 0.66906, "lat": 47.35223}}, {"id": 3012217, "name": "Joue-sur-Erdre", "country": "FR", "coord": {"lon": -1.42047, "lat": 47.49596}}, {"id": 3012216, "name": "Jouet-sur-lAubois", "country": "FR", "coord": {"lon": 2.98725, "lat": 47.04562}}, {"id": 3012211, "name": "Jougne", "country": "FR", "coord": {"lon": 6.38838, "lat": 46.762909}}, {"id": 3012200, "name": "Jouques", "country": "FR", "coord": {"lon": 5.64006, "lat": 43.637501}}, {"id": 4701686, "name": "Jourdanton", "country": "US", "coord": {"lon": -98.54641, "lat": 28.91803}}, {"id": 2753197, "name": "Joure", "country": "NL", "coord": {"lon": 5.80301, "lat": 52.965698}}, {"id": 5988058, "name": "Joussard", "country": "CA", "coord": {"lon": -115.93573, "lat": 55.36681}}, {"id": 655581, "name": "Joutsa", "country": "FI", "coord": {"lon": 26.116671, "lat": 61.73333}}, {"id": 655582, "name": "Joutsa", "country": "FI", "coord": {"lon": 26.25, "lat": 61.75}}, {"id": 655563, "name": "Joutseno", "country": "FI", "coord": {"lon": 28.507629, "lat": 61.117962}}, {"id": 3012174, "name": "Joux-la-Ville", "country": "FR", "coord": {"lon": 3.86217, "lat": 47.62241}}, {"id": 3012170, "name": "Jouy", "country": "FR", "coord": {"lon": 1.54501, "lat": 48.510052}}, {"id": 6443996, "name": "Jouy-Mauvoisin", "country": "FR", "coord": {"lon": 1.65, "lat": 48.98333}}, {"id": 3012159, "name": "Jouy-Mauvoisin", "country": "FR", "coord": {"lon": 1.6482, "lat": 48.975899}}, {"id": 3012167, "name": "Jouy-aux-Arches", "country": "FR", "coord": {"lon": 6.08023, "lat": 49.06308}}, {"id": 6437051, "name": "Jouy-en-Argonne", "country": "FR", "coord": {"lon": 5.21667, "lat": 49.133331}}, {"id": 3012166, "name": "Jouy-en-Argonne", "country": "FR", "coord": {"lon": 5.22323, "lat": 49.134178}}, {"id": 6443995, "name": "Jouy-en-Josas", "country": "FR", "coord": {"lon": 2.16667, "lat": 48.76667}}, {"id": 3012165, "name": "Jouy-en-Josas", "country": "FR", "coord": {"lon": 2.16966, "lat": 48.75909}}, {"id": 3012163, "name": "Jouy-le-Chatel", "country": "FR", "coord": {"lon": 3.13036, "lat": 48.666512}}, {"id": 6612925, "name": "Jouy-le-Moutier", "country": "FR", "coord": {"lon": 2.03333, "lat": 49.01667}}, {"id": 3012162, "name": "Jouy-le-Moutier", "country": "FR", "coord": {"lon": 2.04028, "lat": 49.010681}}, {"id": 3012161, "name": "Jouy-le-Potier", "country": "FR", "coord": {"lon": 1.81115, "lat": 47.745529}}, {"id": 6443700, "name": "Jouy-sur-Morin", "country": "FR", "coord": {"lon": 3.26667, "lat": 48.799999}}, {"id": 3012155, "name": "Jouy-sur-Morin", "country": "FR", "coord": {"lon": 3.27238, "lat": 48.794998}}, {"id": 6439117, "name": "Jou\u00e9-du-Bois", "country": "FR", "coord": {"lon": -0.23282, "lat": 48.582039}}, {"id": 3012224, "name": "Jou\u00e9-du-Bois", "country": "FR", "coord": {"lon": -0.23282, "lat": 48.582039}}, {"id": 6433030, "name": "Jou\u00e9-l\u00e8s-Tours", "country": "FR", "coord": {"lon": 0.66667, "lat": 47.349998}}, {"id": 3555907, "name": "Jovellanos", "country": "CU", "coord": {"lon": -81.194443, "lat": 22.80444}}, {"id": 1710097, "name": "Jovellar", "country": "PH", "coord": {"lon": 123.599899, "lat": 13.0695}}, {"id": 1710099, "name": "Jovellar", "country": "PH", "coord": {"lon": 126.455582, "lat": 7.0635}}, {"id": 6535074, "name": "Jovencan", "country": "IT", "coord": {"lon": 7.2726, "lat": 45.714859}}, {"id": 8012711, "name": "Jovim", "country": "PT", "coord": {"lon": -8.52192, "lat": 41.11264}}, {"id": 2738643, "name": "Jovim", "country": "PT", "coord": {"lon": -8.51903, "lat": 41.111019}}, {"id": 138327, "name": "Jowk\u0101n", "country": "IR", "coord": {"lon": 51.258701, "lat": 33.610401}}, {"id": 3595148, "name": "Joyabaj", "country": "GT", "coord": {"lon": -90.806107, "lat": 14.995}}, {"id": 5159356, "name": "Joyce", "country": "US", "coord": {"lon": -81.502899, "lat": 40.45507}}, {"id": 5988070, "name": "Joyce", "country": "CA", "coord": {"lon": -58.598518, "lat": 48.38332}}, {"id": 3012148, "name": "Joyeuse", "country": "FR", "coord": {"lon": 4.23781, "lat": 44.479721}}, {"id": 1185206, "name": "Joypurhat", "country": "BD", "coord": {"lon": 89.02169, "lat": 25.09433}}, {"id": 6440055, "name": "Joze", "country": "FR", "coord": {"lon": 3.31667, "lat": 45.866669}}, {"id": 3012144, "name": "Joze", "country": "FR", "coord": {"lon": 3.30079, "lat": 45.86039}}, {"id": 770008, "name": "Jozefoslaw", "country": "PL", "coord": {"lon": 21.046289, "lat": 52.100498}}, {"id": 769981, "name": "Jozefow", "country": "PL", "coord": {"lon": 21.235889, "lat": 52.13707}}, {"id": 769979, "name": "Jozefow", "country": "PL", "coord": {"lon": 20.695921, "lat": 52.194462}}, {"id": 770005, "name": "Jozefow", "country": "PL", "coord": {"lon": 23.054041, "lat": 50.48119}}, {"id": 770001, "name": "Jozefow nad Wisla", "country": "PL", "coord": {"lon": 21.830179, "lat": 51.041828}}, {"id": 6440056, "name": "Jozerand", "country": "FR", "coord": {"lon": 3.1, "lat": 46.033329}}, {"id": 3012251, "name": "Jozerand", "country": "FR", "coord": {"lon": 3.1, "lat": 46.033329}}, {"id": 45013, "name": "Jozf-e Sofl\u00e1", "country": "IR", "coord": {"lon": 48.224098, "lat": 30.365499}}, {"id": 3459776, "name": "Jo\u00e3o Ramalho", "country": "BR", "coord": {"lon": -50.76778, "lat": -22.25028}}, {"id": 3459830, "name": "Jo\u00e3o de Melo", "country": "BR", "coord": {"lon": -46.23333, "lat": -20.4}}, {"id": 616729, "name": "Jrahovit", "country": "AM", "coord": {"lon": 44.473721, "lat": 40.04533}}, {"id": 616722, "name": "Jrashen", "country": "AM", "coord": {"lon": 44.186642, "lat": 40.790279}}, {"id": 616724, "name": "Jrashen", "country": "AM", "coord": {"lon": 44.512589, "lat": 40.052761}}, {"id": 7036579, "name": "Jrebeng", "country": "ID", "coord": {"lon": 112.466202, "lat": -7.0051}}, {"id": 1268806, "name": "Jua", "country": "IN", "coord": {"lon": 73.933327, "lat": 15.53333}}, {"id": 3503950, "name": "Juan Adrian", "country": "DO", "coord": {"lon": -70.337318, "lat": 18.763651}}, {"id": 4003804, "name": "Juan Aldama", "country": "MX", "coord": {"lon": -103.39444, "lat": 24.290831}}, {"id": 3503936, "name": "Juan Antonio Alix", "country": "DO", "coord": {"lon": -70.599998, "lat": 19.4}}, {"id": 3853447, "name": "Juan Bautista Alberdi", "country": "AR", "coord": {"lon": -61.809818, "lat": -34.440102}}, {"id": 3853444, "name": "Juan Bernab\u00e9 Molina", "country": "AR", "coord": {"lon": -60.512981, "lat": -33.492828}}, {"id": 3708307, "name": "Juan Diaz", "country": "PA", "coord": {"lon": -80.283333, "lat": 8.46667}}, {"id": 3639107, "name": "Juan Griego", "country": "VE", "coord": {"lon": -63.965488, "lat": 11.08172}}, {"id": 3442206, "name": "Juan L. Lacaze", "country": "UY", "coord": {"lon": -57.416672, "lat": -34.433331}}, {"id": 3503845, "name": "Juan Lopez Abajo", "country": "DO", "coord": {"lon": -70.5, "lat": 19.433331}}, {"id": 3433293, "name": "Juan Mar\u00eda Guti\u00e9rrez", "country": "AR", "coord": {"lon": -58.190182, "lat": -34.840092}}, {"id": 3433291, "name": "Juan Pujol", "country": "AR", "coord": {"lon": -57.856121, "lat": -30.41873}}, {"id": 3825174, "name": "Juan Rodriguez Clara", "country": "MX", "coord": {"lon": -95.408333, "lat": 17.98333}}, {"id": 3526382, "name": "Juan Romero Gonz\u00e1lez", "country": "MX", "coord": {"lon": -99.099998, "lat": 19.5}}, {"id": 3503811, "name": "Juan Santiago", "country": "DO", "coord": {"lon": -71.589706, "lat": 18.703421}}, {"id": 3623318, "name": "Juan Vi\u00f1as", "country": "CR", "coord": {"lon": -83.744682, "lat": 9.89412}}, {"id": 3680176, "name": "Juan de Acosta", "country": "CO", "coord": {"lon": -75.033409, "lat": 10.82813}}, {"id": 3503900, "name": "Juan de Herrera", "country": "DO", "coord": {"lon": -71.238297, "lat": 18.87402}}, {"id": 3012142, "name": "Juan-les-Pins", "country": "FR", "coord": {"lon": 7.1073, "lat": 43.568451}}, {"id": 4565712, "name": "Juana Diaz", "country": "PR", "coord": {"lon": -66.506561, "lat": 18.05246}}, {"id": 4565713, "name": "Juana D\u00edaz Municipio", "country": "PR", "coord": {"lon": -66.492668, "lat": 18.048019}}, {"id": 8050985, "name": "Juana Koslay", "country": "AR", "coord": {"lon": -66.265282, "lat": -33.28944}}, {"id": 4003810, "name": "Juanacatlan", "country": "MX", "coord": {"lon": -103.166672, "lat": 20.51667}}, {"id": 3503910, "name": "Juancho", "country": "DO", "coord": {"lon": -71.293114, "lat": 17.857821}}, {"id": 3696057, "name": "Juanjui", "country": "PE", "coord": {"lon": -76.731354, "lat": -7.17785}}, {"id": 7544153, "name": "Juanjuiycillo", "country": "PE", "coord": {"lon": -76.735741, "lat": -7.18756}}, {"id": 655534, "name": "Juankoski", "country": "FI", "coord": {"lon": 28.366671, "lat": 63.049999}}, {"id": 655533, "name": "Juankoski", "country": "FI", "coord": {"lon": 28.35, "lat": 63.066669}}, {"id": 1804991, "name": "Juanshui", "country": "CN", "coord": {"lon": 113.886757, "lat": 29.303061}}, {"id": 4003757, "name": "Juarez", "country": "MX", "coord": {"lon": -100.083328, "lat": 25.65}}, {"id": 4020386, "name": "Juarez", "country": "MX", "coord": {"lon": -104.027496, "lat": 24.82056}}, {"id": 6360838, "name": "Juarros de Voltoya", "country": "ES", "coord": {"lon": -4.50863, "lat": 41.046249}}, {"id": 3120102, "name": "Juarros de Voltoya", "country": "ES", "coord": {"lon": -4.51922, "lat": 41.030972}}, {"id": 3459550, "name": "Juatuba", "country": "BR", "coord": {"lon": -44.342781, "lat": -19.951941}}, {"id": 6427272, "name": "Juaye-Mondaye", "country": "FR", "coord": {"lon": -0.68333, "lat": 49.200001}}, {"id": 3012141, "name": "Juaye-Mondaye", "country": "FR", "coord": {"lon": -0.69703, "lat": 49.213001}}, {"id": 3585401, "name": "Juayua", "country": "SV", "coord": {"lon": -89.74556, "lat": 13.84139}}, {"id": 3397175, "name": "Juazeirinho", "country": "BR", "coord": {"lon": -38.049999, "lat": -6.81667}}, {"id": 3397154, "name": "Juazeiro", "country": "BR", "coord": {"lon": -40.498611, "lat": -9.41167}}, {"id": 3397147, "name": "Juazeiro do Norte", "country": "BR", "coord": {"lon": -39.315281, "lat": -7.21306}}, {"id": 373303, "name": "Juba", "country": "SS", "coord": {"lon": 31.58247, "lat": 4.85165}}, {"id": 1710078, "name": "Juban", "country": "PH", "coord": {"lon": 123.987778, "lat": 12.84778}}, {"id": 74116, "name": "Juban", "country": "YE", "coord": {"lon": 44.874599, "lat": 14.01164}}, {"id": 2894646, "name": "Jubar", "country": "DE", "coord": {"lon": 10.91667, "lat": 52.700001}}, {"id": 1710071, "name": "Jubasan", "country": "PH", "coord": {"lon": 124.287201, "lat": 12.4844}}, {"id": 168972, "name": "Jubb al Jarrah", "country": "SY", "coord": {"lon": 37.323959, "lat": 34.834438}}, {"id": 1268802, "name": "Jubbal", "country": "IN", "coord": {"lon": 77.666672, "lat": 31.116671}}, {"id": 6692371, "name": "Jubbega", "country": "NL", "coord": {"lon": 6.12183, "lat": 53.00396}}, {"id": 2894644, "name": "Jubek", "country": "DE", "coord": {"lon": 9.4, "lat": 54.549999}}, {"id": 3433282, "name": "Jubileo", "country": "AR", "coord": {"lon": -58.63385, "lat": -31.73358}}, {"id": 1283290, "name": "Jubing", "country": "NP", "coord": {"lon": 86.699997, "lat": 27.583332}}, {"id": 6359469, "name": "Jubrique", "country": "ES", "coord": {"lon": -5.21867, "lat": 36.568489}}, {"id": 2516269, "name": "Jubrique", "country": "ES", "coord": {"lon": -5.2156, "lat": 36.564751}}, {"id": 7083205, "name": "Jubung", "country": "ID", "coord": {"lon": 113.637398, "lat": -8.1968}}, {"id": 3595108, "name": "Jucany\u00e1", "country": "GT", "coord": {"lon": -91.150002, "lat": 14.73333}}, {"id": 3397119, "name": "Jucas", "country": "BR", "coord": {"lon": -39.5275, "lat": -6.52528}}, {"id": 2894637, "name": "Juchen", "country": "DE", "coord": {"lon": 6.5, "lat": 51.099998}}, {"id": 2894627, "name": "Juchh\u00f6h", "country": "DE", "coord": {"lon": 12.21667, "lat": 50.450001}}, {"id": 4003739, "name": "Juchipila", "country": "MX", "coord": {"lon": -103.116669, "lat": 21.41667}}, {"id": 3526359, "name": "Juchique de Ferrer", "country": "MX", "coord": {"lon": -96.666672, "lat": 19.83333}}, {"id": 3526357, "name": "Juchitan de Zaragoza", "country": "MX", "coord": {"lon": -95.01667, "lat": 16.433331}}, {"id": 3526355, "name": "Juchitepec de Mariano Riva Palacio", "country": "MX", "coord": {"lon": -98.883331, "lat": 19.1}}, {"id": 4003737, "name": "Juchitlan", "country": "MX", "coord": {"lon": -104.116669, "lat": 20.08333}}, {"id": 769962, "name": "Juchnowiec Dolny", "country": "PL", "coord": {"lon": 23.136009, "lat": 53.015251}}, {"id": 7532326, "name": "Juchnowiec Ko\u015bcielny", "country": "PL", "coord": {"lon": 23.155001, "lat": 53.002399}}, {"id": 2894625, "name": "Juchsen", "country": "DE", "coord": {"lon": 10.48333, "lat": 50.48333}}, {"id": 2894621, "name": "Juckelberg", "country": "DE", "coord": {"lon": 12.63333, "lat": 50.933331}}, {"id": 6554554, "name": "Jucken", "country": "DE", "coord": {"lon": 6.23333, "lat": 50.049999}}, {"id": 2894620, "name": "Jucken", "country": "DE", "coord": {"lon": 6.23333, "lat": 50.049999}}, {"id": 675162, "name": "Jucu Herghelia", "country": "RO", "coord": {"lon": 23.799999, "lat": 46.849998}}, {"id": 3585398, "name": "Jucuapa", "country": "SV", "coord": {"lon": -88.383331, "lat": 13.51667}}, {"id": 3585395, "name": "Jucuaran", "country": "SV", "coord": {"lon": -88.24778, "lat": 13.25389}}, {"id": 3397108, "name": "Jucurutu", "country": "BR", "coord": {"lon": -37.020279, "lat": -6.03389}}, {"id": 3150699, "name": "Judaberg", "country": "NO", "coord": {"lon": 5.87315, "lat": 59.165852}}, {"id": 30616, "name": "Judaydah", "country": "YE", "coord": {"lon": 45.299622, "lat": 15.07512}}, {"id": 168887, "name": "Judaydat Khabur", "country": "SY", "coord": {"lon": 39.466671, "lat": 35.816669}}, {"id": 168892, "name": "Judaydat al Kh\u0101\u015f\u015f", "country": "SY", "coord": {"lon": 36.54282, "lat": 33.405418}}, {"id": 248803, "name": "Judayta", "country": "JO", "coord": {"lon": 35.708019, "lat": 32.407921}}, {"id": 2162119, "name": "Judbury", "country": "AU", "coord": {"lon": 146.916672, "lat": -43}}, {"id": 6550300, "name": "Judenbach", "country": "DE", "coord": {"lon": 11.2167, "lat": 50.400002}}, {"id": 2894617, "name": "Judenbach", "country": "DE", "coord": {"lon": 11.21667, "lat": 50.400002}}, {"id": 7872380, "name": "Judenburg", "country": "AT", "coord": {"lon": 14.64898, "lat": 47.183392}}, {"id": 2775020, "name": "Judenburg", "country": "AT", "coord": {"lon": 14.66667, "lat": 47.166672}}, {"id": 2775017, "name": "Judendorf", "country": "AT", "coord": {"lon": 13.8, "lat": 47.133331}}, {"id": 2775018, "name": "Judendorf", "country": "AT", "coord": {"lon": 15.35, "lat": 47.116669}}, {"id": 686581, "name": "Jude\u0163ul Alba", "country": "RO", "coord": {"lon": 23.572451, "lat": 46.068169}}, {"id": 686253, "name": "Jude\u0163ul Arad", "country": "RO", "coord": {"lon": 21.75, "lat": 46.333328}}, {"id": 686192, "name": "Jude\u0163ul Arge\u015f", "country": "RO", "coord": {"lon": 24.83333, "lat": 45}}, {"id": 685947, "name": "Jude\u0163ul Bac\u0103u", "country": "RO", "coord": {"lon": 26.83333, "lat": 46.416672}}, {"id": 684878, "name": "Jude\u0163ul Bihor", "country": "RO", "coord": {"lon": 22.33333, "lat": 47}}, {"id": 684038, "name": "Jude\u0163ul Boto\u015fani", "country": "RO", "coord": {"lon": 26.75, "lat": 47.833328}}, {"id": 683843, "name": "Jude\u0163ul Bra\u015fov", "country": "RO", "coord": {"lon": 25.33333, "lat": 45.75}}, {"id": 683901, "name": "Jude\u0163ul Br\u0103ila", "country": "RO", "coord": {"lon": 27.66667, "lat": 45.083328}}, {"id": 683121, "name": "Jude\u0163ul Buz\u0103u", "country": "RO", "coord": {"lon": 26.75, "lat": 45.416672}}, {"id": 682714, "name": "Jude\u0163ul Cara\u015f-Severin", "country": "RO", "coord": {"lon": 22.08333, "lat": 45.083328}}, {"id": 681291, "name": "Jude\u0163ul Cluj", "country": "RO", "coord": {"lon": 23.818359, "lat": 46.649441}}, {"id": 680962, "name": "Jude\u0163ul Constan\u0163a", "country": "RO", "coord": {"lon": 28.33333, "lat": 44.25}}, {"id": 680428, "name": "Jude\u0163ul Covasna", "country": "RO", "coord": {"lon": 26, "lat": 45.916672}}, {"id": 679134, "name": "Jude\u0163ul Dolj", "country": "RO", "coord": {"lon": 23.75, "lat": 44.166672}}, {"id": 679385, "name": "Jude\u0163ul D\u00e2mbovi\u0163a", "country": "RO", "coord": {"lon": 25.5, "lat": 44.916672}}, {"id": 677104, "name": "Jude\u0163ul Giurgiu", "country": "RO", "coord": {"lon": 25.91667, "lat": 44.166672}}, {"id": 676898, "name": "Jude\u0163ul Gorj", "country": "RO", "coord": {"lon": 23.41667, "lat": 45.916672}}, {"id": 676309, "name": "Jude\u0163ul Harghita", "country": "RO", "coord": {"lon": 25.41667, "lat": 46.583328}}, {"id": 675917, "name": "Jude\u0163ul Hunedoara", "country": "RO", "coord": {"lon": 23, "lat": 45.75}}, {"id": 675848, "name": "Jude\u0163ul Ialomi\u0163a", "country": "RO", "coord": {"lon": 27, "lat": 44.666672}}, {"id": 675809, "name": "Jude\u0163ul Ia\u015fi", "country": "RO", "coord": {"lon": 27.25, "lat": 47.25}}, {"id": 865518, "name": "Jude\u0163ul Ilfov", "country": "RO", "coord": {"lon": 26.16667, "lat": 44.583328}}, {"id": 673887, "name": "Jude\u0163ul Maramure\u015f", "country": "RO", "coord": {"lon": 24, "lat": 47.666672}}, {"id": 673612, "name": "Jude\u0163ul Mehedin\u0163i", "country": "RO", "coord": {"lon": 22.83333, "lat": 44.666672}}, {"id": 672628, "name": "Jude\u0163ul Mure\u015f", "country": "RO", "coord": {"lon": 24.58333, "lat": 46.666672}}, {"id": 672460, "name": "Jude\u0163ul Neam\u0163", "country": "RO", "coord": {"lon": 26.5, "lat": 47}}, {"id": 671857, "name": "Jude\u0163ul Olt", "country": "RO", "coord": {"lon": 24.5, "lat": 44.333328}}, {"id": 669737, "name": "Jude\u0163ul Prahova", "country": "RO", "coord": {"lon": 26, "lat": 45.166672}}, {"id": 667869, "name": "Jude\u0163ul Satu Mare", "country": "RO", "coord": {"lon": 23, "lat": 47.75}}, {"id": 667267, "name": "Jude\u0163ul Sibiu", "country": "RO", "coord": {"lon": 24.143829, "lat": 45.784279}}, {"id": 665849, "name": "Jude\u0163ul Suceava", "country": "RO", "coord": {"lon": 25.75, "lat": 47.583328}}, {"id": 668248, "name": "Jude\u0163ul S\u0103laj", "country": "RO", "coord": {"lon": 23.25, "lat": 47.166672}}, {"id": 665283, "name": "Jude\u0163ul Teleorman", "country": "RO", "coord": {"lon": 25.16667, "lat": 44.083328}}, {"id": 665091, "name": "Jude\u0163ul Timi\u015f", "country": "RO", "coord": {"lon": 21.5, "lat": 45.666672}}, {"id": 664517, "name": "Jude\u0163ul Tulcea", "country": "RO", "coord": {"lon": 28.83333, "lat": 45}}, {"id": 663116, "name": "Jude\u0163ul Vaslui", "country": "RO", "coord": {"lon": 27.75, "lat": 46.5}}, {"id": 662447, "name": "Jude\u0163ul Vrancea", "country": "RO", "coord": {"lon": 26.91667, "lat": 45.75}}, {"id": 5032145, "name": "Judge", "country": "US", "coord": {"lon": -92.476013, "lat": 43.899132}}, {"id": 2189364, "name": "Judgeford", "country": "NZ", "coord": {"lon": 174.933334, "lat": -41.116669}}, {"id": 294622, "name": "Judieda Makr", "country": "IL", "coord": {"lon": 35.154999, "lat": 32.92556}}, {"id": 5988173, "name": "Judique", "country": "CA", "coord": {"lon": -61.491169, "lat": 45.87627}}, {"id": 5988183, "name": "Judson", "country": "CA", "coord": {"lon": -112.351807, "lat": 49.53331}}, {"id": 4583795, "name": "Judson", "country": "US", "coord": {"lon": -82.42762, "lat": 34.833172}}, {"id": 4116896, "name": "Judsonia", "country": "US", "coord": {"lon": -91.639862, "lat": 35.270081}}, {"id": 1804979, "name": "Juegang", "country": "CN", "coord": {"lon": 121.185516, "lat": 32.317371}}, {"id": 2619251, "name": "Juelsminde", "country": "DK", "coord": {"lon": 10.01668, "lat": 55.708759}}, {"id": 591876, "name": "Jueri", "country": "EE", "coord": {"lon": 24.894171, "lat": 59.354172}}, {"id": 1804977, "name": "Juexi", "country": "CN", "coord": {"lon": 121.94722, "lat": 29.47361}}, {"id": 8052293, "name": "Jugantang", "country": "ID", "coord": {"lon": 108.330101, "lat": -7.1004}}, {"id": 6432257, "name": "Jugazan", "country": "FR", "coord": {"lon": -0.16667, "lat": 44.783329}}, {"id": 3012133, "name": "Jugazan", "country": "FR", "coord": {"lon": -0.15435, "lat": 44.781559}}, {"id": 2894581, "name": "Jugenheim", "country": "DE", "coord": {"lon": 8.085, "lat": 49.895}}, {"id": 1710062, "name": "Jugno", "country": "PH", "coord": {"lon": 123.203796, "lat": 9.4683}}, {"id": 3012129, "name": "Jugon-les-Lacs", "country": "FR", "coord": {"lon": -2.33333, "lat": 48.416672}}, {"id": 3097043, "name": "Jugow", "country": "PL", "coord": {"lon": 16.51812, "lat": 50.627579}}, {"id": 1268799, "name": "Jugsalai", "country": "IN", "coord": {"lon": 86.183327, "lat": 22.76667}}, {"id": 354981, "name": "Juhaynah", "country": "EG", "coord": {"lon": 31.497601, "lat": 26.673189}}, {"id": 2894577, "name": "Juhlschau", "country": "DE", "coord": {"lon": 9.46667, "lat": 54.716671}}, {"id": 2894576, "name": "Juhnde", "country": "DE", "coord": {"lon": 9.8, "lat": 51.466671}}, {"id": 6967895, "name": "Juhr ad Dik", "country": "PS", "coord": {"lon": 34.437191, "lat": 31.455709}}, {"id": 7780132, "name": "Juhut", "country": "ID", "coord": {"lon": 106.1064, "lat": -6.2955}}, {"id": 3120051, "name": "Juia", "country": "ES", "coord": {"lon": 2.91667, "lat": 42.01667}}, {"id": 3618908, "name": "Juigalpa", "country": "NI", "coord": {"lon": -85.364517, "lat": 12.10629}}, {"id": 3012124, "name": "Juigne", "country": "FR", "coord": {"lon": -0.39405, "lat": 47.718781}}, {"id": 3012120, "name": "Juigne-sur-Loire", "country": "FR", "coord": {"lon": -0.47682, "lat": 47.40741}}, {"id": 3012119, "name": "Juigne-sur-Sarthe", "country": "FR", "coord": {"lon": -0.28624, "lat": 47.86499}}, {"id": 7413791, "name": "Juiji", "country": "CN", "coord": {"lon": 102.931221, "lat": 35.64999}}, {"id": 3012113, "name": "Juillac", "country": "FR", "coord": {"lon": 1.32282, "lat": 45.318748}}, {"id": 3012109, "name": "Juillan", "country": "FR", "coord": {"lon": 0.0257, "lat": 43.199371}}, {"id": 6435459, "name": "Juilley", "country": "FR", "coord": {"lon": -1.35, "lat": 48.599998}}, {"id": 3012101, "name": "Juilley", "country": "FR", "coord": {"lon": -1.34542, "lat": 48.5984}}, {"id": 3012099, "name": "Juilly", "country": "FR", "coord": {"lon": 2.70563, "lat": 49.013748}}, {"id": 6552862, "name": "Juist", "country": "DE", "coord": {"lon": 6.99253, "lat": 53.6768}}, {"id": 2894569, "name": "Juist", "country": "DE", "coord": {"lon": 7, "lat": 53.683331}}, {"id": 3655400, "name": "Juivi", "country": "EC", "coord": {"lon": -78.400002, "lat": -1.38333}}, {"id": 3459504, "name": "Juiz de Fora", "country": "BR", "coord": {"lon": -43.438171, "lat": -21.74896}}, {"id": 3459505, "name": "Juiz de Fora", "country": "BR", "coord": {"lon": -43.350281, "lat": -21.76417}}, {"id": 6534072, "name": "Jui\u00e0", "country": "ES", "coord": {"lon": 2.90861, "lat": 42.015759}}, {"id": 6424557, "name": "Jujurieux", "country": "FR", "coord": {"lon": 5.41667, "lat": 46.033329}}, {"id": 3012094, "name": "Jujurieux", "country": "FR", "coord": {"lon": 5.41328, "lat": 46.039761}}, {"id": 3585392, "name": "Jujutla", "country": "SV", "coord": {"lon": -89.857224, "lat": 13.78694}}, {"id": 8070929, "name": "Jukung", "country": "ID", "coord": {"lon": 111.405602, "lat": -6.843}}, {"id": 1268785, "name": "Julana Shadipur", "country": "IN", "coord": {"lon": 76.416672, "lat": 29.133329}}, {"id": 2162101, "name": "Julatten", "country": "AU", "coord": {"lon": 145.350006, "lat": -16.616671}}, {"id": 105252, "name": "Julayjilah", "country": "SA", "coord": {"lon": 49.599998, "lat": 25.5}}, {"id": 6556562, "name": "Julbach", "country": "DE", "coord": {"lon": 12.9667, "lat": 48.25}}, {"id": 2894566, "name": "Julbach", "country": "DE", "coord": {"lon": 12.96667, "lat": 48.25}}, {"id": 2036368, "name": "Jule", "country": "CN", "coord": {"lon": 113.574722, "lat": 40.165001}}, {"id": 5578567, "name": "Julesburg", "country": "US", "coord": {"lon": -102.264351, "lat": 40.988331}}, {"id": 3937516, "name": "Juli", "country": "PE", "coord": {"lon": -69.449997, "lat": -16.216669}}, {"id": 2162098, "name": "Julia Creek", "country": "AU", "coord": {"lon": 141.733337, "lat": -20.65}}, {"id": 3937513, "name": "Juliaca", "country": "PE", "coord": {"lon": -70.133331, "lat": -15.5}}, {"id": 5361384, "name": "Julian", "country": "US", "coord": {"lon": -116.601959, "lat": 33.078659}}, {"id": 2753184, "name": "Julianadorp", "country": "NL", "coord": {"lon": 4.74028, "lat": 52.889999}}, {"id": 2963557, "name": "Julianstown", "country": "IE", "coord": {"lon": -6.31917, "lat": 53.677219}}, {"id": 769949, "name": "Julian\u00f3w", "country": "PL", "coord": {"lon": 21.52887, "lat": 51.32362}}, {"id": 2894553, "name": "Julich", "country": "DE", "coord": {"lon": 6.36667, "lat": 50.933331}}, {"id": 1910180, "name": "Juling", "country": "CN", "coord": {"lon": 113.960037, "lat": 33.862202}}, {"id": 3459495, "name": "Julio de Castilhos", "country": "BR", "coord": {"lon": -53.681671, "lat": -29.22694}}, {"id": 1710054, "name": "Julita", "country": "PH", "coord": {"lon": 124.96167, "lat": 10.97472}}, {"id": 6551455, "name": "Juliusburg", "country": "DE", "coord": {"lon": 10.5, "lat": 53.416698}}, {"id": 2894545, "name": "Juliusburg", "country": "DE", "coord": {"lon": 10.5, "lat": 53.416672}}, {"id": 3336453, "name": "Julle", "country": "AX", "coord": {"lon": 19.897499, "lat": 60.128609}}, {"id": 6434359, "name": "Jullianges", "country": "FR", "coord": {"lon": 3.78333, "lat": 45.299999}}, {"id": 3012089, "name": "Jullianges", "country": "FR", "coord": {"lon": 3.79167, "lat": 45.30571}}, {"id": 3012085, "name": "Jullouville", "country": "FR", "coord": {"lon": -1.56366, "lat": 48.775761}}, {"id": 8053613, "name": "Julun", "country": "CN", "coord": {"lon": 112.557739, "lat": 37.907398}}, {"id": 1217362, "name": "Juma", "country": "UZ", "coord": {"lon": 66.664169, "lat": 39.71611}}, {"id": 2162085, "name": "Jumbuk", "country": "AU", "coord": {"lon": 146.466675, "lat": -38.416672}}, {"id": 2162084, "name": "Jumbunna", "country": "AU", "coord": {"lon": 145.766663, "lat": -38.466671}}, {"id": 3012073, "name": "Jumelles", "country": "FR", "coord": {"lon": -0.1037, "lat": 47.435101}}, {"id": 7083070, "name": "Jumerto", "country": "ID", "coord": {"lon": 113.688103, "lat": -8.1379}}, {"id": 2794860, "name": "Jumet", "country": "BE", "coord": {"lon": 4.43745, "lat": 50.4422}}, {"id": 3012066, "name": "Jumieges", "country": "FR", "coord": {"lon": 0.81918, "lat": 49.433239}}, {"id": 6429407, "name": "Jumilhac-le-Grand", "country": "FR", "coord": {"lon": 1.0646, "lat": 45.494099}}, {"id": 3012062, "name": "Jumilhac-le-Grand", "country": "FR", "coord": {"lon": 1.06339, "lat": 45.49432}}, {"id": 2516255, "name": "Jumilla", "country": "ES", "coord": {"lon": -1.325, "lat": 38.479172}}, {"id": 6359527, "name": "Jumilla", "country": "ES", "coord": {"lon": -1.27513, "lat": 38.468819}}, {"id": 3526347, "name": "Jumiltepec", "country": "MX", "coord": {"lon": -98.783333, "lat": 18.9}}, {"id": 1283287, "name": "Jumla", "country": "NP", "coord": {"lon": 82.183327, "lat": 29.27528}}, {"id": 1283285, "name": "Jumla", "country": "NP", "coord": {"lon": 82.18383, "lat": 29.274719}}, {"id": 459220, "name": "Jumprava", "country": "LV", "coord": {"lon": 24.972099, "lat": 56.676128}}, {"id": 1268775, "name": "Jumri Tilaiya", "country": "IN", "coord": {"lon": 85.51667, "lat": 24.433331}}, {"id": 6357727, "name": "Jun", "country": "ES", "coord": {"lon": -3.5893, "lat": 37.217209}}, {"id": 2516254, "name": "Jun", "country": "ES", "coord": {"lon": -3.59407, "lat": 37.220829}}, {"id": 2162077, "name": "Junabee", "country": "AU", "coord": {"lon": 152.133331, "lat": -28.25}}, {"id": 1268773, "name": "Junagadh", "country": "IN", "coord": {"lon": 70.466667, "lat": 21.51667}}, {"id": 1268772, "name": "Junagarh", "country": "IN", "coord": {"lon": 82.933327, "lat": 19.866671}}, {"id": 1283284, "name": "Junbesi", "country": "NP", "coord": {"lon": 86.533333, "lat": 27.583332}}, {"id": 1804950, "name": "Junbu", "country": "CN", "coord": {"lon": 115.665642, "lat": 26.704519}}, {"id": 8012420, "name": "Juncal", "country": "PT", "coord": {"lon": -8.89779, "lat": 39.605598}}, {"id": 2267310, "name": "Juncal", "country": "PT", "coord": {"lon": -8.89928, "lat": 39.602428}}, {"id": 4565717, "name": "Juncal", "country": "PR", "coord": {"lon": -66.919067, "lat": 18.313841}}, {"id": 3503782, "name": "Juncalito Abajo", "country": "DO", "coord": {"lon": -70.819054, "lat": 19.2199}}, {"id": 8013065, "name": "Junceira", "country": "PT", "coord": {"lon": -8.33756, "lat": 39.607201}}, {"id": 1804946, "name": "Junchuan", "country": "CN", "coord": {"lon": 113.21843, "lat": 31.65206}}, {"id": 6355712, "name": "Junciana", "country": "ES", "coord": {"lon": -5.56522, "lat": 40.415722}}, {"id": 3120082, "name": "Junciana", "country": "ES", "coord": {"lon": -5.55698, "lat": 40.410759}}, {"id": 3397074, "name": "Junco do Serid\u00f3", "country": "BR", "coord": {"lon": -36.713058, "lat": -6.99667}}, {"id": 4565718, "name": "Juncos", "country": "PR", "coord": {"lon": -65.920998, "lat": 18.227461}}, {"id": 6358861, "name": "Juncosa", "country": "ES", "coord": {"lon": 0.79553, "lat": 41.37693}}, {"id": 3120075, "name": "Juncosa", "country": "ES", "coord": {"lon": 0.7765, "lat": 41.370331}}, {"id": 4701791, "name": "Junction", "country": "US", "coord": {"lon": -99.772011, "lat": 30.489361}}, {"id": 5541403, "name": "Junction", "country": "US", "coord": {"lon": -112.219933, "lat": 38.23748}}, {"id": 5361432, "name": "Junction Camp", "country": "US", "coord": {"lon": -119.980141, "lat": 34.731651}}, {"id": 4273680, "name": "Junction City", "country": "US", "coord": {"lon": -96.831398, "lat": 39.02861}}, {"id": 4296734, "name": "Junction City", "country": "US", "coord": {"lon": -84.793839, "lat": 37.586739}}, {"id": 5734198, "name": "Junction City", "country": "US", "coord": {"lon": -123.20565, "lat": 44.219292}}, {"id": 2162056, "name": "Junction View", "country": "AU", "coord": {"lon": 152.183334, "lat": -27.799999}}, {"id": 2162054, "name": "Jundah", "country": "AU", "coord": {"lon": 143.066666, "lat": -24.83333}}, {"id": 3397068, "name": "Jundia", "country": "BR", "coord": {"lon": -35.573608, "lat": -8.93472}}, {"id": 3459462, "name": "Jundiai", "country": "BR", "coord": {"lon": -46.884171, "lat": -23.18639}}, {"id": 6322341, "name": "Jundia\u00ed", "country": "BR", "coord": {"lon": -46.900799, "lat": -23.202999}}, {"id": 4160570, "name": "June Park", "country": "US", "coord": {"lon": -80.680061, "lat": 28.072241}}, {"id": 5258190, "name": "Juneau", "country": "US", "coord": {"lon": -88.705101, "lat": 43.405548}}, {"id": 5554072, "name": "Juneau", "country": "US", "coord": {"lon": -134.419724, "lat": 58.301941}}, {"id": 5554074, "name": "Juneau City and Borough", "country": "US", "coord": {"lon": -134.333328, "lat": 58.416672}}, {"id": 6358862, "name": "Juneda", "country": "ES", "coord": {"lon": 0.82853, "lat": 41.54002}}, {"id": 3120073, "name": "Juneda", "country": "ES", "coord": {"lon": 0.82451, "lat": 41.54847}}, {"id": 7839736, "name": "Junee", "country": "AU", "coord": {"lon": 147.631317, "lat": -34.815182}}, {"id": 2162052, "name": "Junee", "country": "AU", "coord": {"lon": 147.583328, "lat": -34.883331}}, {"id": 2162049, "name": "Junee Reefs", "country": "AU", "coord": {"lon": 147.616669, "lat": -34.73333}}, {"id": 2162046, "name": "Jung", "country": "AU", "coord": {"lon": 142.366669, "lat": -36.616669}}, {"id": 4003703, "name": "Jungapeo", "country": "MX", "coord": {"lon": -100.48333, "lat": 19.450001}}, {"id": 7873689, "name": "Jungholz", "country": "AT", "coord": {"lon": 10.45544, "lat": 47.574039}}, {"id": 2775000, "name": "Jungholz", "country": "AT", "coord": {"lon": 10.44723, "lat": 47.574089}}, {"id": 6555952, "name": "Jungingen", "country": "DE", "coord": {"lon": 9.05, "lat": 48.333302}}, {"id": 2894476, "name": "Jungingen", "country": "DE", "coord": {"lon": 9.05, "lat": 48.333328}}, {"id": 6693344, "name": "Junglinster", "country": "LU", "coord": {"lon": 6.25306, "lat": 49.707218}}, {"id": 2960400, "name": "Junglinster", "country": "LU", "coord": {"lon": 6.25306, "lat": 49.707218}}, {"id": 1844954, "name": "Jungpyong", "country": "KR", "coord": {"lon": 127.58194, "lat": 36.784721}}, {"id": 3120071, "name": "Junguitu", "country": "ES", "coord": {"lon": -2.59501, "lat": 42.872688}}, {"id": 3937486, "name": "Junin", "country": "PE", "coord": {"lon": -75.993057, "lat": -11.15889}}, {"id": 3853354, "name": "Junin", "country": "AR", "coord": {"lon": -60.943321, "lat": -34.58382}}, {"id": 3680113, "name": "Junin", "country": "CO", "coord": {"lon": -73.66011, "lat": 4.79027}}, {"id": 3655385, "name": "Junin", "country": "EC", "coord": {"lon": -80.216667, "lat": -0.93333}}, {"id": 3853350, "name": "Junin de los Andes", "country": "AR", "coord": {"lon": -71.069359, "lat": -39.950432}}, {"id": 7290048, "name": "Juniper", "country": "CA", "coord": {"lon": -67.221573, "lat": 46.549648}}, {"id": 2894456, "name": "Junkerath", "country": "DE", "coord": {"lon": 6.58333, "lat": 50.333328}}, {"id": 1804936, "name": "Junkou", "country": "CN", "coord": {"lon": 116.79467, "lat": 26.65814}}, {"id": 1804935, "name": "Junlian", "country": "CN", "coord": {"lon": 104.51162, "lat": 28.171061}}, {"id": 1268761, "name": "Junnar", "country": "IN", "coord": {"lon": 73.883331, "lat": 19.200001}}, {"id": 4160604, "name": "Juno Beach", "country": "US", "coord": {"lon": -80.053368, "lat": 26.87978}}, {"id": 2738622, "name": "Junqueira", "country": "PT", "coord": {"lon": -8.73333, "lat": 41.349998}}, {"id": 3459455, "name": "Junqueira", "country": "BR", "coord": {"lon": -51.549999, "lat": -20.83333}}, {"id": 3397063, "name": "Junqueiro", "country": "BR", "coord": {"lon": -36.47583, "lat": -9.92528}}, {"id": 3459452, "name": "Junqueiropolis", "country": "BR", "coord": {"lon": -51.433609, "lat": -21.514721}}, {"id": 2774998, "name": "Juns", "country": "AT", "coord": {"lon": 11.71667, "lat": 47.133331}}, {"id": 1804922, "name": "Junshan", "country": "CN", "coord": {"lon": 114.126984, "lat": 30.366051}}, {"id": 6356474, "name": "Junta de Traslaloma", "country": "ES", "coord": {"lon": -3.41005, "lat": 43.029442}}, {"id": 3623307, "name": "Juntas", "country": "CR", "coord": {"lon": -84.959511, "lat": 10.2809}}, {"id": 1804917, "name": "Junxi", "country": "CN", "coord": {"lon": 117.844704, "lat": 25.675079}}, {"id": 1785657, "name": "Junyang", "country": "CN", "coord": {"lon": 115.366669, "lat": 28.41667}}, {"id": 3120063, "name": "Junzano", "country": "ES", "coord": {"lon": -0.12858, "lat": 42.136768}}, {"id": 598706, "name": "Juodkrant\u0117", "country": "LT", "coord": {"lon": 21.122219, "lat": 55.544441}}, {"id": 598690, "name": "Juodupe", "country": "LT", "coord": {"lon": 25.616671, "lat": 56.083328}}, {"id": 4160610, "name": "Jupiter", "country": "US", "coord": {"lon": -80.094208, "lat": 26.934219}}, {"id": 3459447, "name": "Jupi\u00e1", "country": "BR", "coord": {"lon": -52.727779, "lat": -26.398331}}, {"id": 2794855, "name": "Juprelle", "country": "BE", "coord": {"lon": 5.53368, "lat": 50.70771}}, {"id": 2794854, "name": "Juprelle", "country": "BE", "coord": {"lon": 5.53127, "lat": 50.7076}}, {"id": 3459440, "name": "Juquia", "country": "BR", "coord": {"lon": -47.63472, "lat": -24.320829}}, {"id": 3459435, "name": "Juquitiba", "country": "BR", "coord": {"lon": -47.068329, "lat": -23.931669}}, {"id": 3680090, "name": "Jurado", "country": "CO", "coord": {"lon": -77.76413, "lat": 7.10534}}, {"id": 7351922, "name": "Juranalas", "country": "ID", "coord": {"lon": 116.997276, "lat": -8.52296}}, {"id": 3012049, "name": "Jurancon", "country": "FR", "coord": {"lon": -0.38694, "lat": 43.2883}}, {"id": 7771981, "name": "Juranda", "country": "BR", "coord": {"lon": -52.505798, "lat": -23.264669}}, {"id": 3459431, "name": "Juranda", "country": "BR", "coord": {"lon": -52.84306, "lat": -24.42028}}, {"id": 8068034, "name": "Jurangjero", "country": "ID", "coord": {"lon": 111.4832, "lat": -6.6455}}, {"id": 8073998, "name": "Jurangjero", "country": "ID", "coord": {"lon": 111.500397, "lat": -6.9035}}, {"id": 6440430, "name": "Juran\u00e7on", "country": "FR", "coord": {"lon": -0.3871, "lat": 43.2873}}, {"id": 283419, "name": "Jurat ash Shamah", "country": "PS", "coord": {"lon": 35.17001, "lat": 31.650511}}, {"id": 598655, "name": "Jurbarkas", "country": "LT", "coord": {"lon": 22.76639, "lat": 55.077782}}, {"id": 2794853, "name": "Jurbise", "country": "BE", "coord": {"lon": 3.91079, "lat": 50.53318}}, {"id": 2794852, "name": "Jurbise", "country": "BE", "coord": {"lon": 3.90942, "lat": 50.530998}}, {"id": 7630136, "name": "Juren", "country": "CN", "coord": {"lon": 127.279762, "lat": 45.76075}}, {"id": 2894415, "name": "Jurgenshagen", "country": "DE", "coord": {"lon": 11.89665, "lat": 53.95417}}, {"id": 2894409, "name": "Jurgenstorf", "country": "DE", "coord": {"lon": 12.9, "lat": 53.666672}}, {"id": 4003677, "name": "Jurica", "country": "MX", "coord": {"lon": -100.449997, "lat": 20.683331}}, {"id": 2079020, "name": "Jurien Bay", "country": "AU", "coord": {"lon": 115.037498, "lat": -30.304171}}, {"id": 675130, "name": "Jurilovca", "country": "RO", "coord": {"lon": 28.866671, "lat": 44.76667}}, {"id": 3397008, "name": "Juripiranga", "country": "BR", "coord": {"lon": -35.23806, "lat": -7.37333}}, {"id": 4003675, "name": "Juriquilla", "country": "MX", "coord": {"lon": -100.449997, "lat": 20.716669}}, {"id": 283408, "name": "Jurish", "country": "PS", "coord": {"lon": 35.32188, "lat": 32.101879}}, {"id": 1139085, "name": "Jurm", "country": "AF", "coord": {"lon": 70.834213, "lat": 36.864769}}, {"id": 459201, "name": "Jurmala", "country": "LV", "coord": {"lon": 23.77038, "lat": 56.967999}}, {"id": 6427273, "name": "Jurques", "country": "FR", "coord": {"lon": -0.74046, "lat": 49.017609}}, {"id": 3012038, "name": "Jurques", "country": "FR", "coord": {"lon": -0.73977, "lat": 49.01778}}, {"id": 3198531, "name": "Jursinci", "country": "SI", "coord": {"lon": 15.97139, "lat": 46.484718}}, {"id": 2702776, "name": "Jursla", "country": "SE", "coord": {"lon": 16.183331, "lat": 58.666672}}, {"id": 3397003, "name": "Juru", "country": "BR", "coord": {"lon": -37.818611, "lat": -7.53694}}, {"id": 1772148, "name": "Juru", "country": "MY", "coord": {"lon": 100.442291, "lat": 5.31201}}, {"id": 789734, "name": "Jurumleri", "country": "MK", "coord": {"lon": 21.55694, "lat": 41.96722}}, {"id": 3396979, "name": "Juruti", "country": "BR", "coord": {"lon": -56.09222, "lat": -2.15222}}, {"id": 655363, "name": "Jurva", "country": "FI", "coord": {"lon": 21.98333, "lat": 62.683331}}, {"id": 3120060, "name": "Juseu", "country": "ES", "coord": {"lon": 0.3768, "lat": 42.093029}}, {"id": 6969840, "name": "Jushui", "country": "CN", "coord": {"lon": 119.176102, "lat": 27.49729}}, {"id": 6434966, "name": "Jusix", "country": "FR", "coord": {"lon": 0.06667, "lat": 44.533329}}, {"id": 3012033, "name": "Jusix", "country": "FR", "coord": {"lon": 0.04968, "lat": 44.541409}}, {"id": 6613603, "name": "Jussac", "country": "FR", "coord": {"lon": 2.43333, "lat": 44.98333}}, {"id": 3012032, "name": "Jussac", "country": "FR", "coord": {"lon": 2.42445, "lat": 44.988041}}, {"id": 3459394, "name": "Jussara", "country": "BR", "coord": {"lon": -52.46944, "lat": -23.621389}}, {"id": 3459531, "name": "Jussara", "country": "BR", "coord": {"lon": -50.868061, "lat": -15.865}}, {"id": 3012028, "name": "Jussat", "country": "FR", "coord": {"lon": 3.10798, "lat": 45.702011}}, {"id": 3012026, "name": "Jussey", "country": "FR", "coord": {"lon": 5.90193, "lat": 47.825359}}, {"id": 7286169, "name": "Jussy", "country": "CH", "coord": {"lon": 6.27913, "lat": 46.237122}}, {"id": 2660205, "name": "Jussy", "country": "CH", "coord": {"lon": 6.26701, "lat": 46.235901}}, {"id": 3012022, "name": "Jussy", "country": "FR", "coord": {"lon": 3.2327, "lat": 49.719841}}, {"id": 6362535, "name": "Justel", "country": "ES", "coord": {"lon": -6.2739, "lat": 42.147789}}, {"id": 3120056, "name": "Justel", "country": "ES", "coord": {"lon": -6.29594, "lat": 42.148609}}, {"id": 4539775, "name": "Justice", "country": "US", "coord": {"lon": -95.566643, "lat": 36.29287}}, {"id": 4898152, "name": "Justice", "country": "US", "coord": {"lon": -87.83783, "lat": 41.74448}}, {"id": 4701814, "name": "Justin", "country": "US", "coord": {"lon": -97.296127, "lat": 33.084839}}, {"id": 3853331, "name": "Justiniano Posse", "country": "AR", "coord": {"lon": -62.677879, "lat": -32.884109}}, {"id": 3853330, "name": "Justo Daract", "country": "AR", "coord": {"lon": -65.18277, "lat": -33.859402}}, {"id": 3155567, "name": "Justvik", "country": "NO", "coord": {"lon": 8.03333, "lat": 58.200001}}, {"id": 3097006, "name": "Juszczyn", "country": "PL", "coord": {"lon": 19.69128, "lat": 49.692902}}, {"id": 3097004, "name": "Juszczyna", "country": "PL", "coord": {"lon": 19.22032, "lat": 49.629841}}, {"id": 3663693, "name": "Jutai", "country": "BR", "coord": {"lon": -68.900002, "lat": -5.18333}}, {"id": 2894394, "name": "Juterbog", "country": "DE", "coord": {"lon": 13.08333, "lat": 51.98333}}, {"id": 3459385, "name": "Juti", "country": "BR", "coord": {"lon": -54.602779, "lat": -22.860559}}, {"id": 3595069, "name": "Jutiapa", "country": "GT", "coord": {"lon": -89.900002, "lat": 14.28333}}, {"id": 3608514, "name": "Jutiapa", "country": "HN", "coord": {"lon": -86.51667, "lat": 15.76667}}, {"id": 3608522, "name": "Jutiapa", "country": "HN", "coord": {"lon": -86.400002, "lat": 13.98333}}, {"id": 3608503, "name": "Juticalpa", "country": "HN", "coord": {"lon": -86.199997, "lat": 14.65}}, {"id": 1804900, "name": "Juting", "country": "CN", "coord": {"lon": 106.084534, "lat": 33.05534}}, {"id": 3608500, "name": "Jutiquile", "country": "HN", "coord": {"lon": -86.083328, "lat": 14.71667}}, {"id": 843889, "name": "Jutkokyl\u00e4", "country": "FI", "coord": {"lon": 25.435579, "lat": 64.804688}}, {"id": 1268754, "name": "Jutogh", "country": "IN", "coord": {"lon": 77.116669, "lat": 31.1}}, {"id": 2753174, "name": "Jutphaas", "country": "NL", "coord": {"lon": 5.08333, "lat": 52.033329}}, {"id": 3096999, "name": "Jutrosin", "country": "PL", "coord": {"lon": 17.169571, "lat": 51.650089}}, {"id": 2894390, "name": "Jutzenbach", "country": "DE", "coord": {"lon": 10.37968, "lat": 51.525509}}, {"id": 655313, "name": "Juuka", "country": "FI", "coord": {"lon": 29.16667, "lat": 63.25}}, {"id": 655312, "name": "Juuka", "country": "FI", "coord": {"lon": 29.25, "lat": 63.23333}}, {"id": 655308, "name": "Juupajoki", "country": "FI", "coord": {"lon": 24.5, "lat": 61.833328}}, {"id": 655307, "name": "Juupajoki", "country": "FI", "coord": {"lon": 24.36939, "lat": 61.799011}}, {"id": 655257, "name": "Juva", "country": "FI", "coord": {"lon": 27.83333, "lat": 61.916672}}, {"id": 655253, "name": "Juva", "country": "FI", "coord": {"lon": 27.85, "lat": 61.900002}}, {"id": 4003662, "name": "Juventino Rosas", "country": "MX", "coord": {"lon": -101, "lat": 20.65}}, {"id": 3012004, "name": "Juvignac", "country": "FR", "coord": {"lon": 3.81056, "lat": 43.613892}}, {"id": 3012003, "name": "Juvigne", "country": "FR", "coord": {"lon": -1.03408, "lat": 48.228909}}, {"id": 6439119, "name": "Juvigny-sous-Andaine", "country": "FR", "coord": {"lon": -0.50878, "lat": 48.551941}}, {"id": 3011996, "name": "Juvigny-sous-Andaine", "country": "FR", "coord": {"lon": -0.50878, "lat": 48.551941}}, {"id": 6437054, "name": "Juvigny-sur-Loison", "country": "FR", "coord": {"lon": 5.33333, "lat": 49.466671}}, {"id": 3011995, "name": "Juvigny-sur-Loison", "country": "FR", "coord": {"lon": 5.34201, "lat": 49.466991}}, {"id": 6439120, "name": "Juvigny-sur-Orne", "country": "FR", "coord": {"lon": 0.01667, "lat": 48.73333}}, {"id": 3011994, "name": "Juvigny-sur-Orne", "country": "FR", "coord": {"lon": 0.02138, "lat": 48.7314}}, {"id": 6357728, "name": "Juviles", "country": "ES", "coord": {"lon": -3.23289, "lat": 36.96632}}, {"id": 2516238, "name": "Juviles", "country": "ES", "coord": {"lon": -3.22586, "lat": 36.948792}}, {"id": 3011988, "name": "Juvisy-sur-Orge", "country": "FR", "coord": {"lon": 2.38333, "lat": 48.683331}}, {"id": 1642317, "name": "Juwana", "country": "ID", "coord": {"lon": 111.151398, "lat": -6.715}}, {"id": 8068725, "name": "Juwen", "country": "ID", "coord": {"lon": 111.565903, "lat": -6.7099}}, {"id": 1804899, "name": "Juxi", "country": "CN", "coord": {"lon": 116.738708, "lat": 25.49465}}, {"id": 1804894, "name": "Juxing", "country": "CN", "coord": {"lon": 121.542778, "lat": 31.966391}}, {"id": 129933, "name": "Juybar", "country": "IR", "coord": {"lon": 52.912441, "lat": 36.641151}}, {"id": 1804892, "name": "Juye", "country": "CN", "coord": {"lon": 116.088333, "lat": 35.394718}}, {"id": 2036346, "name": "Juyuan", "country": "CN", "coord": {"lon": 126.971458, "lat": 45.941818}}, {"id": 6360409, "name": "Juzbado", "country": "ES", "coord": {"lon": -5.88763, "lat": 41.088619}}, {"id": 3120050, "name": "Juzbado", "country": "ES", "coord": {"lon": -5.8614, "lat": 41.077911}}, {"id": 2516237, "name": "Juzcar", "country": "ES", "coord": {"lon": -5.16971, "lat": 36.62442}}, {"id": 1806114, "name": "Juzhen", "country": "CN", "coord": {"lon": 121.194267, "lat": 32.413521}}, {"id": 7581797, "name": "Juzhno Banatski Okrug", "country": "RS", "coord": {"lon": 20.96583, "lat": 45.08083}}, {"id": 7581796, "name": "Juzhno Ba\u010dki Okrug", "country": "RS", "coord": {"lon": 19.88917, "lat": 45.408611}}, {"id": 3011978, "name": "Juziers", "country": "FR", "coord": {"lon": 1.8476, "lat": 48.991371}}, {"id": 3397179, "name": "Ju\u00e0zeirinho", "country": "BR", "coord": {"lon": -37.368328, "lat": -5.19222}}, {"id": 3853412, "name": "Ju\u00e1rez Celman", "country": "AR", "coord": {"lon": -64.166107, "lat": -31.258089}}, {"id": 614740, "name": "Jvari", "country": "GE", "coord": {"lon": 42.051998, "lat": 42.716919}}, {"id": 2619221, "name": "Jyderup", "country": "DK", "coord": {"lon": 11.42029, "lat": 55.66399}}, {"id": 7645643, "name": "Jylkynkangas", "country": "FI", "coord": {"lon": 25.524929, "lat": 65.078033}}, {"id": 2619216, "name": "Jyllinge", "country": "DK", "coord": {"lon": 12.11227, "lat": 55.75843}}, {"id": 655194, "name": "Jyvaeskylae", "country": "FI", "coord": {"lon": 25.73333, "lat": 62.23333}}, {"id": 655195, "name": "Jyv\u00e4skyl\u00e4", "country": "FI", "coord": {"lon": 25.75, "lat": 62.25}}, {"id": 3526593, "name": "J\u00e1ltipan de Morelos", "country": "MX", "coord": {"lon": -94.699997, "lat": 17.966669}}, {"id": 719637, "name": "J\u00e1sz-Nagykun-Szolnok megye", "country": "HU", "coord": {"lon": 20.5, "lat": 47.25}}, {"id": 2516346, "name": "J\u00e1tar", "country": "ES", "coord": {"lon": -3.91149, "lat": 36.93499}}, {"id": 3433347, "name": "J\u00e1uregui", "country": "AR", "coord": {"lon": -59.17778, "lat": -34.597431}}, {"id": 2895349, "name": "J\u00e4gersdorf", "country": "DE", "coord": {"lon": 11.68333, "lat": 48.466671}}, {"id": 2895347, "name": "J\u00e4gersfreude", "country": "DE", "coord": {"lon": 7, "lat": 49.26667}}, {"id": 2895344, "name": "J\u00e4gershof", "country": "DE", "coord": {"lon": 13.01667, "lat": 49.299999}}, {"id": 656092, "name": "J\u00e4mij\u00e4rvi", "country": "FI", "coord": {"lon": 22.66667, "lat": 61.833328}}, {"id": 2895222, "name": "J\u00e4mlitz", "country": "DE", "coord": {"lon": 14.66667, "lat": 51.566669}}, {"id": 656084, "name": "J\u00e4ms\u00e4", "country": "FI", "coord": {"lon": 25.25, "lat": 61.833328}}, {"id": 2703330, "name": "J\u00e4mtlands L\u00e4n", "country": "SE", "coord": {"lon": 14.66667, "lat": 63}}, {"id": 2895212, "name": "J\u00e4nickendorf", "country": "DE", "coord": {"lon": 13.25, "lat": 52.049999}}, {"id": 6547713, "name": "J\u00e4nschwalde", "country": "DE", "coord": {"lon": 14.5, "lat": 51.866699}}, {"id": 2895187, "name": "J\u00e4nschwalde Ost", "country": "DE", "coord": {"lon": 14.54287, "lat": 51.87466}}, {"id": 2703292, "name": "J\u00e4rf\u00e4lla Kommun", "country": "SE", "coord": {"lon": 17.865141, "lat": 59.408749}}, {"id": 7522287, "name": "J\u00e4rva-Jaani vald", "country": "EE", "coord": {"lon": 25.92289, "lat": 59.058079}}, {"id": 7522288, "name": "J\u00e4rvakandi vald", "country": "EE", "coord": {"lon": 24.81319, "lat": 58.778099}}, {"id": 591961, "name": "J\u00e4rvamaa", "country": "EE", "coord": {"lon": 25.549999, "lat": 58.900002}}, {"id": 591956, "name": "J\u00e4rve", "country": "EE", "coord": {"lon": 24.63306, "lat": 59.416672}}, {"id": 634000, "name": "J\u00e4rvenper\u00e4", "country": "FI", "coord": {"lon": 24.71357, "lat": 60.241692}}, {"id": 655977, "name": "J\u00e4rvenp\u00e4\u00e4", "country": "FI", "coord": {"lon": 25.08333, "lat": 60.466671}}, {"id": 6549666, "name": "J\u00e4venitz", "country": "DE", "coord": {"lon": 11.5, "lat": 52.533298}}, {"id": 6357022, "name": "J\u00e9rica", "country": "ES", "coord": {"lon": -0.58597, "lat": 39.899849}}, {"id": 3074174, "name": "J\u00edlovi\u0161t\u011b", "country": "CZ", "coord": {"lon": 14.34274, "lat": 49.927521}}, {"id": 6358503, "name": "J\u00f3dar", "country": "ES", "coord": {"lon": -3.3487, "lat": 37.838322}}, {"id": 3097064, "name": "J\u00f3zefowiec", "country": "PL", "coord": {"lon": 19.01016, "lat": 50.286961}}, {"id": 3097078, "name": "J\u00f3zef\u00f3w", "country": "PL", "coord": {"lon": 19.49246, "lat": 51.706001}}, {"id": 3097090, "name": "J\u00f3zef\u00f3w", "country": "PL", "coord": {"lon": 19.178181, "lat": 50.310501}}, {"id": 7532455, "name": "J\u00f3zef\u00f3w", "country": "PL", "coord": {"lon": 21.219999, "lat": 52.128502}}, {"id": 3050828, "name": "J\u00f3zsefpuszta", "country": "HU", "coord": {"lon": 18.200001, "lat": 47.383331}}, {"id": 591919, "name": "J\u00f5el\u00e4htme", "country": "EE", "coord": {"lon": 25.141701, "lat": 59.441059}}, {"id": 7522283, "name": "J\u00f5el\u00e4htme vald", "country": "EE", "coord": {"lon": 25.121059, "lat": 59.495121}}, {"id": 7522285, "name": "J\u00f5geva linn", "country": "EE", "coord": {"lon": 26.39044, "lat": 58.74321}}, {"id": 591901, "name": "J\u00f5gevamaa", "country": "EE", "coord": {"lon": 26.4, "lat": 58.75}}, {"id": 7522286, "name": "J\u00f5hvi vald", "country": "EE", "coord": {"lon": 27.412729, "lat": 59.339458}}, {"id": 2702977, "name": "J\u00f6nk\u00f6pings Kommun", "country": "SE", "coord": {"lon": 14.13333, "lat": 57.783329}}, {"id": 2702976, "name": "J\u00f6nk\u00f6pings L\u00e4n", "country": "SE", "coord": {"lon": 14.5, "lat": 57.5}}, {"id": 6547887, "name": "J\u00f6rdenstorf", "country": "DE", "coord": {"lon": 12.6167, "lat": 53.883301}}, {"id": 3321977, "name": "J\u00f6rgensb\u00fchl", "country": "AT", "coord": {"lon": 14.15185, "lat": 48.357498}}, {"id": 6552032, "name": "J\u00f6rl", "country": "DE", "coord": {"lon": 9.3, "lat": 54.599998}}, {"id": 2894697, "name": "J\u00f6rsensm\u00fchle", "country": "DE", "coord": {"lon": 7.33333, "lat": 51.066669}}, {"id": 3459491, "name": "J\u00falio Mesquita", "country": "BR", "coord": {"lon": -49.78722, "lat": -22.00889}}, {"id": 6359470, "name": "J\u00fazcar", "country": "ES", "coord": {"lon": -5.15605, "lat": 36.594582}}, {"id": 6549674, "name": "J\u00fcbar", "country": "DE", "coord": {"lon": 10.9167, "lat": 52.700001}}, {"id": 6551969, "name": "J\u00fcbek", "country": "DE", "coord": {"lon": 9.4, "lat": 54.549999}}, {"id": 6553038, "name": "J\u00fcchen", "country": "DE", "coord": {"lon": 6.5095, "lat": 51.099098}}, {"id": 6550544, "name": "J\u00fcckelberg", "country": "DE", "coord": {"lon": 12.6317, "lat": 50.926899}}, {"id": 2894604, "name": "J\u00fcdendorf", "country": "DE", "coord": {"lon": 11.7, "lat": 51.316669}}, {"id": 6552339, "name": "J\u00fchnde", "country": "DE", "coord": {"lon": 9.8, "lat": 51.466702}}, {"id": 2894575, "name": "J\u00fchnsdorf", "country": "DE", "coord": {"lon": 13.38333, "lat": 52.299999}}, {"id": 6554642, "name": "J\u00fcnkerath", "country": "DE", "coord": {"lon": 6.58333, "lat": 50.333302}}, {"id": 6547888, "name": "J\u00fcrgenshagen", "country": "DE", "coord": {"lon": 11.9, "lat": 53.950001}}, {"id": 6547835, "name": "J\u00fcrgenstorf", "country": "DE", "coord": {"lon": 12.9, "lat": 53.666698}}, {"id": 2894393, "name": "J\u00fctrichau", "country": "DE", "coord": {"lon": 12.11667, "lat": 51.933331}}, {"id": 6549788, "name": "J\u00fctzenbach", "country": "DE", "coord": {"lon": 10.3667, "lat": 51.516701}}, {"id": 1176260, "name": "J\u0101m Gw\u0101ng", "country": "PK", "coord": {"lon": 63.024723, "lat": 25.831944}}, {"id": 459282, "name": "J\u0113kabpils Rajons", "country": "LV", "coord": {"lon": 25.83333, "lat": 56.333328}}, {"id": 770155, "name": "J\u0119drzej\u00f3w", "country": "PL", "coord": {"lon": 21.72332, "lat": 52.192558}}, {"id": 7533465, "name": "J\u0119drzej\u00f3w", "country": "PL", "coord": {"lon": 20.289301, "lat": 50.6395}}, {"id": 129945, "name": "J\u016braq\u0101n", "country": "IR", "coord": {"lon": 48.55444, "lat": 34.884899}}, {"id": 459202, "name": "J\u016brmala", "country": "LV", "coord": {"lon": 23.695311, "lat": 56.951981}}, {"id": 1860941, "name": "J\u016brokuban", "country": "JP", "coord": {"lon": 130.983337, "lat": 30.6}}, {"id": 611716, "name": "K'alak'i T'bilisi", "country": "GE", "coord": {"lon": 44.833328, "lat": 41.716671}}, {"id": 7259330, "name": "K. I. Sawyer Air Force Base", "country": "US", "coord": {"lon": -87.386322, "lat": 46.346512}}, {"id": 1610360, "name": "Ka Bang", "country": "TH", "coord": {"lon": 101.054558, "lat": 6.41536}}, {"id": 3723446, "name": "Ka Soleil", "country": "HT", "coord": {"lon": -72.683327, "lat": 19.450001}}, {"id": 1505187, "name": "Kaa-Khem", "country": "RU", "coord": {"lon": 94.73333, "lat": 51.683331}}, {"id": 5856759, "name": "Kaaawa", "country": "US", "coord": {"lon": -157.853607, "lat": 21.55722}}, {"id": 233093, "name": "Kaabong", "country": "UG", "coord": {"lon": 34.14917, "lat": 3.48361}}, {"id": 6552200, "name": "Kaaks", "country": "DE", "coord": {"lon": 9.46965, "lat": 53.99004}}, {"id": 2894384, "name": "Kaaks", "country": "DE", "coord": {"lon": 9.46962, "lat": 53.99004}}, {"id": 2894382, "name": "Kaakstedt", "country": "DE", "coord": {"lon": 13.77411, "lat": 53.174099}}, {"id": 2140915, "name": "Kaala-Gomen", "country": "NC", "coord": {"lon": 164.399994, "lat": -20.66667}}, {"id": 2140914, "name": "Kaala-Gom\u00e9n", "country": "NC", "coord": {"lon": 164.397705, "lat": -20.669411}}, {"id": 5856844, "name": "Kaanapali", "country": "US", "coord": {"lon": -156.69722, "lat": 20.931669}}, {"id": 5856852, "name": "Kaanapali Landing", "country": "US", "coord": {"lon": -156.687775, "lat": 20.930901}}, {"id": 655131, "name": "Kaarina", "country": "FI", "coord": {"lon": 22.41667, "lat": 60.416672}}, {"id": 655130, "name": "Kaarina", "country": "FI", "coord": {"lon": 22.36904, "lat": 60.407242}}, {"id": 653939, "name": "Kaarlela", "country": "FI", "coord": {"lon": 23.133329, "lat": 63.833328}}, {"id": 2894375, "name": "Kaarst", "country": "DE", "coord": {"lon": 6.61667, "lat": 51.23333}}, {"id": 655070, "name": "Kaavi", "country": "FI", "coord": {"lon": 28.75, "lat": 63}}, {"id": 655069, "name": "Kaavi", "country": "FI", "coord": {"lon": 28.5, "lat": 62.98333}}, {"id": 7446195, "name": "Kaba", "country": "CN", "coord": {"lon": 103.494843, "lat": 33.98035}}, {"id": 719555, "name": "Kaba", "country": "HU", "coord": {"lon": 21.283331, "lat": 47.349998}}, {"id": 1721981, "name": "Kabac", "country": "PH", "coord": {"lon": 123.697899, "lat": 11.2353}}, {"id": 1710013, "name": "Kabacan", "country": "PH", "coord": {"lon": 124.816673, "lat": 7.11667}}, {"id": 1710011, "name": "Kabacan", "country": "PH", "coord": {"lon": 124.82917, "lat": 7.10667}}, {"id": 809274, "name": "Kabachki", "country": "UA", "coord": {"lon": 38.458328, "lat": 48.031109}}, {"id": 745007, "name": "Kabaduz", "country": "TR", "coord": {"lon": 37.889999, "lat": 40.859718}}, {"id": 554692, "name": "Kabakovo", "country": "RU", "coord": {"lon": 56.151699, "lat": 54.5369}}, {"id": 2408329, "name": "Kabala", "country": "SL", "coord": {"lon": -11.55, "lat": 9.58333}}, {"id": 310982, "name": "Kabala", "country": "TR", "coord": {"lon": 40.814629, "lat": 37.34996}}, {"id": 1709990, "name": "Kabalantian", "country": "PH", "coord": {"lon": 124.327499, "lat": 8.37083}}, {"id": 233070, "name": "Kabale", "country": "UG", "coord": {"lon": 29.989929, "lat": -1.24857}}, {"id": 443336, "name": "Kabale District", "country": "UG", "coord": {"lon": 29.98588, "lat": -1.20774}}, {"id": 1709984, "name": "Kabalen", "country": "PH", "coord": {"lon": 125.010559, "lat": 6.31944}}, {"id": 2299978, "name": "Kabalima", "country": "GH", "coord": {"lon": -2.26086, "lat": 8.9561}}, {"id": 215668, "name": "Kabalo", "country": "CD", "coord": {"lon": 26.91667, "lat": -6.05}}, {"id": 158684, "name": "Kabanga", "country": "TZ", "coord": {"lon": 30.467779, "lat": -2.63861}}, {"id": 1214965, "name": "Kabanjahe", "country": "ID", "coord": {"lon": 98.490799, "lat": 3.1001}}, {"id": 1709968, "name": "Kabankalan", "country": "PH", "coord": {"lon": 122.812218, "lat": 9.98889}}, {"id": 609753, "name": "Kabankin", "country": "KZ", "coord": {"lon": 51.233334, "lat": 51.283333}}, {"id": 554678, "name": "Kabanovo", "country": "RU", "coord": {"lon": 38.273056, "lat": 55.883888}}, {"id": 2023350, "name": "Kabansk", "country": "RU", "coord": {"lon": 106.652779, "lat": 52.048611}}, {"id": 7409984, "name": "Kabar Utara", "country": "ID", "coord": {"lon": 116.4758, "lat": -8.6611}}, {"id": 2456013, "name": "Kabara", "country": "ML", "coord": {"lon": -2.98302, "lat": 16.704309}}, {"id": 554668, "name": "Kabardinka", "country": "RU", "coord": {"lon": 37.94278, "lat": 44.65139}}, {"id": 554667, "name": "Kabardino-Balkarskaya Respublika", "country": "RU", "coord": {"lon": 43.5, "lat": 43.5}}, {"id": 215605, "name": "Kabare", "country": "CD", "coord": {"lon": 28.824169, "lat": -2.46833}}, {"id": 195821, "name": "Kabarnet", "country": "KE", "coord": {"lon": 35.743031, "lat": 0.49194}}, {"id": 443337, "name": "Kabarole District", "country": "UG", "coord": {"lon": 30.28816, "lat": 0.65454}}, {"id": 1709954, "name": "Kabasalan", "country": "PH", "coord": {"lon": 122.764999, "lat": 7.79722}}, {"id": 1709955, "name": "Kabasalan", "country": "PH", "coord": {"lon": 124.650002, "lat": 7.06667}}, {"id": 215601, "name": "Kabasele-Pania", "country": "CD", "coord": {"lon": 22.47694, "lat": -5.89083}}, {"id": 215597, "name": "Kabasinze", "country": "CD", "coord": {"lon": 29.15, "lat": 0.08333}}, {"id": 744958, "name": "Kabatas", "country": "TR", "coord": {"lon": 37.450001, "lat": 40.75}}, {"id": 769893, "name": "Kabaty", "country": "PL", "coord": {"lon": 21.08148, "lat": 52.130119}}, {"id": 1704916, "name": "Kabayan", "country": "PH", "coord": {"lon": 120.839943, "lat": 16.62388}}, {"id": 1709932, "name": "Kabayan", "country": "PH", "coord": {"lon": 120.829536, "lat": 16.641781}}, {"id": 7780464, "name": "Kabayancitiis", "country": "ID", "coord": {"lon": 106.109703, "lat": -6.3117}}, {"id": 2335843, "name": "Kabba", "country": "NG", "coord": {"lon": 6.0731, "lat": 7.82873}}, {"id": 6551653, "name": "Kabelhorst", "country": "DE", "coord": {"lon": 10.9167, "lat": 54.216702}}, {"id": 2894366, "name": "Kabelhorst", "country": "DE", "coord": {"lon": 10.91667, "lat": 54.216671}}, {"id": 2894364, "name": "Kabelitz", "country": "DE", "coord": {"lon": 12.05, "lat": 52.549999}}, {"id": 3150639, "name": "Kabelvag", "country": "NO", "coord": {"lon": 14.48167, "lat": 68.211388}}, {"id": 233019, "name": "Kaberamaido", "country": "UG", "coord": {"lon": 33.159439, "lat": 1.73889}}, {"id": 1642280, "name": "Kabere", "country": "ID", "coord": {"lon": 119.787651, "lat": -3.66427}}, {"id": 1721601, "name": "Kabilauan", "country": "PH", "coord": {"lon": 122.573402, "lat": 10.861}}, {"id": 6461375, "name": "Kabile", "country": "BG", "coord": {"lon": 26.48333, "lat": 42.533329}}, {"id": 730799, "name": "Kabile", "country": "BG", "coord": {"lon": 26.48333, "lat": 42.533329}}, {"id": 1610538, "name": "Kabin Buri", "country": "TH", "coord": {"lon": 101.71769, "lat": 13.95114}}, {"id": 215527, "name": "Kabinda", "country": "CD", "coord": {"lon": 24.48333, "lat": -6.13333}}, {"id": 1175560, "name": "Kabirwala", "country": "PK", "coord": {"lon": 71.866699, "lat": 30.406771}}, {"id": 2287738, "name": "Kablak\u00e9", "country": "CI", "coord": {"lon": -7.3612, "lat": 4.4178}}, {"id": 1721543, "name": "Kablalan", "country": "PH", "coord": {"lon": 125.197777, "lat": 5.77972}}, {"id": 6460083, "name": "Kableshkovo", "country": "BG", "coord": {"lon": 27.566669, "lat": 42.650002}}, {"id": 730795, "name": "Kableshkovo", "country": "BG", "coord": {"lon": 27.566481, "lat": 42.66066}}, {"id": 8075246, "name": "Kablukan", "country": "ID", "coord": {"lon": 111.709602, "lat": -6.9845}}, {"id": 554654, "name": "Kablukovo", "country": "RU", "coord": {"lon": 38.166668, "lat": 56.033333}}, {"id": 2386042, "name": "Kabo", "country": "CF", "coord": {"lon": 18.62903, "lat": 7.69937}}, {"id": 916246, "name": "Kabompo", "country": "ZM", "coord": {"lon": 24.200809, "lat": -13.59268}}, {"id": 7563870, "name": "Kabondok", "country": "ID", "coord": {"lon": 119.571999, "lat": -9.5994}}, {"id": 8060756, "name": "Kabongan Kidul", "country": "ID", "coord": {"lon": 111.358002, "lat": -6.7081}}, {"id": 8060710, "name": "Kabongan Lor", "country": "ID", "coord": {"lon": 111.357002, "lat": -6.7052}}, {"id": 7390272, "name": "Kabor", "country": "ID", "coord": {"lon": 122.214844, "lat": -8.62066}}, {"id": 8058429, "name": "Kaborongan", "country": "ID", "coord": {"lon": 111.039398, "lat": -6.7462}}, {"id": 2162033, "name": "Kabra", "country": "AU", "coord": {"lon": 150.399994, "lat": -23.466669}}, {"id": 1268739, "name": "Kabrai", "country": "IN", "coord": {"lon": 80.01667, "lat": 25.41667}}, {"id": 2251055, "name": "Kabrousse", "country": "SN", "coord": {"lon": -16.72056, "lat": 12.35556}}, {"id": 1709886, "name": "Kabugao", "country": "PH", "coord": {"lon": 121.184174, "lat": 18.021669}}, {"id": 7411864, "name": "Kabukarudi", "country": "ID", "coord": {"lon": 119.359596, "lat": -9.7246}}, {"id": 916211, "name": "Kabuko", "country": "ZM", "coord": {"lon": 31.287729, "lat": -11.57095}}, {"id": 1138958, "name": "Kabul", "country": "AF", "coord": {"lon": 69.172333, "lat": 34.52813}}, {"id": 294615, "name": "Kabul", "country": "IL", "coord": {"lon": 35.213058, "lat": 32.866669}}, {"id": 1709868, "name": "Kabulohan", "country": "PH", "coord": {"lon": 125.276672, "lat": 8.04333}}, {"id": 1709865, "name": "Kabulusan", "country": "PH", "coord": {"lon": 121.400398, "lat": 14.3615}}, {"id": 1709859, "name": "Kabungahan", "country": "PH", "coord": {"lon": 123.98333, "lat": 10.51667}}, {"id": 6753337, "name": "Kaburon", "country": "ID", "coord": {"lon": 106.126701, "lat": -6.2875}}, {"id": 1709845, "name": "Kabuynan", "country": "PH", "coord": {"lon": 125.024719, "lat": 11.08056}}, {"id": 916095, "name": "Kabwe", "country": "ZM", "coord": {"lon": 28.44644, "lat": -14.4469}}, {"id": 7379293, "name": "Kaca", "country": "ID", "coord": {"lon": 120.227203, "lat": -8.7511}}, {"id": 7415026, "name": "Kaca", "country": "ID", "coord": {"lon": 120.572098, "lat": -8.7361}}, {"id": 7036100, "name": "Kacangan Lor", "country": "ID", "coord": {"lon": 111.6679, "lat": -7.147}}, {"id": 789721, "name": "Kacanik", "country": "XK", "coord": {"lon": 21.259439, "lat": 42.231941}}, {"id": 707281, "name": "Kacha", "country": "UA", "coord": {"lon": 33.543869, "lat": 44.776348}}, {"id": 820142, "name": "Kachabroro", "country": "RU", "coord": {"lon": 36.935833, "lat": 55.891945}}, {"id": 627773, "name": "Kachanovichy", "country": "BY", "coord": {"lon": 26.75, "lat": 53.183334}}, {"id": 1519932, "name": "Kachar", "country": "KZ", "coord": {"lon": 62.929722, "lat": 53.39056}}, {"id": 7343166, "name": "Kache", "country": "CN", "coord": {"lon": 103.350121, "lat": 34.601608}}, {"id": 1268726, "name": "Kachhauna", "country": "IN", "coord": {"lon": 80.349998, "lat": 27.166668}}, {"id": 1268722, "name": "Kachhwa", "country": "IN", "coord": {"lon": 82.716667, "lat": 25.216669}}, {"id": 2335798, "name": "Kachia", "country": "NG", "coord": {"lon": 7.95, "lat": 9.86667}}, {"id": 1860887, "name": "Kachikawa", "country": "JP", "coord": {"lon": 136.949997, "lat": 35.23333}}, {"id": 1321702, "name": "Kachin State", "country": "MM", "coord": {"lon": 97.5, "lat": 26}}, {"id": 5300735, "name": "Kachina Village", "country": "US", "coord": {"lon": -111.692657, "lat": 35.096958}}, {"id": 1523662, "name": "Kachiry", "country": "KZ", "coord": {"lon": 76.103607, "lat": 53.067501}}, {"id": 554599, "name": "Kachkanar", "country": "RU", "coord": {"lon": 59.49482, "lat": 58.699989}}, {"id": 2894349, "name": "Kachstedt", "country": "DE", "coord": {"lon": 11.26667, "lat": 51.383331}}, {"id": 2023333, "name": "Kachug", "country": "RU", "coord": {"lon": 105.881668, "lat": 53.96056}}, {"id": 6728346, "name": "Kach\u00e9-ni", "country": "NE", "coord": {"lon": 8.97338, "lat": 13.78125}}, {"id": 3074031, "name": "Kacice", "country": "CZ", "coord": {"lon": 13.98815, "lat": 50.162609}}, {"id": 3289093, "name": "Kacuni", "country": "BA", "coord": {"lon": 17.93861, "lat": 44.064999}}, {"id": 3096966, "name": "Kaczory", "country": "PL", "coord": {"lon": 16.881689, "lat": 53.103481}}, {"id": 3096964, "name": "Kaczyce", "country": "PL", "coord": {"lon": 18.59161, "lat": 49.827518}}, {"id": 1975740, "name": "Kadai", "country": "ID", "coord": {"lon": 120.3423, "lat": -4.8083}}, {"id": 6604595, "name": "Kadaka", "country": "ID", "coord": {"lon": 106.499802, "lat": -6.519}}, {"id": 6736493, "name": "Kadala", "country": "RU", "coord": {"lon": 113.278938, "lat": 52.035519}}, {"id": 1268693, "name": "Kadambur", "country": "IN", "coord": {"lon": 77.866669, "lat": 8.98333}}, {"id": 1528336, "name": "Kadamjay", "country": "KG", "coord": {"lon": 71.73333, "lat": 40.116669}},