[{"id": 6432233, "name": "Gajac", "country": "FR", "coord": {"lon": -0.13333, "lat": 44.433331}}, {"id": 3016797, "name": "Gajac", "country": "FR", "coord": {"lon": -0.1311, "lat": 44.436272}}, {"id": 7036705, "name": "Gajah", "country": "ID", "coord": {"lon": 112.4534, "lat": -7.1125}}, {"id": 7845717, "name": "Gajahmada", "country": "ID", "coord": {"lon": 106.012299, "lat": -6.3786}}, {"id": 8170706, "name": "Gajahrejo Krajan", "country": "ID", "coord": {"lon": 112.6493, "lat": -8.3413}}, {"id": 6357908, "name": "Gajanejos", "country": "ES", "coord": {"lon": -2.88527, "lat": 40.83984}}, {"id": 3121772, "name": "Gajanejos", "country": "ES", "coord": {"lon": -2.89229, "lat": 40.841469}}, {"id": 6360384, "name": "Gajates", "country": "ES", "coord": {"lon": -5.36857, "lat": 40.791359}}, {"id": 3121769, "name": "Gajates", "country": "ES", "coord": {"lon": -5.36506, "lat": 40.782539}}, {"id": 1271789, "name": "Gajendragarh", "country": "IN", "coord": {"lon": 75.98333, "lat": 15.73333}}, {"id": 3099568, "name": "Gajewo", "country": "PL", "coord": {"lon": 15.78717, "lat": 53.566212}}, {"id": 3260178, "name": "Gaji\u0107i", "country": "BA", "coord": {"lon": 18.183889, "lat": 44.576672}}, {"id": 1271780, "name": "Gajraula", "country": "IN", "coord": {"lon": 78.23333, "lat": 28.85}}, {"id": 1643382, "name": "Gajrug", "country": "ID", "coord": {"lon": 106.379799, "lat": -6.5271}}, {"id": 7302833, "name": "Gajuwaka", "country": "IN", "coord": {"lon": 83.216667, "lat": 17.700001}}, {"id": 2739130, "name": "Gaj\u00e3o", "country": "PT", "coord": {"lon": -8.05, "lat": 40.73333}}, {"id": 2342291, "name": "Gakem", "country": "NG", "coord": {"lon": 8.98813, "lat": 6.76578}}, {"id": 2024212, "name": "Gakhan", "country": "RU", "coord": {"lon": 110.849998, "lat": 54.700001}}, {"id": 3200746, "name": "Gakovo", "country": "RS", "coord": {"lon": 19.06361, "lat": 45.903332}}, {"id": 1179082, "name": "Gakuch", "country": "PK", "coord": {"lon": 73.763832, "lat": 36.17683}}, {"id": 3200745, "name": "Gala", "country": "HR", "coord": {"lon": 16.72694, "lat": 43.715}}, {"id": 408698, "name": "Galafi", "country": "DJ", "coord": {"lon": 41.836109, "lat": 11.71583}}, {"id": 5959015, "name": "Galahad", "country": "CA", "coord": {"lon": -111.935066, "lat": 52.516842}}, {"id": 3682243, "name": "Galan", "country": "CO", "coord": {"lon": -73.28878, "lat": 6.63781}}, {"id": 677709, "name": "Galanesti", "country": "RO", "coord": {"lon": 25.799999, "lat": 47.916672}}, {"id": 562189, "name": "Galanino", "country": "RU", "coord": {"lon": 43.450001, "lat": 56.666668}}, {"id": 3060219, "name": "Galanta", "country": "SK", "coord": {"lon": 17.72747, "lat": 48.19001}}, {"id": 1217340, "name": "Galaosiyo", "country": "UZ", "coord": {"lon": 64.448334, "lat": 39.85778}}, {"id": 3682238, "name": "Galapa", "country": "CO", "coord": {"lon": -74.886002, "lat": 10.89686}}, {"id": 6359287, "name": "Galapagar", "country": "ES", "coord": {"lon": -3.97669, "lat": 40.559471}}, {"id": 3121766, "name": "Galapagar", "country": "ES", "coord": {"lon": -4.00426, "lat": 40.5783}}, {"id": 3121763, "name": "Galapagos", "country": "ES", "coord": {"lon": -3.33537, "lat": 40.69347}}, {"id": 6434956, "name": "Galapian", "country": "FR", "coord": {"lon": 0.41667, "lat": 44.299999}}, {"id": 3016784, "name": "Galapian", "country": "FR", "coord": {"lon": 0.41369, "lat": 44.298809}}, {"id": 159951, "name": "Galappo", "country": "TZ", "coord": {"lon": 35.849998, "lat": -4.26667}}, {"id": 6359657, "name": "Galar", "country": "ES", "coord": {"lon": -1.66834, "lat": 42.756512}}, {"id": 3121762, "name": "Galar", "country": "ES", "coord": {"lon": -1.69881, "lat": 42.761471}}, {"id": 2165973, "name": "Galargambone", "country": "AU", "coord": {"lon": 148.466675, "lat": -31.33333}}, {"id": 6358210, "name": "Galaroza", "country": "ES", "coord": {"lon": -6.68219, "lat": 37.928242}}, {"id": 2517440, "name": "Galaroza", "country": "ES", "coord": {"lon": -6.7073, "lat": 37.928638}}, {"id": 2648928, "name": "Galashiels", "country": "GB", "coord": {"lon": -2.80695, "lat": 55.614578}}, {"id": 874034, "name": "Galashki", "country": "RU", "coord": {"lon": 44.989441, "lat": 43.113609}}, {"id": 736210, "name": "Galatades", "country": "GR", "coord": {"lon": 22.271669, "lat": 40.75444}}, {"id": 262140, "name": "Galatas", "country": "GR", "coord": {"lon": 21.566669, "lat": 38.349998}}, {"id": 262143, "name": "Galatas", "country": "GR", "coord": {"lon": 23.44886, "lat": 37.496181}}, {"id": 262144, "name": "Galatas", "country": "GR", "coord": {"lon": 23.966669, "lat": 35.5}}, {"id": 677701, "name": "Galateni", "country": "RO", "coord": {"lon": 25.35, "lat": 44.216671}}, {"id": 4565033, "name": "Galateo", "country": "PR", "coord": {"lon": -66.258781, "lat": 18.36245}}, {"id": 677697, "name": "Galati", "country": "RO", "coord": {"lon": 28.049999, "lat": 45.450001}}, {"id": 2524679, "name": "Galati Mamertino", "country": "IT", "coord": {"lon": 14.77088, "lat": 38.03196}}, {"id": 677691, "name": "Galatii Bistritei", "country": "RO", "coord": {"lon": 24.4, "lat": 46.98333}}, {"id": 3176407, "name": "Galatina", "country": "IT", "coord": {"lon": 18.168221, "lat": 40.174019}}, {"id": 6538970, "name": "Galatina", "country": "IT", "coord": {"lon": 18.168221, "lat": 40.174019}}, {"id": 736208, "name": "Galatini", "country": "GR", "coord": {"lon": 21.549999, "lat": 40.316669}}, {"id": 736207, "name": "Galatista", "country": "GR", "coord": {"lon": 23.283331, "lat": 40.466671}}, {"id": 6537588, "name": "Galatone", "country": "IT", "coord": {"lon": 18.070419, "lat": 40.142921}}, {"id": 3176406, "name": "Galatone", "country": "IT", "coord": {"lon": 18.070419, "lat": 40.142921}}, {"id": 2524677, "name": "Galatro", "country": "IT", "coord": {"lon": 16.1106, "lat": 38.460381}}, {"id": 262135, "name": "Galatsi", "country": "GR", "coord": {"lon": 23.75, "lat": 38.01667}}, {"id": 677687, "name": "Galautas", "country": "RO", "coord": {"lon": 25.433331, "lat": 46.916672}}, {"id": 4760376, "name": "Galax", "country": "US", "coord": {"lon": -80.923973, "lat": 36.66124}}, {"id": 2548713, "name": "Galaz", "country": "MA", "coord": {"lon": -4.80355, "lat": 34.544239}}, {"id": 2964189, "name": "Galbally", "country": "IE", "coord": {"lon": -8.29278, "lat": 52.40028}}, {"id": 6356443, "name": "Galbarros", "country": "ES", "coord": {"lon": -3.44522, "lat": 42.523109}}, {"id": 3121753, "name": "Galbarros", "country": "ES", "coord": {"lon": -3.43827, "lat": 42.52729}}, {"id": 3121752, "name": "Galbarruli", "country": "ES", "coord": {"lon": -2.96087, "lat": 42.621811}}, {"id": 677676, "name": "Galbenu", "country": "RO", "coord": {"lon": 27.16667, "lat": 45.216671}}, {"id": 6538004, "name": "Galbiate", "country": "IT", "coord": {"lon": 9.37804, "lat": 45.816181}}, {"id": 3176405, "name": "Galbiate", "country": "IT", "coord": {"lon": 9.37804, "lat": 45.816181}}, {"id": 677672, "name": "Galbinasi", "country": "RO", "coord": {"lon": 26.91667, "lat": 45.083328}}, {"id": 4325394, "name": "Galbraith", "country": "US", "coord": {"lon": -92.812378, "lat": 31.49128}}, {"id": 1497899, "name": "Galbshtadt", "country": "RU", "coord": {"lon": 78.984497, "lat": 53.226398}}, {"id": 6359055, "name": "Galb\u00e1rruli", "country": "ES", "coord": {"lon": -2.95722, "lat": 42.620899}}, {"id": 677667, "name": "Galda de Jos", "country": "RO", "coord": {"lon": 23.616671, "lat": 46.183331}}, {"id": 3121751, "name": "Galdakao", "country": "ES", "coord": {"lon": -2.83333, "lat": 43.23333}}, {"id": 6362381, "name": "Galdakao", "country": "ES", "coord": {"lon": -2.84529, "lat": 43.227131}}, {"id": 6362382, "name": "Galdames", "country": "ES", "coord": {"lon": -3.1065, "lat": 43.268681}}, {"id": 2517436, "name": "Galdar", "country": "ES", "coord": {"lon": -15.6502, "lat": 28.147011}}, {"id": 5593764, "name": "Gale", "country": "US", "coord": {"lon": -111.719414, "lat": 43.76519}}, {"id": 4006081, "name": "Galeana", "country": "MX", "coord": {"lon": -100.066673, "lat": 24.83333}}, {"id": 3761660, "name": "Galeana", "country": "MX", "coord": {"lon": -99.216667, "lat": 18.633329}}, {"id": 3176400, "name": "Galeata", "country": "IT", "coord": {"lon": 11.91323, "lat": 43.997959}}, {"id": 562175, "name": "Galebatovo", "country": "RU", "coord": {"lon": 42.783333, "lat": 59.400002}}, {"id": 2739118, "name": "Galegos", "country": "PT", "coord": {"lon": -8.57204, "lat": 41.562679}}, {"id": 4257835, "name": "Galena", "country": "US", "coord": {"lon": -85.941643, "lat": 38.35173}}, {"id": 4271901, "name": "Galena", "country": "US", "coord": {"lon": -94.639671, "lat": 37.075901}}, {"id": 4387557, "name": "Galena", "country": "US", "coord": {"lon": -93.466583, "lat": 36.80534}}, {"id": 4893384, "name": "Galena", "country": "US", "coord": {"lon": -90.429024, "lat": 42.416672}}, {"id": 4692771, "name": "Galena Park", "country": "US", "coord": {"lon": -95.230209, "lat": 29.733561}}, {"id": 2923238, "name": "Galenbeck", "country": "DE", "coord": {"lon": 13.7, "lat": 53.616669}}, {"id": 7602571, "name": "Galenbeck", "country": "DE", "coord": {"lon": 13, "lat": 53.650002}}, {"id": 2923237, "name": "Galenbeck", "country": "DE", "coord": {"lon": 13, "lat": 53.650002}}, {"id": 6553350, "name": "Galenberg", "country": "DE", "coord": {"lon": 7.2, "lat": 50.4333}}, {"id": 2923234, "name": "Galenberg", "country": "DE", "coord": {"lon": 7.2, "lat": 50.433331}}, {"id": 562174, "name": "Galenchino", "country": "RU", "coord": {"lon": 39.711388, "lat": 54.601391}}, {"id": 6362524, "name": "Galende", "country": "ES", "coord": {"lon": -6.70304, "lat": 42.119251}}, {"id": 3121744, "name": "Galende", "country": "ES", "coord": {"lon": -6.66252, "lat": 42.104401}}, {"id": 7413322, "name": "Galengkou", "country": "CN", "coord": {"lon": 102.22673, "lat": 35.699001}}, {"id": 2024203, "name": "Galenki", "country": "RU", "coord": {"lon": 131.778061, "lat": 44.040279}}, {"id": 3816039, "name": "Galeno Nacia", "country": "MX", "coord": {"lon": -93.01667, "lat": 16.58333}}, {"id": 6357704, "name": "Galera", "country": "ES", "coord": {"lon": -2.57569, "lat": 37.70639}}, {"id": 2517432, "name": "Galera", "country": "ES", "coord": {"lon": -2.55175, "lat": 37.742619}}, {"id": 3682232, "name": "Galeras", "country": "CO", "coord": {"lon": -75.048111, "lat": 9.16095}}, {"id": 4834837, "name": "Gales Ferry", "country": "US", "coord": {"lon": -72.082024, "lat": 41.429821}}, {"id": 4893392, "name": "Galesburg", "country": "US", "coord": {"lon": -90.371239, "lat": 40.947819}}, {"id": 4993609, "name": "Galesburg", "country": "US", "coord": {"lon": -85.41806, "lat": 42.288651}}, {"id": 1644605, "name": "Galesong", "country": "ID", "coord": {"lon": 119.366096, "lat": -5.3166}}, {"id": 677655, "name": "Galesti", "country": "RO", "coord": {"lon": 24.75, "lat": 46.51667}}, {"id": 5253998, "name": "Galesville", "country": "US", "coord": {"lon": -91.349037, "lat": 44.081631}}, {"id": 5190743, "name": "Galeton", "country": "US", "coord": {"lon": -77.64193, "lat": 41.73312}}, {"id": 5118185, "name": "Galeville", "country": "US", "coord": {"lon": -76.172981, "lat": 43.090069}}, {"id": 3099544, "name": "Galewice", "country": "PL", "coord": {"lon": 18.257561, "lat": 51.344711}}, {"id": 628559, "name": "Galeyevka", "country": "BY", "coord": {"lon": 29.866667, "lat": 53.533333}}, {"id": 2071144, "name": "Galga", "country": "AU", "coord": {"lon": 139.949997, "lat": -34.700001}}, {"id": 6535711, "name": "Galgagnano", "country": "IT", "coord": {"lon": 9.44536, "lat": 45.357971}}, {"id": 3052419, "name": "Galgaheviz", "country": "HU", "coord": {"lon": 19.566669, "lat": 47.616669}}, {"id": 3052417, "name": "Galgamacsa", "country": "HU", "coord": {"lon": 19.387239, "lat": 47.695621}}, {"id": 2024200, "name": "Galgatay", "country": "RU", "coord": {"lon": 110.199997, "lat": 54.183331}}, {"id": 2648924, "name": "Galgate", "country": "GB", "coord": {"lon": -2.78333, "lat": 53.98333}}, {"id": 677270, "name": "Galgau Almasului", "country": "RO", "coord": {"lon": 23.33333, "lat": 47.200001}}, {"id": 2797862, "name": "Galgendries", "country": "BE", "coord": {"lon": 4.04485, "lat": 50.706989}}, {"id": 6616549, "name": "Galgon", "country": "FR", "coord": {"lon": -0.2719, "lat": 44.991001}}, {"id": 3016764, "name": "Galgon", "country": "FR", "coord": {"lon": -0.26667, "lat": 44.98333}}, {"id": 3462710, "name": "Galheiro", "country": "BR", "coord": {"lon": -51.950001, "lat": -18.966669}}, {"id": 614613, "name": "Gali", "country": "GE", "coord": {"lon": 41.738079, "lat": 42.626549}}, {"id": 1271771, "name": "Galiakot", "country": "IN", "coord": {"lon": 74, "lat": 23.51667}}, {"id": 2517414, "name": "Galiana", "country": "ES", "coord": {"lon": -2.76358, "lat": 36.771069}}, {"id": 677650, "name": "Galicea", "country": "RO", "coord": {"lon": 24.283331, "lat": 44.916672}}, {"id": 677648, "name": "Galicea Mare", "country": "RO", "coord": {"lon": 23.299999, "lat": 44.099998}}, {"id": 562161, "name": "Galich", "country": "RU", "coord": {"lon": 42.3475, "lat": 58.379723}}, {"id": 709034, "name": "Galich", "country": "UA", "coord": {"lon": 24.72578, "lat": 49.121792}}, {"id": 3336902, "name": "Galicia", "country": "ES", "coord": {"lon": -7.86621, "lat": 42.755081}}, {"id": 6359056, "name": "Galilea", "country": "ES", "coord": {"lon": -2.23099, "lat": 42.363441}}, {"id": 3121736, "name": "Galilea", "country": "ES", "coord": {"lon": -2.23605, "lat": 42.347031}}, {"id": 5190747, "name": "Galilee", "country": "US", "coord": {"lon": -75.139618, "lat": 41.735088}}, {"id": 3462686, "name": "Galil\u00e9ia", "country": "BR", "coord": {"lon": -41.537498, "lat": -18.999439}}, {"id": 1713340, "name": "Galimuyod", "country": "PH", "coord": {"lon": 120.471939, "lat": 17.184441}}, {"id": 6360385, "name": "Galindo y Perahuy", "country": "ES", "coord": {"lon": -5.81674, "lat": 40.942101}}, {"id": 3121732, "name": "Galindo y Perahuy", "country": "ES", "coord": {"lon": -5.8741, "lat": 40.94397}}, {"id": 6360386, "name": "Galinduste", "country": "ES", "coord": {"lon": -5.5273, "lat": 40.664749}}, {"id": 3121731, "name": "Galinduste", "country": "ES", "coord": {"lon": -5.54003, "lat": 40.662659}}, {"id": 3399179, "name": "Galinhos", "country": "BR", "coord": {"lon": -36.27528, "lat": -5.09056}}, {"id": 5155414, "name": "Galion", "country": "US", "coord": {"lon": -82.789902, "lat": 40.733669}}, {"id": 6360387, "name": "Galisancho", "country": "ES", "coord": {"lon": -5.54299, "lat": 40.72287}}, {"id": 3121728, "name": "Galisancho", "country": "ES", "coord": {"lon": -5.55471, "lat": 40.744179}}, {"id": 6356772, "name": "Galisteo", "country": "ES", "coord": {"lon": -6.28272, "lat": 39.993919}}, {"id": 2517409, "name": "Galisteo", "country": "ES", "coord": {"lon": -6.26782, "lat": 39.976421}}, {"id": 803563, "name": "Galitsino", "country": "RU", "coord": {"lon": 39.978889, "lat": 43.551388}}, {"id": 562136, "name": "Galitsy", "country": "RU", "coord": {"lon": 42.845879, "lat": 56.177589}}, {"id": 3200734, "name": "Galizana", "country": "HR", "coord": {"lon": 13.86861, "lat": 44.931671}}, {"id": 3121727, "name": "Galizano", "country": "ES", "coord": {"lon": -3.67156, "lat": 43.469261}}, {"id": 562124, "name": "Galkin", "country": "RU", "coord": {"lon": 42.309502, "lat": 49.774899}}, {"id": 1246321, "name": "Galkissa", "country": "LK", "coord": {"lon": 79.862999, "lat": 6.8293}}, {"id": 3099529, "name": "Galkow Maly", "country": "PL", "coord": {"lon": 19.713591, "lat": 51.72554}}, {"id": 6537078, "name": "Gallarate", "country": "IT", "coord": {"lon": 8.79034, "lat": 45.663971}}, {"id": 3176391, "name": "Gallarate", "country": "IT", "coord": {"lon": 8.79164, "lat": 45.660191}}, {"id": 3016750, "name": "Gallardon", "country": "FR", "coord": {"lon": 1.69307, "lat": 48.526218}}, {"id": 6355560, "name": "Gallardos (Los)", "country": "ES", "coord": {"lon": -1.95826, "lat": 37.14843}}, {"id": 3015119, "name": "Gallargues-le-Montueux", "country": "FR", "coord": {"lon": 4.16667, "lat": 43.716671}}, {"id": 3121721, "name": "Gallarta", "country": "ES", "coord": {"lon": -3.07282, "lat": 43.321178}}, {"id": 3121720, "name": "Gallartu", "country": "ES", "coord": {"lon": -2.83714, "lat": 43.099331}}, {"id": 4624180, "name": "Gallatin", "country": "US", "coord": {"lon": -86.446663, "lat": 36.388378}}, {"id": 4387569, "name": "Gallatin", "country": "US", "coord": {"lon": -93.962173, "lat": 39.914452}}, {"id": 5653656, "name": "Gallatin County", "country": "US", "coord": {"lon": -111.20079, "lat": 45.666599}}, {"id": 1246294, "name": "Galle", "country": "LK", "coord": {"lon": 80.217003, "lat": 6.0367}}, {"id": 2517404, "name": "Gallego", "country": "ES", "coord": {"lon": -2.01042, "lat": 38.412842}}, {"id": 6360828, "name": "Gallegos", "country": "ES", "coord": {"lon": -3.77468, "lat": 41.068829}}, {"id": 3121715, "name": "Gallegos", "country": "ES", "coord": {"lon": -3.78591, "lat": 41.075081}}, {"id": 3121709, "name": "Gallegos de Arganan", "country": "ES", "coord": {"lon": -6.70246, "lat": 40.631458}}, {"id": 6360388, "name": "Gallegos de Arga\u00f1\u00e1n", "country": "ES", "coord": {"lon": -6.69226, "lat": 40.623779}}, {"id": 6362197, "name": "Gallegos de Hornija", "country": "ES", "coord": {"lon": -5.08753, "lat": 41.60891}}, {"id": 3121707, "name": "Gallegos de Hornija", "country": "ES", "coord": {"lon": -5.09768, "lat": 41.609798}}, {"id": 6355686, "name": "Gallegos de Sobrinos", "country": "ES", "coord": {"lon": -5.14117, "lat": 40.701939}}, {"id": 3121702, "name": "Gallegos de Sobrinos", "country": "ES", "coord": {"lon": -5.11224, "lat": 40.71693}}, {"id": 6362525, "name": "Gallegos del Pan", "country": "ES", "coord": {"lon": -5.58023, "lat": 41.600609}}, {"id": 3121705, "name": "Gallegos del Pan", "country": "ES", "coord": {"lon": -5.58117, "lat": 41.59985}}, {"id": 3121704, "name": "Gallegos del Rio", "country": "ES", "coord": {"lon": -6.17435, "lat": 41.73497}}, {"id": 6362526, "name": "Gallegos del R\u00edo", "country": "ES", "coord": {"lon": -6.17481, "lat": 41.735371}}, {"id": 2413456, "name": "Galleh Manda", "country": "GM", "coord": {"lon": -14.78333, "lat": 13.43333}}, {"id": 2922849, "name": "Gallen", "country": "DE", "coord": {"lon": 12.55, "lat": 51.433331}}, {"id": 7285886, "name": "Gallenkirch", "country": "CH", "coord": {"lon": 8.12546, "lat": 47.480679}}, {"id": 2922829, "name": "Gallentin", "country": "DE", "coord": {"lon": 11.44887, "lat": 53.758911}}, {"id": 2922828, "name": "Gallenweiler", "country": "DE", "coord": {"lon": 7.68333, "lat": 47.883331}}, {"id": 2922823, "name": "Gallertsham", "country": "DE", "coord": {"lon": 12.36667, "lat": 48.033329}}, {"id": 3176384, "name": "Gallese", "country": "IT", "coord": {"lon": 12.39897, "lat": 42.37373}}, {"id": 2648918, "name": "Galleywood", "country": "GB", "coord": {"lon": 0.47076, "lat": 51.700069}}, {"id": 4325424, "name": "Galliano", "country": "US", "coord": {"lon": -90.299248, "lat": 29.44216}}, {"id": 3176379, "name": "Galliate", "country": "IT", "coord": {"lon": 8.69674, "lat": 45.481571}}, {"id": 6535104, "name": "Galliate Lombardo", "country": "IT", "coord": {"lon": 8.77043, "lat": 45.784882}}, {"id": 6535795, "name": "Galliavola", "country": "IT", "coord": {"lon": 8.81885, "lat": 45.097561}}, {"id": 3176378, "name": "Gallicano", "country": "IT", "coord": {"lon": 10.4452, "lat": 44.05735}}, {"id": 3176377, "name": "Gallicano nel Lazio", "country": "IT", "coord": {"lon": 12.82408, "lat": 41.86882}}, {"id": 3176376, "name": "Gallicchio", "country": "IT", "coord": {"lon": 16.13908, "lat": 40.289009}}, {"id": 3016747, "name": "Gallician", "country": "FR", "coord": {"lon": 4.298, "lat": 43.64315}}, {"id": 3176375, "name": "Galliera", "country": "IT", "coord": {"lon": 11.39371, "lat": 44.749271}}, {"id": 3176373, "name": "Galliera Veneta", "country": "IT", "coord": {"lon": 11.8309, "lat": 45.663502}}, {"id": 6356117, "name": "Gallifa", "country": "ES", "coord": {"lon": 2.11421, "lat": 41.692692}}, {"id": 3121697, "name": "Gallifa", "country": "ES", "coord": {"lon": 2.11346, "lat": 41.692429}}, {"id": 736199, "name": "Gallikos", "country": "GR", "coord": {"lon": 22.875561, "lat": 40.859169}}, {"id": 2922817, "name": "Gallin", "country": "DE", "coord": {"lon": 12.95, "lat": 52.383331}}, {"id": 6547931, "name": "Gallin", "country": "DE", "coord": {"lon": 10.83316, "lat": 53.49353}}, {"id": 2922816, "name": "Gallin", "country": "DE", "coord": {"lon": 10.83317, "lat": 53.49353}}, {"id": 3176369, "name": "Gallinaro", "country": "IT", "coord": {"lon": 13.79781, "lat": 41.653419}}, {"id": 5351414, "name": "Gallinas", "country": "US", "coord": {"lon": -122.525253, "lat": 38.020199}}, {"id": 3682205, "name": "Gallinazo", "country": "CO", "coord": {"lon": -75.449997, "lat": 5.03333}}, {"id": 6359057, "name": "Gallinero de Cameros", "country": "ES", "coord": {"lon": -2.61193, "lat": 42.174789}}, {"id": 3121690, "name": "Gallinero de Cameros", "country": "ES", "coord": {"lon": -2.61793, "lat": 42.172291}}, {"id": 3176367, "name": "Gallio", "country": "IT", "coord": {"lon": 11.53679, "lat": 45.8862}}, {"id": 6359658, "name": "Gallipienzo", "country": "ES", "coord": {"lon": -1.41392, "lat": 42.503819}}, {"id": 3121687, "name": "Gallipienzo", "country": "ES", "coord": {"lon": -1.41115, "lat": 42.524502}}, {"id": 6541943, "name": "Gallipoli", "country": "IT", "coord": {"lon": 17.99642, "lat": 40.056721}}, {"id": 3176366, "name": "Gallipoli", "country": "IT", "coord": {"lon": 17.976391, "lat": 40.055561}}, {"id": 4512449, "name": "Gallipolis", "country": "US", "coord": {"lon": -82.20237, "lat": 38.809799}}, {"id": 5190769, "name": "Gallitzin", "country": "US", "coord": {"lon": -78.551682, "lat": 40.482288}}, {"id": 4156447, "name": "Galliver", "country": "US", "coord": {"lon": -86.707176, "lat": 30.72436}}, {"id": 7871674, "name": "Gallizien", "country": "AT", "coord": {"lon": 14.50446, "lat": 46.5471}}, {"id": 2778968, "name": "Gallizien", "country": "AT", "coord": {"lon": 14.51667, "lat": 46.549999}}, {"id": 7873541, "name": "Gallmannsegg", "country": "AT", "coord": {"lon": 15.08686, "lat": 47.185169}}, {"id": 2778967, "name": "Gallmannsegg", "country": "AT", "coord": {"lon": 15.06667, "lat": 47.183331}}, {"id": 2922806, "name": "Gallmannsweil", "country": "DE", "coord": {"lon": 9, "lat": 47.916672}}, {"id": 6556902, "name": "Gallmersgarten", "country": "DE", "coord": {"lon": 10.2667, "lat": 49.450001}}, {"id": 2922805, "name": "Gallmersgarten", "country": "DE", "coord": {"lon": 10.26667, "lat": 49.450001}}, {"id": 7873236, "name": "Gallneukirchen", "country": "AT", "coord": {"lon": 14.41269, "lat": 48.354309}}, {"id": 2778966, "name": "Gallneukirchen", "country": "AT", "coord": {"lon": 14.41604, "lat": 48.35363}}, {"id": 3176363, "name": "Gallo Matese", "country": "IT", "coord": {"lon": 14.22502, "lat": 41.46452}}, {"id": 6362807, "name": "Gallocanta", "country": "ES", "coord": {"lon": -1.52489, "lat": 40.99398}}, {"id": 3121682, "name": "Gallocanta", "country": "ES", "coord": {"lon": -1.50774, "lat": 40.996239}}, {"id": 2524665, "name": "Gallodoro", "country": "IT", "coord": {"lon": 15.29359, "lat": 37.902061}}, {"id": 3176353, "name": "Galluccio", "country": "IT", "coord": {"lon": 13.95372, "lat": 41.352322}}, {"id": 3016745, "name": "Galluis", "country": "FR", "coord": {"lon": 1.79414, "lat": 48.79657}}, {"id": 5468773, "name": "Gallup", "country": "US", "coord": {"lon": -108.742577, "lat": 35.52808}}, {"id": 5295579, "name": "Gallups", "country": "US", "coord": {"lon": -111.186523, "lat": 34.078651}}, {"id": 6362808, "name": "Gallur", "country": "ES", "coord": {"lon": -1.31534, "lat": 41.86721}}, {"id": 3121679, "name": "Gallur", "country": "ES", "coord": {"lon": -1.31577, "lat": 41.868301}}, {"id": 7872628, "name": "Gallzein", "country": "AT", "coord": {"lon": 11.76925, "lat": 47.35548}}, {"id": 2778961, "name": "Gallzein", "country": "AT", "coord": {"lon": 11.76667, "lat": 47.366669}}, {"id": 2797852, "name": "Galmaarden", "country": "BE", "coord": {"lon": 3.99334, "lat": 50.751701}}, {"id": 2797851, "name": "Galmaarden", "country": "BE", "coord": {"lon": 3.97121, "lat": 50.753891}}, {"id": 2778959, "name": "Galmist", "country": "AT", "coord": {"lon": 9.58306, "lat": 47.216671}}, {"id": 7285887, "name": "Galmiz", "country": "CH", "coord": {"lon": 7.14659, "lat": 46.958759}}, {"id": 2660674, "name": "Galmiz", "country": "CH", "coord": {"lon": 7.15804, "lat": 46.94875}}, {"id": 3208545, "name": "Galmsbull", "country": "DE", "coord": {"lon": 8.75, "lat": 54.75}}, {"id": 6551637, "name": "Galmsb\u00fcll", "country": "DE", "coord": {"lon": 8.75, "lat": 54.75}}, {"id": 2165950, "name": "Galong", "country": "AU", "coord": {"lon": 148.550003, "lat": -34.599998}}, {"id": 3200731, "name": "Galovac", "country": "HR", "coord": {"lon": 15.39333, "lat": 44.071388}}, {"id": 7285888, "name": "Gals", "country": "CH", "coord": {"lon": 7.0599, "lat": 47.03476}}, {"id": 2660673, "name": "Gals", "country": "CH", "coord": {"lon": 7.05183, "lat": 47.028412}}, {"id": 2165947, "name": "Galston", "country": "AU", "coord": {"lon": 151.050003, "lat": -33.650002}}, {"id": 2648909, "name": "Galston", "country": "GB", "coord": {"lon": -4.38172, "lat": 55.600929}}, {"id": 5351428, "name": "Galt", "country": "US", "coord": {"lon": -121.29995, "lat": 38.254639}}, {"id": 3176349, "name": "Galtelli", "country": "IT", "coord": {"lon": 9.61464, "lat": 40.385262}}, {"id": 2621710, "name": "Galten", "country": "DK", "coord": {"lon": 9.91691, "lat": 56.159019}}, {"id": 2778953, "name": "Galtur", "country": "AT", "coord": {"lon": 10.18333, "lat": 46.966671}}, {"id": 7872577, "name": "Galt\u00fcr", "country": "AT", "coord": {"lon": 10.17996, "lat": 46.922279}}, {"id": 7563892, "name": "Galubakul", "country": "ID", "coord": {"lon": 119.566711, "lat": -9.62074}}, {"id": 7333269, "name": "Galuk", "country": "ID", "coord": {"lon": 111.487099, "lat": -7.1097}}, {"id": 7847288, "name": "Galumpit", "country": "ID", "coord": {"lon": 106.623299, "lat": -7.2122}}, {"id": 1644579, "name": "Galunggalung", "country": "ID", "coord": {"lon": 118.896004, "lat": -3.489}}, {"id": 8052067, "name": "Galutu", "country": "CN", "coord": {"lon": 108.84742, "lat": 38.600861}}, {"id": 4893424, "name": "Galva", "country": "US", "coord": {"lon": -90.04261, "lat": 41.167542}}, {"id": 3505517, "name": "Galvan", "country": "DO", "coord": {"lon": -71.342712, "lat": 18.502279}}, {"id": 3889153, "name": "Galvarino", "country": "CL", "coord": {"lon": -72.783333, "lat": -38.400002}}, {"id": 6361526, "name": "Galve", "country": "ES", "coord": {"lon": -0.87617, "lat": 40.647709}}, {"id": 3121678, "name": "Galve", "country": "ES", "coord": {"lon": -0.88217, "lat": 40.65591}}, {"id": 6357910, "name": "Galve de Sorbe", "country": "ES", "coord": {"lon": -3.20828, "lat": 41.210381}}, {"id": 3121677, "name": "Galve de Sorbe", "country": "ES", "coord": {"lon": -3.18333, "lat": 41.216671}}, {"id": 6930685, "name": "Galveias", "country": "PT", "coord": {"lon": -7.99213, "lat": 39.164299}}, {"id": 4692883, "name": "Galveston", "country": "US", "coord": {"lon": -94.797699, "lat": 29.30135}}, {"id": 4920577, "name": "Galveston", "country": "US", "coord": {"lon": -86.190269, "lat": 40.57893}}, {"id": 4692856, "name": "Galveston County", "country": "US", "coord": {"lon": -94.966873, "lat": 29.366899}}, {"id": 3855244, "name": "Galvez", "country": "AR", "coord": {"lon": -61.221031, "lat": -32.02927}}, {"id": 2517383, "name": "Galvez", "country": "ES", "coord": {"lon": -4.27239, "lat": 39.70208}}, {"id": 562086, "name": "Galyugayevskaya", "country": "RU", "coord": {"lon": 44.934441, "lat": 43.696941}}, {"id": 3176346, "name": "Galzignano", "country": "IT", "coord": {"lon": 11.73421, "lat": 45.306389}}, {"id": 6357909, "name": "Gal\u00e1pagos", "country": "ES", "coord": {"lon": -3.3476, "lat": 40.708611}}, {"id": 6416311, "name": "Gal\u2019chino", "country": "RU", "coord": {"lon": 37.895279, "lat": 55.276112}}, {"id": 628549, "name": "Gal\u2019kovka", "country": "BY", "coord": {"lon": 30.010834, "lat": 53.621113}}, {"id": 295095, "name": "Gal\u2019on", "country": "IL", "coord": {"lon": 34.84758, "lat": 31.633659}}, {"id": 3462672, "name": "Gama", "country": "BR", "coord": {"lon": -48.083328, "lat": -15.95}}, {"id": 3121675, "name": "Gama", "country": "ES", "coord": {"lon": -4.20675, "lat": 42.747959}}, {"id": 3682185, "name": "Gama", "country": "CO", "coord": {"lon": -73.610901, "lat": 4.76288}}, {"id": 3016737, "name": "Gamaches", "country": "FR", "coord": {"lon": 1.55624, "lat": 49.986141}}, {"id": 7746220, "name": "Gamafikana", "country": "BW", "coord": {"lon": 25.36657, "lat": -24.993959}}, {"id": 1863693, "name": "Gamagori", "country": "JP", "coord": {"lon": 137.233337, "lat": 34.833328}}, {"id": 3176344, "name": "Gamalero", "country": "IT", "coord": {"lon": 8.54164, "lat": 44.809052}}, {"id": 6433820, "name": "Gamarde-les-Bains", "country": "FR", "coord": {"lon": -0.86667, "lat": 43.73333}}, {"id": 3016735, "name": "Gamarde-les-Bains", "country": "FR", "coord": {"lon": -0.87252, "lat": 43.732899}}, {"id": 3682182, "name": "Gamarra", "country": "CO", "coord": {"lon": -73.742683, "lat": 8.32279}}, {"id": 6440386, "name": "Gamarthe", "country": "FR", "coord": {"lon": -1.13333, "lat": 43.200001}}, {"id": 3016734, "name": "Gamarthe", "country": "FR", "coord": {"lon": -1.14243, "lat": 43.201141}}, {"id": 2342199, "name": "Gamawa", "country": "NG", "coord": {"lon": 10.5396, "lat": 12.1343}}, {"id": 1713309, "name": "Gamay", "country": "PH", "coord": {"lon": 125.297913, "lat": 12.38542}}, {"id": 1727233, "name": "Gamay", "country": "PH", "coord": {"lon": 125.236603, "lat": 12.3638}}, {"id": 2400547, "name": "Gamba", "country": "GA", "coord": {"lon": 10, "lat": -2.65}}, {"id": 159936, "name": "Gamba", "country": "TZ", "coord": {"lon": 39.299999, "lat": -5.9}}, {"id": 2922783, "name": "Gambach", "country": "DE", "coord": {"lon": 8.7252, "lat": 50.460999}}, {"id": 3016733, "name": "Gambais", "country": "FR", "coord": {"lon": 1.67196, "lat": 48.77351}}, {"id": 1719803, "name": "Gambalidio", "country": "PH", "coord": {"lon": 122.891296, "lat": 13.6205}}, {"id": 1713302, "name": "Gambang", "country": "PH", "coord": {"lon": 120.783302, "lat": 16.75}}, {"id": 7406493, "name": "Gambangan", "country": "ID", "coord": {"lon": 113.768898, "lat": -8.0322}}, {"id": 3176343, "name": "Gambara", "country": "IT", "coord": {"lon": 10.29348, "lat": 45.25528}}, {"id": 3176342, "name": "Gambarana", "country": "IT", "coord": {"lon": 8.76335, "lat": 45.028358}}, {"id": 6373831, "name": "Gambarjati", "country": "ID", "coord": {"lon": 109.128891, "lat": -7.53694}}, {"id": 6373816, "name": "Gambarsari", "country": "ID", "coord": {"lon": 109.201393, "lat": -7.53139}}, {"id": 2342192, "name": "Gambaru", "country": "NG", "coord": {"lon": 14.21731, "lat": 12.37066}}, {"id": 3176340, "name": "Gambasca", "country": "IT", "coord": {"lon": 7.34732, "lat": 44.628731}}, {"id": 3176339, "name": "Gambassi", "country": "IT", "coord": {"lon": 10.95232, "lat": 43.536942}}, {"id": 1179061, "name": "Gambat", "country": "PK", "coord": {"lon": 68.520508, "lat": 27.35145}}, {"id": 3176338, "name": "Gambatesa", "country": "IT", "coord": {"lon": 14.91354, "lat": 41.50893}}, {"id": 337405, "name": "Gambela", "country": "ET", "coord": {"lon": 34.583328, "lat": 8.25}}, {"id": 444183, "name": "Gambela Regional State", "country": "ET", "coord": {"lon": 34.5, "lat": 7.83333}}, {"id": 6543562, "name": "Gambellara", "country": "IT", "coord": {"lon": 11.3401, "lat": 45.459789}}, {"id": 6535581, "name": "Gambellara", "country": "IT", "coord": {"lon": 11.3401, "lat": 45.459789}}, {"id": 3176335, "name": "Gamberale", "country": "IT", "coord": {"lon": 14.20732, "lat": 41.906029}}, {"id": 3176334, "name": "Gambettola", "country": "IT", "coord": {"lon": 12.33705, "lat": 44.117481}}, {"id": 2413451, "name": "Gambia", "country": "GM", "coord": {"lon": -15.5, "lat": 13.5}}, {"id": 5155438, "name": "Gambier", "country": "US", "coord": {"lon": -82.397102, "lat": 40.375622}}, {"id": 8070858, "name": "Gambiran", "country": "ID", "coord": {"lon": 111.495102, "lat": -6.7988}}, {"id": 1644557, "name": "Gambiran Satu", "country": "ID", "coord": {"lon": 114.1464, "lat": -8.3939}}, {"id": 7083421, "name": "Gambiran Wetan", "country": "ID", "coord": {"lon": 113.808594, "lat": -8.15529}}, {"id": 1644556, "name": "Gambirono", "country": "ID", "coord": {"lon": 113.518898, "lat": -8.199}}, {"id": 5959266, "name": "Gambles Corner", "country": "CA", "coord": {"lon": -63.515411, "lat": 46.26683}}, {"id": 5959271, "name": "Gambo", "country": "CA", "coord": {"lon": -54.214821, "lat": 48.783199}}, {"id": 239300, "name": "Gambo", "country": "CF", "coord": {"lon": 22.263309, "lat": 4.64816}}, {"id": 3889146, "name": "Gamboa", "country": "CL", "coord": {"lon": -73.803329, "lat": -42.473331}}, {"id": 3709373, "name": "Gamboa", "country": "PA", "coord": {"lon": -79.699997, "lat": 9.11667}}, {"id": 6373958, "name": "Gambolempuk", "country": "ID", "coord": {"lon": 109.232224, "lat": -7.56778}}, {"id": 3176333, "name": "Gambolo", "country": "IT", "coord": {"lon": 8.85724, "lat": 45.26416}}, {"id": 6541713, "name": "Gambol\u00f2", "country": "IT", "coord": {"lon": 8.85724, "lat": 45.26416}}, {"id": 2259947, "name": "Gamboma", "country": "CG", "coord": {"lon": 15.86444, "lat": -1.87639}}, {"id": 2386756, "name": "Gamboula", "country": "CF", "coord": {"lon": 15.13926, "lat": 4.11775}}, {"id": 4355899, "name": "Gambrills", "country": "US", "coord": {"lon": -76.665237, "lat": 39.067051}}, {"id": 3016730, "name": "Gambsheim", "country": "FR", "coord": {"lon": 7.88286, "lat": 48.692089}}, {"id": 6535582, "name": "Gambugliano", "country": "IT", "coord": {"lon": 11.4386, "lat": 45.58799}}, {"id": 7036499, "name": "Gambuhan Kidul", "country": "ID", "coord": {"lon": 112.398499, "lat": -7.0392}}, {"id": 3399132, "name": "Gameleira", "country": "BR", "coord": {"lon": -35.386669, "lat": -8.58444}}, {"id": 4467580, "name": "Gamewell", "country": "US", "coord": {"lon": -81.596207, "lat": 35.869301}}, {"id": 3682172, "name": "Gameza", "country": "CO", "coord": {"lon": -72.805862, "lat": 5.80263}}, {"id": 3016728, "name": "Gamilly", "country": "FR", "coord": {"lon": 1.4837, "lat": 49.082851}}, {"id": 7871899, "name": "Gaming", "country": "AT", "coord": {"lon": 15.13152, "lat": 47.856869}}, {"id": 2778949, "name": "Gaming", "country": "AT", "coord": {"lon": 15.08818, "lat": 47.929001}}, {"id": 2712995, "name": "Gamla Staden", "country": "SE", "coord": {"lon": 13, "lat": 55.599998}}, {"id": 2712988, "name": "Gamleby", "country": "SE", "coord": {"lon": 16.4, "lat": 57.900002}}, {"id": 6553684, "name": "Gamlen", "country": "DE", "coord": {"lon": 7.2, "lat": 50.233299}}, {"id": 2922770, "name": "Gamlen", "country": "DE", "coord": {"lon": 7.2, "lat": 50.23333}}, {"id": 2648899, "name": "Gamlingay", "country": "GB", "coord": {"lon": -0.19303, "lat": 52.155609}}, {"id": 7872400, "name": "Gamlitz", "country": "AT", "coord": {"lon": 15.52799, "lat": 46.710312}}, {"id": 2778945, "name": "Gamlitz", "country": "AT", "coord": {"lon": 15.55333, "lat": 46.72028}}, {"id": 1713296, "name": "Gammad", "country": "PH", "coord": {"lon": 121.743698, "lat": 17.7104}}, {"id": 6551839, "name": "Gammelby", "country": "DE", "coord": {"lon": 9.8, "lat": 54.5}}, {"id": 2922768, "name": "Gammelby", "country": "DE", "coord": {"lon": 9.8, "lat": 54.5}}, {"id": 6547932, "name": "Gammelin", "country": "DE", "coord": {"lon": 11.2333, "lat": 53.516701}}, {"id": 2922761, "name": "Gammelin", "country": "DE", "coord": {"lon": 11.23333, "lat": 53.51667}}, {"id": 2922758, "name": "Gammellund", "country": "DE", "coord": {"lon": 9.45, "lat": 54.583328}}, {"id": 6556202, "name": "Gammelsdorf", "country": "DE", "coord": {"lon": 11.95, "lat": 48.549999}}, {"id": 2922754, "name": "Gammelsdorf", "country": "DE", "coord": {"lon": 11.95, "lat": 48.549999}}, {"id": 6555458, "name": "Gammelshausen", "country": "DE", "coord": {"lon": 9.65063, "lat": 48.64048}}, {"id": 2922753, "name": "Gammelshausen", "country": "DE", "coord": {"lon": 9.65072, "lat": 48.640228}}, {"id": 2922752, "name": "Gammelshausen", "country": "DE", "coord": {"lon": 7.48333, "lat": 50.066669}}, {"id": 606072, "name": "Gammelstad", "country": "SE", "coord": {"lon": 22.01145, "lat": 65.639313}}, {"id": 2922751, "name": "Gammendorf", "country": "DE", "coord": {"lon": 11.15, "lat": 54.5}}, {"id": 2922747, "name": "Gammertingen", "country": "DE", "coord": {"lon": 9.21667, "lat": 48.25}}, {"id": 3121665, "name": "Gamonal", "country": "ES", "coord": {"lon": -5.08333, "lat": 40.683331}}, {"id": 2517379, "name": "Gamonal", "country": "ES", "coord": {"lon": -4.96181, "lat": 39.960678}}, {"id": 6362527, "name": "Gamones", "country": "ES", "coord": {"lon": -6.17711, "lat": 41.46714}}, {"id": 3121659, "name": "Gamones", "country": "ES", "coord": {"lon": -6.17621, "lat": 41.4669}}, {"id": 562070, "name": "Gamovo", "country": "RU", "coord": {"lon": 56.105598, "lat": 57.8652}}, {"id": 1246007, "name": "Gampaha", "country": "LK", "coord": {"lon": 79.9925, "lat": 7.0897}}, {"id": 1644523, "name": "Gampang", "country": "ID", "coord": {"lon": 112.298599, "lat": -6.956}}, {"id": 2660672, "name": "Gampel", "country": "CH", "coord": {"lon": 7.7421, "lat": 46.31599}}, {"id": 7285889, "name": "Gampel-Bratsch", "country": "CH", "coord": {"lon": 7.72754, "lat": 46.33725}}, {"id": 7285890, "name": "Gampelen", "country": "CH", "coord": {"lon": 7.05576, "lat": 47.00568}}, {"id": 2660671, "name": "Gampelen", "country": "CH", "coord": {"lon": 7.05994, "lat": 47.014992}}, {"id": 3324296, "name": "Gampel\u00fcn", "country": "AT", "coord": {"lon": 9.65353, "lat": 47.198719}}, {"id": 8140965, "name": "Gampeng", "country": "ID", "coord": {"lon": 112.453003, "lat": -6.9365}}, {"id": 1644522, "name": "Gampengrejo", "country": "ID", "coord": {"lon": 112.01667, "lat": -7.76667}}, {"id": 7873258, "name": "Gampern", "country": "AT", "coord": {"lon": 13.5526, "lat": 47.997478}}, {"id": 2778929, "name": "Gampern", "country": "AT", "coord": {"lon": 13.55927, "lat": 47.98745}}, {"id": 2005057, "name": "Gamping Lor", "country": "ID", "coord": {"lon": 110.326393, "lat": -7.79556}}, {"id": 8174647, "name": "Gampingan", "country": "ID", "coord": {"lon": 112.847, "lat": -8.3078}}, {"id": 1246000, "name": "Gampola", "country": "LK", "coord": {"lon": 80.569603, "lat": 7.1643}}, {"id": 3042062, "name": "Gamprin", "country": "LI", "coord": {"lon": 9.50935, "lat": 47.220379}}, {"id": 7285891, "name": "Gams", "country": "CH", "coord": {"lon": 9.43022, "lat": 47.211552}}, {"id": 2660670, "name": "Gams", "country": "CH", "coord": {"lon": 9.44172, "lat": 47.204288}}, {"id": 7873492, "name": "Gams bei Hieflau", "country": "AT", "coord": {"lon": 14.83777, "lat": 47.661331}}, {"id": 2778926, "name": "Gams bei Hieflau", "country": "AT", "coord": {"lon": 14.78333, "lat": 47.666672}}, {"id": 2922739, "name": "Gamsen", "country": "DE", "coord": {"lon": 10.54035, "lat": 52.511002}}, {"id": 2660669, "name": "Gamsen", "country": "CH", "coord": {"lon": 7.9527, "lat": 46.306229}}, {"id": 2922737, "name": "Gamst\u00e4dt", "country": "DE", "coord": {"lon": 10.86667, "lat": 50.950001}}, {"id": 1713288, "name": "Gamu", "country": "PH", "coord": {"lon": 121.836037, "lat": 17.04974}}, {"id": 1713286, "name": "Gamut", "country": "PH", "coord": {"lon": 126.169724, "lat": 9.00444}}, {"id": 1713287, "name": "Gamut", "country": "PH", "coord": {"lon": 126.242218, "lat": 8.53028}}, {"id": 779933, "name": "Gamvik", "country": "NO", "coord": {"lon": 27.85144, "lat": 71.041069}}, {"id": 6440387, "name": "Gan", "country": "FR", "coord": {"lon": -0.38333, "lat": 43.23333}}, {"id": 3016726, "name": "Gan", "country": "FR", "coord": {"lon": -0.38333, "lat": 43.23333}}, {"id": 295080, "name": "Gan Yavne", "country": "IL", "coord": {"lon": 34.706589, "lat": 31.787371}}, {"id": 2922735, "name": "Ganacker", "country": "DE", "coord": {"lon": 12.68333, "lat": 48.716671}}, {"id": 4692898, "name": "Ganado", "country": "US", "coord": {"lon": -96.51358, "lat": 29.040541}}, {"id": 5295585, "name": "Ganado", "country": "US", "coord": {"lon": -109.542053, "lat": 35.711399}}, {"id": 5959326, "name": "Gananoque", "country": "CA", "coord": {"lon": -76.166069, "lat": 44.33342}}, {"id": 8003390, "name": "Ganapati", "country": "NP", "coord": {"lon": 84.063431, "lat": 28.051809}}, {"id": 1719433, "name": "Ganapi", "country": "PH", "coord": {"lon": 121.865242, "lat": 17.20174}}, {"id": 1713271, "name": "Ganassi", "country": "PH", "coord": {"lon": 124.103439, "lat": 7.82694}}, {"id": 3200721, "name": "Gancani", "country": "SI", "coord": {"lon": 16.25111, "lat": 46.6325}}, {"id": 3855237, "name": "Gancedo", "country": "AR", "coord": {"lon": -61.675709, "lat": -27.490379}}, {"id": 1810787, "name": "Ganchang", "country": "CN", "coord": {"lon": 106.924942, "lat": 32.405182}}, {"id": 1810783, "name": "Gancheng", "country": "CN", "coord": {"lon": 106.339432, "lat": 36.59153}}, {"id": 1810785, "name": "Gancheng", "country": "CN", "coord": {"lon": 108.640358, "lat": 18.85157}}, {"id": 1271734, "name": "Gandai", "country": "IN", "coord": {"lon": 81.099998, "lat": 21.66667}}, {"id": 216449, "name": "Gandajika", "country": "CD", "coord": {"lon": 23.950001, "lat": -6.75}}, {"id": 1283410, "name": "Gandak\u012b Zone", "country": "NP", "coord": {"lon": 84.5, "lat": 28.166668}}, {"id": 8052994, "name": "Gandapura", "country": "ID", "coord": {"lon": 108.421997, "lat": -7.3922}}, {"id": 1713262, "name": "Gandara", "country": "PH", "coord": {"lon": 124.811798, "lat": 12.013}}, {"id": 1271729, "name": "Gandarbal", "country": "IN", "coord": {"lon": 74.783333, "lat": 34.23333}}, {"id": 2739087, "name": "Gandarela", "country": "PT", "coord": {"lon": -8.03293, "lat": 41.459042}}, {"id": 1179030, "name": "Gandava", "country": "PK", "coord": {"lon": 67.485397, "lat": 28.6127}}, {"id": 3156136, "name": "Ganddal", "country": "NO", "coord": {"lon": 5.71667, "lat": 58.816669}}, {"id": 6439101, "name": "Gandelain", "country": "FR", "coord": {"lon": -0.08333, "lat": 48.48333}}, {"id": 3016720, "name": "Gandelain", "country": "FR", "coord": {"lon": -0.08802, "lat": 48.479549}}, {"id": 6534968, "name": "Gandellino", "country": "IT", "coord": {"lon": 9.94615, "lat": 45.991089}}, {"id": 5959335, "name": "Gander", "country": "CA", "coord": {"lon": -54.590641, "lat": 48.96822}}, {"id": 6552965, "name": "Ganderkesee", "country": "DE", "coord": {"lon": 8.55566, "lat": 53.06348}}, {"id": 2922731, "name": "Ganderkesee", "country": "DE", "coord": {"lon": 8.53333, "lat": 53.033329}}, {"id": 6361307, "name": "Gandesa", "country": "ES", "coord": {"lon": 0.4326, "lat": 41.0481}}, {"id": 3121642, "name": "Gandesa", "country": "ES", "coord": {"lon": 0.4385, "lat": 41.053749}}, {"id": 6552523, "name": "Gandesbergen", "country": "DE", "coord": {"lon": 9.2227, "lat": 52.760201}}, {"id": 2922728, "name": "Gandesbergen", "country": "DE", "coord": {"lon": 9.23333, "lat": 52.76667}}, {"id": 1271722, "name": "Gandevi", "country": "IN", "coord": {"lon": 72.98333, "lat": 20.816669}}, {"id": 1271714, "name": "Gandhi Nagar", "country": "IN", "coord": {"lon": 80.254173, "lat": 13.00639}}, {"id": 1271715, "name": "Gandhinagar", "country": "IN", "coord": {"lon": 72.683327, "lat": 23.216669}}, {"id": 2342125, "name": "Gandi", "country": "NG", "coord": {"lon": 5.74337, "lat": 12.96358}}, {"id": 2517367, "name": "Gandia", "country": "ES", "coord": {"lon": -0.18333, "lat": 38.966671}}, {"id": 6361996, "name": "Gandia", "country": "ES", "coord": {"lon": -0.19627, "lat": 38.985851}}, {"id": 2251688, "name": "Gandiaye", "country": "SN", "coord": {"lon": -16.26667, "lat": 14.23333}}, {"id": 8068172, "name": "Gandik", "country": "ID", "coord": {"lon": 111.375504, "lat": -6.7205}}, {"id": 3176330, "name": "Gandino", "country": "IT", "coord": {"lon": 9.89646, "lat": 45.807892}}, {"id": 2517365, "name": "Gando", "country": "ES", "coord": {"lon": -15.39425, "lat": 27.94968}}, {"id": 8076886, "name": "Gandoang", "country": "ID", "coord": {"lon": 108.843597, "lat": -7.1668}}, {"id": 2409215, "name": "Gandorhun", "country": "SL", "coord": {"lon": -11.83333, "lat": 7.5}}, {"id": 6535169, "name": "Gandosso", "country": "IT", "coord": {"lon": 9.88886, "lat": 45.658878}}, {"id": 8012805, "name": "Gandra", "country": "PT", "coord": {"lon": -8.43129, "lat": 41.192501}}, {"id": 2739080, "name": "Gandra", "country": "PT", "coord": {"lon": -8.43376, "lat": 41.20116}}, {"id": 8011129, "name": "Gandra", "country": "PT", "coord": {"lon": -8.76298, "lat": 41.522949}}, {"id": 3016716, "name": "Gandrange", "country": "FR", "coord": {"lon": 6.12249, "lat": 49.27071}}, {"id": 1644493, "name": "Gandrungmangu", "country": "ID", "coord": {"lon": 108.853508, "lat": -7.52036}}, {"id": 7688402, "name": "Gandrungmanis Lor", "country": "ID", "coord": {"lon": 108.856796, "lat": -7.5287}}, {"id": 3462601, "name": "Gandu", "country": "BR", "coord": {"lon": -39.486671, "lat": -13.74389}}, {"id": 1644488, "name": "Gandusari", "country": "ID", "coord": {"lon": 112.303001, "lat": -8.0457}}, {"id": 7035390, "name": "Gandusari", "country": "ID", "coord": {"lon": 112.303001, "lat": -8.0457}}, {"id": 4156462, "name": "Gandy", "country": "US", "coord": {"lon": -82.616119, "lat": 27.8685}}, {"id": 823800, "name": "Gandzak", "country": "AM", "coord": {"lon": 45.111389, "lat": 40.31472}}, {"id": 677628, "name": "Ganeasa", "country": "RO", "coord": {"lon": 26.283331, "lat": 44.48333}}, {"id": 677629, "name": "Ganeasa", "country": "RO", "coord": {"lon": 24.283331, "lat": 44.416672}}, {"id": 677625, "name": "Ganes", "country": "RO", "coord": {"lon": 22.783331, "lat": 47.533329}}, {"id": 677621, "name": "Ganesti", "country": "RO", "coord": {"lon": 24.35, "lat": 46.333328}}, {"id": 1810774, "name": "Ganfang", "country": "CN", "coord": {"lon": 114.866051, "lat": 28.64295}}, {"id": 1713259, "name": "Gang", "country": "PH", "coord": {"lon": 124.266388, "lat": 7.24583}}, {"id": 5118251, "name": "Gang Mills", "country": "US", "coord": {"lon": -77.111641, "lat": 42.146191}}, {"id": 5959366, "name": "Gang Ranch", "country": "CA", "coord": {"lon": -122.336082, "lat": 51.549801}}, {"id": 1473390, "name": "Gangah Kh\u0113l", "country": "AF", "coord": {"lon": 70.043488, "lat": 34.24239}}, {"id": 1271692, "name": "Gangaikondan", "country": "IN", "coord": {"lon": 77.783333, "lat": 8.85}}, {"id": 1271688, "name": "Gangakher", "country": "IN", "coord": {"lon": 76.75, "lat": 18.950001}}, {"id": 1271685, "name": "Ganganagar", "country": "IN", "coord": {"lon": 73.883331, "lat": 29.91667}}, {"id": 2259918, "name": "Gangania", "country": "CG", "coord": {"lon": 18.05028, "lat": 1.59139}}, {"id": 1271675, "name": "Gangapur", "country": "IN", "coord": {"lon": 76.716667, "lat": 26.48333}}, {"id": 1271676, "name": "Gangapur", "country": "IN", "coord": {"lon": 74.26667, "lat": 25.216669}}, {"id": 1271680, "name": "Gangapur", "country": "IN", "coord": {"lon": 75.01667, "lat": 19.683331}}, {"id": 1271670, "name": "Gangarampur", "country": "IN", "coord": {"lon": 88.51667, "lat": 25.4}}, {"id": 1271663, "name": "Gangavalli", "country": "IN", "coord": {"lon": 78.649658, "lat": 11.49828}}, {"id": 1271662, "name": "Gangawati", "country": "IN", "coord": {"lon": 76.533333, "lat": 15.43333}}, {"id": 1924271, "name": "Gangbian", "country": "CN", "coord": {"lon": 117.689171, "lat": 28.466391}}, {"id": 1806390, "name": "Gangdong", "country": "CN", "coord": {"lon": 110.834167, "lat": 27.916941}}, {"id": 1924162, "name": "Gangdong", "country": "CN", "coord": {"lon": 117.662498, "lat": 28.11639}}, {"id": 7887749, "name": "Gangdu", "country": "CN", "coord": {"lon": 122.51255, "lat": 40.639179}}, {"id": 6553070, "name": "Gangelt", "country": "DE", "coord": {"lon": 6, "lat": 50.983299}}, {"id": 2922722, "name": "Gangelt", "country": "DE", "coord": {"lon": 5.99802, "lat": 50.99247}}, {"id": 5959360, "name": "Ganges", "country": "CA", "coord": {"lon": -123.502647, "lat": 48.84964}}, {"id": 3016714, "name": "Ganges", "country": "FR", "coord": {"lon": 3.70784, "lat": 43.9338}}, {"id": 8076848, "name": "Ganggawang", "country": "ID", "coord": {"lon": 108.8172, "lat": -7.1637}}, {"id": 2712887, "name": "Ganghester", "country": "SE", "coord": {"lon": 13.01667, "lat": 57.700001}}, {"id": 2524661, "name": "Gangi", "country": "IT", "coord": {"lon": 14.20437, "lat": 37.79565}}, {"id": 677256, "name": "Gangiova", "country": "RO", "coord": {"lon": 23.85, "lat": 43.900002}}, {"id": 2922716, "name": "Gangkofen", "country": "DE", "coord": {"lon": 12.56667, "lat": 48.433331}}, {"id": 1810754, "name": "Gangkou", "country": "CN", "coord": {"lon": 118.91111, "lat": 30.73278}}, {"id": 1810756, "name": "Gangkou", "country": "CN", "coord": {"lon": 114.33255, "lat": 29.25738}}, {"id": 1810758, "name": "Gangkou", "country": "CN", "coord": {"lon": 114.289177, "lat": 28.735559}}, {"id": 1810760, "name": "Gangkou", "country": "CN", "coord": {"lon": 117.339302, "lat": 28.19014}}, {"id": 1810762, "name": "Gangkou", "country": "CN", "coord": {"lon": 114.89753, "lat": 22.57478}}, {"id": 7741544, "name": "Gangkou", "country": "CN", "coord": {"lon": 114.201942, "lat": 29.43996}}, {"id": 1810755, "name": "Gangkoujie", "country": "CN", "coord": {"lon": 115.781891, "lat": 29.72504}}, {"id": 2922712, "name": "Gangloff", "country": "DE", "coord": {"lon": 7.7, "lat": 49.666672}}, {"id": 2922711, "name": "Gangloffsommern", "country": "DE", "coord": {"lon": 10.93333, "lat": 51.183331}}, {"id": 6550125, "name": "Gangloffs\u00f6mmern", "country": "DE", "coord": {"lon": 10.9333, "lat": 51.1833}}, {"id": 7466660, "name": "Gangmian", "country": "CN", "coord": {"lon": 115.863892, "lat": 26.08782}}, {"id": 1271644, "name": "Gangoh", "country": "IN", "coord": {"lon": 77.25, "lat": 29.76667}}, {"id": 1271642, "name": "Gangolli", "country": "IN", "coord": {"lon": 74.666672, "lat": 13.65}}, {"id": 2037322, "name": "Gangou", "country": "CN", "coord": {"lon": 125.714439, "lat": 41.863331}}, {"id": 1810736, "name": "Gangouyi", "country": "CN", "coord": {"lon": 105.018784, "lat": 35.956322}}, {"id": 1924809, "name": "Gangshang", "country": "CN", "coord": {"lon": 115.863281, "lat": 28.41721}}, {"id": 1810730, "name": "Gangshangji", "country": "CN", "coord": {"lon": 116.519707, "lat": 28.11557}}, {"id": 1271631, "name": "Gangtok", "country": "IN", "coord": {"lon": 88.616669, "lat": 27.33333}}, {"id": 2037320, "name": "Gangtun", "country": "CN", "coord": {"lon": 120.616982, "lat": 40.919788}}, {"id": 7001297, "name": "Gangxia", "country": "CN", "coord": {"lon": 114.061363, "lat": 22.540331}}, {"id": 1810708, "name": "Ganhe", "country": "CN", "coord": {"lon": 108.514442, "lat": 34.15778}}, {"id": 1863683, "name": "Ganiko", "country": "JP", "coord": {"lon": 127.75351, "lat": 26.25601}}, {"id": 1271616, "name": "Ganj Muradabad", "country": "IN", "coord": {"lon": 80.183327, "lat": 26.966669}}, {"id": 586523, "name": "Ganja", "country": "AZ", "coord": {"lon": 46.360561, "lat": 40.682781}}, {"id": 828298, "name": "Ganja City", "country": "AZ", "coord": {"lon": 46.349998, "lat": 40.650002}}, {"id": 1271621, "name": "Ganjam", "country": "IN", "coord": {"lon": 85.066673, "lat": 19.383329}}, {"id": 1965637, "name": "Ganjaran", "country": "ID", "coord": {"lon": 112.614799, "lat": -8.1413}}, {"id": 1810705, "name": "Ganjia", "country": "CN", "coord": {"lon": 102.516403, "lat": 35.401241}}, {"id": 1810704, "name": "Ganjiachang", "country": "CN", "coord": {"lon": 112.066673, "lat": 29.75}}, {"id": 7326331, "name": "Ganjiangtou", "country": "CN", "coord": {"lon": 104.522232, "lat": 33.927231}}, {"id": 1810699, "name": "Ganjing", "country": "CN", "coord": {"lon": 108.064171, "lat": 34.720558}}, {"id": 7766572, "name": "Ganjur Girang", "country": "ID", "coord": {"lon": 105.979698, "lat": -6.4034}}, {"id": 1810694, "name": "Ganlan", "country": "CN", "coord": {"lon": 122.136978, "lat": 30.10268}}, {"id": 1810692, "name": "Ganlin", "country": "CN", "coord": {"lon": 120.714172, "lat": 29.520559}}, {"id": 2621614, "name": "Ganlose", "country": "DK", "coord": {"lon": 12.26421, "lat": 55.791241}}, {"id": 1800533, "name": "Ganlu", "country": "CN", "coord": {"lon": 115.763908, "lat": 29.252729}}, {"id": 7658384, "name": "Ganluo", "country": "CN", "coord": {"lon": 114.586151, "lat": 27.208469}}, {"id": 2165929, "name": "Ganmain", "country": "AU", "coord": {"lon": 147.033325, "lat": -34.799999}}, {"id": 3176328, "name": "Ganna", "country": "IT", "coord": {"lon": 8.81667, "lat": 45.900002}}, {"id": 2037311, "name": "Gannan", "country": "CN", "coord": {"lon": 123.503059, "lat": 47.914719}}, {"id": 6425358, "name": "Gannat", "country": "FR", "coord": {"lon": 3.2, "lat": 46.099998}}, {"id": 3016711, "name": "Gannat", "country": "FR", "coord": {"lon": 3.19886, "lat": 46.100151}}, {"id": 1271613, "name": "Gannavaram", "country": "IN", "coord": {"lon": 80.800003, "lat": 16.533331}}, {"id": 7839543, "name": "Gannawarra", "country": "AU", "coord": {"lon": 143.853165, "lat": -35.732109}}, {"id": 6614390, "name": "Gannay-sur-Loire", "country": "FR", "coord": {"lon": 3.61667, "lat": 46.73333}}, {"id": 3016710, "name": "Gannay-sur-Loire", "country": "FR", "coord": {"lon": 3.61262, "lat": 46.73119}}, {"id": 295089, "name": "Ganne Tiqwa", "country": "IL", "coord": {"lon": 34.874722, "lat": 32.06028}}, {"id": 6438717, "name": "Gannes", "country": "FR", "coord": {"lon": 2.43333, "lat": 49.566669}}, {"id": 3016709, "name": "Gannes", "country": "FR", "coord": {"lon": 2.42111, "lat": 49.569302}}, {"id": 1810685, "name": "Ganpu", "country": "CN", "coord": {"lon": 120.889717, "lat": 30.393499}}, {"id": 2037307, "name": "Ganquan", "country": "CN", "coord": {"lon": 122.854179, "lat": 40.96426}}, {"id": 7372894, "name": "Ganquan", "country": "CN", "coord": {"lon": 105.159782, "lat": 33.44178}}, {"id": 6432234, "name": "Gans", "country": "FR", "coord": {"lon": -0.15, "lat": 44.450001}}, {"id": 3016708, "name": "Gans", "country": "FR", "coord": {"lon": -0.14661, "lat": 44.456081}}, {"id": 2778877, "name": "Ganserndorf", "country": "AT", "coord": {"lon": 16.72016, "lat": 48.339249}}, {"id": 1810677, "name": "Ganshui", "country": "CN", "coord": {"lon": 106.711113, "lat": 28.74222}}, {"id": 1713245, "name": "Gansing", "country": "PH", "coord": {"lon": 124.65889, "lat": 6.74028}}, {"id": 1810676, "name": "Gansu Sheng", "country": "CN", "coord": {"lon": 102, "lat": 38}}, {"id": 2277197, "name": "Ganta", "country": "LR", "coord": {"lon": -8.53083, "lat": 7.30222}}, {"id": 1810665, "name": "Gantang", "country": "CN", "coord": {"lon": 118.130562, "lat": 30.29694}}, {"id": 1810670, "name": "Gantang", "country": "CN", "coord": {"lon": 119.633331, "lat": 26.92}}, {"id": 1810671, "name": "Gantang", "country": "CN", "coord": {"lon": 118.936111, "lat": 26.79833}}, {"id": 7285894, "name": "Ganterschwil", "country": "CH", "coord": {"lon": 9.0955, "lat": 47.374008}}, {"id": 2660665, "name": "Ganterschwil", "country": "CH", "coord": {"lon": 9.09239, "lat": 47.381031}}, {"id": 7335564, "name": "Ganti Dua", "country": "ID", "coord": {"lon": 116.395302, "lat": -8.7692}}, {"id": 614580, "name": "Gantiadi", "country": "GE", "coord": {"lon": 40.079441, "lat": 43.381111}}, {"id": 1806561, "name": "Ganting", "country": "CN", "coord": {"lon": 108.594437, "lat": 34.101109}}, {"id": 2712859, "name": "Gantofta", "country": "SE", "coord": {"lon": 12.8, "lat": 55.98333}}, {"id": 4579484, "name": "Gantt", "country": "US", "coord": {"lon": -82.424294, "lat": 34.800121}}, {"id": 4063745, "name": "Gantts Quarry", "country": "US", "coord": {"lon": -86.289421, "lat": 33.148449}}, {"id": 562032, "name": "Ganusovo", "country": "RU", "coord": {"lon": 38.089169, "lat": 55.365002}}, {"id": 2037306, "name": "Ganwang", "country": "CN", "coord": {"lon": 122.551651, "lat": 40.813061}}, {"id": 1810649, "name": "Ganxitan", "country": "CN", "coord": {"lon": 111.375801, "lat": 29.867611}}, {"id": 1810645, "name": "Ganyan", "country": "CN", "coord": {"lon": 110.779167, "lat": 29.27861}}, {"id": 1713239, "name": "Ganyangan", "country": "PH", "coord": {"lon": 122.909439, "lat": 7.67889}}, {"id": 1810643, "name": "Ganyao", "country": "CN", "coord": {"lon": 120.885323, "lat": 30.88876}}, {"id": 2341955, "name": "Ganye", "country": "NG", "coord": {"lon": 12.06667, "lat": 8.43333}}, {"id": 1002917, "name": "Ganyesa", "country": "ZA", "coord": {"lon": 24.176121, "lat": -26.596121}}, {"id": 1178954, "name": "Ganz", "country": "PK", "coord": {"lon": 61.869167, "lat": 25.0975}}, {"id": 2922616, "name": "Ganz", "country": "DE", "coord": {"lon": 12.49249, "lat": 53.02924}}, {"id": 7872457, "name": "Ganz", "country": "AT", "coord": {"lon": 15.71972, "lat": 47.576859}}, {"id": 2778871, "name": "Ganz", "country": "AT", "coord": {"lon": 15.68333, "lat": 47.599998}}, {"id": 2922613, "name": "Ganzer", "country": "DE", "coord": {"lon": 12.57042, "lat": 52.874409}}, {"id": 1810638, "name": "Ganzhou", "country": "CN", "coord": {"lon": 114.933327, "lat": 25.85}}, {"id": 1810637, "name": "Ganzhou", "country": "CN", "coord": {"lon": 115.432716, "lat": 28.81842}}, {"id": 1810271, "name": "Ganzi", "country": "CN", "coord": {"lon": 99.990494, "lat": 31.62439}}, {"id": 2922612, "name": "Ganzig", "country": "DE", "coord": {"lon": 13.18333, "lat": 51.283329}}, {"id": 6422836, "name": "Ganziyuan", "country": "CN", "coord": {"lon": 111.812782, "lat": 25.540279}}, {"id": 6548348, "name": "Ganzlin", "country": "DE", "coord": {"lon": 12.25, "lat": 53.383301}}, {"id": 2922610, "name": "Ganzlin", "country": "DE", "coord": {"lon": 12.25, "lat": 53.383331}}, {"id": 3121634, "name": "Ganzo", "country": "ES", "coord": {"lon": -4.06539, "lat": 43.360641}}, {"id": 3208692, "name": "Ganzow", "country": "DE", "coord": {"lon": 12.36667, "lat": 53.216671}}, {"id": 2457163, "name": "Gao", "country": "ML", "coord": {"lon": -0.04472, "lat": 16.271669}}, {"id": 7696231, "name": "Gaobazhou", "country": "CN", "coord": {"lon": 111.418228, "lat": 30.43784}}, {"id": 1810610, "name": "Gaobu", "country": "CN", "coord": {"lon": 120.664207, "lat": 30.009199}}, {"id": 1916861, "name": "Gaobu", "country": "CN", "coord": {"lon": 113.71785, "lat": 23.084351}}, {"id": 6825387, "name": "Gaocang", "country": "CN", "coord": {"lon": 102.521881, "lat": 24.322001}}, {"id": 1810602, "name": "Gaocheng", "country": "CN", "coord": {"lon": 113.442177, "lat": 31.94702}}, {"id": 1810605, "name": "Gaocheng", "country": "CN", "coord": {"lon": 114.349518, "lat": 28.10186}}, {"id": 1918876, "name": "Gaochengtou", "country": "CN", "coord": {"lon": 120.061119, "lat": 29.582529}}, {"id": 1810592, "name": "Gaocun", "country": "CN", "coord": {"lon": 114.434402, "lat": 28.342159}}, {"id": 1810593, "name": "Gaocun", "country": "CN", "coord": {"lon": 109.78476, "lat": 27.87731}}, {"id": 1909475, "name": "Gaodian", "country": "CN", "coord": {"lon": 113.235367, "lat": 32.639339}}, {"id": 7003512, "name": "Gaodianzi", "country": "CN", "coord": {"lon": 120.139183, "lat": 40.38345}}, {"id": 7011354, "name": "Gaodianzi", "country": "CN", "coord": {"lon": 120.139183, "lat": 40.38345}}, {"id": 1928012, "name": "Gaofeng", "country": "CN", "coord": {"lon": 110.917084, "lat": 29.43684}}, {"id": 7643682, "name": "Gaofeng", "country": "CN", "coord": {"lon": 115.555573, "lat": 29.642731}}, {"id": 1917135, "name": "Gaogang", "country": "CN", "coord": {"lon": 113.579483, "lat": 24.02676}}, {"id": 1550032, "name": "Gaogongdao", "country": "CN", "coord": {"lon": 119.474998, "lat": 34.695831}}, {"id": 1810556, "name": "Gaogongdao", "country": "CN", "coord": {"lon": 119.466667, "lat": 34.700001}}, {"id": 1810553, "name": "Gaogou", "country": "CN", "coord": {"lon": 119.188606, "lat": 34.017502}}, {"id": 7924995, "name": "Gaoguan", "country": "CN", "coord": {"lon": 114.713448, "lat": 24.259939}}, {"id": 1810547, "name": "Gaohang", "country": "CN", "coord": {"lon": 121.602219, "lat": 31.29722}}, {"id": 1810545, "name": "Gaohe", "country": "CN", "coord": {"lon": 116.835289, "lat": 30.707701}}, {"id": 7679667, "name": "Gaohong", "country": "CN", "coord": {"lon": 119.721458, "lat": 30.320351}}, {"id": 1810543, "name": "Gaohu", "country": "CN", "coord": {"lon": 115.236359, "lat": 28.926109}}, {"id": 1810508, "name": "Gaojia", "country": "CN", "coord": {"lon": 121.583893, "lat": 31.826111}}, {"id": 1924460, "name": "Gaojia", "country": "CN", "coord": {"lon": 117.3825, "lat": 29.00111}}, {"id": 7367788, "name": "Gaojia", "country": "CN", "coord": {"lon": 107.067741, "lat": 34.360481}}, {"id": 1810533, "name": "Gaojiabu", "country": "CN", "coord": {"lon": 112.446114, "lat": 39.792488}}, {"id": 1810525, "name": "Gaojialing", "country": "CN", "coord": {"lon": 116.782303, "lat": 29.16754}}, {"id": 7407925, "name": "Gaojialing", "country": "CN", "coord": {"lon": 107.033043, "lat": 32.934582}}, {"id": 7741558, "name": "Gaojian", "country": "CN", "coord": {"lon": 114.06778, "lat": 29.278669}}, {"id": 1810513, "name": "Gaojiayan", "country": "CN", "coord": {"lon": 111.055733, "lat": 30.60881}}, {"id": 1547724, "name": "Gaojiazhuang", "country": "CN", "coord": {"lon": 119.983002, "lat": 33.04459}}, {"id": 1810500, "name": "Gaojingzhuang", "country": "CN", "coord": {"lon": 117.629997, "lat": 39.416111}}, {"id": 2037290, "name": "Gaokan", "country": "CN", "coord": {"lon": 122.374153, "lat": 40.77322}}, {"id": 1810496, "name": "Gaolan", "country": "CN", "coord": {"lon": 114.7061, "lat": 28.024599}}, {"id": 1810489, "name": "Gaoleshan", "country": "CN", "coord": {"lon": 109.144531, "lat": 29.678249}}, {"id": 2037284, "name": "Gaoling", "country": "CN", "coord": {"lon": 120.008141, "lat": 40.145679}}, {"id": 1810470, "name": "Gaolong", "country": "CN", "coord": {"lon": 113.787216, "lat": 26.945829}}, {"id": 7466647, "name": "Gaolong", "country": "CN", "coord": {"lon": 115.721947, "lat": 26.05625}}, {"id": 1810464, "name": "Gaoluo", "country": "CN", "coord": {"lon": 109.491348, "lat": 29.73221}}, {"id": 1810458, "name": "Gaomi", "country": "CN", "coord": {"lon": 119.752777, "lat": 36.383331}}, {"id": 1548435, "name": "Gaoming", "country": "CN", "coord": {"lon": 120.377777, "lat": 32.255562}}, {"id": 1810447, "name": "Gaoniang", "country": "CN", "coord": {"lon": 109.178886, "lat": 26.842501}}, {"id": 1810446, "name": "Gaopai", "country": "CN", "coord": {"lon": 115.608253, "lat": 25.48959}}, {"id": 1810437, "name": "Gaoping", "country": "CN", "coord": {"lon": 106.102943, "lat": 30.775761}}, {"id": 1810442, "name": "Gaoping", "country": "CN", "coord": {"lon": 111.142502, "lat": 27.48}}, {"id": 1924813, "name": "Gaoping", "country": "CN", "coord": {"lon": 116.154869, "lat": 27.927139}}, {"id": 6918529, "name": "Gaopo", "country": "CN", "coord": {"lon": 106.338051, "lat": 32.091541}}, {"id": 6640681, "name": "Gaoqiao", "country": "TW", "coord": {"lon": 121.178329, "lat": 24.56139}}, {"id": 1552260, "name": "Gaoqiao", "country": "CN", "coord": {"lon": 118.573441, "lat": 30.79957}}, {"id": 1810410, "name": "Gaoqiao", "country": "CN", "coord": {"lon": 105.94883, "lat": 34.095249}}, {"id": 1810418, "name": "Gaoqiao", "country": "CN", "coord": {"lon": 120.543678, "lat": 30.52486}}, {"id": 1810419, "name": "Gaoqiao", "country": "CN", "coord": {"lon": 119.936897, "lat": 30.102039}}, {"id": 1810420, "name": "Gaoqiao", "country": "CN", "coord": {"lon": 121.454178, "lat": 29.9081}}, {"id": 1810421, "name": "Gaoqiao", "country": "CN", "coord": {"lon": 114.512833, "lat": 29.856461}}, {"id": 1810427, "name": "Gaoqiao", "country": "CN", "coord": {"lon": 117.774971, "lat": 26.56035}}, {"id": 1810428, "name": "Gaoqiao", "country": "CN", "coord": {"lon": 110.900002, "lat": 26.63361}}, {"id": 1941078, "name": "Gaoqiao", "country": "CN", "coord": {"lon": 110.987343, "lat": 29.17454}}, {"id": 1998374, "name": "Gaoqiao", "country": "CN", "coord": {"lon": 108.705559, "lat": 34.243328}}, {"id": 2037275, "name": "Gaoqiao", "country": "CN", "coord": {"lon": 120.996857, "lat": 40.898769}}, {"id": 7019989, "name": "Gaoqiao", "country": "CN", "coord": {"lon": 106.836967, "lat": 32.092831}}, {"id": 7690164, "name": "Gaoqiao", "country": "CN", "coord": {"lon": 114.207283, "lat": 28.607559}}, {"id": 7658314, "name": "Gaoqiaolou", "country": "CN", "coord": {"lon": 114.365059, "lat": 27.01969}}, {"id": 1810399, "name": "Gaoqiu", "country": "CN", "coord": {"lon": 112.075958, "lat": 33.158829}}, {"id": 6422104, "name": "Gaoshan", "country": "CN", "coord": {"lon": 112.314438, "lat": 25.78639}}, {"id": 2037272, "name": "Gaoshanzi", "country": "CN", "coord": {"lon": 122.049477, "lat": 41.547878}}, {"id": 7658360, "name": "Gaoshi", "country": "CN", "coord": {"lon": 114.203537, "lat": 27.033279}}, {"id": 7661835, "name": "Gaoshibei", "country": "CN", "coord": {"lon": 112.669067, "lat": 30.55164}}, {"id": 1810373, "name": "Gaosuban", "country": "CN", "coord": {"lon": 117.996262, "lat": 27.701969}}, {"id": 2037269, "name": "Gaotai", "country": "CN", "coord": {"lon": 120.23317, "lat": 40.37907}}, {"id": 7408054, "name": "Gaotai", "country": "CN", "coord": {"lon": 106.854843, "lat": 33.018909}}, {"id": 7516066, "name": "Gaotai", "country": "CN", "coord": {"lon": 106.377571, "lat": 36.44875}}, {"id": 1810371, "name": "Gaotan", "country": "CN", "coord": {"lon": 115.305939, "lat": 23.188351}}, {"id": 1810364, "name": "Gaotang", "country": "CN", "coord": {"lon": 109.652031, "lat": 34.406582}}, {"id": 1810367, "name": "Gaotang", "country": "CN", "coord": {"lon": 117.587021, "lat": 26.803329}}, {"id": 1919598, "name": "Gaotang", "country": "CN", "coord": {"lon": 116.937569, "lat": 23.71299}}, {"id": 7643668, "name": "Gaotang", "country": "CN", "coord": {"lon": 115.77491, "lat": 29.41465}}, {"id": 1810359, "name": "Gaotangling", "country": "CN", "coord": {"lon": 112.816673, "lat": 28.366671}}, {"id": 1917073, "name": "Gaotian", "country": "CN", "coord": {"lon": 113.180511, "lat": 23.817011}}, {"id": 2037265, "name": "Gaotun", "country": "CN", "coord": {"lon": 122.602882, "lat": 40.434052}}, {"id": 7033214, "name": "Gaotuo", "country": "CN", "coord": {"lon": 122.659721, "lat": 41.134022}}, {"id": 2577162, "name": "Gaoua", "country": "BF", "coord": {"lon": -3.25083, "lat": 10.29917}}, {"id": 2420826, "name": "Gaoual", "country": "GN", "coord": {"lon": -13.2, "lat": 11.75}}, {"id": 1906137, "name": "Gaowu", "country": "CN", "coord": {"lon": 108.907784, "lat": 25.559999}}, {"id": 1810338, "name": "Gaoxian", "country": "CN", "coord": {"lon": 111.420403, "lat": 35.71907}}, {"id": 1916418, "name": "Gaoxiang", "country": "CN", "coord": {"lon": 119.590698, "lat": 29.92837}}, {"id": 1810335, "name": "Gaoxing", "country": "CN", "coord": {"lon": 115.282501, "lat": 26.43306}}, {"id": 1549997, "name": "Gaoxu", "country": "CN", "coord": {"lon": 119.008331, "lat": 34.333328}}, {"id": 1810330, "name": "Gaoya", "country": "CN", "coord": {"lon": 107.314232, "lat": 34.896759}}, {"id": 7661853, "name": "Gaoyang", "country": "CN", "coord": {"lon": 112.512451, "lat": 30.76614}}, {"id": 1816370, "name": "Gaoyao", "country": "CN", "coord": {"lon": 102.622498, "lat": 24.98583}}, {"id": 1810314, "name": "Gaoyi", "country": "CN", "coord": {"lon": 113.456467, "lat": 32.743561}}, {"id": 1810425, "name": "Gaoyi", "country": "CN", "coord": {"lon": 110.015556, "lat": 26.95944}}, {"id": 1810309, "name": "Gaoyou", "country": "CN", "coord": {"lon": 119.42778, "lat": 32.785831}}, {"id": 1810305, "name": "Gaoyu", "country": "CN", "coord": {"lon": 119.607948, "lat": 30.82119}}, {"id": 7650841, "name": "Gaoyunshan", "country": "CN", "coord": {"lon": 115.521912, "lat": 25.16902}}, {"id": 1810301, "name": "Gaozeng", "country": "CN", "coord": {"lon": 108.9375, "lat": 25.80167}}, {"id": 1912743, "name": "Gaozhai", "country": "CN", "coord": {"lon": 101.992218, "lat": 36.516109}}, {"id": 1810295, "name": "Gaozhou", "country": "CN", "coord": {"lon": 110.846069, "lat": 21.93924}}, {"id": 7065541, "name": "Gaozhou", "country": "CN", "coord": {"lon": 118.07402, "lat": 28.1285}}, {"id": 1810286, "name": "Gaozhuang", "country": "CN", "coord": {"lon": 117.975563, "lat": 39.269169}}, {"id": 1810291, "name": "Gaozhuang", "country": "CN", "coord": {"lon": 108.927277, "lat": 34.464432}}, {"id": 6446644, "name": "Gap", "country": "FR", "coord": {"lon": 6.08333, "lat": 44.566669}}, {"id": 3016702, "name": "Gap", "country": "FR", "coord": {"lon": 6.08333, "lat": 44.566669}}, {"id": 4558131, "name": "Gap", "country": "US", "coord": {"lon": -76.020508, "lat": 39.98732}}, {"id": 1713227, "name": "Gapan", "country": "PH", "coord": {"lon": 120.98333, "lat": 15.28333}}, {"id": 1713226, "name": "Gapan", "country": "PH", "coord": {"lon": 120.946404, "lat": 15.3072}}, {"id": 1106203, "name": "Gaphatshwe", "country": "BW", "coord": {"lon": 25.834169, "lat": -24.573891}}, {"id": 7084315, "name": "Gaplak", "country": "ID", "coord": {"lon": 114.346901, "lat": -8.219}}, {"id": 7082996, "name": "Gaplek", "country": "ID", "coord": {"lon": 113.627502, "lat": -8.1294}}, {"id": 8067845, "name": "Gaplokan", "country": "ID", "coord": {"lon": 111.2724, "lat": -6.8951}}, {"id": 7036195, "name": "Gapluk", "country": "ID", "coord": {"lon": 111.661903, "lat": -7.2048}}, {"id": 1713208, "name": "Gappal", "country": "PH", "coord": {"lon": 121.820557, "lat": 16.839439}}, {"id": 6553750, "name": "Gappenach", "country": "DE", "coord": {"lon": 7.35, "lat": 50.266701}}, {"id": 2922604, "name": "Gappenach", "country": "DE", "coord": {"lon": 7.34505, "lat": 50.272991}}, {"id": 2165906, "name": "Gapstead", "country": "AU", "coord": {"lon": 146.683334, "lat": -36.51667}}, {"id": 562016, "name": "Gaptsakh", "country": "RU", "coord": {"lon": 47.930271, "lat": 41.45174}}, {"id": 7375411, "name": "Gapuk", "country": "ID", "coord": {"lon": 111.333504, "lat": -7.0328}}, {"id": 1843082, "name": "Gapyeong", "country": "KR", "coord": {"lon": 127.51059, "lat": 37.831009}}, {"id": 1281219, "name": "Gar", "country": "CN", "coord": {"lon": 79.98333, "lat": 32.200001}}, {"id": 3052391, "name": "Gara", "country": "HU", "coord": {"lon": 19.04278, "lat": 46.03194}}, {"id": 731523, "name": "Gara Elin Pelin", "country": "BG", "coord": {"lon": 23.58333, "lat": 42.633331}}, {"id": 731520, "name": "Gara Khitrino", "country": "BG", "coord": {"lon": 26.91667, "lat": 43.433331}}, {"id": 6357442, "name": "Garaballa", "country": "ES", "coord": {"lon": -1.39412, "lat": 39.800282}}, {"id": 2517355, "name": "Garaballa", "country": "ES", "coord": {"lon": -1.36667, "lat": 39.816669}}, {"id": 6360626, "name": "Garachico", "country": "ES", "coord": {"lon": -16.761169, "lat": 28.36051}}, {"id": 2517349, "name": "Garachico", "country": "ES", "coord": {"lon": -17.764589, "lat": 28.778061}}, {"id": 2517350, "name": "Garachico", "country": "ES", "coord": {"lon": -16.76342, "lat": 28.37365}}, {"id": 3709361, "name": "Garachine", "country": "PA", "coord": {"lon": -78.362778, "lat": 8.06472}}, {"id": 3176326, "name": "Garadassi", "country": "IT", "coord": {"lon": 9.15393, "lat": 44.754292}}, {"id": 720604, "name": "Garadna", "country": "HU", "coord": {"lon": 21.183331, "lat": 48.416672}}, {"id": 2517346, "name": "Garafia", "country": "ES", "coord": {"lon": -17.933331, "lat": 28.816669}}, {"id": 6534187, "name": "Garaf\u00eda", "country": "ES", "coord": {"lon": -17.918579, "lat": 28.81521}}, {"id": 6325368, "name": "Garagartza", "country": "ES", "coord": {"lon": -2.38527, "lat": 43.252529}}, {"id": 3682160, "name": "Garagoa", "country": "CO", "coord": {"lon": -73.363342, "lat": 5.08236}}, {"id": 3176324, "name": "Garaguso", "country": "IT", "coord": {"lon": 16.22718, "lat": 40.54842}}, {"id": 2165905, "name": "Garah", "country": "AU", "coord": {"lon": 149.633331, "lat": -29.066669}}, {"id": 8067490, "name": "Garahaji", "country": "ID", "coord": {"lon": 108.611198, "lat": -7.0497}}, {"id": 1644451, "name": "Garahan", "country": "ID", "coord": {"lon": 113.892403, "lat": -8.2117}}, {"id": 6359660, "name": "Garaioa", "country": "ES", "coord": {"lon": -1.24231, "lat": 42.921051}}, {"id": 3121617, "name": "Garaioa", "country": "ES", "coord": {"lon": -1.23333, "lat": 42.933331}}, {"id": 1644452, "name": "Garajati", "country": "ID", "coord": {"lon": 108.6381, "lat": -7.0498}}, {"id": 7873350, "name": "Garanas", "country": "AT", "coord": {"lon": 15.0721, "lat": 46.7836}}, {"id": 2778864, "name": "Garanas", "country": "AT", "coord": {"lon": 15.11667, "lat": 46.76667}}, {"id": 3016690, "name": "Garancieres", "country": "FR", "coord": {"lon": 1.75512, "lat": 48.822708}}, {"id": 8068175, "name": "Garang", "country": "ID", "coord": {"lon": 111.403503, "lat": -6.7234}}, {"id": 2360615, "name": "Garango", "country": "BF", "coord": {"lon": -0.55056, "lat": 11.8}}, {"id": 1178915, "name": "Garangw\u0101l", "country": "PK", "coord": {"lon": 74.410278, "lat": 31.737221}}, {"id": 3399058, "name": "Garanhuns", "country": "BR", "coord": {"lon": -36.492779, "lat": -8.89028}}, {"id": 6426205, "name": "Garanou", "country": "FR", "coord": {"lon": 1.75, "lat": 42.76667}}, {"id": 3016687, "name": "Garanou", "country": "FR", "coord": {"lon": 1.74987, "lat": 42.767651}}, {"id": 3108691, "name": "Garape", "country": "ES", "coord": {"lon": -3.16667, "lat": 43.26667}}, {"id": 3399051, "name": "Gararu", "country": "BR", "coord": {"lon": -37.083328, "lat": -9.9675}}, {"id": 2024176, "name": "Garasun", "country": "RU", "coord": {"lon": 111.133331, "lat": 54.883331}}, {"id": 3016686, "name": "Garat", "country": "FR", "coord": {"lon": 0.26667, "lat": 45.633331}}, {"id": 1271582, "name": "Garautha", "country": "IN", "coord": {"lon": 79.300003, "lat": 25.566669}}, {"id": 1221748, "name": "Garavuti", "country": "TJ", "coord": {"lon": 68.446922, "lat": 37.567242}}, {"id": 1644441, "name": "Garawangi", "country": "ID", "coord": {"lon": 108.538902, "lat": -6.9987}}, {"id": 7780217, "name": "Garawati", "country": "ID", "coord": {"lon": 106.119301, "lat": -6.3636}}, {"id": 3121625, "name": "Gara\u00f1a", "country": "ES", "coord": {"lon": -4.96621, "lat": 43.453259}}, {"id": 6535544, "name": "Garbagna", "country": "IT", "coord": {"lon": 8.99786, "lat": 44.780449}}, {"id": 6535831, "name": "Garbagna Novarese", "country": "IT", "coord": {"lon": 8.66124, "lat": 45.38876}}, {"id": 6540336, "name": "Garbagnate Milanese", "country": "IT", "coord": {"lon": 9.07174, "lat": 45.576469}}, {"id": 3176322, "name": "Garbagnate Milanese", "country": "IT", "coord": {"lon": 9.07174, "lat": 45.576469}}, {"id": 6534828, "name": "Garbagnate Monastero", "country": "IT", "coord": {"lon": 9.30144, "lat": 45.77338}}, {"id": 58994, "name": "Garbahaarrey", "country": "SO", "coord": {"lon": 42.220909, "lat": 3.32892}}, {"id": 3121615, "name": "Garbajosa", "country": "ES", "coord": {"lon": -2.43087, "lat": 41.047859}}, {"id": 772372, "name": "Garbatka-Letnisko", "country": "PL", "coord": {"lon": 21.61079, "lat": 51.4832}}, {"id": 6355921, "name": "Garbayuela", "country": "ES", "coord": {"lon": -5.00763, "lat": 39.05735}}, {"id": 2517341, "name": "Garbayuela", "country": "ES", "coord": {"lon": -4.99856, "lat": 39.049561}}, {"id": 2922595, "name": "Garbenteich", "country": "DE", "coord": {"lon": 8.75, "lat": 50.533329}}, {"id": 4893446, "name": "Garber", "country": "US", "coord": {"lon": -88.381721, "lat": 40.515869}}, {"id": 6373760, "name": "Garbi", "country": "ID", "coord": {"lon": 109.214722, "lat": -7.50222}}, {"id": 561999, "name": "Garbolovo", "country": "RU", "coord": {"lon": 30.49551, "lat": 60.34127}}, {"id": 677237, "name": "Garbou", "country": "RO", "coord": {"lon": 23.433331, "lat": 47.150002}}, {"id": 677234, "name": "Garbova", "country": "RO", "coord": {"lon": 23.73333, "lat": 45.866669}}, {"id": 677219, "name": "Garbovi", "country": "RO", "coord": {"lon": 26.76667, "lat": 44.783329}}, {"id": 772366, "name": "Garbow", "country": "PL", "coord": {"lon": 22.32937, "lat": 51.355171}}, {"id": 2922586, "name": "Garbsen", "country": "DE", "coord": {"lon": 9.6, "lat": 52.416672}}, {"id": 7732633, "name": "Garbsen-Mitte", "country": "DE", "coord": {"lon": 9.60383, "lat": 52.42659}}, {"id": 3462580, "name": "Garca", "country": "BR", "coord": {"lon": -49.656109, "lat": -22.21056}}, {"id": 6427237, "name": "Garcelles-Secqueville", "country": "FR", "coord": {"lon": -0.28333, "lat": 49.099998}}, {"id": 3016677, "name": "Garcelles-Secqueville", "country": "FR", "coord": {"lon": -0.28961, "lat": 49.099072}}, {"id": 677213, "name": "Garceni", "country": "RO", "coord": {"lon": 27.283331, "lat": 46.76667}}, {"id": 6451968, "name": "Garches", "country": "FR", "coord": {"lon": 2.18333, "lat": 48.849998}}, {"id": 3016675, "name": "Garches", "country": "FR", "coord": {"lon": 2.18232, "lat": 48.842258}}, {"id": 2922583, "name": "Garching an der Alz", "country": "DE", "coord": {"lon": 12.6, "lat": 48.133331}}, {"id": 2922582, "name": "Garching bei Munchen", "country": "DE", "coord": {"lon": 11.65, "lat": 48.25}}, {"id": 1713191, "name": "Garchitorena", "country": "PH", "coord": {"lon": 123.694603, "lat": 13.8804}}, {"id": 3016674, "name": "Garchizy", "country": "FR", "coord": {"lon": 3.09625, "lat": 47.047859}}, {"id": 3399040, "name": "Garcia", "country": "BR", "coord": {"lon": -37.083328, "lat": -9.38333}}, {"id": 6361308, "name": "Garcia", "country": "ES", "coord": {"lon": 0.65274, "lat": 41.14151}}, {"id": 3121611, "name": "Garcia", "country": "ES", "coord": {"lon": 0.65, "lat": 41.133331}}, {"id": 1713185, "name": "Garcia Hernandez", "country": "PH", "coord": {"lon": 124.294601, "lat": 9.6144}}, {"id": 6360390, "name": "Garcibuey", "country": "ES", "coord": {"lon": -5.97026, "lat": 40.504848}}, {"id": 3121610, "name": "Garcibuey", "country": "ES", "coord": {"lon": -5.9944, "lat": 40.515518}}, {"id": 3121609, "name": "Garcihernandez", "country": "ES", "coord": {"lon": -5.43567, "lat": 40.860958}}, {"id": 6360391, "name": "Garcihern\u00e1ndez", "country": "ES", "coord": {"lon": -5.43159, "lat": 40.863461}}, {"id": 3121608, "name": "Garcillan", "country": "ES", "coord": {"lon": -4.26577, "lat": 40.977711}}, {"id": 6360829, "name": "Garcill\u00e1n", "country": "ES", "coord": {"lon": -4.26558, "lat": 40.993771}}, {"id": 3200714, "name": "Garcin", "country": "HR", "coord": {"lon": 18.18306, "lat": 45.182781}}, {"id": 3121607, "name": "Garcinarro", "country": "ES", "coord": {"lon": -2.75902, "lat": 40.224731}}, {"id": 6360392, "name": "Garcirrey", "country": "ES", "coord": {"lon": -6.14253, "lat": 40.884708}}, {"id": 3121605, "name": "Garcirrey", "country": "ES", "coord": {"lon": -6.1312, "lat": 40.90049}}, {"id": 677205, "name": "Garcov", "country": "RO", "coord": {"lon": 24.633329, "lat": 43.76667}}, {"id": 3099498, "name": "Garcz", "country": "PL", "coord": {"lon": 18.10169, "lat": 54.347599}}, {"id": 3971596, "name": "Garc\u00eda", "country": "MX", "coord": {"lon": -112.98333, "lat": 30.65}}, {"id": 2517336, "name": "Garc\u00edez", "country": "ES", "coord": {"lon": -3.86196, "lat": 37.843231}}, {"id": 4239247, "name": "Gard", "country": "US", "coord": {"lon": -89.960098, "lat": 38.86227}}, {"id": 3176320, "name": "Garda", "country": "IT", "coord": {"lon": 10.71238, "lat": 45.577789}}, {"id": 677201, "name": "Garda de Sus", "country": "RO", "coord": {"lon": 22.816669, "lat": 46.450001}}, {"id": 614575, "name": "Gardabani", "country": "GE", "coord": {"lon": 45.092831, "lat": 41.460541}}, {"id": 3417195, "name": "Gardabar", "country": "IS", "coord": {"lon": -21.922979, "lat": 64.088654}}, {"id": 2024173, "name": "Gardami", "country": "RU", "coord": {"lon": 136.366669, "lat": 49.25}}, {"id": 6447128, "name": "Gardanne", "country": "FR", "coord": {"lon": 5.46667, "lat": 43.450001}}, {"id": 3016667, "name": "Gardanne", "country": "FR", "coord": {"lon": 5.46913, "lat": 43.45491}}, {"id": 3099494, "name": "Gardawice", "country": "PL", "coord": {"lon": 18.799999, "lat": 50.116669}}, {"id": 6359661, "name": "Garde", "country": "ES", "coord": {"lon": -0.8896, "lat": 42.780231}}, {"id": 3121602, "name": "Garde", "country": "ES", "coord": {"lon": -0.92589, "lat": 42.789371}}, {"id": 6432235, "name": "Gardegan-et-Tourtirac", "country": "FR", "coord": {"lon": -0.01667, "lat": 44.900002}}, {"id": 3016663, "name": "Gardegan-et-Tourtirac", "country": "FR", "coord": {"lon": -0.01667, "lat": 44.900002}}, {"id": 3099492, "name": "Gardeja", "country": "PL", "coord": {"lon": 18.946871, "lat": 53.611252}}, {"id": 2922580, "name": "Gardelegen", "country": "DE", "coord": {"lon": 11.39523, "lat": 52.5252}}, {"id": 5351496, "name": "Garden Acres", "country": "US", "coord": {"lon": -121.229393, "lat": 37.96381}}, {"id": 5445439, "name": "Garden City", "country": "US", "coord": {"lon": -100.872658, "lat": 37.971691}}, {"id": 4993659, "name": "Garden City", "country": "US", "coord": {"lon": -83.331039, "lat": 42.325588}}, {"id": 5118226, "name": "Garden City", "country": "US", "coord": {"lon": -73.6343, "lat": 40.726768}}, {"id": 4196688, "name": "Garden City", "country": "US", "coord": {"lon": -81.153999, "lat": 32.114368}}, {"id": 4387605, "name": "Garden City", "country": "US", "coord": {"lon": -94.19133, "lat": 38.561119}}, {"id": 4579503, "name": "Garden City", "country": "US", "coord": {"lon": -79.008652, "lat": 33.592949}}, {"id": 5522004, "name": "Garden City", "country": "US", "coord": {"lon": -101.481232, "lat": 31.864019}}, {"id": 5593814, "name": "Garden City", "country": "US", "coord": {"lon": -116.238167, "lat": 43.622108}}, {"id": 5118228, "name": "Garden City Park", "country": "US", "coord": {"lon": -73.662628, "lat": 40.740929}}, {"id": 5118229, "name": "Garden City South", "country": "US", "coord": {"lon": -73.660957, "lat": 40.712318}}, {"id": 5351515, "name": "Garden Grove", "country": "US", "coord": {"lon": -117.941452, "lat": 33.773911}}, {"id": 7261327, "name": "Garden Home-Whitford", "country": "US", "coord": {"lon": -122.758911, "lat": 45.464001}}, {"id": 2165890, "name": "Garden Island Creek", "country": "AU", "coord": {"lon": 147.166672, "lat": -43.25}}, {"id": 4692962, "name": "Garden Ridge", "country": "US", "coord": {"lon": -98.30529, "lat": 29.63467}}, {"id": 5190808, "name": "Garden View", "country": "US", "coord": {"lon": -77.046082, "lat": 41.254238}}, {"id": 5351549, "name": "Gardena", "country": "US", "coord": {"lon": -118.30896, "lat": 33.888351}}, {"id": 4063765, "name": "Gardendale", "country": "US", "coord": {"lon": -86.812767, "lat": 33.660099}}, {"id": 4692983, "name": "Gardendale", "country": "US", "coord": {"lon": -99.216141, "lat": 28.51693}}, {"id": 5522019, "name": "Gardendale", "country": "US", "coord": {"lon": -102.38015, "lat": 32.020401}}, {"id": 5959534, "name": "Gardenton", "country": "CA", "coord": {"lon": -96.695618, "lat": 49.086868}}, {"id": 3156091, "name": "Garder", "country": "NO", "coord": {"lon": 11.05, "lat": 60.200001}}, {"id": 4325507, "name": "Gardere", "country": "US", "coord": {"lon": -91.140106, "lat": 30.345751}}, {"id": 2755732, "name": "Garderen", "country": "NL", "coord": {"lon": 5.71389, "lat": 52.230831}}, {"id": 3156087, "name": "Gardermoen", "country": "NO", "coord": {"lon": 11.1, "lat": 60.216671}}, {"id": 2922575, "name": "Gardessen", "country": "DE", "coord": {"lon": 10.71667, "lat": 52.25}}, {"id": 1141857, "name": "Gardez", "country": "AF", "coord": {"lon": 69.225922, "lat": 33.597439}}, {"id": 5959542, "name": "Gardiner", "country": "CA", "coord": {"lon": -81.033073, "lat": 49.30019}}, {"id": 4965079, "name": "Gardiner", "country": "US", "coord": {"lon": -69.775322, "lat": 44.230068}}, {"id": 2922572, "name": "Garding", "country": "DE", "coord": {"lon": 8.78408, "lat": 54.330238}}, {"id": 2922571, "name": "Garding", "country": "DE", "coord": {"lon": 8.78056, "lat": 54.330559}}, {"id": 790772, "name": "Gardinovci", "country": "RS", "coord": {"lon": 20.135281, "lat": 45.203331}}, {"id": 3200713, "name": "Gardinovec", "country": "HR", "coord": {"lon": 16.557501, "lat": 46.426941}}, {"id": 3156083, "name": "Gardli", "country": "NO", "coord": {"lon": 9.28333, "lat": 60.98333}}, {"id": 4271935, "name": "Gardner", "country": "US", "coord": {"lon": -94.927193, "lat": 38.810841}}, {"id": 4937557, "name": "Gardner", "country": "US", "coord": {"lon": -71.998131, "lat": 42.575089}}, {"id": 4893472, "name": "Gardner", "country": "US", "coord": {"lon": -88.309776, "lat": 41.185589}}, {"id": 2165872, "name": "Gardners Bay", "country": "AU", "coord": {"lon": 147.183334, "lat": -43.183331}}, {"id": 5118261, "name": "Gardnertown", "country": "US", "coord": {"lon": -74.070137, "lat": 41.535091}}, {"id": 5504468, "name": "Gardnerville", "country": "US", "coord": {"lon": -119.749619, "lat": 38.941299}}, {"id": 5504473, "name": "Gardnerville Ranchos", "country": "US", "coord": {"lon": -119.741287, "lat": 38.888241}}, {"id": 6534750, "name": "Gardola", "country": "IT", "coord": {"lon": 10.71871, "lat": 45.741798}}, {"id": 3176312, "name": "Gardone Riviera", "country": "IT", "coord": {"lon": 10.56528, "lat": 45.624989}}, {"id": 3176311, "name": "Gardone Val Trompia", "country": "IT", "coord": {"lon": 10.18696, "lat": 45.694191}}, {"id": 6429393, "name": "Gardonne", "country": "FR", "coord": {"lon": 0.35, "lat": 44.833328}}, {"id": 3016648, "name": "Gardonne", "country": "FR", "coord": {"lon": 0.35, "lat": 44.833328}}, {"id": 3052381, "name": "Gardony", "country": "HU", "coord": {"lon": 18.63607, "lat": 47.209419}}, {"id": 3016645, "name": "Gardouch", "country": "FR", "coord": {"lon": 1.68313, "lat": 43.390961}}, {"id": 2922568, "name": "Gardsch\u00fctz", "country": "DE", "coord": {"lon": 12.43333, "lat": 50.950001}}, {"id": 1644436, "name": "Gardu", "country": "ID", "coord": {"lon": 108.384499, "lat": -7.0762}}, {"id": 7780466, "name": "Gardutanjak", "country": "ID", "coord": {"lon": 106.101303, "lat": -6.3133}}, {"id": 8046897, "name": "Gareba", "country": "ID", "coord": {"lon": 108.369202, "lat": -7.2013}}, {"id": 6433821, "name": "Garein", "country": "FR", "coord": {"lon": -0.65, "lat": 44.049999}}, {"id": 3016644, "name": "Garein", "country": "FR", "coord": {"lon": -0.65111, "lat": 44.046638}}, {"id": 2648877, "name": "Garelochhead", "country": "GB", "coord": {"lon": -4.82909, "lat": 56.082031}}, {"id": 2165870, "name": "Garema", "country": "AU", "coord": {"lon": 147.933334, "lat": -33.549999}}, {"id": 3016637, "name": "Garennes-sur-Eure", "country": "FR", "coord": {"lon": 1.43836, "lat": 48.91116}}, {"id": 3016635, "name": "Gareoult", "country": "FR", "coord": {"lon": 6.04594, "lat": 43.328579}}, {"id": 3200711, "name": "Garesnica", "country": "HR", "coord": {"lon": 16.941389, "lat": 45.57444}}, {"id": 3176309, "name": "Garessio", "country": "IT", "coord": {"lon": 8.01924, "lat": 44.20293}}, {"id": 5098343, "name": "Garfield", "country": "US", "coord": {"lon": -74.113197, "lat": 40.881489}}, {"id": 4692997, "name": "Garfield", "country": "US", "coord": {"lon": -97.557777, "lat": 30.187441}}, {"id": 5539525, "name": "Garfield County", "country": "US", "coord": {"lon": -111.501282, "lat": 37.750542}}, {"id": 4537472, "name": "Garfield County", "country": "US", "coord": {"lon": -98.062843, "lat": 36.187538}}, {"id": 5795265, "name": "Garfield County", "country": "US", "coord": {"lon": -117.551018, "lat": 46.449871}}, {"id": 5422751, "name": "Garfield County", "country": "US", "coord": {"lon": -107.833961, "lat": 39.54998}}, {"id": 5155499, "name": "Garfield Heights", "country": "US", "coord": {"lon": -81.605957, "lat": 41.417}}, {"id": 2648875, "name": "Garforth", "country": "GB", "coord": {"lon": -1.38067, "lat": 53.791729}}, {"id": 2024167, "name": "Garga", "country": "RU", "coord": {"lon": 110.550003, "lat": 54.433331}}, {"id": 2231326, "name": "Garga Sarali", "country": "CM", "coord": {"lon": 14.05, "lat": 5.33333}}, {"id": 262104, "name": "Gargalianoi", "country": "GR", "coord": {"lon": 21.633329, "lat": 37.066669}}, {"id": 6361527, "name": "Gargallo", "country": "ES", "coord": {"lon": -0.58883, "lat": 40.83152}}, {"id": 3121598, "name": "Gargallo", "country": "ES", "coord": {"lon": -0.58442, "lat": 40.835831}}, {"id": 6535444, "name": "Gargallo", "country": "IT", "coord": {"lon": 8.42532, "lat": 45.728771}}, {"id": 6359288, "name": "Garganta de los Montes", "country": "ES", "coord": {"lon": -3.689, "lat": 40.92778}}, {"id": 3121590, "name": "Garganta de los Montes", "country": "ES", "coord": {"lon": -3.68375, "lat": 40.919922}}, {"id": 6355687, "name": "Garganta del Villar", "country": "ES", "coord": {"lon": -5.11771, "lat": 40.452869}}, {"id": 3121589, "name": "Garganta del Villar", "country": "ES", "coord": {"lon": -5.1042, "lat": 40.44965}}, {"id": 6356775, "name": "Garganta la Olla", "country": "ES", "coord": {"lon": -5.77609, "lat": 40.119659}}, {"id": 3121586, "name": "Garganta la Olla", "country": "ES", "coord": {"lon": -5.77665, "lat": 40.110489}}, {"id": 6356776, "name": "Gargantilla", "country": "ES", "coord": {"lon": -5.90204, "lat": 40.235001}}, {"id": 3121582, "name": "Gargantilla", "country": "ES", "coord": {"lon": -5.92068, "lat": 40.248348}}, {"id": 3121579, "name": "Gargantilla del Lozoya", "country": "ES", "coord": {"lon": -3.71538, "lat": 40.96249}}, {"id": 6359289, "name": "Gargantilla del Lozoya y Pinilla de Buitrago", "country": "ES", "coord": {"lon": -3.69683, "lat": 40.964809}}, {"id": 3016624, "name": "Gargas", "country": "FR", "coord": {"lon": 5.35781, "lat": 43.901989}}, {"id": 3176305, "name": "Gargazzone", "country": "IT", "coord": {"lon": 11.20357, "lat": 46.58482}}, {"id": 3016622, "name": "Gargenville", "country": "FR", "coord": {"lon": 1.81176, "lat": 48.988022}}, {"id": 3016621, "name": "Garges-les-Gonesse", "country": "FR", "coord": {"lon": 2.39781, "lat": 48.967911}}, {"id": 6612922, "name": "Garges-l\u00e8s-Gonesse", "country": "FR", "coord": {"lon": 2.39781, "lat": 48.967911}}, {"id": 2165864, "name": "Gargett", "country": "AU", "coord": {"lon": 148.75, "lat": -21.16667}}, {"id": 3176304, "name": "Gargnano", "country": "IT", "coord": {"lon": 10.66088, "lat": 45.689091}}, {"id": 2648873, "name": "Gargrave", "country": "GB", "coord": {"lon": -2.10459, "lat": 53.983528}}, {"id": 3121575, "name": "Garguera", "country": "ES", "coord": {"lon": -5.92782, "lat": 40.061298}}, {"id": 599506, "name": "Gargzdai", "country": "LT", "coord": {"lon": 21.40333, "lat": 55.71278}}, {"id": 6356777, "name": "Garg\u00fcera", "country": "ES", "coord": {"lon": -5.92884, "lat": 40.022301}}, {"id": 1178841, "name": "Garh Maharaja", "country": "PK", "coord": {"lon": 71.905289, "lat": 30.833879}}, {"id": 1271563, "name": "Garhakota", "country": "IN", "coord": {"lon": 79.150002, "lat": 23.76667}}, {"id": 1271575, "name": "Garhdiwala", "country": "IN", "coord": {"lon": 75.750557, "lat": 31.7325}}, {"id": 1178858, "name": "Garhi Khairo", "country": "PK", "coord": {"lon": 67.98027, "lat": 28.060579}}, {"id": 1271551, "name": "Garhi Pukhta", "country": "IN", "coord": {"lon": 77.306671, "lat": 29.548889}}, {"id": 1178843, "name": "Garhi Yasin", "country": "PK", "coord": {"lon": 68.510963, "lat": 27.9069}}, {"id": 1271543, "name": "Garhmuktesar", "country": "IN", "coord": {"lon": 78.099998, "lat": 28.799999}}, {"id": 1271538, "name": "Garhshankar", "country": "IN", "coord": {"lon": 76.133331, "lat": 31.216669}}, {"id": 1506676, "name": "Gari", "country": "RU", "coord": {"lon": 62.34967, "lat": 59.43074}}, {"id": 561970, "name": "Gari", "country": "RU", "coord": {"lon": 48.551666, "lat": 55.869999}}, {"id": 561945, "name": "Gari", "country": "RU", "coord": {"lon": 42.548332, "lat": 59.291943}}, {"id": 1271534, "name": "Gariaband", "country": "IN", "coord": {"lon": 82.061394, "lat": 20.635}}, {"id": 1271533, "name": "Gariadhar", "country": "IN", "coord": {"lon": 71.583328, "lat": 21.533331}}, {"id": 2165863, "name": "Garibaldi", "country": "AU", "coord": {"lon": 143.883331, "lat": -37.73333}}, {"id": 5959634, "name": "Garibaldi", "country": "CA", "coord": {"lon": -123.152718, "lat": 49.966381}}, {"id": 3462557, "name": "Garibaldi", "country": "BR", "coord": {"lon": -51.533611, "lat": -29.256109}}, {"id": 7290228, "name": "Garibaldi Highlands", "country": "CA", "coord": {"lon": -123.134079, "lat": 49.733971}}, {"id": 3016618, "name": "Garidech", "country": "FR", "coord": {"lon": 1.56036, "lat": 43.710758}}, {"id": 3121569, "name": "Garinoain", "country": "ES", "coord": {"lon": -1.64434, "lat": 42.600361}}, {"id": 197745, "name": "Garissa", "country": "KE", "coord": {"lon": 39.64011, "lat": -0.45355}}, {"id": 1644428, "name": "Garisul", "country": "ID", "coord": {"lon": 106.495903, "lat": -6.5055}}, {"id": 2922557, "name": "Garitz", "country": "DE", "coord": {"lon": 12.23333, "lat": 51.98333}}, {"id": 2341758, "name": "Garko", "country": "NG", "coord": {"lon": 11.16458, "lat": 10.17506}}, {"id": 677186, "name": "Garla-Mare", "country": "RO", "coord": {"lon": 22.775, "lat": 44.209171}}, {"id": 4693003, "name": "Garland", "country": "US", "coord": {"lon": -96.638878, "lat": 32.912621}}, {"id": 4965101, "name": "Garland", "country": "US", "coord": {"lon": -69.160316, "lat": 45.038399}}, {"id": 5775081, "name": "Garland", "country": "US", "coord": {"lon": -112.161621, "lat": 41.741039}}, {"id": 4112045, "name": "Garland County", "country": "US", "coord": {"lon": -93.150177, "lat": 34.566761}}, {"id": 6536557, "name": "Garlasco", "country": "IT", "coord": {"lon": 8.92375, "lat": 45.197361}}, {"id": 3176299, "name": "Garlasco", "country": "IT", "coord": {"lon": 8.92375, "lat": 45.197361}}, {"id": 6535351, "name": "Garlate", "country": "IT", "coord": {"lon": 9.39964, "lat": 45.81208}}, {"id": 3176297, "name": "Garlenda", "country": "IT", "coord": {"lon": 8.09546, "lat": 44.033249}}, {"id": 677180, "name": "Garleni", "country": "RO", "coord": {"lon": 26.799999, "lat": 46.666672}}, {"id": 599504, "name": "Garliava", "country": "LT", "coord": {"lon": 23.866671, "lat": 54.816669}}, {"id": 677175, "name": "Garliciu", "country": "RO", "coord": {"lon": 28.08333, "lat": 44.76667}}, {"id": 3016609, "name": "Garlin", "country": "FR", "coord": {"lon": -0.27321, "lat": 43.559269}}, {"id": 2922548, "name": "Garlipp", "country": "DE", "coord": {"lon": 11.61667, "lat": 52.650002}}, {"id": 6355922, "name": "Garlitos", "country": "ES", "coord": {"lon": -4.99138, "lat": 38.897079}}, {"id": 2517322, "name": "Garlitos", "country": "ES", "coord": {"lon": -5.04759, "lat": 38.880219}}, {"id": 2922541, "name": "Garlstedt", "country": "DE", "coord": {"lon": 8.7, "lat": 53.283329}}, {"id": 6552629, "name": "Garlstorf", "country": "DE", "coord": {"lon": 10.10137, "lat": 53.237282}}, {"id": 2922539, "name": "Garlstorf", "country": "DE", "coord": {"lon": 10.10137, "lat": 53.237282}}, {"id": 6440389, "name": "Garl\u00e8de-Mondebat", "country": "FR", "coord": {"lon": -0.33333, "lat": 43.5}}, {"id": 3016610, "name": "Garl\u00e8de-Mondebat", "country": "FR", "coord": {"lon": -0.33333, "lat": 43.5}}, {"id": 2922530, "name": "Garmisch-Partenkirchen", "country": "DE", "coord": {"lon": 11.09576, "lat": 47.492088}}, {"id": 1810274, "name": "Garmoyangkyi", "country": "CN", "coord": {"lon": 100.232552, "lat": 35.693409}}, {"id": 133964, "name": "Garms\u0101r", "country": "IR", "coord": {"lon": 52.340851, "lat": 35.218239}}, {"id": 6425360, "name": "Garnat-sur-Engi\u00e8vre", "country": "FR", "coord": {"lon": 3.65, "lat": 46.633331}}, {"id": 3016607, "name": "Garnat-sur-Engi\u00e8vre", "country": "FR", "coord": {"lon": 3.66225, "lat": 46.633331}}, {"id": 3016606, "name": "Garnay", "country": "FR", "coord": {"lon": 1.33706, "lat": 48.704891}}, {"id": 2922526, "name": "Garnbach", "country": "DE", "coord": {"lon": 11.38333, "lat": 51.26667}}, {"id": 4467657, "name": "Garner", "country": "US", "coord": {"lon": -78.614166, "lat": 35.711262}}, {"id": 4858117, "name": "Garner", "country": "US", "coord": {"lon": -93.601883, "lat": 43.102459}}, {"id": 5351654, "name": "Garnet", "country": "US", "coord": {"lon": -116.54557, "lat": 33.901958}}, {"id": 4271974, "name": "Garnett", "country": "US", "coord": {"lon": -95.24192, "lat": 38.280579}}, {"id": 677165, "name": "Garnic", "country": "RO", "coord": {"lon": 21.794439, "lat": 44.786388}}, {"id": 6693261, "name": "Garnich", "country": "LU", "coord": {"lon": 5.9525, "lat": 49.616669}}, {"id": 2960549, "name": "Garnich", "country": "LU", "coord": {"lon": 5.9525, "lat": 49.616669}}, {"id": 3724916, "name": "Garnier", "country": "HT", "coord": {"lon": -72.216667, "lat": 18.58333}}, {"id": 6534574, "name": "Garniga Terme", "country": "IT", "coord": {"lon": 11.08738, "lat": 46.003101}}, {"id": 2922513, "name": "Garnsdorf", "country": "DE", "coord": {"lon": 12.91667, "lat": 50.916672}}, {"id": 2712651, "name": "Garnviken", "country": "SE", "coord": {"lon": 12.16667, "lat": 58.283329}}, {"id": 677583, "name": "Garoafa", "country": "RO", "coord": {"lon": 27.200001, "lat": 45.783329}}, {"id": 7780418, "name": "Garokgek", "country": "ID", "coord": {"lon": 106.032204, "lat": -6.3112}}, {"id": 4565047, "name": "Garona", "country": "PR", "coord": {"lon": -65.926003, "lat": 18.010799}}, {"id": 6431302, "name": "Garons", "country": "FR", "coord": {"lon": 4.41667, "lat": 43.76667}}, {"id": 3016595, "name": "Garons", "country": "FR", "coord": {"lon": 4.42753, "lat": 43.7686}}, {"id": 58933, "name": "Garoowe", "country": "SO", "coord": {"lon": 48.484459, "lat": 8.40536}}, {"id": 6440391, "name": "Garos", "country": "FR", "coord": {"lon": -0.46667, "lat": 43.5}}, {"id": 3016594, "name": "Garos", "country": "FR", "coord": {"lon": -0.46667, "lat": 43.5}}, {"id": 2231320, "name": "Garoua", "country": "CM", "coord": {"lon": 13.4, "lat": 9.3}}, {"id": 2231319, "name": "Garoua Boulai", "country": "CM", "coord": {"lon": 14.55, "lat": 5.88333}}, {"id": 2712642, "name": "Garphyttan", "country": "SE", "coord": {"lon": 14.94623, "lat": 59.304291}}, {"id": 2648857, "name": "Garrabost", "country": "GB", "coord": {"lon": -6.21667, "lat": 58.216671}}, {"id": 3121555, "name": "Garrafe de Torio", "country": "ES", "coord": {"lon": -5.5236, "lat": 42.732849}}, {"id": 6358620, "name": "Garrafe de Tor\u00edo", "country": "ES", "coord": {"lon": -5.51292, "lat": 42.737148}}, {"id": 6359663, "name": "Garralda", "country": "ES", "coord": {"lon": -1.30283, "lat": 42.956478}}, {"id": 3121554, "name": "Garralda", "country": "ES", "coord": {"lon": -1.28624, "lat": 42.948181}}, {"id": 3307950, "name": "Garranmaconly", "country": "IE", "coord": {"lon": -7.67083, "lat": 52.898609}}, {"id": 3121550, "name": "Garrapinillos", "country": "ES", "coord": {"lon": -1.02682, "lat": 41.683659}}, {"id": 6361144, "name": "Garray", "country": "ES", "coord": {"lon": -2.49639, "lat": 41.83744}}, {"id": 3121549, "name": "Garray", "country": "ES", "coord": {"lon": -2.44592, "lat": 41.81617}}, {"id": 2922511, "name": "Garrel", "country": "DE", "coord": {"lon": 8.01667, "lat": 52.950001}}, {"id": 6552874, "name": "Garrel", "country": "DE", "coord": {"lon": 8.01667, "lat": 52.950001}}, {"id": 5227996, "name": "Garretson", "country": "US", "coord": {"lon": -96.502823, "lat": 43.717468}}, {"id": 4920600, "name": "Garrett", "country": "US", "coord": {"lon": -85.135529, "lat": 41.349491}}, {"id": 5795292, "name": "Garrett", "country": "US", "coord": {"lon": -118.402748, "lat": 46.052078}}, {"id": 4355939, "name": "Garrett County", "country": "US", "coord": {"lon": -79.249763, "lat": 39.550091}}, {"id": 5653814, "name": "Garrett Mobile Home Park", "country": "US", "coord": {"lon": -111.350807, "lat": 47.505508}}, {"id": 5155529, "name": "Garrettsville", "country": "US", "coord": {"lon": -81.096489, "lat": 41.284222}}, {"id": 6433822, "name": "Garrey", "country": "FR", "coord": {"lon": -0.9, "lat": 43.666672}}, {"id": 3016588, "name": "Garrey", "country": "FR", "coord": {"lon": -0.90912, "lat": 43.669861}}, {"id": 2922506, "name": "Garrey", "country": "DE", "coord": {"lon": 12.66667, "lat": 52.01667}}, {"id": 5959760, "name": "Garrick", "country": "CA", "coord": {"lon": -104.334229, "lat": 53.483398}}, {"id": 3121548, "name": "Garrigas", "country": "ES", "coord": {"lon": 2.95438, "lat": 42.193432}}, {"id": 6534065, "name": "Garrigoles", "country": "ES", "coord": {"lon": 3.02461, "lat": 42.104759}}, {"id": 3121546, "name": "Garrigoles", "country": "ES", "coord": {"lon": 3.03333, "lat": 42.099998}}, {"id": 6534066, "name": "Garriguella", "country": "ES", "coord": {"lon": 3.06514, "lat": 42.34177}}, {"id": 3121545, "name": "Garriguella", "country": "ES", "coord": {"lon": 3.06506, "lat": 42.343922}},