[{"id": 1761242, "name": "Klebang Besar", "country": "MY", "coord": {"lon": 102.199501, "lat": 2.2186}}, {"id": 1763412, "name": "Kampung Tanjung Karang", "country": "MY", "coord": {"lon": 101.184898, "lat": 3.4242}}, {"id": 1764160, "name": "Kampung Sungai Ara", "country": "MY", "coord": {"lon": 100.273483, "lat": 5.32699}}, {"id": 1764318, "name": "Kampung Simpang Renggam", "country": "MY", "coord": {"lon": 103.300003, "lat": 1.8278}}, {"id": 1766249, "name": "Kampong Pangkal Kalong", "country": "MY", "coord": {"lon": 102.216667, "lat": 5.91667}}, {"id": 1767021, "name": "Kampong Masjid Tanah", "country": "MY", "coord": {"lon": 102.116669, "lat": 2.35}}, {"id": 1768664, "name": "Kampong Kadok", "country": "MY", "coord": {"lon": 102.25, "lat": 6}}, {"id": 1769612, "name": "Kampong Dungun", "country": "MY", "coord": {"lon": 101.316673, "lat": 3.21667}}, {"id": 1770351, "name": "Kampung Bukit Baharu", "country": "MY", "coord": {"lon": 102.285103, "lat": 2.2152}}, {"id": 1771023, "name": "Kampung Baru Subang", "country": "MY", "coord": {"lon": 101.533333, "lat": 3.15}}, {"id": 1771287, "name": "Kampung Baharu Nilai", "country": "MY", "coord": {"lon": 101.797203, "lat": 2.8033}}, {"id": 1771304, "name": "Kampong Baharu Balakong", "country": "MY", "coord": {"lon": 101.75, "lat": 3.03333}}, {"id": 1771485, "name": "Kampung Ayer Molek", "country": "MY", "coord": {"lon": 102.327797, "lat": 2.2139}}, {"id": 1778290, "name": "Bukit Rambai", "country": "MY", "coord": {"lon": 102.1838, "lat": 2.2594}}, {"id": 1779790, "name": "Bentong Town", "country": "MY", "coord": {"lon": 101.900002, "lat": 3.51667}}, {"id": 1780890, "name": "Batu Berendam", "country": "MY", "coord": {"lon": 102.246002, "lat": 2.2487}}, {"id": 1996552, "name": "Putrajaya", "country": "MY", "coord": {"lon": 101.699997, "lat": 2.91667}}, {"id": 1024696, "name": "Dondo", "country": "MZ", "coord": {"lon": 34.743061, "lat": -19.60944}}, {"id": 1024701, "name": "Macia", "country": "MZ", "coord": {"lon": 33.098888, "lat": -25.026939}}, {"id": 1028918, "name": "Pemba", "country": "MZ", "coord": {"lon": 40.51775, "lat": -12.97395}}, {"id": 1037125, "name": "Montepuez", "country": "MZ", "coord": {"lon": 38.999722, "lat": -13.12556}}, {"id": 1037390, "name": "Ilha de Mocambique", "country": "MZ", "coord": {"lon": 40.735828, "lat": -15.03417}}, {"id": 1039536, "name": "Maxixe", "country": "MZ", "coord": {"lon": 35.347221, "lat": -23.85972}}, {"id": 1039854, "name": "Matola", "country": "MZ", "coord": {"lon": 32.458889, "lat": -25.962219}}, {"id": 1043893, "name": "Lichinga", "country": "MZ", "coord": {"lon": 35.240559, "lat": -13.31278}}, {"id": 1048364, "name": "Chokwe", "country": "MZ", "coord": {"lon": 32.98333, "lat": -24.533331}}, {"id": 1049861, "name": "Chibuto", "country": "MZ", "coord": {"lon": 33.53056, "lat": -24.68667}}, {"id": 1052944, "name": "Antonio Enes", "country": "MZ", "coord": {"lon": 39.908611, "lat": -16.2325}}, {"id": 3354898, "name": "Okahandja", "country": "NA", "coord": {"lon": 16.91667, "lat": -21.98333}}, {"id": 2139521, "name": "Noumea", "country": "NC", "coord": {"lon": 166.457199, "lat": -22.27631}}, {"id": 2438823, "name": "Tessaoua", "country": "NE", "coord": {"lon": 7.9874, "lat": 13.75737}}, {"id": 2438855, "name": "Tera", "country": "NE", "coord": {"lon": 0.75306, "lat": 14.00776}}, {"id": 2439155, "name": "Tanout", "country": "NE", "coord": {"lon": 8.88786, "lat": 14.97089}}, {"id": 2440921, "name": "Mirya", "country": "NE", "coord": {"lon": 9.15013, "lat": 13.70727}}, {"id": 2441194, "name": "Mayahi", "country": "NE", "coord": {"lon": 7.67122, "lat": 13.95532}}, {"id": 2441530, "name": "Madaoua", "country": "NE", "coord": {"lon": 5.96, "lat": 14.073}}, {"id": 2443304, "name": "Illela", "country": "NE", "coord": {"lon": 5.2437, "lat": 14.4605}}, {"id": 2445486, "name": "Dosso", "country": "NE", "coord": {"lon": 3.5, "lat": 13.5}}, {"id": 2444489, "name": "Gaya", "country": "NE", "coord": {"lon": 3.44919, "lat": 11.88435}}, {"id": 2445488, "name": "Dosso", "country": "NE", "coord": {"lon": 3.1937, "lat": 13.049}}, {"id": 2445553, "name": "Dogondoutchi", "country": "NE", "coord": {"lon": 4.02875, "lat": 13.63933}}, {"id": 2445704, "name": "Diffa", "country": "NE", "coord": {"lon": 12.61134, "lat": 13.31536}}, {"id": 2447416, "name": "Ayorou", "country": "NE", "coord": {"lon": 0.91738, "lat": 14.73075}}, {"id": 2597363, "name": "Kebbi State", "country": "NG", "coord": {"lon": 4, "lat": 11.5}}, {"id": 2317569, "name": "Zungeru", "country": "NG", "coord": {"lon": 6.15583, "lat": 9.81278}}, {"id": 2317765, "name": "Zaria", "country": "NG", "coord": {"lon": 7.7227, "lat": 11.11128}}, {"id": 2595344, "name": "Bayelsa State", "country": "NG", "coord": {"lon": 6.08333, "lat": 4.75}}, {"id": 2318123, "name": "Yenagoa", "country": "NG", "coord": {"lon": 6.26417, "lat": 4.92472}}, {"id": 2318921, "name": "Wukari", "country": "NG", "coord": {"lon": 9.78333, "lat": 7.85}}, {"id": 2319668, "name": "Uromi", "country": "NG", "coord": {"lon": 6.33333, "lat": 6.7}}, {"id": 2320576, "name": "Umuahia", "country": "NG", "coord": {"lon": 7.48959, "lat": 5.52627}}, {"id": 2320829, "name": "Ughelli", "country": "NG", "coord": {"lon": 6.00743, "lat": 5.48986}}, {"id": 2320831, "name": "Ugep", "country": "NG", "coord": {"lon": 8.0812, "lat": 5.8086}}, {"id": 2320920, "name": "Uga", "country": "NG", "coord": {"lon": 7.0793, "lat": 5.93576}}, {"id": 2321031, "name": "Ubiaja", "country": "NG", "coord": {"lon": 6.38687, "lat": 6.65504}}, {"id": 2322263, "name": "Tegina", "country": "NG", "coord": {"lon": 6.1906, "lat": 10.0706}}, {"id": 2322495, "name": "Tambawel", "country": "NG", "coord": {"lon": 4.64692, "lat": 12.40386}}, {"id": 2322529, "name": "Talata Mafara", "country": "NG", "coord": {"lon": 6.05971, "lat": 12.57317}}, {"id": 2322552, "name": "Takum", "country": "NG", "coord": {"lon": 9.98333, "lat": 7.26667}}, {"id": 2322957, "name": "Soba", "country": "NG", "coord": {"lon": 8.05749, "lat": 10.98134}}, {"id": 2323390, "name": "Saki", "country": "NG", "coord": {"lon": 3.38333, "lat": 8.66667}}, {"id": 2323411, "name": "Shagamu", "country": "NG", "coord": {"lon": 3.64776, "lat": 6.84323}}, {"id": 2323675, "name": "Sapele", "country": "NG", "coord": {"lon": 5.67666, "lat": 5.89405}}, {"id": 2324504, "name": "Rijau", "country": "NG", "coord": {"lon": 5.25068, "lat": 11.10298}}, {"id": 2324575, "name": "Rano", "country": "NG", "coord": {"lon": 8.57464, "lat": 11.54912}}, {"id": 2324767, "name": "Potiskum", "country": "NG", "coord": {"lon": 11.0694, "lat": 11.7091}}, {"id": 2324774, "name": "Port Harcourt", "country": "NG", "coord": {"lon": 7.0134, "lat": 4.77742}}, {"id": 2325060, "name": "Pankshin", "country": "NG", "coord": {"lon": 9.45, "lat": 9.33333}}, {"id": 2325161, "name": "Ozubulu", "country": "NG", "coord": {"lon": 6.84904, "lat": 5.95666}}, {"id": 2325249, "name": "Oyan", "country": "NG", "coord": {"lon": 4.76667, "lat": 8.05}}, {"id": 2325314, "name": "Owo", "country": "NG", "coord": {"lon": 5.58681, "lat": 7.1962}}, {"id": 2325437, "name": "Otukpa", "country": "NG", "coord": {"lon": 7.64989, "lat": 7.08921}}, {"id": 2325733, "name": "Orita Eruwa", "country": "NG", "coord": {"lon": 3.43333, "lat": 7.55}}, {"id": 2326302, "name": "Olupona", "country": "NG", "coord": {"lon": 4.18333, "lat": 7.6}}, {"id": 2326811, "name": "Okuta", "country": "NG", "coord": {"lon": 3.18333, "lat": 9.21667}}, {"id": 2326899, "name": "Okrika", "country": "NG", "coord": {"lon": 7.08488, "lat": 4.74159}}, {"id": 2327143, "name": "Okigwi", "country": "NG", "coord": {"lon": 7.35989, "lat": 5.83523}}, {"id": 2327223, "name": "Oke Mesi", "country": "NG", "coord": {"lon": 4.91667, "lat": 7.81667}}, {"id": 2327513, "name": "Ogwashi-Uku", "country": "NG", "coord": {"lon": 6.52429, "lat": 6.17818}}, {"id": 2327521, "name": "Oguta", "country": "NG", "coord": {"lon": 6.81026, "lat": 5.7089}}, {"id": 2327650, "name": "Ogoja", "country": "NG", "coord": {"lon": 8.79764, "lat": 6.65471}}, {"id": 2327827, "name": "Ogaminan", "country": "NG", "coord": {"lon": 6.22476, "lat": 7.59464}}, {"id": 2328090, "name": "Ode", "country": "NG", "coord": {"lon": 5.7117, "lat": 7.7899}}, {"id": 2328185, "name": "Obonoma", "country": "NG", "coord": {"lon": 6.79307, "lat": 4.70844}}, {"id": 2328617, "name": "Numan", "country": "NG", "coord": {"lon": 12.03333, "lat": 9.46667}}, {"id": 2328684, "name": "Nsukka", "country": "NG", "coord": {"lon": 7.3927, "lat": 6.8561}}, {"id": 2328765, "name": "Nnewi", "country": "NG", "coord": {"lon": 6.91478, "lat": 6.01986}}, {"id": 2328790, "name": "Nkwerre", "country": "NG", "coord": {"lon": 7.10627, "lat": 5.75555}}, {"id": 2328811, "name": "Nkpor", "country": "NG", "coord": {"lon": 6.84458, "lat": 6.15164}}, {"id": 2328952, "name": "Nguru", "country": "NG", "coord": {"lon": 10.4526, "lat": 12.8791}}, {"id": 2595348, "name": "Nassarawa State", "country": "NG", "coord": {"lon": 8.25, "lat": 8.5}}, {"id": 2329451, "name": "Nassarawa", "country": "NG", "coord": {"lon": 7.72417, "lat": 8.52944}}, {"id": 2329562, "name": "Nafada", "country": "NG", "coord": {"lon": 11.3327, "lat": 11.0956}}, {"id": 2329821, "name": "Mubi", "country": "NG", "coord": {"lon": 13.26436, "lat": 10.26761}}, {"id": 2329920, "name": "Moriki", "country": "NG", "coord": {"lon": 6.48754, "lat": 12.87405}}, {"id": 2329946, "name": "Mongonu", "country": "NG", "coord": {"lon": 13.60792, "lat": 12.67863}}, {"id": 2329981, "name": "Mokwa", "country": "NG", "coord": {"lon": 5.05, "lat": 9.28333}}, {"id": 2330028, "name": "Modakeke", "country": "NG", "coord": {"lon": 4.26667, "lat": 7.38333}}, {"id": 2330719, "name": "Marte", "country": "NG", "coord": {"lon": 13.8246, "lat": 12.36113}}, {"id": 2331005, "name": "Malumfashi", "country": "NG", "coord": {"lon": 7.62175, "lat": 11.78529}}, {"id": 2331140, "name": "Makurdi", "country": "NG", "coord": {"lon": 8.5121, "lat": 7.7411}}, {"id": 2331528, "name": "Magumeri", "country": "NG", "coord": {"lon": 12.8274, "lat": 12.1131}}, {"id": 2332079, "name": "Lere", "country": "NG", "coord": {"lon": 8.57262, "lat": 10.38697}}, {"id": 2332249, "name": "Lapai", "country": "NG", "coord": {"lon": 6.56667, "lat": 9.05}}, {"id": 2332357, "name": "Lalupon", "country": "NG", "coord": {"lon": 4.06667, "lat": 7.46667}}, {"id": 2332504, "name": "Lafiagi", "country": "NG", "coord": {"lon": 5.41667, "lat": 8.86667}}, {"id": 2332515, "name": "Lafia", "country": "NG", "coord": {"lon": 8.51667, "lat": 8.48333}}, {"id": 2332871, "name": "Kwale", "country": "NG", "coord": {"lon": 6.43741, "lat": 5.70632}}, {"id": 2333451, "name": "Kumo", "country": "NG", "coord": {"lon": 11.21217, "lat": 10.04469}}, {"id": 2333490, "name": "Kumagunnam", "country": "NG", "coord": {"lon": 10.63423, "lat": 13.15514}}, {"id": 2333563, "name": "Kukawa", "country": "NG", "coord": {"lon": 13.56058, "lat": 12.92342}}, {"id": 2334008, "name": "Kontagora", "country": "NG", "coord": {"lon": 5.46949, "lat": 10.39989}}, {"id": 2334327, "name": "Kishi", "country": "NG", "coord": {"lon": 3.85, "lat": 9.08333}}, {"id": 2334652, "name": "Keffi", "country": "NG", "coord": {"lon": 7.87361, "lat": 8.84861}}, {"id": 2334756, "name": "Kaura Namoda", "country": "NG", "coord": {"lon": 6.57791, "lat": 12.58979}}, {"id": 2334801, "name": "Katsina Ala", "country": "NG", "coord": {"lon": 9.28333, "lat": 7.16667}}, {"id": 2335015, "name": "Kari", "country": "NG", "coord": {"lon": 10.561, "lat": 11.2471}}, {"id": 2335333, "name": "Kamba", "country": "NG", "coord": {"lon": 3.65761, "lat": 11.84864}}, {"id": 2335596, "name": "Kaiama", "country": "NG", "coord": {"lon": 3.94806, "lat": 9.6225}}, {"id": 2335614, "name": "Kagoro", "country": "NG", "coord": {"lon": 8.38333, "lat": 9.6}}, {"id": 2335713, "name": "Kafachan", "country": "NG", "coord": {"lon": 8.3, "lat": 9.58333}}, {"id": 2335798, "name": "Kachia", "country": "NG", "coord": {"lon": 7.95, "lat": 9.86667}}, {"id": 2335843, "name": "Kabba", "country": "NG", "coord": {"lon": 6.0731, "lat": 7.82873}}, {"id": 2336056, "name": "Jimeta", "country": "NG", "coord": {"lon": 12.46667, "lat": 9.28333}}, {"id": 2336237, "name": "Jega", "country": "NG", "coord": {"lon": 4.37917, "lat": 12.2175}}, {"id": 2336251, "name": "Jebba", "country": "NG", "coord": {"lon": 4.83333, "lat": 9.13333}}, {"id": 2597366, "name": "Taraba State", "country": "NG", "coord": {"lon": 10.5, "lat": 8}}, {"id": 2336589, "name": "Jalingo", "country": "NG", "coord": {"lon": 11.36667, "lat": 8.88333}}, {"id": 2336985, "name": "Itu", "country": "NG", "coord": {"lon": 7.98475, "lat": 5.2004}}, {"id": 2595345, "name": "Ebonyi State", "country": "NG", "coord": {"lon": 8.08333, "lat": 6.25}}, {"id": 2337148, "name": "Isieke", "country": "NG", "coord": {"lon": 8.03524, "lat": 6.37831}}, {"id": 2337207, "name": "Ise-Ekiti", "country": "NG", "coord": {"lon": 5.4281, "lat": 7.4632}}, {"id": 2337235, "name": "Isanlu Itedoijowa", "country": "NG", "coord": {"lon": 5.83333, "lat": 8.26667}}, {"id": 2337352, "name": "Ipoti", "country": "NG", "coord": {"lon": 5.07692, "lat": 7.87377}}, {"id": 2337379, "name": "Iperu", "country": "NG", "coord": {"lon": 3.66557, "lat": 6.91002}}, {"id": 2337490, "name": "Inisa", "country": "NG", "coord": {"lon": 4.33333, "lat": 7.85}}, {"id": 2337659, "name": "Ilobu", "country": "NG", "coord": {"lon": 4.48333, "lat": 7.83333}}, {"id": 2337680, "name": "Illela", "country": "NG", "coord": {"lon": 5.29752, "lat": 13.72918}}, {"id": 2337704, "name": "Ilesa", "country": "NG", "coord": {"lon": 4.73333, "lat": 7.61667}}, {"id": 2337759, "name": "Ilaro", "country": "NG", "coord": {"lon": 3.0205, "lat": 6.88653}}, {"id": 2337765, "name": "Ila Orangun", "country": "NG", "coord": {"lon": 4.9, "lat": 8.01667}}, {"id": 2338106, "name": "Ikot-Ekpene", "country": "NG", "coord": {"lon": 7.71082, "lat": 5.17938}}, {"id": 2338269, "name": "Ikirun", "country": "NG", "coord": {"lon": 4.66667, "lat": 7.91667}}, {"id": 2338273, "name": "Ikire", "country": "NG", "coord": {"lon": 4.18333, "lat": 7.35}}, {"id": 2338287, "name": "Ikerre", "country": "NG", "coord": {"lon": 5.23225, "lat": 7.49133}}, {"id": 2338385, "name": "Ijero-Ekiti", "country": "NG", "coord": {"lon": 5.0742, "lat": 7.8139}}, {"id": 2338400, "name": "Ijebu-Ode", "country": "NG", "coord": {"lon": 3.91588, "lat": 6.81609}}, {"id": 2338401, "name": "Ijebu Ijesha", "country": "NG", "coord": {"lon": 4.81667, "lat": 7.68333}}, {"id": 2338403, "name": "Ijebu-Igbo", "country": "NG", "coord": {"lon": 4.00329, "lat": 6.9798}}, {"id": 2338497, "name": "Ihiala", "country": "NG", "coord": {"lon": 6.86026, "lat": 5.85377}}, {"id": 2338630, "name": "Igede-Ekiti", "country": "NG", "coord": {"lon": 5.13205, "lat": 7.66676}}, {"id": 2338640, "name": "Igbo-Ukwu", "country": "NG", "coord": {"lon": 7.02654, "lat": 6.01669}}, {"id": 2338660, "name": "Igbor", "country": "NG", "coord": {"lon": 8.6098, "lat": 7.4527}}, {"id": 2338669, "name": "Igbo Ora", "country": "NG", "coord": {"lon": 3.28333, "lat": 7.43333}}, {"id": 2338711, "name": "Igboho", "country": "NG", "coord": {"lon": 3.75, "lat": 8.83333}}, {"id": 2338772, "name": "Igbeti", "country": "NG", "coord": {"lon": 4.13333, "lat": 8.75}}, {"id": 2338810, "name": "Igbara-Odo", "country": "NG", "coord": {"lon": 5.06258, "lat": 7.50251}}, {"id": 2338876, "name": "Ifo", "country": "NG", "coord": {"lon": 3.19575, "lat": 6.81437}}, {"id": 2339150, "name": "Idanre", "country": "NG", "coord": {"lon": 5.1159, "lat": 7.1127}}, {"id": 2339156, "name": "Idah", "country": "NG", "coord": {"lon": 6.73415, "lat": 7.10651}}, {"id": 2339287, "name": "Ibi", "country": "NG", "coord": {"lon": 9.75, "lat": 8.18333}}, {"id": 2339293, "name": "Ibeto", "country": "NG", "coord": {"lon": 5.14502, "lat": 10.48536}}, {"id": 2565345, "name": "Jigawa State", "country": "NG", "coord": {"lon": 9.75, "lat": 12}}, {"id": 2339631, "name": "Hadejia", "country": "NG", "coord": {"lon": 10.0444, "lat": 12.4498}}, {"id": 2339665, "name": "Gwoza", "country": "NG", "coord": {"lon": 13.71298, "lat": 11.10359}}, {"id": 2339756, "name": "Gwarzo", "country": "NG", "coord": {"lon": 7.9346, "lat": 11.91521}}, {"id": 2339786, "name": "Gwaram", "country": "NG", "coord": {"lon": 9.88583, "lat": 11.27639}}, {"id": 2339892, "name": "Gwadabawa", "country": "NG", "coord": {"lon": 5.23664, "lat": 13.35612}}, {"id": 2340086, "name": "Gummi", "country": "NG", "coord": {"lon": 5.10809, "lat": 12.14358}}, {"id": 2340091, "name": "Gumel", "country": "NG", "coord": {"lon": 9.39119, "lat": 12.62791}}, {"id": 2340446, "name": "Little Gombi", "country": "NG", "coord": {"lon": 12.7399, "lat": 10.16138}}, {"id": 2341275, "name": "Gembu", "country": "NG", "coord": {"lon": 11.26667, "lat": 6.7}}, {"id": 2341294, "name": "Geidam", "country": "NG", "coord": {"lon": 11.9304, "lat": 12.897}}, {"id": 2341355, "name": "Gbongan", "country": "NG", "coord": {"lon": 4.35, "lat": 7.46667}}, {"id": 2341580, "name": "Gaya", "country": "NG", "coord": {"lon": 8.99714, "lat": 11.86136}}, {"id": 2341656, "name": "Gashua", "country": "NG", "coord": {"lon": 11.0482, "lat": 12.871}}, {"id": 2341758, "name": "Garko", "country": "NG", "coord": {"lon": 11.16458, "lat": 10.17506}}, {"id": 2341955, "name": "Ganye", "country": "NG", "coord": {"lon": 12.06667, "lat": 8.43333}}, {"id": 2342192, "name": "Gambaru", "country": "NG", "coord": {"lon": 14.21731, "lat": 12.37066}}, {"id": 2342490, "name": "Funtua", "country": "NG", "coord": {"lon": 7.30813, "lat": 11.52325}}, {"id": 2342628, "name": "Fiditi", "country": "NG", "coord": {"lon": 3.91722, "lat": 7.71361}}, {"id": 2342883, "name": "Ezza Ohu", "country": "NG", "coord": {"lon": 8.0862, "lat": 6.4373}}, {"id": 2343093, "name": "Esuk Oron", "country": "NG", "coord": {"lon": 8.25341, "lat": 4.80293}}, {"id": 2343252, "name": "Epe", "country": "NG", "coord": {"lon": 3.98336, "lat": 6.58412}}, {"id": 2343270, "name": "Enugu-Ukwu", "country": "NG", "coord": {"lon": 7.01156, "lat": 6.17851}}, {"id": 2343273, "name": "Enugu-Ezike", "country": "NG", "coord": {"lon": 7.457, "lat": 6.9825}}, {"id": 2343299, "name": "Emure-Ekiti", "country": "NG", "coord": {"lon": 5.45932, "lat": 7.43614}}, {"id": 2343512, "name": "Elele", "country": "NG", "coord": {"lon": 6.81411, "lat": 5.1009}}, {"id": 2343641, "name": "Ekpoma", "country": "NG", "coord": {"lon": 6.139, "lat": 6.74206}}, {"id": 2343720, "name": "Eket", "country": "NG", "coord": {"lon": 7.92092, "lat": 4.64122}}, {"id": 2343784, "name": "Ejigbo", "country": "NG", "coord": {"lon": 4.31667, "lat": 7.9}}, {"id": 2343822, "name": "Eha Amufu", "country": "NG", "coord": {"lon": 7.75961, "lat": 6.65915}}, {"id": 2343943, "name": "Egbe", "country": "NG", "coord": {"lon": 5.51667, "lat": 8.21667}}, {"id": 2343983, "name": "Effon Alaiye", "country": "NG", "coord": {"lon": 4.91667, "lat": 7.65}}, {"id": 2343985, "name": "Effium", "country": "NG", "coord": {"lon": 8.05925, "lat": 6.62917}}, {"id": 2344082, "name": "Ebute Ikorodu", "country": "NG", "coord": {"lon": 3.48818, "lat": 6.60086}}, {"id": 2344229, "name": "Dutsen Wai", "country": "NG", "coord": {"lon": 8.199, "lat": 10.85009}}, {"id": 2344245, "name": "Dutse", "country": "NG", "coord": {"lon": 9.33921, "lat": 11.7594}}, {"id": 2344418, "name": "Dukku", "country": "NG", "coord": {"lon": 10.77167, "lat": 10.82306}}, {"id": 2344600, "name": "Doma", "country": "NG", "coord": {"lon": 8.35, "lat": 8.38333}}, {"id": 2344854, "name": "Dikwa", "country": "NG", "coord": {"lon": 13.91646, "lat": 12.02396}}, {"id": 2345029, "name": "Deba Habe", "country": "NG", "coord": {"lon": 11.38586, "lat": 10.20864}}, {"id": 2345094, "name": "Daura", "country": "NG", "coord": {"lon": 8.31631, "lat": 13.03594}}, {"id": 2345096, "name": "Daura", "country": "NG", "coord": {"lon": 11.4085, "lat": 11.5538}}, {"id": 2345152, "name": "Darazo", "country": "NG", "coord": {"lon": 10.41179, "lat": 10.99375}}, {"id": 2345498, "name": "Damboa", "country": "NG", "coord": {"lon": 12.75758, "lat": 11.15604}}, {"id": 2345521, "name": "Damaturu", "country": "NG", "coord": {"lon": 11.9608, "lat": 11.747}}, {"id": 2346229, "name": "Calabar", "country": "NG", "coord": {"lon": 8.322, "lat": 4.9517}}, {"id": 2346317, "name": "Burutu", "country": "NG", "coord": {"lon": 5.50758, "lat": 5.35091}}, {"id": 2346561, "name": "Bukuru", "country": "NG", "coord": {"lon": 8.86667, "lat": 9.8}}, {"id": 2346615, "name": "Buguma", "country": "NG", "coord": {"lon": 6.86345, "lat": 4.73407}}, {"id": 2346812, "name": "Bonny", "country": "NG", "coord": {"lon": 7.16808, "lat": 4.4522}}, {"id": 2347057, "name": "Birnin Kudu", "country": "NG", "coord": {"lon": 9.4984, "lat": 11.44588}}, {"id": 2347059, "name": "Birnin Kebbi", "country": "NG", "coord": {"lon": 4.1975, "lat": 12.45389}}, {"id": 2347061, "name": "Sofo-Birnin-Gwari", "country": "NG", "coord": {"lon": 6.78036, "lat": 11.01537}}, {"id": 2347155, "name": "Biliri", "country": "NG", "coord": {"lon": 11.22528, "lat": 9.86472}}, {"id": 2347303, "name": "Bende", "country": "NG", "coord": {"lon": 7.63676, "lat": 5.55718}}, {"id": 2347330, "name": "Beli", "country": "NG", "coord": {"lon": 10.97187, "lat": 7.85868}}, {"id": 2347592, "name": "Baro", "country": "NG", "coord": {"lon": 6.41667, "lat": 8.6}}, {"id": 2348507, "name": "Babana", "country": "NG", "coord": {"lon": 3.81495, "lat": 10.42949}}, {"id": 2348595, "name": "Azare", "country": "NG", "coord": {"lon": 10.1948, "lat": 11.6765}}, {"id": 2348773, "name": "Awka", "country": "NG", "coord": {"lon": 7.07411, "lat": 6.21009}}, {"id": 2348783, "name": "Awgu", "country": "NG", "coord": {"lon": 7.4786, "lat": 6.0742}}, {"id": 2348892, "name": "Auchi", "country": "NG", "coord": {"lon": 6.26667, "lat": 7.06667}}, {"id": 2349276, "name": "Asaba", "country": "NG", "coord": {"lon": 6.73384, "lat": 6.20064}}, {"id": 2349431, "name": "Argungu", "country": "NG", "coord": {"lon": 4.52687, "lat": 12.74334}}, {"id": 2349529, "name": "Araomoko Ekiti", "country": "NG", "coord": {"lon": 5.04474, "lat": 7.70927}}, {"id": 2349558, "name": "Apomu", "country": "NG", "coord": {"lon": 4.18333, "lat": 7.33333}}, {"id": 2349951, "name": "Anchau", "country": "NG", "coord": {"lon": 8.39155, "lat": 10.95967}}, {"id": 2350249, "name": "Amaigbo", "country": "NG", "coord": {"lon": 7.83829, "lat": 5.78917}}, {"id": 2350806, "name": "Akwanga", "country": "NG", "coord": {"lon": 8.38333, "lat": 8.91667}}, {"id": 2350886, "name": "Aku", "country": "NG", "coord": {"lon": 7.3167, "lat": 6.7081}}, {"id": 2351470, "name": "Ajaokuta", "country": "NG", "coord": {"lon": 6.65497, "lat": 7.56229}}, {"id": 2351740, "name": "Agulu", "country": "NG", "coord": {"lon": 7.0724, "lat": 6.11}}, {"id": 2351979, "name": "Agbor", "country": "NG", "coord": {"lon": 6.19337, "lat": 6.25183}}, {"id": 2352250, "name": "Afikpo", "country": "NG", "coord": {"lon": 7.93735, "lat": 5.89312}}, {"id": 2352356, "name": "Ado Odo", "country": "NG", "coord": {"lon": 2.93333, "lat": 6.6}}, {"id": 2352778, "name": "Abuja", "country": "NG", "coord": {"lon": 7.48976, "lat": 9.05735}}, {"id": 3616682, "name": "San Marcos", "country": "NI", "coord": {"lon": -86.203506, "lat": 11.90949}}, {"id": 3617052, "name": "Rivas", "country": "NI", "coord": {"lon": -85.826317, "lat": 11.43716}}, {"id": 3617095, "name": "Rama", "country": "NI", "coord": {"lon": -84.219521, "lat": 12.15965}}, {"id": 3617459, "name": "Nueva Guinea", "country": "NI", "coord": {"lon": -84.456161, "lat": 11.68758}}, {"id": 3617513, "name": "Nandaime", "country": "NI", "coord": {"lon": -86.052856, "lat": 11.75696}}, {"id": 3617725, "name": "Masatepe", "country": "NI", "coord": {"lon": -86.144669, "lat": 11.9184}}, {"id": 3618411, "name": "La Paz Centro", "country": "NI", "coord": {"lon": -86.675278, "lat": 12.34}}, {"id": 3618908, "name": "Juigalpa", "country": "NI", "coord": {"lon": -85.364517, "lat": 12.10629}}, {"id": 3618929, "name": "Jinotega", "country": "NI", "coord": {"lon": -86.00177, "lat": 13.09171}}, {"id": 3619853, "name": "El Crucero", "country": "NI", "coord": {"lon": -86.30954, "lat": 11.99008}}, {"id": 3620269, "name": "Corinto", "country": "NI", "coord": {"lon": -87.173363, "lat": 12.48199}}, {"id": 3620381, "name": "Chinandega", "country": "NI", "coord": {"lon": -87.13105, "lat": 12.62937}}, {"id": 3620674, "name": "Boaco", "country": "NI", "coord": {"lon": -85.6586, "lat": 12.47224}}, {"id": 2743477, "name": "Zwolle", "country": "NL", "coord": {"lon": 6.09444, "lat": 52.512501}}, {"id": 2743493, "name": "Zwijndrecht", "country": "NL", "coord": {"lon": 4.63333, "lat": 51.817501}}, {"id": 2743619, "name": "Zundert", "country": "NL", "coord": {"lon": 4.65556, "lat": 51.471668}}, {"id": 2743949, "name": "Zevenaar", "country": "NL", "coord": {"lon": 6.07083, "lat": 51.93}}, {"id": 2743977, "name": "Zeist", "country": "NL", "coord": {"lon": 5.23333, "lat": 52.09}}, {"id": 2743997, "name": "Zeewolde", "country": "NL", "coord": {"lon": 5.54167, "lat": 52.330002}}, {"id": 2744102, "name": "Zaltbommel", "country": "NL", "coord": {"lon": 5.24444, "lat": 51.810001}}, {"id": 2744114, "name": "Zaanstad", "country": "NL", "coord": {"lon": 4.81356, "lat": 52.453129}}, {"id": 2744194, "name": "Wolvega", "country": "NL", "coord": {"lon": 5.99691, "lat": 52.87545}}, {"id": 2744248, "name": "Woerden", "country": "NL", "coord": {"lon": 4.88333, "lat": 52.084999}}, {"id": 2744257, "name": "Woensdrecht", "country": "NL", "coord": {"lon": 4.30355, "lat": 51.42897}}, {"id": 2744324, "name": "Wisch", "country": "NL", "coord": {"lon": 6.41705, "lat": 51.926479}}, {"id": 2744332, "name": "Winterswijk", "country": "NL", "coord": {"lon": 6.71944, "lat": 51.9725}}, {"id": 2744514, "name": "Wijchen", "country": "NL", "coord": {"lon": 5.725, "lat": 51.80917}}, {"id": 2744549, "name": "Wierden", "country": "NL", "coord": {"lon": 6.59306, "lat": 52.359169}}, {"id": 2744675, "name": "Westervoort", "country": "NL", "coord": {"lon": 5.97222, "lat": 51.95583}}, {"id": 2744827, "name": "Werkendam", "country": "NL", "coord": {"lon": 4.89444, "lat": 51.810001}}, {"id": 2744911, "name": "Weert", "country": "NL", "coord": {"lon": 5.70694, "lat": 51.251671}}, {"id": 2744991, "name": "Wassenaar", "country": "NL", "coord": {"lon": 4.40278, "lat": 52.145828}}, {"id": 2745088, "name": "Wageningen", "country": "NL", "coord": {"lon": 5.66667, "lat": 51.970001}}, {"id": 2745096, "name": "Waddinxveen", "country": "NL", "coord": {"lon": 4.65139, "lat": 52.044998}}, {"id": 2745123, "name": "Waalwijk", "country": "NL", "coord": {"lon": 5.07083, "lat": 51.682499}}, {"id": 2745127, "name": "Waalre", "country": "NL", "coord": {"lon": 5.44444, "lat": 51.386669}}, {"id": 2745154, "name": "Vught", "country": "NL", "coord": {"lon": 5.2875, "lat": 51.653332}}, {"id": 2745297, "name": "Voorst", "country": "NL", "coord": {"lon": 6.14167, "lat": 52.169998}}, {"id": 2745301, "name": "Voorschoten", "country": "NL", "coord": {"lon": 4.44861, "lat": 52.127499}}, {"id": 2745311, "name": "Voorhout", "country": "NL", "coord": {"lon": 4.48472, "lat": 52.221668}}, {"id": 2745461, "name": "Vlagtwedde", "country": "NL", "coord": {"lon": 7.10833, "lat": 53.0275}}, {"id": 2745580, "name": "Vianen", "country": "NL", "coord": {"lon": 5.09167, "lat": 51.9925}}, {"id": 2745634, "name": "Venray", "country": "NL", "coord": {"lon": 5.975, "lat": 51.525002}}, {"id": 2745673, "name": "Velsen-Zuid", "country": "NL", "coord": {"lon": 4.65, "lat": 52.459999}}, {"id": 2745677, "name": "Velp", "country": "NL", "coord": {"lon": 5.97361, "lat": 51.994999}}, {"id": 2745706, "name": "Veldhoven", "country": "NL", "coord": {"lon": 5.40278, "lat": 51.418331}}, {"id": 2745726, "name": "Veghel", "country": "NL", "coord": {"lon": 5.54861, "lat": 51.616669}}, {"id": 2745774, "name": "Veenendaal", "country": "NL", "coord": {"lon": 5.55891, "lat": 52.028629}}, {"id": 2745860, "name": "Valkenswaard", "country": "NL", "coord": {"lon": 5.45972, "lat": 51.35083}}, {"id": 2746005, "name": "Uden", "country": "NL", "coord": {"lon": 5.61944, "lat": 51.660831}}, {"id": 2746133, "name": "Tubbergen", "country": "NL", "coord": {"lon": 6.78472, "lat": 52.407501}}, {"id": 2746215, "name": "Tongelre", "country": "NL", "coord": {"lon": 5.51978, "lat": 51.448891}}, {"id": 2746301, "name": "Tilburg", "country": "NL", "coord": {"lon": 5.0913, "lat": 51.555511}}, {"id": 2746331, "name": "Tiel", "country": "NL", "coord": {"lon": 5.42917, "lat": 51.886669}}, {"id": 2746420, "name": "Terneuzen", "country": "NL", "coord": {"lon": 3.82778, "lat": 51.335831}}, {"id": 2746504, "name": "Tegelen", "country": "NL", "coord": {"lon": 6.13611, "lat": 51.34417}}, {"id": 2746766, "name": "Steenwijk", "country": "NL", "coord": {"lon": 6.12083, "lat": 52.787498}}, {"id": 2746804, "name": "Steenbergen", "country": "NL", "coord": {"lon": 4.31944, "lat": 51.584171}}, {"id": 2746860, "name": "Stadskanaal", "country": "NL", "coord": {"lon": 6.9504, "lat": 52.989471}}, {"id": 2746932, "name": "Spijkenisse", "country": "NL", "coord": {"lon": 4.32917, "lat": 51.845001}}, {"id": 2747021, "name": "Someren", "country": "NL", "coord": {"lon": 5.71111, "lat": 51.384998}}, {"id": 2747063, "name": "Sneek", "country": "NL", "coord": {"lon": 5.6589, "lat": 53.03297}}, {"id": 2747169, "name": "Sliedrecht", "country": "NL", "coord": {"lon": 4.77639, "lat": 51.820831}}, {"id": 2747227, "name": "Sint-Oedenrode", "country": "NL", "coord": {"lon": 5.45972, "lat": 51.567501}}, {"id": 2747351, "name": "s-Hertogenbosch", "country": "NL", "coord": {"lon": 5.30417, "lat": 51.699169}}, {"id": 2747364, "name": "s-Gravenzande", "country": "NL", "coord": {"lon": 4.16528, "lat": 52.001671}}, {"id": 2747584, "name": "Schijndel", "country": "NL", "coord": {"lon": 5.43194, "lat": 51.622501}}, {"id": 2747596, "name": "Schiedam", "country": "NL", "coord": {"lon": 4.38889, "lat": 51.91917}}, {"id": 2747599, "name": "Scheveningen", "country": "NL", "coord": {"lon": 4.27557, "lat": 52.10461}}, {"id": 2747720, "name": "Schagen", "country": "NL", "coord": {"lon": 4.79861, "lat": 52.787498}}, {"id": 2747858, "name": "Rucphen", "country": "NL", "coord": {"lon": 4.55833, "lat": 51.53167}}, {"id": 2747930, "name": "Roosendaal", "country": "NL", "coord": {"lon": 4.46528, "lat": 51.53083}}, {"id": 2748000, "name": "Roermond", "country": "NL", "coord": {"lon": 5.9875, "lat": 51.194172}}, {"id": 2748076, "name": "Rijswijk", "country": "NL", "coord": {"lon": 4.32501, "lat": 52.036339}}, {"id": 2748172, "name": "Ridderkerk", "country": "NL", "coord": {"lon": 4.60278, "lat": 51.872501}}, {"id": 2748178, "name": "Rhoon", "country": "NL", "coord": {"lon": 4.42222, "lat": 51.857498}}, {"id": 2748185, "name": "Rhenen", "country": "NL", "coord": {"lon": 5.56806, "lat": 51.959171}}, {"id": 2748392, "name": "Putten", "country": "NL", "coord": {"lon": 5.60694, "lat": 52.259171}}, {"id": 2748591, "name": "Pijnacker", "country": "NL", "coord": {"lon": 4.42946, "lat": 52.019539}}, {"id": 2749234, "name": "Oss", "country": "NL", "coord": {"lon": 5.51806, "lat": 51.764999}}, {"id": 2749450, "name": "Oosterhout", "country": "NL", "coord": {"lon": 4.85972, "lat": 51.645}}, {"id": 2749644, "name": "Oldenzaal", "country": "NL", "coord": {"lon": 6.92917, "lat": 52.313332}}, {"id": 2749680, "name": "Oisterwijk", "country": "NL", "coord": {"lon": 5.18889, "lat": 51.57917}}, {"id": 2749723, "name": "Oegstgeest", "country": "NL", "coord": {"lon": 4.46944, "lat": 52.18}}, {"id": 2749753, "name": "Nuth", "country": "NL", "coord": {"lon": 5.88611, "lat": 50.9175}}, {"id": 2749780, "name": "Nuenen", "country": "NL", "coord": {"lon": 5.55278, "lat": 51.470001}}, {"id": 2749811, "name": "Noordwijkerhout", "country": "NL", "coord": {"lon": 4.49306, "lat": 52.261669}}, {"id": 2750053, "name": "Nijmegen", "country": "NL", "coord": {"lon": 5.85278, "lat": 51.842499}}, {"id": 2750065, "name": "Nijkerk", "country": "NL", "coord": {"lon": 5.48611, "lat": 52.220001}}, {"id": 2750467, "name": "Nederweert", "country": "NL", "coord": {"lon": 5.74861, "lat": 51.285831}}, {"id": 2750521, "name": "Naarden", "country": "NL", "coord": {"lon": 5.1625, "lat": 52.29583}}, {"id": 2750815, "name": "Mijdrecht", "country": "NL", "coord": {"lon": 4.8625, "lat": 52.206669}}, {"id": 2750884, "name": "Middelharnis", "country": "NL", "coord": {"lon": 4.16528, "lat": 51.7575}}, {"id": 2751037, "name": "Meerssen", "country": "NL", "coord": {"lon": 5.75, "lat": 50.887501}}, {"id": 2751316, "name": "Maarssen", "country": "NL", "coord": {"lon": 5.04167, "lat": 52.139172}}, {"id": 2751456, "name": "Loon op Zand", "country": "NL", "coord": {"lon": 5.075, "lat": 51.627499}}, {"id": 2751582, "name": "Lindenholt", "country": "NL", "coord": {"lon": 5.7934, "lat": 51.832699}}, {"id": 2751687, "name": "Leusden", "country": "NL", "coord": {"lon": 5.43194, "lat": 52.1325}}, {"id": 2751771, "name": "Leiderdorp", "country": "NL", "coord": {"lon": 4.52917, "lat": 52.158329}}, {"id": 2751808, "name": "Leerdam", "country": "NL", "coord": {"lon": 5.09167, "lat": 51.89333}}, {"id": 2752264, "name": "Krimpen aan den IJssel", "country": "NL", "coord": {"lon": 4.60278, "lat": 51.916672}}, {"id": 2752923, "name": "Kerkrade", "country": "NL", "coord": {"lon": 6.0625, "lat": 50.865829}}, {"id": 2753010, "name": "Katwijk aan Zee", "country": "NL", "coord": {"lon": 4.39861, "lat": 52.203331}}, {"id": 2753355, "name": "IJsselstein", "country": "NL", "coord": {"lon": 5.04306, "lat": 52.02}}, {"id": 2753468, "name": "Huizen", "country": "NL", "coord": {"lon": 5.24167, "lat": 52.299171}}, {"id": 2753557, "name": "Houten", "country": "NL", "coord": {"lon": 5.16806, "lat": 52.028332}}, {"id": 2753587, "name": "Horst", "country": "NL", "coord": {"lon": 5.58194, "lat": 52.308331}}, {"id": 2753638, "name": "Hoorn", "country": "NL", "coord": {"lon": 5.05972, "lat": 52.642502}}, {"id": 2753719, "name": "Hoogeveen", "country": "NL", "coord": {"lon": 6.47639, "lat": 52.7225}}, {"id": 2753996, "name": "Hoensbroek", "country": "NL", "coord": {"lon": 5.92528, "lat": 50.92387}}, {"id": 2754066, "name": "Hilvarenbeek", "country": "NL", "coord": {"lon": 5.1375, "lat": 51.485828}}, {"id": 2754073, "name": "Hillegom", "country": "NL", "coord": {"lon": 4.58333, "lat": 52.290829}}, {"id": 2754408, "name": "Hendrik-Ido-Ambacht", "country": "NL", "coord": {"lon": 4.63889, "lat": 51.84417}}, {"id": 2754454, "name": "Hellevoetsluis", "country": "NL", "coord": {"lon": 4.13333, "lat": 51.833328}}, {"id": 2754516, "name": "Heiloo", "country": "NL", "coord": {"lon": 4.68815, "lat": 52.60252}}, {"id": 2754635, "name": "Heesch", "country": "NL", "coord": {"lon": 5.52672, "lat": 51.73362}}, {"id": 2754669, "name": "Heerenveen", "country": "NL", "coord": {"lon": 5.91854, "lat": 52.95929}}, {"id": 2754697, "name": "Heemskerk", "country": "NL", "coord": {"lon": 4.67165, "lat": 52.511082}}, {"id": 2754817, "name": "Harlingen", "country": "NL", "coord": {"lon": 5.42244, "lat": 53.17477}}, {"id": 2754837, "name": "Harenkarspel", "country": "NL", "coord": {"lon": 4.77682, "lat": 52.734161}}, {"id": 2754841, "name": "Haren", "country": "NL", "coord": {"lon": 6.63037, "lat": 53.17667}}, {"id": 2754848, "name": "Harderwijk", "country": "NL", "coord": {"lon": 5.62083, "lat": 52.341671}}, {"id": 2755003, "name": "Haarlem", "country": "NL", "coord": {"lon": 4.63683, "lat": 52.38084}}, {"id": 2755272, "name": "Groesbeek", "country": "NL", "coord": {"lon": 5.93611, "lat": 51.776669}}, {"id": 2755434, "name": "Gorinchem", "country": "NL", "coord": {"lon": 4.97243, "lat": 51.836521}}, {"id": 2755464, "name": "Goirle", "country": "NL", "coord": {"lon": 5.06667, "lat": 51.520828}}, {"id": 2755476, "name": "Goes", "country": "NL", "coord": {"lon": 3.88889, "lat": 51.504169}}, {"id": 2755633, "name": "Geldermalsen", "country": "NL", "coord": {"lon": 5.28889, "lat": 51.880829}}, {"id": 2755669, "name": "Geertruidenberg", "country": "NL", "coord": {"lon": 4.85694, "lat": 51.701672}}, {"id": 2756077, "name": "Enkhuizen", "country": "NL", "coord": {"lon": 5.29167, "lat": 52.703331}}, {"id": 2756161, "name": "Elst", "country": "NL", "coord": {"lon": 5.84167, "lat": 51.91917}}, {"id": 2756342, "name": "Eersel", "country": "NL", "coord": {"lon": 5.31806, "lat": 51.357498}}, {"id": 2756507, "name": "Duiven", "country": "NL", "coord": {"lon": 6.01389, "lat": 51.946671}}, {"id": 2756539, "name": "Druten", "country": "NL", "coord": {"lon": 5.60556, "lat": 51.888329}}, {"id": 2756559, "name": "Dronten", "country": "NL", "coord": {"lon": 5.71806, "lat": 52.525002}}, {"id": 2756619, "name": "Driebergen-Rijsenburg", "country": "NL", "coord": {"lon": 5.28056, "lat": 52.053329}}, {"id": 2756723, "name": "Dongen", "country": "NL", "coord": {"lon": 4.93889, "lat": 51.626671}}, {"id": 2756767, "name": "Doetinchem", "country": "NL", "coord": {"lon": 6.28889, "lat": 51.965}}, {"id": 2756888, "name": "Diemen", "country": "NL", "coord": {"lon": 4.96256, "lat": 52.339642}}, {"id": 2756987, "name": "Deventer", "country": "NL", "coord": {"lon": 6.16389, "lat": 52.255001}}, {"id": 2757220, "name": "Den Helder", "country": "NL", "coord": {"lon": 4.75933, "lat": 52.959881}}, {"id": 2757340, "name": "Delfzijl", "country": "NL", "coord": {"lon": 6.91806, "lat": 53.330002}}, {"id": 2757347, "name": "Delfshaven", "country": "NL", "coord": {"lon": 4.45315, "lat": 51.904881}}, {"id": 2757783, "name": "De Bilt", "country": "NL", "coord": {"lon": 5.18056, "lat": 52.110001}}, {"id": 2757850, "name": "Dalfsen", "country": "NL", "coord": {"lon": 6.25694, "lat": 52.511669}}, {"id": 2757874, "name": "Cuijk", "country": "NL", "coord": {"lon": 5.87917, "lat": 51.730831}}, {"id": 2757890, "name": "Cranendonck", "country": "NL", "coord": {"lon": 5.58889, "lat": 51.304169}}, {"id": 2758012, "name": "Capelle aan den IJssel", "country": "NL", "coord": {"lon": 4.57778, "lat": 51.929169}}, {"id": 2758007, "name": "Capelle-West", "country": "NL", "coord": {"lon": 4.56667, "lat": 51.916672}}, {"id": 2758064, "name": "Bussum", "country": "NL", "coord": {"lon": 5.16111, "lat": 52.273331}}, {"id": 2758104, "name": "Bunschoten", "country": "NL", "coord": {"lon": 5.37884, "lat": 52.243038}}, {"id": 2758174, "name": "Brunssum", "country": "NL", "coord": {"lon": 5.97083, "lat": 50.946671}}, {"id": 2758177, "name": "Brummen", "country": "NL", "coord": {"lon": 6.15556, "lat": 52.09}}, {"id": 2758245, "name": "Broek op Langedijk", "country": "NL", "coord": {"lon": 4.80556, "lat": 52.674171}}, {"id": 2758258, "name": "Broek in Waterland", "country": "NL", "coord": {"lon": 4.99583, "lat": 52.43417}}, {"id": 2758460, "name": "Boxtel", "country": "NL", "coord": {"lon": 5.32917, "lat": 51.590832}}, {"id": 2758547, "name": "Boskoop", "country": "NL", "coord": {"lon": 4.65556, "lat": 52.075001}}, {"id": 2758587, "name": "Borssele", "country": "NL", "coord": {"lon": 3.73472, "lat": 51.423328}}, {"id": 2758598, "name": "Borne", "country": "NL", "coord": {"lon": 6.7482, "lat": 52.301361}}, {"id": 2758602, "name": "Born", "country": "NL", "coord": {"lon": 5.80972, "lat": 51.03167}}, {"id": 2758765, "name": "Bodegraven", "country": "NL", "coord": {"lon": 4.75, "lat": 52.0825}}, {"id": 2758804, "name": "Bloemendaal", "country": "NL", "coord": {"lon": 4.62222, "lat": 52.4025}}, {"id": 2758878, "name": "Bladel", "country": "NL", "coord": {"lon": 5.22083, "lat": 51.368328}}, {"id": 2758998, "name": "Beverwijk", "country": "NL", "coord": {"lon": 4.65694, "lat": 52.48333}}, {"id": 2759040, "name": "Best", "country": "NL", "coord": {"lon": 5.39028, "lat": 51.5075}}, {"id": 2759113, "name": "Bergschenhoek", "country": "NL", "coord": {"lon": 4.49861, "lat": 51.990002}}, {"id": 2759132, "name": "Bergeyk", "country": "NL", "coord": {"lon": 5.35833, "lat": 51.319172}}, {"id": 2759145, "name": "Bergen op Zoom", "country": "NL", "coord": {"lon": 4.29167, "lat": 51.494999}}, {"id": 2759178, "name": "Benthuizen", "country": "NL", "coord": {"lon": 4.54444, "lat": 52.077499}}, {"id": 2759407, "name": "Barneveld", "country": "NL", "coord": {"lon": 5.58472, "lat": 52.139999}}, {"id": 2759426, "name": "Barendrecht", "country": "NL", "coord": {"lon": 4.53472, "lat": 51.85667}}, {"id": 2759544, "name": "Baarn", "country": "NL", "coord": {"lon": 5.2875, "lat": 52.21167}}, {"id": 2759661, "name": "Arnhem", "country": "NL", "coord": {"lon": 5.91111, "lat": 51.98}}, {"id": 2759875, "name": "Alphen aan den Rijn", "country": "NL", "coord": {"lon": 4.65546, "lat": 52.129169}}, {"id": 2759887, "name": "Almelo", "country": "NL", "coord": {"lon": 6.6625, "lat": 52.35667}}, {"id": 2759915, "name": "Alblasserdam", "country": "NL", "coord": {"lon": 4.66111, "lat": 51.865829}}, {"id": 2760123, "name": "Aalten", "country": "NL", "coord": {"lon": 6.58056, "lat": 51.924999}}, {"id": 2760134, "name": "Aalsmeer", "country": "NL", "coord": {"lon": 4.75972, "lat": 52.259171}}, {"id": 6929992, "name": "Berkel en Rodenrijs", "country": "NL", "coord": {"lon": 4.47865, "lat": 51.99313}}, {"id": 3133895, "name": "Tromso", "country": "NO", "coord": {"lon": 18.95508, "lat": 69.648903}}, {"id": 3134331, "name": "Tonsberg", "country": "NO", "coord": {"lon": 10.40762, "lat": 59.26754}}, {"id": 3137115, "name": "Stavanger", "country": "NO", "coord": {"lon": 5.73332, "lat": 58.970051}}, {"id": 3139075, "name": "Skien", "country": "NO", "coord": {"lon": 9.60897, "lat": 59.209621}}, {"id": 3140084, "name": "Sarpsborg", "country": "NO", "coord": {"lon": 11.10962, "lat": 59.283909}}, {"id": 3140390, "name": "Sandefjord", "country": "NO", "coord": {"lon": 10.21665, "lat": 59.13118}}, {"id": 3149563, "name": "Kongsberg", "country": "NO", "coord": {"lon": 9.65017, "lat": 59.668579}}, {"id": 3151770, "name": "Horten", "country": "NO", "coord": {"lon": 10.48343, "lat": 59.41721}}, {"id": 3153623, "name": "Haugesund", "country": "NO", "coord": {"lon": 5.268, "lat": 59.41378}}, {"id": 3153823, "name": "Harstad", "country": "NO", "coord": {"lon": 16.541651, "lat": 68.798332}}, {"id": 3156529, "name": "Fredrikstad", "country": "NO", "coord": {"lon": 10.9298, "lat": 59.218102}}, {"id": 3163392, "name": "Alesund", "country": "NO", "coord": {"lon": 6.15492, "lat": 62.472252}}, {"id": 3336587, "name": "Askoy", "country": "NO", "coord": {"lon": 5.18333, "lat": 60.400002}}, {"id": 2185018, "name": "Palmerston North", "country": "NZ", "coord": {"lon": 175.616669, "lat": -40.349998}}, {"id": 6230919, "name": "Whangarei", "country": "NZ", "coord": {"lon": 174.323914, "lat": -35.73167}}, {"id": 3934356, "name": "Nazca", "country": "PE", "coord": {"lon": -74.949997, "lat": -14.83333}}, {"id": 1694911, "name": "Pantukan", "country": "PH", "coord": {"lon": 125.949997, "lat": 7.15}}, {"id": 1694909, "name": "Pantukan", "country": "PH", "coord": {"lon": 125.889717, "lat": 7.13528}}, {"id": 1694914, "name": "Pantubig", "country": "PH", "coord": {"lon": 120.95472, "lat": 14.96806}}, {"id": 1695097, "name": "Paniqui", "country": "PH", "coord": {"lon": 120.580597, "lat": 15.6689}}, {"id": 1695286, "name": "Pangil", "country": "PH", "coord": {"lon": 121.466667, "lat": 14.4}}, {"id": 1695283, "name": "Pangil", "country": "PH", "coord": {"lon": 121.468498, "lat": 14.4008}}, {"id": 1695463, "name": "Pandi", "country": "PH", "coord": {"lon": 120.949997, "lat": 14.86667}}, {"id": 1695462, "name": "Pandi", "country": "PH", "coord": {"lon": 120.957222, "lat": 14.865}}, {"id": 1695583, "name": "Pandacaqui", "country": "PH", "coord": {"lon": 120.6455, "lat": 15.1835}}, {"id": 1695743, "name": "Panalanoy", "country": "PH", "coord": {"lon": 125.006393, "lat": 11.25111}}, {"id": 1695804, "name": "Panabo", "country": "PH", "coord": {"lon": 125.684174, "lat": 7.30806}}, {"id": 1696041, "name": "Palo", "country": "PH", "coord": {"lon": 124.990829, "lat": 11.1575}}, {"id": 1696164, "name": "Palayan City", "country": "PH", "coord": {"lon": 121.083328, "lat": 15.55}}, {"id": 1696165, "name": "Palayan City", "country": "PH", "coord": {"lon": 121.086113, "lat": 15.54139}}, {"id": 1696614, "name": "Pagbilao", "country": "PH", "coord": {"lon": 121.69194, "lat": 13.975}}, {"id": 1696683, "name": "Pagalungan", "country": "PH", "coord": {"lon": 124.380562, "lat": 7.14167}}, {"id": 1696719, "name": "Paete", "country": "PH", "coord": {"lon": 121.51667, "lat": 14.4}}, {"id": 1696718, "name": "Paete", "country": "PH", "coord": {"lon": 121.482903, "lat": 14.3647}}, {"id": 1696814, "name": "Pacol", "country": "PH", "coord": {"lon": 122.816673, "lat": 10.45}}, {"id": 1696898, "name": "Ozamis City", "country": "PH", "coord": {"lon": 123.833328, "lat": 8.15}}, {"id": 1696899, "name": "Ozamiz City", "country": "PH", "coord": {"lon": 123.844437, "lat": 8.14583}}, {"id": 1697005, "name": "Oroquieta City", "country": "PH", "coord": {"lon": 123.800003, "lat": 8.48333}}, {"id": 1697006, "name": "Oroquieta", "country": "PH", "coord": {"lon": 123.804443, "lat": 8.48583}}, {"id": 1697047, "name": "Orani", "country": "PH", "coord": {"lon": 120.5, "lat": 14.8}}, {"id": 1697046, "name": "Orani", "country": "PH", "coord": {"lon": 120.537102, "lat": 14.8006}}, {"id": 1697175, "name": "Olongapo", "country": "PH", "coord": {"lon": 120.282784, "lat": 14.82917}}, {"id": 1697376, "name": "Obando", "country": "PH", "coord": {"lon": 120.936203, "lat": 14.7098}}, {"id": 1697486, "name": "Noveleta", "country": "PH", "coord": {"lon": 120.87989, "lat": 14.42922}}, {"id": 1697497, "name": "Norzagaray", "country": "PH", "coord": {"lon": 121.049301, "lat": 14.9109}}, {"id": 1698032, "name": "Nasugbu", "country": "PH", "coord": {"lon": 120.683327, "lat": 14.1}}, {"id": 1698030, "name": "Nasugbu", "country": "PH", "coord": {"lon": 120.633202, "lat": 14.0722}}, {"id": 1698103, "name": "Narra", "country": "PH", "coord": {"lon": 118.404297, "lat": 9.26877}}, {"id": 1698548, "name": "Naic", "country": "PH", "coord": {"lon": 120.76609, "lat": 14.31812}}, {"id": 1698741, "name": "Nagcarlan", "country": "PH", "coord": {"lon": 121.416672, "lat": 14.13333}}, {"id": 1698740, "name": "Nagcarlan", "country": "PH", "coord": {"lon": 121.416496, "lat": 14.1364}}, {"id": 1698842, "name": "Naga", "country": "PH", "coord": {"lon": 123.716667, "lat": 10.25}}, {"id": 1698839, "name": "Naga", "country": "PH", "coord": {"lon": 123.758003, "lat": 10.20898}}, {"id": 1698888, "name": "Nabunturan", "country": "PH", "coord": {"lon": 126.01667, "lat": 7.58333}}, {"id": 1698887, "name": "Nabunturan", "country": "PH", "coord": {"lon": 125.966393, "lat": 7.60778}}, {"id": 1698923, "name": "Nabua", "country": "PH", "coord": {"lon": 123.333328, "lat": 13.38333}}, {"id": 1698921, "name": "Nabua", "country": "PH", "coord": {"lon": 123.372398, "lat": 13.4075}}, {"id": 1699054, "name": "Muricay", "country": "PH", "coord": {"lon": 123.478203, "lat": 7.8275}}, {"id": 1699061, "name": "Murcia", "country": "PH", "coord": {"lon": 123.099998, "lat": 10.58333}}, {"id": 1699060, "name": "Murcia", "country": "PH", "coord": {"lon": 123.041702, "lat": 10.60516}}, {"id": 1699090, "name": "Mu\u00f1oz", "country": "PH", "coord": {"lon": 120.883331, "lat": 15.73333}}, {"id": 1699088, "name": "Munoz", "country": "PH", "coord": {"lon": 120.903061, "lat": 15.71611}}, {"id": 1699207, "name": "Morong", "country": "PH", "coord": {"lon": 120.333328, "lat": 14.7}}, {"id": 1699204, "name": "Morong", "country": "PH", "coord": {"lon": 120.266113, "lat": 14.67889}}, {"id": 1699205, "name": "Morong", "country": "PH", "coord": {"lon": 121.239304, "lat": 14.5115}}, {"id": 1699296, "name": "Rodriguez", "country": "PH", "coord": {"lon": 121.141701, "lat": 14.7314}}, {"id": 1699323, "name": "Monkayo", "country": "PH", "coord": {"lon": 126.054443, "lat": 7.81528}}, {"id": 1699388, "name": "Molave", "country": "PH", "coord": {"lon": 123.490997, "lat": 8.0844}}, {"id": 1699572, "name": "Minglanilla", "country": "PH", "coord": {"lon": 123.796402, "lat": 10.24498}}, {"id": 1699756, "name": "Midsayap", "country": "PH", "coord": {"lon": 124.5, "lat": 7.11667}}, {"id": 1699755, "name": "Midsayap", "country": "PH", "coord": {"lon": 124.530281, "lat": 7.19083}}, {"id": 1699802, "name": "Meycauayan", "country": "PH", "coord": {"lon": 120.960831, "lat": 14.73694}}, {"id": 1699841, "name": "Mercedes", "country": "PH", "coord": {"lon": 123.01667, "lat": 14.11667}}, {"id": 1699833, "name": "Mercedes", "country": "PH", "coord": {"lon": 123.010902, "lat": 14.1093}}, {"id": 1700179, "name": "Mauban", "country": "PH", "coord": {"lon": 121.73111, "lat": 14.19111}}, {"id": 1700667, "name": "Masinloc", "country": "PH", "coord": {"lon": 120.050003, "lat": 15.53333}}, {"id": 1700665, "name": "Masinloc", "country": "PH", "coord": {"lon": 119.950203, "lat": 15.5363}}, {"id": 1700715, "name": "Masbate", "country": "PH", "coord": {"lon": 123.583328, "lat": 12.33333}}, {"id": 1700712, "name": "Masbate", "country": "PH", "coord": {"lon": 123.616669, "lat": 12.36667}}, {"id": 1700754, "name": "Masantol", "country": "PH", "coord": {"lon": 120.699997, "lat": 14.85}}, {"id": 1700753, "name": "Masantol", "country": "PH", "coord": {"lon": 120.709198, "lat": 14.896}}, {"id": 1700868, "name": "Mariveles", "country": "PH", "coord": {"lon": 120.485703, "lat": 14.4361}}, {"id": 1700917, "name": "Marilao", "country": "PH", "coord": {"lon": 120.948334, "lat": 14.75778}}, {"id": 1700980, "name": "Mariano", "country": "PH", "coord": {"lon": 125.116669, "lat": 8.83333}}, {"id": 1701053, "name": "Marawi City", "country": "PH", "coord": {"lon": 124.283333, "lat": 8}}, {"id": 1701125, "name": "Maramag", "country": "PH", "coord": {"lon": 124.949997, "lat": 7.81667}}, {"id": 1701124, "name": "Maramag", "country": "PH", "coord": {"lon": 125.00528, "lat": 7.76333}}, {"id": 1701150, "name": "Maragondon", "country": "PH", "coord": {"lon": 120.716667, "lat": 14.23333}}, {"id": 1701149, "name": "Maragondon", "country": "PH", "coord": {"lon": 120.737701, "lat": 14.2733}}, {"id": 1701472, "name": "Mantampay", "country": "PH", "coord": {"lon": 124.216667, "lat": 8.16667}}, {"id": 1701500, "name": "Mansilingan", "country": "PH", "coord": {"lon": 122.978889, "lat": 10.63111}}, {"id": 1701517, "name": "Mansalay", "country": "PH", "coord": {"lon": 121.400002, "lat": 12.51667}}, {"id": 1701516, "name": "Mansalay", "country": "PH", "coord": {"lon": 121.438507, "lat": 12.52044}}, {"id": 1701538, "name": "Manolo Fortich", "country": "PH", "coord": {"lon": 124.866669, "lat": 8.38333}}, {"id": 1701537, "name": "Manolo Fortich", "country": "PH", "coord": {"lon": 124.864441, "lat": 8.36972}}, {"id": 1701692, "name": "Manibaug", "country": "PH", "coord": {"lon": 120.560402, "lat": 15.1012}}, {"id": 1701873, "name": "Mangaldan", "country": "PH", "coord": {"lon": 120.400002, "lat": 16.066669}}, {"id": 1701872, "name": "Mangaldan", "country": "PH", "coord": {"lon": 120.402496, "lat": 16.07}}, {"id": 1701947, "name": "Mandaue City", "country": "PH", "coord": {"lon": 123.922218, "lat": 10.32361}}, {"id": 1701968, "name": "Mandaluyong", "country": "PH", "coord": {"lon": 121.033333, "lat": 14.58333}}, {"id": 1701966, "name": "Mandaluyong City", "country": "PH", "coord": {"lon": 121.040901, "lat": 14.5832}}, {"id": 1702002, "name": "Mankayan", "country": "PH", "coord": {"lon": 120.782898, "lat": 16.863199}}, {"id": 1702032, "name": "Manay", "country": "PH", "coord": {"lon": 126.539719, "lat": 7.215}}, {"id": 1702077, "name": "Manapla", "country": "PH", "coord": {"lon": 123.123001, "lat": 10.95803}}, {"id": 1702098, "name": "Manaoag", "country": "PH", "coord": {"lon": 120.48333, "lat": 16.033331}}, {"id": 1702096, "name": "Manaoag", "country": "PH", "coord": {"lon": 120.486099, "lat": 16.0438}}, {"id": 1702265, "name": "Mamburao", "country": "PH", "coord": {"lon": 120.666672, "lat": 13.25}}, {"id": 1702263, "name": "Mamburao", "country": "PH", "coord": {"lon": 120.596001, "lat": 13.2233}}, {"id": 1702372, "name": "Mamatid", "country": "PH", "coord": {"lon": 121.158058, "lat": 14.23417}}, {"id": 1702415, "name": "Malvar", "country": "PH", "coord": {"lon": 121.150002, "lat": 14.03333}}, {"id": 1702413, "name": "Malvar", "country": "PH", "coord": {"lon": 121.158607, "lat": 14.04472}}, {"id": 1726404, "name": "Province of Basilan", "country": "PH", "coord": {"lon": 122.03492, "lat": 6.57864}}, {"id": 1702425, "name": "Maluso", "country": "PH", "coord": {"lon": 121.875298, "lat": 6.543}}, {"id": 7671047, "name": "Province of Sarangani", "country": "PH", "coord": {"lon": 125.275284, "lat": 5.87472}}, {"id": 1702442, "name": "Malungun", "country": "PH", "coord": {"lon": 125.28167, "lat": 6.27917}}, {"id": 1702540, "name": "Malolos", "country": "PH", "coord": {"lon": 120.811668, "lat": 14.84194}}, {"id": 1702649, "name": "Malita", "country": "PH", "coord": {"lon": 125.611671, "lat": 6.415}}, {"id": 1702764, "name": "Malilipot", "country": "PH", "coord": {"lon": 123.716667, "lat": 13.3}}, {"id": 1702763, "name": "Malilipot", "country": "PH", "coord": {"lon": 123.738503, "lat": 13.3188}}, {"id": 1702934, "name": "Malaybalay", "country": "PH", "coord": {"lon": 125.083328, "lat": 8.15}}, {"id": 1703051, "name": "Malapatan", "country": "PH", "coord": {"lon": 125.289436, "lat": 5.96917}}, {"id": 1703116, "name": "Malanday", "country": "PH", "coord": {"lon": 121.1306, "lat": 14.7069}}, {"id": 1703355, "name": "Malabanban Norte", "country": "PH", "coord": {"lon": 121.466667, "lat": 13.93333}}, {"id": 1703598, "name": "Mahayag", "country": "PH", "coord": {"lon": 123.445503, "lat": 8.1183}}, {"id": 1703779, "name": "Magsaysay", "country": "PH", "coord": {"lon": 125.183327, "lat": 6.76667}}, {"id": 1703773, "name": "Magsaysay", "country": "PH", "coord": {"lon": 125.183327, "lat": 6.76667}}, {"id": 1704003, "name": "Magarao", "country": "PH", "coord": {"lon": 123.166672, "lat": 13.65}}, {"id": 1704002, "name": "Magarao", "country": "PH", "coord": {"lon": 123.186897, "lat": 13.6604}}, {"id": 1704022, "name": "Maganoy", "country": "PH", "coord": {"lon": 124.433327, "lat": 6.91667}}, {"id": 1704021, "name": "Maganoy", "country": "PH", "coord": {"lon": 124.441673, "lat": 6.86472}}, {"id": 1704068, "name": "Magalang", "country": "PH", "coord": {"lon": 120.683327, "lat": 15.23333}}, {"id": 1704067, "name": "Magalang", "country": "PH", "coord": {"lon": 120.659599, "lat": 15.2151}}, {"id": 1704703, "name": "Mabalacat", "country": "PH", "coord": {"lon": 120.573601, "lat": 15.2216}}, {"id": 1685725, "name": "Province of Southern Leyte", "country": "PH", "coord": {"lon": 125.083328, "lat": 10.33333}}, {"id": 1704781, "name": "Maao", "country": "PH", "coord": {"lon": 122.98333, "lat": 10.48333}}, {"id": 1704968, "name": "Lupon", "country": "PH", "coord": {"lon": 126.009613, "lat": 6.89814}}, {"id": 1705190, "name": "Lumbang", "country": "PH", "coord": {"lon": 121.459801, "lat": 14.2973}}, {"id": 1705357, "name": "Lucena", "country": "PH", "coord": {"lon": 121.617218, "lat": 13.93139}}, {"id": 1705367, "name": "Lucban", "country": "PH", "coord": {"lon": 121.556938, "lat": 14.11333}}, {"id": 1705440, "name": "Lubao", "country": "PH", "coord": {"lon": 120.601097, "lat": 14.9405}}, {"id": 1705539, "name": "Los Ba\u00f1os", "country": "PH", "coord": {"lon": 121.183327, "lat": 14.16667}}, {"id": 1705536, "name": "Los Banos", "country": "PH", "coord": {"lon": 121.223396, "lat": 14.1798}}, {"id": 1705572, "name": "Lopez", "country": "PH", "coord": {"lon": 122.264168, "lat": 13.88444}}, {"id": 1705771, "name": "Loma de Gato", "country": "PH", "coord": {"lon": 121, "lat": 14.78333}}, {"id": 1706191, "name": "Lingayen", "country": "PH", "coord": {"lon": 120.23333, "lat": 16.01667}}, {"id": 1706188, "name": "Lingayen", "country": "PH", "coord": {"lon": 120.231941, "lat": 16.02182}}, {"id": 1706361, "name": "Limay", "country": "PH", "coord": {"lon": 120.598328, "lat": 14.56194}}, {"id": 1706393, "name": "Liloan", "country": "PH", "coord": {"lon": 123.999199, "lat": 10.3991}}, {"id": 1706402, "name": "Lilio", "country": "PH", "coord": {"lon": 121.436203, "lat": 14.1313}}, {"id": 1706612, "name": "Libon", "country": "PH", "coord": {"lon": 123.383331, "lat": 13.26667}}, {"id": 1706609, "name": "Libon", "country": "PH", "coord": {"lon": 123.438599, "lat": 13.2997}}, {"id": 1722183, "name": "Butuan City", "country": "PH", "coord": {"lon": 125.533333, "lat": 8.95}}, {"id": 1706684, "name": "Libertad", "country": "PH", "coord": {"lon": 125.501938, "lat": 8.94417}}, {"id": 1707050, "name": "Laur", "country": "PH", "coord": {"lon": 121.150002, "lat": 15.5}}, {"id": 1707049, "name": "Laur", "country": "PH", "coord": {"lon": 121.183403, "lat": 15.5865}}, {"id": 1707267, "name": "Lapu-Lapu City", "country": "PH", "coord": {"lon": 123.94944, "lat": 10.31028}}, {"id": 1707324, "name": "La Paz", "country": "PH", "coord": {"lon": 120.72863, "lat": 15.44125}}, {"id": 1707398, "name": "Laoang", "country": "PH", "coord": {"lon": 125.014099, "lat": 12.5698}}, {"id": 1707403, "name": "Laoag City", "country": "PH", "coord": {"lon": 120.599998, "lat": 18.200001}}, {"id": 1707404, "name": "Laoag", "country": "PH", "coord": {"lon": 120.593613, "lat": 18.198891}}, {"id": 1707944, "name": "Lala", "country": "PH", "coord": {"lon": 123.745796, "lat": 7.9745}}, {"id": 1708056, "name": "Laguilayan", "country": "PH", "coord": {"lon": 124.521111, "lat": 6.6525}}, {"id": 1708218, "name": "La Castellana", "country": "PH", "coord": {"lon": 123.066673, "lat": 10.35}}, {"id": 1708217, "name": "La Castellana", "country": "PH", "coord": {"lon": 123.0215, "lat": 10.3239}}, {"id": 1708224, "name": "La Carlota City", "country": "PH", "coord": {"lon": 122.916672, "lat": 10.41667}}, {"id": 1708226, "name": "La Carlota", "country": "PH", "coord": {"lon": 122.92083, "lat": 10.42333}}, {"id": 1708294, "name": "Labo", "country": "PH", "coord": {"lon": 122.75, "lat": 14.13333}}, {"id": 1708291, "name": "Labo", "country": "PH", "coord": {"lon": 122.830299, "lat": 14.1532}}, {"id": 1708522, "name": "Koronadal", "country": "PH", "coord": {"lon": 124.846939, "lat": 6.50306}}, {"id": 1709007, "name": "Kawit", "country": "PH", "coord": {"lon": 120.900002, "lat": 14.45}}, {"id": 1709003, "name": "Kawit", "country": "PH", "coord": {"lon": 120.901642, "lat": 14.44426}}, {"id": 1709968, "name": "Kabankalan", "country": "PH", "coord": {"lon": 122.812218, "lat": 9.98889}}, {"id": 1710013, "name": "Kabacan", "country": "PH", "coord": {"lon": 124.816673, "lat": 7.11667}}, {"id": 1710011, "name": "Kabacan", "country": "PH", "coord": {"lon": 124.82917, "lat": 7.10667}}, {"id": 1710103, "name": "Jose Panganiban", "country": "PH", "coord": {"lon": 122.691704, "lat": 14.2906}}, {"id": 1710143, "name": "Jolo", "country": "PH", "coord": {"lon": 121.01667, "lat": 6.05}}, {"id": 1710141, "name": "Jolo", "country": "PH", "coord": {"lon": 121.00222, "lat": 6.05222}}, {"id": 1710259, "name": "Jasaan", "country": "PH", "coord": {"lon": 124.783333, "lat": 8.65}}, {"id": 1710258, "name": "Jasaan", "country": "PH", "coord": {"lon": 124.755562, "lat": 8.65417}}, {"id": 1710358, "name": "Jalajala", "country": "PH", "coord": {"lon": 121.333328, "lat": 14.33333}}, {"id": 1710357, "name": "Jalajala", "country": "PH", "coord": {"lon": 121.322502, "lat": 14.353}}, {"id": 1710390, "name": "Jaen", "country": "PH", "coord": {"lon": 120.900002, "lat": 15.36667}}, {"id": 1710389, "name": "Jaen", "country": "PH", "coord": {"lon": 120.919197, "lat": 15.3275}}, {"id": 1710441, "name": "Itogon", "country": "PH", "coord": {"lon": 120.676941, "lat": 16.36389}}, {"id": 1710470, "name": "Isulan", "country": "PH", "coord": {"lon": 124.605003, "lat": 6.62944}}, {"id": 1710520, "name": "Isabela", "country": "PH", "coord": {"lon": 123.033333, "lat": 10.18333}}, {"id": 1710518, "name": "Isabela", "country": "PH", "coord": {"lon": 122.9888, "lat": 10.2048}}, {"id": 1710519, "name": "City of Isabela", "country": "PH", "coord": {"lon": 121.9711, "lat": 6.7085}}, {"id": 1710532, "name": "Irosin", "country": "PH", "coord": {"lon": 124.033333, "lat": 12.75}}, {"id": 1710531, "name": "Irosin", "country": "PH", "coord": {"lon": 124.036201, "lat": 12.7026}}, {"id": 1710542, "name": "Iriga City", "country": "PH", "coord": {"lon": 123.416672, "lat": 13.41667}}, {"id": 1710544, "name": "Iriga City", "country": "PH", "coord": {"lon": 123.417778, "lat": 13.425}}, {"id": 1710618, "name": "Ipil", "country": "PH", "coord": {"lon": 122.51667, "lat": 7.75}}, {"id": 1710612, "name": "Ipil", "country": "PH", "coord": {"lon": 122.586113, "lat": 7.78444}}, {"id": 1710771, "name": "Indang", "country": "PH", "coord": {"lon": 120.883331, "lat": 14.2}}, {"id": 1710770, "name": "Indang", "country": "PH", "coord": {"lon": 120.876938, "lat": 14.19528}}, {"id": 1710915, "name": "Imus", "country": "PH", "coord": {"lon": 120.933327, "lat": 14.4}}, {"id": 1710914, "name": "Imus", "country": "PH", "coord": {"lon": 120.936668, "lat": 14.42972}}, {"id": 1711082, "name": "Iligan City", "country": "PH", "coord": {"lon": 124.400002, "lat": 8.25}}, {"id": 1711447, "name": "Iba", "country": "PH", "coord": {"lon": 120.033333, "lat": 15.36667}}, {"id": 1711437, "name": "Iba", "country": "PH", "coord": {"lon": 119.977997, "lat": 15.3276}}, {"id": 1711621, "name": "Hinigaran", "country": "PH", "coord": {"lon": 122.8507, "lat": 10.2706}}, {"id": 1711719, "name": "Himamaylan", "country": "PH", "coord": {"lon": 122.916672, "lat": 10.06667}}, {"id": 1711718, "name": "Himamaylan", "country": "PH", "coord": {"lon": 122.87056, "lat": 10.09889}}, {"id": 1711830, "name": "Hermosa", "country": "PH", "coord": {"lon": 120.48333, "lat": 14.85}}, {"id": 1711829, "name": "Hermosa", "country": "PH", "coord": {"lon": 120.508102, "lat": 14.8314}}, {"id": 1711982, "name": "Hagunoy", "country": "PH", "coord": {"lon": 120.733597, "lat": 14.8321}}, {"id": 1712051, "name": "Guyong", "country": "PH", "coord": {"lon": 120.979721, "lat": 14.83861}}, {"id": 1712162, "name": "Gumaca", "country": "PH", "coord": {"lon": 122.100281, "lat": 13.91972}}, {"id": 1712232, "name": "Guiset East", "country": "PH", "coord": {"lon": 120.683327, "lat": 16.066669}}, {"id": 1712488, "name": "Guimba", "country": "PH", "coord": {"lon": 120.768303, "lat": 15.6605}}, {"id": 1712520, "name": "Guihulngan", "country": "PH", "coord": {"lon": 123.2742, "lat": 10.1214}}, {"id": 1712531, "name": "Guiguinto", "country": "PH", "coord": {"lon": 120.883331, "lat": 14.83333}}, {"id": 1712808, "name": "Goa", "country": "PH", "coord": {"lon": 123.489197, "lat": 13.6978}}, {"id": 1712819, "name": "Glan", "country": "PH", "coord": {"lon": 125.203331, "lat": 5.82417}}, {"id": 1713005, "name": "Gerona", "country": "PH", "coord": {"lon": 120.566673, "lat": 15.58333}}, {"id": 1713004, "name": "Gerona", "country": "PH", "coord": {"lon": 120.597801, "lat": 15.6065}}, {"id": 1713015, "name": "General Trias", "country": "PH", "coord": {"lon": 120.900002, "lat": 14.33333}}, {"id": 1713014, "name": "General Trias", "country": "PH", "coord": {"lon": 120.881668, "lat": 14.38694}}, {"id": 1713019, "name": "General Tinio", "country": "PH", "coord": {"lon": 121.050003, "lat": 15.35}}, {"id": 1713018, "name": "General Tinio", "country": "PH", "coord": {"lon": 121.047729, "lat": 15.35076}}, {"id": 1713021, "name": "General Santos City", "country": "PH", "coord": {"lon": 125.166672, "lat": 6.11667}}, {"id": 1713022, "name": "General Santos", "country": "PH", "coord": {"lon": 125.171669, "lat": 6.11278}}, {"id": 1713027, "name": "General Natividad", "country": "PH", "coord": {"lon": 121.051498, "lat": 15.6025}}, {"id": 1713226, "name": "Gapan", "country": "PH", "coord": {"lon": 120.946404, "lat": 15.3072}}, {"id": 1713819, "name": "Escalante", "country": "PH", "coord": {"lon": 123.5, "lat": 10.81667}}, {"id": 1713818, "name": "Escalante", "country": "PH", "coord": {"lon": 123.499168, "lat": 10.84028}}, {"id": 1713857, "name": "Saravia", "country": "PH", "coord": {"lon": 122.967697, "lat": 10.87754}}, {"id": 1714201, "name": "Dumaguete", "country": "PH", "coord": {"lon": 123.30806, "lat": 9.31028}}, {"id": 1714482, "name": "Domalanoan", "country": "PH", "coord": {"lon": 120.21154, "lat": 16.00292}}, {"id": 1714673, "name": "Dipolog City", "country": "PH", "coord": {"lon": 123.333328, "lat": 8.58333}}, {"id": 1714674, "name": "Dipolog", "country": "PH", "coord": {"lon": 123.341393, "lat": 8.58944}}, {"id": 1714766, "name": "Dinalupihan", "country": "PH", "coord": {"lon": 120.465103, "lat": 14.8732}}, {"id": 1715431, "name": "Dasmari\u00f1as", "country": "PH", "coord": {"lon": 120.98333, "lat": 14.31667}}, {"id": 1715430, "name": "Dasmarinas", "country": "PH", "coord": {"lon": 120.936668, "lat": 14.32944}}, {"id": 1715542, "name": "Dapitan", "country": "PH", "coord": {"lon": 123.42083, "lat": 8.64639}}, {"id": 1715775, "name": "Danao City", "country": "PH", "coord": {"lon": 124.033333, "lat": 10.53333}}, {"id": 1715804, "name": "Danao", "country": "PH", "coord": {"lon": 124.027222, "lat": 10.52083}}, {"id": 1715812, "name": "Danao", "country": "PH", "coord": {"lon": 123.771111, "lat": 9.56972}}, {"id": 1716289, "name": "Daet", "country": "PH", "coord": {"lon": 122.916672, "lat": 14.1}}, {"id": 1716287, "name": "Daet", "country": "PH", "coord": {"lon": 122.955299, "lat": 14.1122}}, {"id": 1716619, "name": "Cuenca", "country": "PH", "coord": {"lon": 121.050003, "lat": 13.9}}, {"id": 1716618, "name": "Cuenca", "country": "PH", "coord": {"lon": 121.052101, "lat": 13.902}}, {"id": 1716858, "name": "Cordova", "country": "PH", "coord": {"lon": 123.94944, "lat": 10.25194}}, {"id": 1716928, "name": "Consolacion", "country": "PH", "coord": {"lon": 123.949997, "lat": 10.36667}}, {"id": 1716924, "name": "Consolacion", "country": "PH", "coord": {"lon": 123.957298, "lat": 10.3766}}, {"id": 1717036, "name": "Concepcion", "country": "PH", "coord": {"lon": 120.666672, "lat": 15.33333}}, {"id": 1716995, "name": "Concepcion", "country": "PH", "coord": {"lon": 120.657227, "lat": 15.32546}}, {"id": 1717008, "name": "Concepcion Ibaba", "country": "PH", "coord": {"lon": 121.493332, "lat": 13.92667}}, {"id": 1717054, "name": "Compostela", "country": "PH", "coord": {"lon": 123.966667, "lat": 10.46667}}, {"id": 1717051, "name": "Compostela", "country": "PH", "coord": {"lon": 124.010597, "lat": 10.455}}, {"id": 1717053, "name": "Compostela", "country": "PH", "coord": {"lon": 126.08889, "lat": 7.67306}}, {"id": 1717641, "name": "Cavite", "country": "PH", "coord": {"lon": 120.916939, "lat": 14.4825}}, {"id": 1690649, "name": "Province of Samar", "country": "PH", "coord": {"lon": 125, "lat": 11.83333}}, {"id": 1717911, "name": "Catbalogan", "country": "PH", "coord": {"lon": 124.886108, "lat": 11.77528}}, {"id": 1717926, "name": "Catarman", "country": "PH", "coord": {"lon": 124.637703, "lat": 12.4989}}, {"id": 1717960, "name": "Catanauan", "country": "PH", "coord": {"lon": 122.323059, "lat": 13.59194}}, {"id": 1718080, "name": "Castillejos", "country": "PH", "coord": {"lon": 120.199997, "lat": 14.93333}}, {"id": 1718078, "name": "Castillejos", "country": "PH", "coord": {"lon": 120.201431, "lat": 14.93039}}, {"id": 1718307, "name": "Carmona", "country": "PH", "coord": {"lon": 121.01667, "lat": 14.3}}, {"id": 1718306, "name": "Carmona", "country": "PH", "coord": {"lon": 121.057602, "lat": 14.3132}}, {"id": 1718393, "name": "Carigara", "country": "PH", "coord": {"lon": 124.67556, "lat": 11.29917}}, {"id": 1718426, "name": "Cardona", "country": "PH", "coord": {"lon": 121.228897, "lat": 14.486}}, {"id": 1718436, "name": "Carcar", "country": "PH", "coord": {"lon": 123.640198, "lat": 10.1061}}, {"id": 1718722, "name": "Capas", "country": "PH", "coord": {"lon": 120.591232, "lat": 15.32936}}, {"id": 1719053, "name": "Canlaon", "country": "PH", "coord": {"lon": 123.196388, "lat": 10.38639}}, {"id": 1719274, "name": "Candelaria", "country": "PH", "coord": {"lon": 121.423332, "lat": 13.93111}}, {"id": 1719330, "name": "Candaba", "country": "PH", "coord": {"lon": 120.849998, "lat": 15.15}}, {"id": 1719329, "name": "Candaba", "country": "PH", "coord": {"lon": 120.826698, "lat": 15.0956}}, {"id": 1719685, "name": "Camiling", "country": "PH", "coord": {"lon": 120.416672, "lat": 15.7}}, {"id": 1719683, "name": "Camiling", "country": "PH", "coord": {"lon": 120.412804, "lat": 15.6866}}, {"id": 1720038, "name": "Calumpit", "country": "PH", "coord": {"lon": 120.76667, "lat": 14.9}}, {"id": 1720034, "name": "Calumpit", "country": "PH", "coord": {"lon": 120.765831, "lat": 14.91639}}, {"id": 1700926, "name": "Marikina", "country": "PH", "coord": {"lon": 121.099998, "lat": 14.63333}}, {"id": 1720052, "name": "Calumpang", "country": "PH", "coord": {"lon": 121.089699, "lat": 14.6228}}, {"id": 1720402, "name": "Calbayog City", "country": "PH", "coord": {"lon": 124.604172, "lat": 12.06722}}, {"id": 1720467, "name": "Calauan", "country": "PH", "coord": {"lon": 121.316673, "lat": 14.15}}, {"id": 1720464, "name": "Calauan", "country": "PH", "coord": {"lon": 121.315201, "lat": 14.1447}}, {"id": 1720472, "name": "Calauag", "country": "PH", "coord": {"lon": 122.287498, "lat": 13.9575}}, {"id": 1720499, "name": "Calatagan", "country": "PH", "coord": {"lon": 120.632202, "lat": 13.83224}}, {"id": 1720508, "name": "Calasiao", "country": "PH", "coord": {"lon": 120.360001, "lat": 16.011101}}, {"id": 1720561, "name": "Calapan", "country": "PH", "coord": {"lon": 121.180298, "lat": 13.4117}}, {"id": 1720681, "name": "Calamba", "country": "PH", "coord": {"lon": 121.165283, "lat": 14.21167}}, {"id": 1720752, "name": "Calaca", "country": "PH", "coord": {"lon": 120.816673, "lat": 13.98333}}, {"id": 1720751, "name": "Calaca", "country": "PH", "coord": {"lon": 120.813271, "lat": 13.93244}}, {"id": 1720794, "name": "Calabanga", "country": "PH", "coord": {"lon": 123.23333, "lat": 13.71667}}, {"id": 1720793, "name": "Calabanga", "country": "PH", "coord": {"lon": 123.208702, "lat": 13.7068}}, {"id": 1720841, "name": "Cainta", "country": "PH", "coord": {"lon": 121.116669, "lat": 14.58333}}, {"id": 1720840, "name": "Cainta", "country": "PH", "coord": {"lon": 121.1222, "lat": 14.5786}}, {"id": 1721080, "name": "Cagayan de Oro", "country": "PH", "coord": {"lon": 124.647217, "lat": 8.48222}}, {"id": 1721168, "name": "Cadiz", "country": "PH", "coord": {"lon": 123.285561, "lat": 10.95056}}, {"id": 1721637, "name": "Cabiao", "country": "PH", "coord": {"lon": 120.833328, "lat": 15.21667}}, {"id": 1721636, "name": "Cabiao", "country": "PH", "coord": {"lon": 120.854797, "lat": 15.2488}}, {"id": 1721695, "name": "Cabayangan", "country": "PH", "coord": {"lon": 125.733063, "lat": 7.40722}}, {"id": 1721905, "name": "Cabanatuan City", "country": "PH", "coord": {"lon": 120.966667, "lat": 15.48333}}, {"id": 1721906, "name": "Cabanatuan", "country": "PH", "coord": {"lon": 120.967499, "lat": 15.48694}}, {"id": 1722005, "name": "Cabagan", "country": "PH", "coord": {"lon": 121.769547, "lat": 17.42782}}, {"id": 1731819, "name": "Province of Agusan del Norte", "country": "PH", "coord": {"lon": 125.5, "lat": 9.16667}}, {"id": 1722032, "name": "Cabadbaran", "country": "PH", "coord": {"lon": 125.534439, "lat": 9.12361}}, {"id": 1722267, "name": "Bustos", "country": "PH", "coord": {"lon": 120.917778, "lat": 14.95806}}, {"id": 1722356, "name": "Boroon", "country": "PH", "coord": {"lon": 124.176941, "lat": 8.18778}}, {"id": 1722433, "name": "Burgos", "country": "PH", "coord": {"lon": 120.583328, "lat": 15.73333}}, {"id": 1722733, "name": "Bunawan", "country": "PH", "coord": {"lon": 126.083328, "lat": 8.16667}}, {"id": 1722731, "name": "Bunawan", "country": "PH", "coord": {"lon": 125.990829, "lat": 8.16722}}, {"id": 1722818, "name": "Buluan", "country": "PH", "coord": {"lon": 124.801941, "lat": 6.72028}}, {"id": 1722930, "name": "Bulaon", "country": "PH", "coord": {"lon": 120.667221, "lat": 15.08833}}, {"id": 1722989, "name": "Bulan", "country": "PH", "coord": {"lon": 123.933327, "lat": 12.66667}}, {"id": 1722985, "name": "Bulan", "country": "PH", "coord": {"lon": 123.875, "lat": 12.67139}}, {"id": 1723071, "name": "Bulacan", "country": "PH", "coord": {"lon": 120.883331, "lat": 14.8}}, {"id": 1723066, "name": "Bulacan", "country": "PH", "coord": {"lon": 120.878891, "lat": 14.79278}}, {"id": 1723167, "name": "Buhi", "country": "PH", "coord": {"lon": 123.51667, "lat": 13.43333}}, {"id": 1723166, "name": "Buhi", "country": "PH", "coord": {"lon": 123.516998, "lat": 13.4322}}, {"id": 1723257, "name": "Bugo", "country": "PH", "coord": {"lon": 124.759438, "lat": 8.50833}}, {"id": 1723481, "name": "Buenavista", "country": "PH", "coord": {"lon": 125.40889, "lat": 8.97694}}, {"id": 1723510, "name": "Budta", "country": "PH", "coord": {"lon": 124.43972, "lat": 7.20417}}, {"id": 1723822, "name": "Botolan", "country": "PH", "coord": {"lon": 120.024498, "lat": 15.2896}}, {"id": 1723893, "name": "Borongan", "country": "PH", "coord": {"lon": 125.431938, "lat": 11.60806}}, {"id": 1724089, "name": "Bongao", "country": "PH", "coord": {"lon": 119.783333, "lat": 5.08333}}, {"id": 1724088, "name": "Bongao", "country": "PH", "coord": {"lon": 119.773064, "lat": 5.02917}}, {"id": 1724107, "name": "Bongabon", "country": "PH", "coord": {"lon": 121.23333, "lat": 15.66667}}, {"id": 1724106, "name": "Bongabon", "country": "PH", "coord": {"lon": 121.144798, "lat": 15.6321}}, {"id": 1724490, "name": "Bocaue", "country": "PH", "coord": {"lon": 120.926941, "lat": 14.79972}}, {"id": 1724489, "name": "Bocaue", "country": "PH", "coord": {"lon": 120.926109, "lat": 14.79833}}, {"id": 1724767, "name": "Bislig", "country": "PH", "coord": {"lon": 126.316391, "lat": 8.21528}}, {"id": 1686499, "name": "Silay City", "country": "PH", "coord": {"lon": 122.966667, "lat": 10.8}}, {"id": 1724933, "name": "Binonga", "country": "PH", "coord": {"lon": 122.98278, "lat": 10.77306}}, {"id": 1724956, "name": "Binmaley", "country": "PH", "coord": {"lon": 120.271202, "lat": 16.030701}}, {"id": 1725095, "name": "Binangonan", "country": "PH", "coord": {"lon": 121.183327, "lat": 14.46667}}, {"id": 1725094, "name": "Binangonan", "country": "PH", "coord": {"lon": 121.192902, "lat": 14.4646}}, {"id": 1725157, "name": "Binalbagan", "country": "PH", "coord": {"lon": 122.858101, "lat": 10.1948}}, {"id": 1725359, "name": "Bignay Uno", "country": "PH", "coord": {"lon": 121.489441, "lat": 13.86278}}, {"id": 1725729, "name": "Bayombong", "country": "PH", "coord": {"lon": 121.149696, "lat": 16.481199}}, {"id": 1725800, "name": "Baybay", "country": "PH", "coord": {"lon": 124.833328, "lat": 10.68333}}, {"id": 1725799, "name": "Baybay", "country": "PH", "coord": {"lon": 124.800598, "lat": 10.6785}}, {"id": 1725804, "name": "Bayawan", "country": "PH", "coord": {"lon": 122.801109, "lat": 9.36361}}, {"id": 1725864, "name": "Bayambang", "country": "PH", "coord": {"lon": 120.433327, "lat": 15.78333}}, {"id": 1725863, "name": "Bayambang", "country": "PH", "coord": {"lon": 120.455704, "lat": 15.8127}}, {"id": 1725921, "name": "Bay", "country": "PH", "coord": {"lon": 121.251198, "lat": 14.13333}}, {"id": 1725919, "name": "Bay", "country": "PH", "coord": {"lon": 121.284798, "lat": 14.1831}}, {"id": 1725987, "name": "Bauang", "country": "PH", "coord": {"lon": 120.366669, "lat": 16.5}}, {"id": 1725983, "name": "Bauang", "country": "PH", "coord": {"lon": 120.333061, "lat": 16.53083}}, {"id": 1725992, "name": "Bauan", "country": "PH", "coord": {"lon": 120.98333, "lat": 13.8}}, {"id": 1725991, "name": "Bauan", "country": "PH", "coord": {"lon": 121.008499, "lat": 13.7917}}, {"id": 1726188, "name": "Bato", "country": "PH", "coord": {"lon": 123.333328, "lat": 13.31667}}, {"id": 1726156, "name": "Bato", "country": "PH", "coord": {"lon": 123.367699, "lat": 13.3528}}, {"id": 1726339, "name": "Batac City", "country": "PH", "coord": {"lon": 120.564888, "lat": 18.055401}}, {"id": 1726781, "name": "Baras", "country": "PH", "coord": {"lon": 121.26667, "lat": 14.53333}}, {"id": 1726765, "name": "Baras", "country": "PH", "coord": {"lon": 121.265099, "lat": 14.5234}}, {"id": 1727043, "name": "Bantayan", "country": "PH", "coord": {"lon": 123.722298, "lat": 11.1683}}, {"id": 1727081, "name": "Bansalan", "country": "PH", "coord": {"lon": 125.216667, "lat": 6.81667}}, {"id": 1727080, "name": "Bansalan", "country": "PH", "coord": {"lon": 125.213333, "lat": 6.78611}}, {"id": 1727400, "name": "Banga", "country": "PH", "coord": {"lon": 124.778328, "lat": 6.42389}}, {"id": 1727522, "name": "Banaybanay", "country": "PH", "coord": {"lon": 121.199997, "lat": 13.85}}, {"id": 1727673, "name": "Bambang", "country": "PH", "coord": {"lon": 121.099998, "lat": 16.383329}}, {"id": 1727663, "name": "Bambang", "country": "PH", "coord": {"lon": 121.106598, "lat": 16.386499}}, {"id": 1727996, "name": "Baliuag", "country": "PH", "coord": {"lon": 120.883331, "lat": 14.93333}}, {"id": 1727995, "name": "Baliuag", "country": "PH", "coord": {"lon": 120.896942, "lat": 14.95472}}, {"id": 1728337, "name": "Balayan", "country": "PH", "coord": {"lon": 120.73333, "lat": 13.98333}}, {"id": 1728336, "name": "Balayan", "country": "PH", "coord": {"lon": 120.732239, "lat": 13.93714}}, {"id": 1728523, "name": "Balanga", "country": "PH", "coord": {"lon": 120.53611, "lat": 14.67611}}, {"id": 1728547, "name": "Balamban", "country": "PH", "coord": {"lon": 123.783333, "lat": 10.46667}}, {"id": 1728546, "name": "Balamban", "country": "PH", "coord": {"lon": 123.715599, "lat": 10.5039}}, {"id": 1728587, "name": "Balagtas", "country": "PH", "coord": {"lon": 120.866669, "lat": 14.81667}}, {"id": 1728584, "name": "Balagtas", "country": "PH", "coord": {"lon": 120.866669, "lat": 14.81667}}, {"id": 1728772, "name": "Bais", "country": "PH", "coord": {"lon": 123.12278, "lat": 9.59111}}, {"id": 1728825, "name": "Bah-Bah", "country": "PH", "coord": {"lon": 125.914436, "lat": 8.60722}}, {"id": 1728929, "name": "Baguio City", "country": "PH", "coord": {"lon": 120.599998, "lat": 16.41667}}, {"id": 1728930, "name": "Baguio", "country": "PH", "coord": {"lon": 120.593063, "lat": 16.416389}}, {"id": 1729085, "name": "Bago City", "country": "PH", "coord": {"lon": 122.833328, "lat": 10.53333}}, {"id": 1729524, "name": "Bacoor", "country": "PH", "coord": {"lon": 120.929031, "lat": 14.45903}}, {"id": 1729734, "name": "Babo-Pangulo", "country": "PH", "coord": {"lon": 120.51667, "lat": 15.08333}}, {"id": 1729815, "name": "Baao", "country": "PH", "coord": {"lon": 123.349998, "lat": 13.48333}}, {"id": 1729814, "name": "Baao", "country": "PH", "coord": {"lon": 123.365303, "lat": 13.4549}}, {"id": 1729987, "name": "Atimonan", "country": "PH", "coord": {"lon": 121.904999, "lat": 13.99583}}, {"id": 1730097, "name": "Asia", "country": "PH", "coord": {"lon": 122.516403, "lat": 9.5506}}, {"id": 1730173, "name": "Aringay", "country": "PH", "coord": {"lon": 120.400002, "lat": 16.4}}, {"id": 1730171, "name": "Aringay", "country": "PH", "coord": {"lon": 120.3545, "lat": 16.393999}}, {"id": 1730226, "name": "Arayat", "country": "PH", "coord": {"lon": 120.76667, "lat": 15.18333}}, {"id": 1730225, "name": "Arayat", "country": "PH", "coord": {"lon": 120.769699, "lat": 15.1505}}, {"id": 1730398, "name": "Aparri", "country": "PH", "coord": {"lon": 121.640602, "lat": 18.3566}}, {"id": 1730414, "name": "Apalit", "country": "PH", "coord": {"lon": 120.783333, "lat": 14.95}}, {"id": 1730413, "name": "Apalit", "country": "PH", "coord": {"lon": 120.769997, "lat": 14.95333}}, {"id": 1730501, "name": "Antipolo", "country": "PH", "coord": {"lon": 121.175278, "lat": 14.58639}}, {"id": 1730714, "name": "Angono", "country": "PH", "coord": {"lon": 121.166672, "lat": 14.53333}}, {"id": 1730713, "name": "Angono", "country": "PH", "coord": {"lon": 121.153603, "lat": 14.5266}}, {"id": 1730737, "name": "Angeles City", "country": "PH", "coord": {"lon": 120.583328, "lat": 15.15}}, {"id": 1730749, "name": "Angat", "country": "PH", "coord": {"lon": 121.029999, "lat": 14.9285}}, {"id": 1731212, "name": "Amadeo", "country": "PH", "coord": {"lon": 120.923607, "lat": 14.17056}}, {"id": 1731529, "name": "Aliaga", "country": "PH", "coord": {"lon": 120.866669, "lat": 15.51667}}, {"id": 1731528, "name": "Aliaga", "country": "PH", "coord": {"lon": 120.843002, "lat": 15.5}}, {"id": 1731689, "name": "Alaminos", "country": "PH", "coord": {"lon": 121.25, "lat": 14.05}}, {"id": 1731686, "name": "Alaminos", "country": "PH", "coord": {"lon": 121.24649, "lat": 14.06391}}, {"id": 1731744, "name": "Alabel", "country": "PH", "coord": {"lon": 125.290482, "lat": 6.10179}}, {"id": 1731959, "name": "Agoo", "country": "PH", "coord": {"lon": 120.099998, "lat": 16.08333}}, {"id": 1732313, "name": "Abuyog", "country": "PH", "coord": {"lon": 125.050003, "lat": 10.66667}}, {"id": 1732312, "name": "Abuyog", "country": "PH", "coord": {"lon": 125.010696, "lat": 10.747}}, {"id": 1732356, "name": "Municipality of Abucay", "country": "PH", "coord": {"lon": 120.48333, "lat": 14.76667}}, {"id": 1732354, "name": "Abucay", "country": "PH", "coord": {"lon": 120.53833, "lat": 14.72222}}, {"id": 1966336, "name": "Bagong Pagasa", "country": "PH", "coord": {"lon": 121.032799, "lat": 14.6627}}, {"id": 1978681, "name": "Malingao", "country": "PH", "coord": {"lon": 124.474998, "lat": 7.16083}}, {"id": 1108161, "name": "Chuhar Jamali", "country": "PK", "coord": {"lon": 67.99234, "lat": 24.38953}}, {"id": 1161983, "name": "Rawala Kot", "country": "PK", "coord": {"lon": 73.760429, "lat": 33.857819}}, {"id": 1161991, "name": "Pir jo Goth", "country": "PK", "coord": {"lon": 68.617859, "lat": 27.591021}}, {"id": 1162004, "name": "Khairpur", "country": "PK", "coord": {"lon": 68.761703, "lat": 27.52948}}, {"id": 1162105, "name": "Zhob", "country": "PK", "coord": {"lon": 69.448059, "lat": 31.34111}}, {"id": 1162275, "name": "Zahir Pir", "country": "PK", "coord": {"lon": 70.524048, "lat": 28.812389}}, {"id": 1162285, "name": "Zafarwal", "country": "PK", "coord": {"lon": 74.899872, "lat": 32.34631}}, {"id": 1162316, "name": "Yazman Mandi", "country": "PK", "coord": {"lon": 71.744591, "lat": 29.12122}}, {"id": 1162456, "name": "Wazirabad", "country": "PK", "coord": {"lon": 74.115936, "lat": 32.445831}}, {"id": 1162572, "name": "Warburton", "country": "PK", "coord": {"lon": 73.833328, "lat": 31.549999}}, {"id": 1162813, "name": "Vihari", "country": "PK", "coord": {"lon": 72.349998, "lat": 30.033331}}, {"id": 1162855, "name": "Utmanzai", "country": "PK", "coord": {"lon": 71.762863, "lat": 34.187988}}, {"id": 1162862, "name": "Uthal", "country": "PK", "coord": {"lon": 66.621941, "lat": 25.80722}}, {"id": 1162868, "name": "Usta Muhammad", "country": "PK", "coord": {"lon": 68.04454, "lat": 28.17943}}, {"id": 1162959, "name": "Umarkot", "country": "PK", "coord": {"lon": 69.736237, "lat": 25.36157}}, {"id": 1163021, "name": "Ubauro", "country": "PK", "coord": {"lon": 69.728897, "lat": 28.165239}}, {"id": 1163054, "name": "Turbat", "country": "PK", "coord": {"lon": 63.043991, "lat": 26.002279}}, {"id": 1163224, "name": "Topi", "country": "PK", "coord": {"lon": 72.623581, "lat": 34.070412}}, {"id": 1163272, "name": "Toba Tek Singh", "country": "PK", "coord": {"lon": 72.482689, "lat": 30.974331}}, {"id": 1163414, "name": "Thul", "country": "PK", "coord": {"lon": 68.775879, "lat": 28.240339}}, {"id": 1163582, "name": "Thatta", "country": "PK", "coord": {"lon": 67.923531, "lat": 24.74745}}, {"id": 1163595, "name": "Tharu Shah", "country": "PK", "coord": {"lon": 68.11602, "lat": 26.944229}}, {"id": 1163724, "name": "Taunsa", "country": "PK", "coord": {"lon": 70.650513, "lat": 30.70484}}, {"id": 1163905, "name": "Tank", "country": "PK", "coord": {"lon": 70.37928, "lat": 32.22168}}, {"id": 1163927, "name": "Tangi", "country": "PK", "coord": {"lon": 71.65361, "lat": 34.30056}}, {"id": 1163952, "name": "Tando Muhammad Khan", "country": "PK", "coord": {"lon": 68.535767, "lat": 25.123011}}, {"id": 1163958, "name": "Tando Jam", "country": "PK", "coord": {"lon": 68.536186, "lat": 25.427179}}, {"id": 1163965, "name": "Tando Allahyar", "country": "PK", "coord": {"lon": 68.719231, "lat": 25.462629}}, {"id": 1163968, "name": "Tandlianwala", "country": "PK", "coord": {"lon": 73.133331, "lat": 31.033331}}, {"id": 1164045, "name": "Talhar", "country": "PK", "coord": {"lon": 68.816673, "lat": 24.883329}}, {"id": 1164064, "name": "Talamba", "country": "PK", "coord": {"lon": 72.240112, "lat": 30.527081}}, {"id": 1164069, "name": "Talagang", "country": "PK", "coord": {"lon": 72.415833, "lat": 32.929729}}, {"id": 1164076, "name": "Tal", "country": "PK", "coord": {"lon": 72.243851, "lat": 35.47908}}, {"id": 1164408, "name": "Sukkur", "country": "PK", "coord": {"lon": 68.857384, "lat": 27.70516}}, {"id": 1164419, "name": "Sukheke Mandi", "country": "PK", "coord": {"lon": 73.511223, "lat": 31.86388}}, {"id": 1164679, "name": "Sodhra", "country": "PK", "coord": {"lon": 74.182343, "lat": 32.46162}}, {"id": 1164716, "name": "Sita Road", "country": "PK", "coord": {"lon": 67.849998, "lat": 27.033331}}, {"id": 1164776, "name": "Sinjhoro", "country": "PK", "coord": {"lon": 68.808983, "lat": 26.03031}}, {"id": 1164825, "name": "Sillanwali", "country": "PK", "coord": {"lon": 72.539841, "lat": 31.826111}}, {"id": 1164896, "name": "Sibi", "country": "PK", "coord": {"lon": 67.876404, "lat": 29.5448}}, {"id": 1164970, "name": "Shujaabad", "country": "PK", "coord": {"lon": 71.293129, "lat": 29.879669}}, {"id": 1164987, "name": "Shorko", "country": "PK", "coord": {"lon": 70.877411, "lat": 31.90991}}, {"id": 1165260, "name": "Sharqpur", "country": "PK", "coord": {"lon": 74.099998, "lat": 31.463329}}, {"id": 1165388, "name": "Shakargarr", "country": "PK", "coord": {"lon": 75.166817, "lat": 32.262321}}, {"id": 1165486, "name": "Shahr Sultan", "country": "PK", "coord": {"lon": 71.021156, "lat": 29.57646}}, {"id": 1165507, "name": "Shahpur Chakar", "country": "PK", "coord": {"lon": 68.650932, "lat": 26.15497}}, {"id": 1165635, "name": "Shahdadpur", "country": "PK", "coord": {"lon": 68.619987, "lat": 25.924061}}, {"id": 1165638, "name": "Shahdadkot", "country": "PK", "coord": {"lon": 67.905502, "lat": 27.84771}}, {"id": 1165789, "name": "Sehwan", "country": "PK", "coord": {"lon": 67.862999, "lat": 26.42794}}, {"id": 1166062, "name": "Sarai Sidhu", "country": "PK", "coord": {"lon": 71.969772, "lat": 30.594891}}, {"id": 1166066, "name": "Sarai Naurang", "country": "PK", "coord": {"lon": 70.781357, "lat": 32.825909}}, {"id": 1166073, "name": "Sarai Alamgir", "country": "PK", "coord": {"lon": 73.755913, "lat": 32.901218}}, {"id": 1166146, "name": "Sangla", "country": "PK", "coord": {"lon": 73.383331, "lat": 31.716669}}, {"id": 1166164, "name": "Sanghar", "country": "PK", "coord": {"lon": 68.948097, "lat": 26.04656}}, {"id": 1166265, "name": "Sambrial", "country": "PK", "coord": {"lon": 74.352089, "lat": 32.474548}}, {"id": 1166381, "name": "Sakrand", "country": "PK", "coord": {"lon": 68.273613, "lat": 26.13839}}, {"id": 1166547, "name": "Sahiwal", "country": "PK", "coord": {"lon": 72.330872, "lat": 31.974461}}, {"id": 1166652, "name": "Sadiqabad", "country": "PK", "coord": {"lon": 70.130653, "lat": 28.306231}}, {"id": 1166827, "name": "Rohri", "country": "PK", "coord": {"lon": 68.895058, "lat": 27.69223}}, {"id": 1166933, "name": "Renala Khurd", "country": "PK", "coord": {"lon": 73.599998, "lat": 30.883329}}, {"id": 1166993, "name": "Rawalpindi", "country": "PK", "coord": {"lon": 73.067902, "lat": 33.6007}}, {"id": 1167380, "name": "Rajanpur", "country": "PK", "coord": {"lon": 70.325043, "lat": 29.10351}}, {"id": 1167386, "name": "Raja Jang", "country": "PK", "coord": {"lon": 74.251938, "lat": 31.220831}}, {"id": 1167398, "name": "Raiwind", "country": "PK", "coord": {"lon": 74.217781, "lat": 31.25444}}, {"id": 1167501, "name": "Radhan", "country": "PK", "coord": {"lon": 67.949997, "lat": 27.183331}}, {"id": 1167622, "name": "Kambar", "country": "PK", "coord": {"lon": 68.00103, "lat": 27.58676}}, {"id": 1167648, "name": "Qadirpur Ran", "country": "PK", "coord": {"lon": 71.671173, "lat": 30.292379}}, {"id": 1167821, "name": "Pishin", "country": "PK", "coord": {"lon": 66.996109, "lat": 30.58028}}, {"id": 1167873, "name": "Pir Mahal", "country": "PK", "coord": {"lon": 72.433327, "lat": 30.76667}}, {"id": 1168015, "name": "Pindi Gheb", "country": "PK", "coord": {"lon": 72.26609, "lat": 33.240238}}, {"id": 1168021, "name": "Pindi Bhattian", "country": "PK", "coord": {"lon": 73.273018, "lat": 31.89781}}, {"id": 1168036, "name": "Pind Dadan Khan", "country": "PK", "coord": {"lon": 73.045639, "lat": 32.587891}}, {"id": 1168166, "name": "Phalia", "country": "PK", "coord": {"lon": 73.577454, "lat": 32.429729}}, {"id": 1168226, "name": "Pattoki", "country": "PK", "coord": {"lon": 73.849998, "lat": 31.01667}}, {"id": 1168307, "name": "Pasrur", "country": "PK", "coord": {"lon": 74.663422, "lat": 32.26413}}, {"id": 1168312, "name": "Pasni", "country": "PK", "coord": {"lon": 63.471031, "lat": 25.263109}}, {"id": 1168412, "name": "Pano Aqil", "country": "PK", "coord": {"lon": 69.111557, "lat": 27.85685}}, {"id": 1168555, "name": "Pakpattan", "country": "PK", "coord": {"lon": 73.386642, "lat": 30.34104}}, {"id": 1168633, "name": "Paharpur", "country": "PK", "coord": {"lon": 70.972351, "lat": 32.10384}}, {"id": 1168652, "name": "Pad Idan", "country": "PK", "coord": {"lon": 68.301971, "lat": 26.77475}}, {"id": 1168680, "name": "Pabbi", "country": "PK", "coord": {"lon": 71.798889, "lat": 34.010559}}, {"id": 1168749, "name": "Nushki", "country": "PK", "coord": {"lon": 66.021477, "lat": 29.55423}}, {"id": 1169143, "name": "Naushahro Firoz", "country": "PK", "coord": {"lon": 68.122978, "lat": 26.842381}}, {"id": 1169145, "name": "Naushahra Virkan", "country": "PK", "coord": {"lon": 73.972252, "lat": 31.962839}}, {"id": 1169187, "name": "Naudero", "country": "PK", "coord": {"lon": 68.362167, "lat": 27.66477}}, {"id": 1169254, "name": "Nasirabad", "country": "PK", "coord": {"lon": 67.916779, "lat": 27.380911}}, {"id": 1169278, "name": "Narowal", "country": "PK", "coord": {"lon": 74.883331, "lat": 32.099998}}, {"id": 1169334, "name": "Narang", "country": "PK", "coord": {"lon": 74.517563, "lat": 31.9132}}, {"id": 1169367, "name": "Naukot", "country": "PK", "coord": {"lon": 69.402382, "lat": 24.85869}}, {"id": 1169372, "name": "Nankana Sahib", "country": "PK", "coord": {"lon": 73.69722, "lat": 31.4475}}, {"id": 1169605, "name": "Muzaffargarh", "country": "PK", "coord": {"lon": 71.192131, "lat": 30.075371}}, {"id": 1169607, "name": "Muzaffarabad", "country": "PK", "coord": {"lon": 73.471107, "lat": 34.369999}}, {"id": 1169684, "name": "Murree", "country": "PK", "coord": {"lon": 73.392952, "lat": 33.907269}}, {"id": 1170219, "name": "Mithi", "country": "PK", "coord": {"lon": 69.798111, "lat": 24.731831}}, {"id": 1170222, "name": "Mitha Tiwana", "country": "PK", "coord": {"lon": 72.110832, "lat": 32.248611}}, {"id": 1170294, "name": "Mirpur Mathelo", "country": "PK", "coord": {"lon": 69.548859, "lat": 28.022711}}, {"id": 1170295, "name": "Mirpur Khas", "country": "PK", "coord": {"lon": 69.0159, "lat": 25.525101}}, {"id": 1170398, "name": "Minchinabad", "country": "PK", "coord": {"lon": 73.568542, "lat": 30.163}}, {"id": 1170425, "name": "Mianwali", "country": "PK", "coord": {"lon": 71.52639, "lat": 32.5741}}, {"id": 1170486, "name": "Mian Channun", "country": "PK", "coord": {"lon": 72.354309, "lat": 30.440041}}, {"id": 1170667, "name": "Matli", "country": "PK", "coord": {"lon": 68.655678, "lat": 25.043119}}, {"id": 1170677, "name": "Matiari", "country": "PK", "coord": {"lon": 68.446663, "lat": 25.59609}}, {"id": 1170706, "name": "Mastung", "country": "PK", "coord": {"lon": 66.845047, "lat": 29.79936}}, {"id": 1170880, "name": "Mardan", "country": "PK", "coord": {"lon": 72.052544, "lat": 34.20195}}, {"id": 1171123, "name": "Mandi Bahauddin", "country": "PK", "coord": {"lon": 73.484322, "lat": 32.583389}}, {"id": 1171165, "name": "Mananwala", "country": "PK", "coord": {"lon": 73.687782, "lat": 31.584169}}, {"id": 1171198, "name": "Mamu Kanjan", "country": "PK", "coord": {"lon": 72.800003, "lat": 30.83333}}, {"id": 1171376, "name": "Malakwal", "country": "PK", "coord": {"lon": 73.212341, "lat": 32.553619}}, {"id": 1171502, "name": "Mailsi", "country": "PK", "coord": {"lon": 72.175827, "lat": 29.80028}}, {"id": 1171757, "name": "Mach", "country": "PK", "coord": {"lon": 67.329781, "lat": 29.86371}}, {"id": 1171868, "name": "Loralai", "country": "PK", "coord": {"lon": 68.597977, "lat": 30.370529}}, {"id": 1171965, "name": "Lodhran", "country": "PK", "coord": {"lon": 71.633568, "lat": 29.54051}}, {"id": 1172035, "name": "Leiah", "country": "PK", "coord": {"lon": 70.939041, "lat": 30.961281}}, {"id": 1172128, "name": "Larkana", "country": "PK", "coord": {"lon": 68.214142, "lat": 27.55508}}, {"id": 1172295, "name": "Lalian", "country": "PK", "coord": {"lon": 72.799713, "lat": 31.824141}}, {"id": 1172318, "name": "Lala Musa", "country": "PK", "coord": {"lon": 73.959999, "lat": 32.702351}}, {"id": 1172339, "name": "Lakki Marwat", "country": "PK", "coord": {"lon": 70.911423, "lat": 32.607948}}, {"id": 1172488, "name": "Ladhewala Waraich", "country": "PK", "coord": {"lon": 74.117012, "lat": 32.156559}}, {"id": 1172513, "name": "Lachi", "country": "PK", "coord": {"lon": 71.338577, "lat": 33.383251}}, {"id": 1172657, "name": "Kunri", "country": "PK", "coord": {"lon": 69.56913, "lat": 25.178471}}, {"id": 1172663, "name": "Kunjah", "country": "PK", "coord": {"lon": 73.973679, "lat": 32.528481}}, {"id": 1172682, "name": "Kundian", "country": "PK", "coord": {"lon": 71.477539, "lat": 32.458721}}, {"id": 1172779, "name": "Kulachi", "country": "PK", "coord": {"lon": 70.459167, "lat": 31.92861}}, {"id": 1172888, "name": "Kot Samaba", "country": "PK", "coord": {"lon": 70.468369, "lat": 28.5522}}, {"id": 1172904, "name": "Kotri", "country": "PK", "coord": {"lon": 68.312157, "lat": 25.365999}}, {"id": 1172915, "name": "Kot Radha Kishan", "country": "PK", "coord": {"lon": 74.099716, "lat": 31.172501}}, {"id": 1172964, "name": "Kot Mumin", "country": "PK", "coord": {"lon": 73.027977, "lat": 32.189541}}, {"id": 1172993, "name": "Kot Malik", "country": "PK", "coord": {"lon": 66.992989, "lat": 30.19438}}, {"id": 1173025, "name": "Kotli Loharan", "country": "PK", "coord": {"lon": 74.49321, "lat": 32.588299}}, {"id": 1173055, "name": "Kotli", "country": "PK", "coord": {"lon": 73.916672, "lat": 33.51667}}, {"id": 1173272, "name": "Kot Ghulam Muhammad", "country": "PK", "coord": {"lon": 74.547981, "lat": 32.332981}}, {"id": 1173302, "name": "Kot Diji", "country": "PK", "coord": {"lon": 68.708344, "lat": 27.34272}}, {"id": 1173687, "name": "Khushab", "country": "PK", "coord": {"lon": 72.352501, "lat": 32.296669}}, {"id": 1173692, "name": "Khurrianwala", "country": "PK", "coord": {"lon": 73.26667, "lat": 31.500561}}, {"id": 1173889, "name": "Khipro", "country": "PK", "coord": {"lon": 69.37719, "lat": 25.82847}}, {"id": 1173920, "name": "Khewra", "country": "PK", "coord": {"lon": 73.010582, "lat": 32.64793}}, {"id": 1174042, "name": "Kharian", "country": "PK", "coord": {"lon": 73.863586, "lat": 32.81493}}, {"id": 1174062, "name": "Kharan", "country": "PK", "coord": {"lon": 65.416672, "lat": 28.58333}}, {"id": 1174167, "name": "Khanpur", "country": "PK", "coord": {"lon": 70.6567, "lat": 28.64534}}, {"id": 1174171, "name": "Khanpur", "country": "PK", "coord": {"lon": 69.413727, "lat": 27.84358}}, {"id": 1174211, "name": "Khangarh", "country": "PK", "coord": {"lon": 71.161842, "lat": 29.917299}}, {"id": 1174217, "name": "Khangah Dogran", "country": "PK", "coord": {"lon": 73.623062, "lat": 31.831671}}, {"id": 1174301, "name": "Khalabat", "country": "PK", "coord": {"lon": 72.889442, "lat": 34.060001}}, {"id": 1174344, "name": "Khairpur Nathan Shah", "country": "PK", "coord": {"lon": 67.733658, "lat": 27.09359}}, {"id": 1174355, "name": "Khairpur", "country": "PK", "coord": {"lon": 72.236389, "lat": 29.58111}}, {"id": 1174357, "name": "Khairpur", "country": "PK", "coord": {"lon": 69.70076, "lat": 28.06526}}, {"id": 1174653, "name": "Kashmor", "country": "PK", "coord": {"lon": 69.583328, "lat": 28.433331}}, {"id": 1174720, "name": "Karor", "country": "PK", "coord": {"lon": 70.949226, "lat": 31.227409}}, {"id": 1174870, "name": "Kar\u0101chi District", "country": "PK", "coord": {"lon": 67.203461, "lat": 25.07267}}, {"id": 1174872, "name": "Karachi", "country": "PK", "coord": {"lon": 67.082199, "lat": 24.9056}}, {"id": 1175088, "name": "Kamoke", "country": "PK", "coord": {"lon": 74.224442, "lat": 31.97444}}, {"id": 1175098, "name": "Kamir", "country": "PK", "coord": {"lon": 73.050003, "lat": 30.433331}}, {"id": 1175125, "name": "Kamar Mushani", "country": "PK", "coord": {"lon": 71.366943, "lat": 32.843891}}, {"id": 1175156, "name": "Kamalia", "country": "PK", "coord": {"lon": 72.650002, "lat": 30.73333}}, {"id": 1175180, "name": "Kalur Kot", "country": "PK", "coord": {"lon": 71.259438, "lat": 32.156391}}, {"id": 1175232, "name": "Kallar Kahar", "country": "PK", "coord": {"lon": 72.699997, "lat": 32.783329}}, {"id": 1175283, "name": "Kaleke Mandi", "country": "PK", "coord": {"lon": 73.602592, "lat": 31.97718}}, {"id": 1175296, "name": "Kalat", "country": "PK", "coord": {"lon": 66.591599, "lat": 29.02252}}, {"id": 1175365, "name": "Kalabagh", "country": "PK", "coord": {"lon": 71.556969, "lat": 32.965}}, {"id": 1175436, "name": "Kahuta", "country": "PK", "coord": {"lon": 73.386757, "lat": 33.591301}}, {"id": 1175446, "name": "Kohror Pakka", "country": "PK", "coord": {"lon": 71.916733, "lat": 29.623819}}, {"id": 1175453, "name": "Kahna", "country": "PK", "coord": {"lon": 74.36528, "lat": 31.369169}}, {"id": 1175560, "name": "Kabirwala", "country": "PK", "coord": {"lon": 71.866699, "lat": 30.406771}}, {"id": 1175678, "name": "Johi", "country": "PK", "coord": {"lon": 67.613297, "lat": 26.69206}}, {"id": 1175748, "name": "Jhumra", "country": "PK", "coord": {"lon": 73.183472, "lat": 31.56781}}, {"id": 1175762, "name": "Jhol", "country": "PK", "coord": {"lon": 68.888206, "lat": 25.95507}}, {"id": 1175870, "name": "Jhawarian", "country": "PK", "coord": {"lon": 72.62278, "lat": 32.361389}}, {"id": 1175892, "name": "Jhang Sadr", "country": "PK", "coord": {"lon": 72.328423, "lat": 31.27154}}, {"id": 1176022, "name": "Jauharabad", "country": "PK", "coord": {"lon": 72.281303, "lat": 32.289799}}, {"id": 1176035, "name": "Jatoi Shimali", "country": "PK", "coord": {"lon": 70.850319, "lat": 29.516541}}, {"id": 1176106, "name": "Jaranwala", "country": "PK", "coord": {"lon": 73.433327, "lat": 31.33333}}, {"id": 1176218, "name": "Jand", "country": "PK", "coord": {"lon": 72.019279, "lat": 33.429852}}, {"id": 1176241, "name": "Jampur", "country": "PK", "coord": {"lon": 70.595444, "lat": 29.64414}}, {"id": 1176358, "name": "Jalalpur Pirwala", "country": "PK", "coord": {"lon": 71.21917, "lat": 29.50687}}, {"id": 1176368, "name": "Jalalpur", "country": "PK", "coord": {"lon": 74.218292, "lat": 32.63744}}, {"id": 1176444, "name": "Jahanian Shah", "country": "PK", "coord": {"lon": 72.277107, "lat": 31.805519}}, {"id": 1162015, "name": "Isl\u0101m\u0101b\u0101d Capital Territory", "country": "PK", "coord": {"lon": 73.13382, "lat": 33.7104}}, {"id": 1176615, "name": "Islamabad", "country": "PK", "coord": {"lon": 73.043289, "lat": 33.721481}}, {"id": 1176734, "name": "Hyderabad", "country": "PK", "coord": {"lon": 68.373657, "lat": 25.39242}}, {"id": 1176948, "name": "Hazro", "country": "PK", "coord": {"lon": 72.492119, "lat": 33.909142}}, {"id": 1177064, "name": "Hasan Abdal", "country": "PK", "coord": {"lon": 72.699997, "lat": 30.433331}}, {"id": 1177073, "name": "Haru Zbad", "country": "PK", "coord": {"lon": 73.138893, "lat": 29.613331}}, {"id": 1177089, "name": "Harnoli", "country": "PK", "coord": {"lon": 71.553886, "lat": 32.279171}}]