[{"id": 3782173, "name": "Palacio", "country": "CO", "coord": {"lon": -73.821701, "lat": 4.71493}}, {"id": 4717218, "name": "Palacios", "country": "US", "coord": {"lon": -96.217468, "lat": 28.70805}}, {"id": 6355778, "name": "Palacios de Goda", "country": "ES", "coord": {"lon": -4.75866, "lat": 41.104172}}, {"id": 3114589, "name": "Palacios de Goda", "country": "ES", "coord": {"lon": -4.78496, "lat": 41.117981}}, {"id": 6362579, "name": "Palacios de Sanabria", "country": "ES", "coord": {"lon": -6.54536, "lat": 42.04047}}, {"id": 3114577, "name": "Palacios de Sanabria", "country": "ES", "coord": {"lon": -6.52362, "lat": 42.05901}}, {"id": 6356518, "name": "Palacios de la Sierra", "country": "ES", "coord": {"lon": -3.11572, "lat": 41.97504}}, {"id": 3114584, "name": "Palacios de la Sierra", "country": "ES", "coord": {"lon": -3.12788, "lat": 41.963921}}, {"id": 6358650, "name": "Palacios de la Valduerna", "country": "ES", "coord": {"lon": -5.94776, "lat": 42.31707}}, {"id": 3114583, "name": "Palacios de la Valduerna", "country": "ES", "coord": {"lon": -5.9383, "lat": 42.327728}}, {"id": 6360466, "name": "Palacios del Arzobispo", "country": "ES", "coord": {"lon": -5.88553, "lat": 41.165878}}, {"id": 3114585, "name": "Palacios del Arzobispo", "country": "ES", "coord": {"lon": -5.88933, "lat": 41.16655}}, {"id": 6362578, "name": "Palacios del Pan", "country": "ES", "coord": {"lon": -5.88907, "lat": 41.609058}}, {"id": 3114582, "name": "Palacios del Pan", "country": "ES", "coord": {"lon": -5.87773, "lat": 41.602421}}, {"id": 6358651, "name": "Palacios del Sil", "country": "ES", "coord": {"lon": -6.40381, "lat": 42.867409}}, {"id": 3114581, "name": "Palacios del Sil", "country": "ES", "coord": {"lon": -6.4315, "lat": 42.876011}}, {"id": 6361024, "name": "Palacios y Villafranca (Los)", "country": "ES", "coord": {"lon": -5.91361, "lat": 37.156818}}, {"id": 6360467, "name": "Palaciosrubios", "country": "ES", "coord": {"lon": -5.19268, "lat": 41.05872}}, {"id": 3114574, "name": "Palaciosrubios", "country": "ES", "coord": {"lon": -5.19507, "lat": 41.05238}}, {"id": 7287889, "name": "Palackattumala", "country": "IN", "coord": {"lon": 76.629402, "lat": 9.74356}}, {"id": 1696368, "name": "Palacpalac", "country": "PH", "coord": {"lon": 120.530502, "lat": 16.131201}}, {"id": 6535781, "name": "Paladina", "country": "IT", "coord": {"lon": 9.60585, "lat": 45.730679}}, {"id": 6533992, "name": "Palafolls", "country": "ES", "coord": {"lon": 2.72835, "lat": 41.67165}}, {"id": 3114568, "name": "Palafolls", "country": "ES", "coord": {"lon": 2.75, "lat": 41.666672}}, {"id": 6534091, "name": "Palafrugell", "country": "ES", "coord": {"lon": 3.18578, "lat": 41.908421}}, {"id": 3114567, "name": "Palafrugell", "country": "ES", "coord": {"lon": 3.1631, "lat": 41.917381}}, {"id": 3171666, "name": "Palagano", "country": "IT", "coord": {"lon": 10.6461, "lat": 44.320961}}, {"id": 1696360, "name": "Palagao Norte", "country": "PH", "coord": {"lon": 121.699051, "lat": 18.04319}}, {"id": 3171665, "name": "Palagianello", "country": "IT", "coord": {"lon": 16.97599, "lat": 40.609821}}, {"id": 6537567, "name": "Palagiano", "country": "IT", "coord": {"lon": 17.037399, "lat": 40.57822}}, {"id": 3171664, "name": "Palagiano", "country": "IT", "coord": {"lon": 17.03861, "lat": 40.578892}}, {"id": 6541351, "name": "Palagonia", "country": "IT", "coord": {"lon": 14.74478, "lat": 37.328251}}, {"id": 2523927, "name": "Palagonia", "country": "IT", "coord": {"lon": 14.74478, "lat": 37.328251}}, {"id": 1965471, "name": "Palahan", "country": "ID", "coord": {"lon": 112.547798, "lat": -8.1049}}, {"id": 1696354, "name": "Palahanan Uno", "country": "PH", "coord": {"lon": 121.356392, "lat": 13.83113}}, {"id": 3171660, "name": "Palaia", "country": "IT", "coord": {"lon": 10.77201, "lat": 43.605042}}, {"id": 256173, "name": "Palaia Fokaia", "country": "GR", "coord": {"lon": 23.94626, "lat": 37.719952}}, {"id": 734832, "name": "Palaifyton", "country": "GR", "coord": {"lon": 22.266109, "lat": 40.78167}}, {"id": 256155, "name": "Palaikastron", "country": "GR", "coord": {"lon": 26.25, "lat": 35.200001}}, {"id": 256075, "name": "Palaio Faliro", "country": "GR", "coord": {"lon": 23.70916, "lat": 37.920658}}, {"id": 256131, "name": "Palaiochora", "country": "GR", "coord": {"lon": 23.683331, "lat": 35.23333}}, {"id": 734821, "name": "Palaiokhorion", "country": "GR", "coord": {"lon": 24.183331, "lat": 40.950001}}, {"id": 256093, "name": "Palaiokipos", "country": "GR", "coord": {"lon": 26.451111, "lat": 39.055828}}, {"id": 734820, "name": "Palaiokomi", "country": "GR", "coord": {"lon": 23.9, "lat": 40.866669}}, {"id": 256079, "name": "Palaiomonastiron", "country": "GR", "coord": {"lon": 21.658609, "lat": 39.462502}}, {"id": 256066, "name": "Palaiopyrgos", "country": "GR", "coord": {"lon": 21.817221, "lat": 39.60722}}, {"id": 256054, "name": "Palairos", "country": "GR", "coord": {"lon": 20.883329, "lat": 38.783329}}, {"id": 6545270, "name": "Palais-Royal", "country": "FR", "coord": {"lon": 2.33876, "lat": 48.863499}}, {"id": 6446184, "name": "Palaiseau", "country": "FR", "coord": {"lon": 2.25, "lat": 48.716671}}, {"id": 2988758, "name": "Palaiseau", "country": "FR", "coord": {"lon": 2.25, "lat": 48.716671}}, {"id": 256175, "name": "Palai\u00e1 Ep\u00eddavros", "country": "GR", "coord": {"lon": 23.156179, "lat": 37.64043}}, {"id": 6426782, "name": "Palaja", "country": "FR", "coord": {"lon": 2.38333, "lat": 43.166672}}, {"id": 2988756, "name": "Palaja", "country": "FR", "coord": {"lon": 2.38462, "lat": 43.17363}}, {"id": 1633133, "name": "Palakka", "country": "ID", "coord": {"lon": 120.2892, "lat": -4.5313}}, {"id": 1260728, "name": "Palakkad", "country": "IN", "coord": {"lon": 76.650002, "lat": 10.78333}}, {"id": 7289568, "name": "Palakkad district", "country": "IN", "coord": {"lon": 76.651001, "lat": 10.775}}, {"id": 1260793, "name": "Palakkodu", "country": "IN", "coord": {"lon": 78.083328, "lat": 12.3}}, {"id": 1260792, "name": "Palakollu", "country": "IN", "coord": {"lon": 81.73333, "lat": 16.533331}}, {"id": 2988755, "name": "Palald\u00e0", "country": "FR", "coord": {"lon": 2.67418, "lat": 42.48428}}, {"id": 1696333, "name": "Palali", "country": "PH", "coord": {"lon": 122.48571, "lat": 14.30622}}, {"id": 7383868, "name": "Palama", "country": "ID", "coord": {"lon": 118.5373, "lat": -8.4746}}, {"id": 7389418, "name": "Palamadu", "country": "ID", "coord": {"lon": 120.753998, "lat": -10.0396}}, {"id": 256047, "name": "Palamas", "country": "GR", "coord": {"lon": 22.08333, "lat": 39.466671}}, {"id": 1260786, "name": "Palamedu", "country": "IN", "coord": {"lon": 78.116669, "lat": 10.11667}}, {"id": 3114566, "name": "Palamos", "country": "ES", "coord": {"lon": 3.12912, "lat": 41.848431}}, {"id": 1696312, "name": "Palampas", "country": "PH", "coord": {"lon": 123.404716, "lat": 10.52778}}, {"id": 1260784, "name": "Palampur", "country": "IN", "coord": {"lon": 76.533333, "lat": 32.116669}}, {"id": 302924, "name": "Palamutlu", "country": "TR", "coord": {"lon": 42.202499, "lat": 37.895828}}, {"id": 6534092, "name": "Palam\u00f3s", "country": "ES", "coord": {"lon": 3.14432, "lat": 41.860611}}, {"id": 2122262, "name": "Palana", "country": "RU", "coord": {"lon": 159.966675, "lat": 59.116669}}, {"id": 1696289, "name": "Palanas", "country": "PH", "coord": {"lon": 123.9216, "lat": 12.1458}}, {"id": 617633, "name": "Palanca", "country": "MD", "coord": {"lon": 30.096109, "lat": 46.408611}}, {"id": 671471, "name": "Palanca", "country": "RO", "coord": {"lon": 26.116671, "lat": 46.533329}}, {"id": 1168544, "name": "Palandri", "country": "PK", "coord": {"lon": 73.687393, "lat": 33.717701}}, {"id": 3171659, "name": "Palanfr\u00e8", "country": "IT", "coord": {"lon": 7.48333, "lat": 44.200001}}, {"id": 1191368, "name": "Palang", "country": "BD", "coord": {"lon": 90.349998, "lat": 23.216669}}, {"id": 1633122, "name": "Palang Utara", "country": "ID", "coord": {"lon": 112.139999, "lat": -6.9025}}, {"id": 596238, "name": "Palanga", "country": "LT", "coord": {"lon": 21.068609, "lat": 55.9175}}, {"id": 7036509, "name": "Palangan", "country": "ID", "coord": {"lon": 112.445099, "lat": -7.0049}}, {"id": 1633118, "name": "Palangkaraya", "country": "ID", "coord": {"lon": 113.833328, "lat": -2.2}}, {"id": 1696261, "name": "Palangue", "country": "PH", "coord": {"lon": 120.811394, "lat": 14.28417}}, {"id": 1260671, "name": "Palani", "country": "IN", "coord": {"lon": 77.533333, "lat": 10.46667}}, {"id": 1696256, "name": "Palanit", "country": "PH", "coord": {"lon": 124.343407, "lat": 12.32134}}, {"id": 1260777, "name": "Palanpur", "country": "IN", "coord": {"lon": 72.433327, "lat": 24.16667}}, {"id": 6357037, "name": "Palanques", "country": "ES", "coord": {"lon": -0.18356, "lat": 40.71328}}, {"id": 3114557, "name": "Palanques", "country": "ES", "coord": {"lon": -0.17941, "lat": 40.717999}}, {"id": 3171658, "name": "Palanzano", "country": "IT", "coord": {"lon": 10.19449, "lat": 44.43726}}, {"id": 1696234, "name": "Palapag", "country": "PH", "coord": {"lon": 125.1147, "lat": 12.5458}}, {"id": 933182, "name": "Palapye", "country": "BW", "coord": {"lon": 27.125071, "lat": -22.546049}}, {"id": 1696217, "name": "Palaroo", "country": "PH", "coord": {"lon": 124.483002, "lat": 11.4056}}, {"id": 7665492, "name": "Palas", "country": "ID", "coord": {"lon": 105.680107, "lat": -5.65191}}, {"id": 6359200, "name": "Palas de Rei", "country": "ES", "coord": {"lon": -7.90138, "lat": 42.869179}}, {"id": 1260771, "name": "Palasa", "country": "IN", "coord": {"lon": 84.416672, "lat": 18.76667}}, {"id": 6581396, "name": "Palasari", "country": "ID", "coord": {"lon": 107.914719, "lat": -6.85222}}, {"id": 1260769, "name": "Palasbari", "country": "IN", "coord": {"lon": 91.548607, "lat": 26.13611}}, {"id": 3171657, "name": "Palata", "country": "IT", "coord": {"lon": 14.78683, "lat": 41.888538}}, {"id": 671460, "name": "Palatca", "country": "RO", "coord": {"lon": 23.98333, "lat": 46.849998}}, {"id": 4905211, "name": "Palatine", "country": "US", "coord": {"lon": -88.034241, "lat": 42.110298}}, {"id": 2122256, "name": "Palatka", "country": "RU", "coord": {"lon": 150.899994, "lat": 60.099998}}, {"id": 4167482, "name": "Palatka", "country": "US", "coord": {"lon": -81.637581, "lat": 29.648581}}, {"id": 1633094, "name": "Palattae", "country": "ID", "coord": {"lon": 120.112701, "lat": -4.9711}}, {"id": 3993893, "name": "Palau", "country": "MX", "coord": {"lon": -101.416672, "lat": 27.91667}}, {"id": 3171654, "name": "Palau", "country": "IT", "coord": {"lon": 9.3819, "lat": 41.179359}}, {"id": 6440994, "name": "Palau-del-Vidre", "country": "FR", "coord": {"lon": 2.96667, "lat": 42.566669}}, {"id": 2988743, "name": "Palau-del-Vidre", "country": "FR", "coord": {"lon": 2.96033, "lat": 42.571621}}, {"id": 6534094, "name": "Palau-sator", "country": "ES", "coord": {"lon": 3.11656, "lat": 41.98056}}, {"id": 3114548, "name": "Palau-sator", "country": "ES", "coord": {"lon": 3.11016, "lat": 41.988972}}, {"id": 6356183, "name": "Palau-solit\u00e0 i Plegamans", "country": "ES", "coord": {"lon": 2.17966, "lat": 41.57972}}, {"id": 1696188, "name": "Palauig", "country": "PH", "coord": {"lon": 119.904503, "lat": 15.435}}, {"id": 3114547, "name": "Palausolit\u00e0", "country": "ES", "coord": {"lon": 2.16667, "lat": 41.583328}}, {"id": 1465625, "name": "Palavantangai", "country": "IN", "coord": {"lon": 80.191109, "lat": 12.98556}}, {"id": 6432577, "name": "Palavas-les-Flots", "country": "FR", "coord": {"lon": 3.93333, "lat": 43.533329}}, {"id": 2988742, "name": "Palavas-les-Flots", "country": "FR", "coord": {"lon": 3.92705, "lat": 43.528049}}, {"id": 3430239, "name": "Palavecino", "country": "AR", "coord": {"lon": -58.640598, "lat": -32.946079}}, {"id": 1260745, "name": "Palayam", "country": "IN", "coord": {"lon": 76.916672, "lat": 8.48333}}, {"id": 1696164, "name": "Palayan City", "country": "PH", "coord": {"lon": 121.083328, "lat": 15.55}}, {"id": 1696165, "name": "Palayan City", "country": "PH", "coord": {"lon": 121.086113, "lat": 15.54139}}, {"id": 513104, "name": "Palazino", "country": "RU", "coord": {"lon": 39.616669, "lat": 56.466667}}, {"id": 6362234, "name": "Palazuelo de Vedija", "country": "ES", "coord": {"lon": -5.1351, "lat": 41.930199}}, {"id": 3114538, "name": "Palazuelo de Vedija", "country": "ES", "coord": {"lon": -5.14534, "lat": 41.929661}}, {"id": 6360880, "name": "Palazuelos de Eresma", "country": "ES", "coord": {"lon": -4.0193, "lat": 40.924961}}, {"id": 3114535, "name": "Palazuelos de Eresma", "country": "ES", "coord": {"lon": -4.06071, "lat": 40.93055}}, {"id": 3114533, "name": "Palazuelos de Muno", "country": "ES", "coord": {"lon": -3.98984, "lat": 42.196918}}, {"id": 6356521, "name": "Palazuelos de Mu\u00f1\u00f3", "country": "ES", "coord": {"lon": -3.9791, "lat": 42.186649}}, {"id": 6356520, "name": "Palazuelos de la Sierra", "country": "ES", "coord": {"lon": -3.44722, "lat": 42.216099}}, {"id": 3114534, "name": "Palazuelos de la Sierra", "country": "ES", "coord": {"lon": -3.46014, "lat": 42.21162}}, {"id": 6534498, "name": "Palazzago", "country": "IT", "coord": {"lon": 9.53365, "lat": 45.752979}}, {"id": 3171641, "name": "Palazzo", "country": "IT", "coord": {"lon": 12.76667, "lat": 43.26667}}, {"id": 6539134, "name": "Palazzo Adriano", "country": "IT", "coord": {"lon": 13.37905, "lat": 37.681042}}, {"id": 2523925, "name": "Palazzo Adriano", "country": "IT", "coord": {"lon": 13.37905, "lat": 37.681042}}, {"id": 3171636, "name": "Palazzo Canavese", "country": "IT", "coord": {"lon": 7.97892, "lat": 45.459259}}, {"id": 6534697, "name": "Palazzo Pignano", "country": "IT", "coord": {"lon": 9.56956, "lat": 45.390072}}, {"id": 6539007, "name": "Palazzo San Gervasio", "country": "IT", "coord": {"lon": 15.98077, "lat": 40.93132}}, {"id": 3171619, "name": "Palazzo San Gervasio", "country": "IT", "coord": {"lon": 15.98077, "lat": 40.93132}}, {"id": 2523922, "name": "Palazzolo Acreide", "country": "IT", "coord": {"lon": 14.90349, "lat": 37.06234}}, {"id": 3171624, "name": "Palazzolo Vercellese", "country": "IT", "coord": {"lon": 8.23263, "lat": 45.18626}}, {"id": 3171625, "name": "Palazzolo dello Stella", "country": "IT", "coord": {"lon": 13.08111, "lat": 45.806389}}, {"id": 6541425, "name": "Palazzolo sull'Oglio", "country": "IT", "coord": {"lon": 9.89716, "lat": 45.60368}}, {"id": 3171615, "name": "Palazzuolo sul Senio", "country": "IT", "coord": {"lon": 11.54742, "lat": 44.113861}}, {"id": 3908895, "name": "Palca", "country": "BO", "coord": {"lon": -64.900002, "lat": -17.700001}}, {"id": 3089533, "name": "Palcza", "country": "PL", "coord": {"lon": 19.743891, "lat": 49.804539}}, {"id": 7872304, "name": "Paldau", "country": "AT", "coord": {"lon": 15.79156, "lat": 46.94426}}, {"id": 2769285, "name": "Paldau", "country": "AT", "coord": {"lon": 15.79583, "lat": 46.942219}}, {"id": 589663, "name": "Paldiski", "country": "EE", "coord": {"lon": 24.053061, "lat": 59.35667}}, {"id": 7522374, "name": "Paldiski linn", "country": "EE", "coord": {"lon": 23.971479, "lat": 59.33704}}, {"id": 1696147, "name": "Paldit", "country": "PH", "coord": {"lon": 120.533333, "lat": 16.16667}}, {"id": 3193692, "name": "Pale", "country": "BA", "coord": {"lon": 18.569441, "lat": 43.816109}}, {"id": 2306774, "name": "Pale", "country": "GQ", "coord": {"lon": 5.6325, "lat": -1.40139}}, {"id": 7911929, "name": "Paledang", "country": "ID", "coord": {"lon": 107.790901, "lat": -7.3096}}, {"id": 513095, "name": "Palekh", "country": "RU", "coord": {"lon": 41.857224, "lat": 56.802776}}, {"id": 1633068, "name": "Palembaian", "country": "ID", "coord": {"lon": 100.23333, "lat": -0.18333}}, {"id": 1633070, "name": "Palembang", "country": "ID", "coord": {"lon": 104.745796, "lat": -2.91673}}, {"id": 7666359, "name": "Palembang", "country": "ID", "coord": {"lon": 105.264122, "lat": -5.45206}}, {"id": 8058108, "name": "Palemgede", "country": "ID", "coord": {"lon": 111.179199, "lat": -6.8314}}, {"id": 3877644, "name": "Palena", "country": "CL", "coord": {"lon": -71.803886, "lat": -43.623058}}, {"id": 3171611, "name": "Palena", "country": "IT", "coord": {"lon": 14.13771, "lat": 41.983028}}, {"id": 6360072, "name": "Palencia", "country": "ES", "coord": {"lon": -4.56492, "lat": 41.986012}}, {"id": 3591851, "name": "Palencia", "country": "GT", "coord": {"lon": -90.358612, "lat": 14.66472}}, {"id": 3114531, "name": "Palencia", "country": "ES", "coord": {"lon": -4.53333, "lat": 42.01667}}, {"id": 6360468, "name": "Palencia de Negrilla", "country": "ES", "coord": {"lon": -5.61685, "lat": 41.108101}}, {"id": 3114529, "name": "Palencia de Negrilla", "country": "ES", "coord": {"lon": -5.60168, "lat": 41.094391}}, {"id": 6357243, "name": "Palenciana", "country": "ES", "coord": {"lon": -4.58882, "lat": 37.25341}}, {"id": 2512998, "name": "Palenciana", "country": "ES", "coord": {"lon": -4.58261, "lat": 37.248508}}, {"id": 3522164, "name": "Palenque", "country": "MX", "coord": {"lon": -91.966667, "lat": 17.51667}}, {"id": 3653587, "name": "Palenque", "country": "EC", "coord": {"lon": -79.73333, "lat": -1.45}}, {"id": 2748760, "name": "Palenstein", "country": "NL", "coord": {"lon": 4.50869, "lat": 52.05579}}, {"id": 5130402, "name": "Palenville", "country": "US", "coord": {"lon": -74.020142, "lat": 42.17453}}, {"id": 6360073, "name": "Palenzuela", "country": "ES", "coord": {"lon": -4.08009, "lat": 42.020741}}, {"id": 3114528, "name": "Palenzuela", "country": "ES", "coord": {"lon": -4.13039, "lat": 42.095181}}, {"id": 1260734, "name": "Palera", "country": "IN", "coord": {"lon": 79.23333, "lat": 25.01667}}, {"id": 7375980, "name": "Paleran", "country": "ID", "coord": {"lon": 113.495003, "lat": -8.2244}}, {"id": 7839761, "name": "Palerang", "country": "AU", "coord": {"lon": 149.673523, "lat": -35.455711}}, {"id": 2523921, "name": "Palermiti", "country": "IT", "coord": {"lon": 16.4522, "lat": 38.74868}}, {"id": 6542127, "name": "Palermo", "country": "IT", "coord": {"lon": 13.36143, "lat": 38.115719}}, {"id": 2523920, "name": "Palermo", "country": "IT", "coord": {"lon": 13.35976, "lat": 38.115822}}, {"id": 3430234, "name": "Palermo", "country": "AR", "coord": {"lon": -58.430531, "lat": -34.588558}}, {"id": 3673286, "name": "Palermo", "country": "CO", "coord": {"lon": -75.4375, "lat": 2.89167}}, {"id": 4974578, "name": "Palermo", "country": "US", "coord": {"lon": -69.47393, "lat": 44.407848}}, {"id": 5380571, "name": "Palermo", "country": "US", "coord": {"lon": -121.538017, "lat": 39.43544}}, {"id": 3673268, "name": "Palestina", "country": "CO", "coord": {"lon": -73.5, "lat": 7.4}}, {"id": 3673269, "name": "Palestina", "country": "CO", "coord": {"lon": -75.622421, "lat": 5.0194}}, {"id": 3673275, "name": "Palestina", "country": "CO", "coord": {"lon": -76.134033, "lat": 1.72362}}, {"id": 3653581, "name": "Palestina", "country": "EC", "coord": {"lon": -79.73333, "lat": -1.93333}}, {"id": 1696145, "name": "Palestina", "country": "PH", "coord": {"lon": 123.249001, "lat": 13.6117}}, {"id": 3591841, "name": "Palestina de los Altos", "country": "GT", "coord": {"lon": -91.699997, "lat": 14.93333}}, {"id": 6254930, "name": "Palestine", "country": "PS", "coord": {"lon": 35.203289, "lat": 31.92157}}, {"id": 4717232, "name": "Palestine", "country": "US", "coord": {"lon": -95.630791, "lat": 31.762119}}, {"id": 4246560, "name": "Palestine", "country": "US", "coord": {"lon": -87.612801, "lat": 39.003651}}, {"id": 6536957, "name": "Palestrina", "country": "IT", "coord": {"lon": 12.88899, "lat": 41.835522}}, {"id": 3171606, "name": "Palestrina", "country": "IT", "coord": {"lon": 12.88899, "lat": 41.835522}}, {"id": 3171605, "name": "Palestro", "country": "IT", "coord": {"lon": 8.53344, "lat": 45.301762}}, {"id": 2988731, "name": "Paleyrac", "country": "FR", "coord": {"lon": 0.9323, "lat": 44.823261}}, {"id": 2659260, "name": "Palezieux", "country": "CH", "coord": {"lon": 6.8325, "lat": 46.545429}}, {"id": 7872445, "name": "Palfau", "country": "AT", "coord": {"lon": 14.82323, "lat": 47.708061}}, {"id": 2769283, "name": "Palfau", "country": "AT", "coord": {"lon": 14.8, "lat": 47.700001}}, {"id": 1260730, "name": "Palghar", "country": "IN", "coord": {"lon": 72.75, "lat": 19.683331}}, {"id": 1696141, "name": "Palguyod", "country": "PH", "coord": {"lon": 120.519997, "lat": 16.1227}}, {"id": 2265269, "name": "Palhais", "country": "PT", "coord": {"lon": -9.09786, "lat": 39.195492}}, {"id": 3393279, "name": "Palhano", "country": "BR", "coord": {"lon": -37.958889, "lat": -4.74528}}, {"id": 8010827, "name": "Palha\u00e7a", "country": "PT", "coord": {"lon": -8.60143, "lat": 40.52943}}, {"id": 2736827, "name": "Palha\u00e7a", "country": "PT", "coord": {"lon": -8.59985, "lat": 40.526329}}, {"id": 2736807, "name": "Palheiros de Mira", "country": "PT", "coord": {"lon": -8.8, "lat": 40.450001}}, {"id": 1696140, "name": "Palhi", "country": "PH", "coord": {"lon": 124.806198, "lat": 10.6498}}, {"id": 3455478, "name": "Palhoca", "country": "BR", "coord": {"lon": -48.667782, "lat": -27.645281}}, {"id": 3455477, "name": "Palhocinha", "country": "BR", "coord": {"lon": -48.666672, "lat": -28.049999}}, {"id": 6323213, "name": "Palho\u00e7a", "country": "BR", "coord": {"lon": -48.659142, "lat": -27.80195}}, {"id": 1260718, "name": "Pali", "country": "IN", "coord": {"lon": 81.050003, "lat": 23.35}}, {"id": 1260716, "name": "Pali", "country": "IN", "coord": {"lon": 73.333336, "lat": 25.766666}}, {"id": 7455927, "name": "Pali", "country": "ID", "coord": {"lon": 118.309303, "lat": -8.3765}}, {"id": 1260717, "name": "Pali", "country": "IN", "coord": {"lon": 78.416672, "lat": 24.48333}}, {"id": 1260713, "name": "Palia Kalan", "country": "IN", "coord": {"lon": 80.583328, "lat": 28.450001}}, {"id": 1696136, "name": "Palian", "country": "PH", "coord": {"lon": 124.910561, "lat": 6.37389}}, {"id": 1151557, "name": "Palian", "country": "TH", "coord": {"lon": 99.686241, "lat": 7.17237}}, {"id": 3171603, "name": "Paliano", "country": "IT", "coord": {"lon": 13.05759, "lat": 41.805618}}, {"id": 596215, "name": "Paliepgiriai", "country": "LT", "coord": {"lon": 21.1, "lat": 55.98333}}, {"id": 513072, "name": "Palikhovo", "country": "RU", "coord": {"lon": 37.49535, "lat": 54.916538}}, {"id": 2081986, "name": "Palikir - National Government Center", "country": "FM", "coord": {"lon": 158.161087, "lat": 6.92477}}, {"id": 2135368, "name": "Palikulo", "country": "VU", "coord": {"lon": 167.233337, "lat": -15.51667}}, {"id": 865964, "name": "Palilula", "country": "RS", "coord": {"lon": 20.516109, "lat": 44.811668}}, {"id": 1633056, "name": "Palimanan", "country": "ID", "coord": {"lon": 108.424171, "lat": -6.70694}}, {"id": 1696105, "name": "Palimbang", "country": "PH", "coord": {"lon": 124.189438, "lat": 6.21056}}, {"id": 3591833, "name": "Palin", "country": "GT", "coord": {"lon": -90.698334, "lat": 14.40556}}, {"id": 6442354, "name": "Palinges", "country": "FR", "coord": {"lon": 4.21667, "lat": 46.549999}}, {"id": 2988722, "name": "Palinges", "country": "FR", "coord": {"lon": 4.21964, "lat": 46.55357}}, {"id": 8079569, "name": "Palingi", "country": "UG", "coord": {"lon": 31.72566, "lat": 1.75561}}, {"id": 5433806, "name": "Palisade", "country": "US", "coord": {"lon": -108.350922, "lat": 39.11026}}, {"id": 5527923, "name": "Palisades", "country": "US", "coord": {"lon": -101.802406, "lat": 35.061722}}, {"id": 7713975, "name": "Palisades Mobile Home Estates", "country": "US", "coord": {"lon": -122.179482, "lat": 47.284679}}, {"id": 5102369, "name": "Palisades Park", "country": "US", "coord": {"lon": -73.997643, "lat": 40.84816}}, {"id": 2789355, "name": "Paliseul", "country": "BE", "coord": {"lon": 5.13333, "lat": 49.900002}}, {"id": 2789354, "name": "Paliseul", "country": "BE", "coord": {"lon": 5.13537, "lat": 49.90395}}, {"id": 1260707, "name": "Palitana", "country": "IN", "coord": {"lon": 71.833328, "lat": 21.51667}}, {"id": 507177, "name": "Paliy", "country": "RU", "coord": {"lon": 38.711761, "lat": 47.507301}}, {"id": 1260706, "name": "Paliyad", "country": "IN", "coord": {"lon": 71.566673, "lat": 22.25}}, {"id": 3522156, "name": "Palizada", "country": "MX", "coord": {"lon": -92.083328, "lat": 18.25}}, {"id": 2523912, "name": "Palizzi", "country": "IT", "coord": {"lon": 15.9867, "lat": 37.966671}}, {"id": 1696061, "name": "Palkan", "country": "PH", "coord": {"lon": 125.03167, "lat": 6.29639}}, {"id": 642976, "name": "Palkane", "country": "FI", "coord": {"lon": 24.271971, "lat": 61.33424}}, {"id": 513054, "name": "Palkino", "country": "RU", "coord": {"lon": 35.785236, "lat": 56.339108}}, {"id": 513051, "name": "Palkino", "country": "RU", "coord": {"lon": 28.012569, "lat": 57.540878}}, {"id": 1260702, "name": "Palkonda", "country": "IN", "coord": {"lon": 83.75, "lat": 18.6}}, {"id": 3068623, "name": "Palkovice", "country": "CZ", "coord": {"lon": 18.315081, "lat": 49.63467}}, {"id": 1633050, "name": "Palla", "country": "ID", "coord": {"lon": 119.355202, "lat": -9.5266}}, {"id": 1260697, "name": "Palladam", "country": "IN", "coord": {"lon": 77.300003, "lat": 10.98333}}, {"id": 6440124, "name": "Palladuc", "country": "FR", "coord": {"lon": 3.63333, "lat": 45.900002}}, {"id": 2988715, "name": "Palladuc", "country": "FR", "coord": {"lon": 3.62856, "lat": 45.904148}}, {"id": 2523910, "name": "Pallagorio", "country": "IT", "coord": {"lon": 16.90831, "lat": 39.308899}}, {"id": 2153931, "name": "Pallamallawa", "country": "AU", "coord": {"lon": 150.133331, "lat": -29.466669}}, {"id": 3171590, "name": "Pallanzeno", "country": "IT", "coord": {"lon": 8.25949, "lat": 46.042019}}, {"id": 1260694, "name": "Pallappatti", "country": "IN", "coord": {"lon": 77.883331, "lat": 10.7}}, {"id": 3171589, "name": "Pallare", "country": "IT", "coord": {"lon": 8.27535, "lat": 44.32724}}, {"id": 2153930, "name": "Pallarenda", "country": "AU", "coord": {"lon": 146.766663, "lat": -19.200001}}, {"id": 2962084, "name": "Pallas", "country": "IE", "coord": {"lon": -7.7, "lat": 53.566669}}, {"id": 2962083, "name": "Pallas Grean", "country": "IE", "coord": {"lon": -8.3525, "lat": 52.547218}}, {"id": 2962080, "name": "Pallaskenry", "country": "IE", "coord": {"lon": -8.86889, "lat": 52.643059}}, {"id": 513042, "name": "Pallasovka", "country": "RU", "coord": {"lon": 46.883331, "lat": 50.049999}}, {"id": 1260693, "name": "Pallattur", "country": "IN", "coord": {"lon": 78.800003, "lat": 10.15}}, {"id": 1260692, "name": "Pallavaram", "country": "IN", "coord": {"lon": 80.183609, "lat": 12.97611}}, {"id": 3171586, "name": "Pallazzolo sullOglio", "country": "IT", "coord": {"lon": 9.89716, "lat": 45.60368}}, {"id": 1260691, "name": "Palle", "country": "IN", "coord": {"lon": 74.083328, "lat": 15.46667}}, {"id": 3114516, "name": "Palleja", "country": "ES", "coord": {"lon": 1.99505, "lat": 41.423939}}, {"id": 6356184, "name": "Pallej\u00e0", "country": "ES", "coord": {"lon": 1.9792, "lat": 41.421841}}, {"id": 1260685, "name": "Pallikondai", "country": "IN", "coord": {"lon": 78.933327, "lat": 12.91667}}, {"id": 1231644, "name": "Pallimulla", "country": "LK", "coord": {"lon": 80.550003, "lat": 5.95}}, {"id": 6556406, "name": "Palling", "country": "DE", "coord": {"lon": 12.6333, "lat": 48}}, {"id": 2855665, "name": "Palling", "country": "DE", "coord": {"lon": 12.63333, "lat": 48}}, {"id": 255971, "name": "Pallini", "country": "GR", "coord": {"lon": 23.87723, "lat": 37.997021}}, {"id": 1260683, "name": "Pallipattu", "country": "IN", "coord": {"lon": 79.444893, "lat": 13.3386}}, {"id": 1260681, "name": "Pallippatti", "country": "IN", "coord": {"lon": 78.416672, "lat": 11.93333}}, {"id": 226823, "name": "Pallisa", "country": "UG", "coord": {"lon": 33.709438, "lat": 1.145}}, {"id": 443362, "name": "Pallisa District", "country": "UG", "coord": {"lon": 33.77977, "lat": 1.22593}}, {"id": 146233, "name": "Pallouriotissa", "country": "CY", "coord": {"lon": 33.387501, "lat": 35.174999}}, {"id": 4167495, "name": "Palm Aire", "country": "US", "coord": {"lon": -80.191711, "lat": 26.20619}}, {"id": 4167499, "name": "Palm Bay", "country": "US", "coord": {"lon": -80.588661, "lat": 28.03446}}, {"id": 4905232, "name": "Palm Beach", "country": "US", "coord": {"lon": -88.197311, "lat": 42.37669}}, {"id": 2153924, "name": "Palm Beach", "country": "AU", "coord": {"lon": 151.323837, "lat": -33.596642}}, {"id": 4167505, "name": "Palm Beach", "country": "US", "coord": {"lon": -80.03643, "lat": 26.70562}}, {"id": 4167510, "name": "Palm Beach County", "country": "US", "coord": {"lon": -80.449768, "lat": 26.650339}}, {"id": 4167519, "name": "Palm Beach Gardens", "country": "US", "coord": {"lon": -80.138649, "lat": 26.823389}}, {"id": 4167533, "name": "Palm Beach Shores", "country": "US", "coord": {"lon": -80.035599, "lat": 26.77812}}, {"id": 4167536, "name": "Palm City", "country": "US", "coord": {"lon": -80.266159, "lat": 27.16783}}, {"id": 4167538, "name": "Palm Coast", "country": "US", "coord": {"lon": -81.20784, "lat": 29.58497}}, {"id": 2206599, "name": "Palm Cove", "country": "AU", "coord": {"lon": 145.666672, "lat": -16.75}}, {"id": 5380626, "name": "Palm Desert", "country": "US", "coord": {"lon": -116.374458, "lat": 33.72224}}, {"id": 4167545, "name": "Palm Harbor", "country": "US", "coord": {"lon": -82.76371, "lat": 28.07807}}, {"id": 7260548, "name": "Palm River-Clair Mel", "country": "US", "coord": {"lon": -82.379387, "lat": 27.923861}}, {"id": 4167583, "name": "Palm Springs", "country": "US", "coord": {"lon": -80.096153, "lat": 26.6359}}, {"id": 5380668, "name": "Palm Springs", "country": "US", "coord": {"lon": -116.545288, "lat": 33.830299}}, {"id": 4167594, "name": "Palm Springs North", "country": "US", "coord": {"lon": -80.333832, "lat": 25.935101}}, {"id": 4167601, "name": "Palm Valley", "country": "US", "coord": {"lon": -81.387581, "lat": 30.17746}}, {"id": 4717275, "name": "Palm Valley", "country": "US", "coord": {"lon": -97.754158, "lat": 26.20174}}, {"id": 5380710, "name": "Palm Wells", "country": "US", "coord": {"lon": -116.539459, "lat": 34.077789}}, {"id": 2512989, "name": "Palma", "country": "ES", "coord": {"lon": 2.65024, "lat": 39.569389}}, {"id": 3393269, "name": "Palma", "country": "BR", "coord": {"lon": -37.349998, "lat": -9.65}}, {"id": 6537345, "name": "Palma Campania", "country": "IT", "coord": {"lon": 14.54874, "lat": 40.86491}}, {"id": 3171576, "name": "Palma Campania", "country": "IT", "coord": {"lon": 14.54874, "lat": 40.86491}}, {"id": 1696047, "name": "Palma Gil", "country": "PH", "coord": {"lon": 125.629173, "lat": 7.64222}}, {"id": 3842268, "name": "Palma Sola", "country": "AR", "coord": {"lon": -64.298721, "lat": -23.96336}}, {"id": 3545064, "name": "Palma Soriano", "country": "CU", "coord": {"lon": -75.998894, "lat": 20.21722}}, {"id": 2512991, "name": "Palma de Gandia", "country": "ES", "coord": {"lon": -0.22028, "lat": 38.92672}}, {"id": 6362052, "name": "Palma de Gand\u00eda", "country": "ES", "coord": {"lon": -0.23497, "lat": 38.943668}}, {"id": 6533961, "name": "Palma de Mallorca", "country": "ES", "coord": {"lon": 2.64745, "lat": 39.569511}}, {"id": 6358230, "name": "Palma del Condado (La)", "country": "ES", "coord": {"lon": -6.55666, "lat": 37.4035}}, {"id": 2512990, "name": "Palma del Rio", "country": "ES", "coord": {"lon": -5.28121, "lat": 37.700241}}, {"id": 6357244, "name": "Palma del R\u00edo", "country": "ES", "coord": {"lon": -5.32187, "lat": 37.664478}}, {"id": 6540843, "name": "Palma di Montechiaro", "country": "IT", "coord": {"lon": 13.76496, "lat": 37.192638}}, {"id": 2523908, "name": "Palma di Montechiaro", "country": "IT", "coord": {"lon": 13.76496, "lat": 37.192638}}, {"id": 3114513, "name": "Palmaces de Jadraque", "country": "ES", "coord": {"lon": -2.9106, "lat": 41.056099}}, {"id": 1260674, "name": "Palmaner", "country": "IN", "coord": {"lon": 78.75, "lat": 13.2}}, {"id": 3171573, "name": "Palmanova", "country": "IT", "coord": {"lon": 13.31194, "lat": 45.906391}}, {"id": 3622616, "name": "Palmar", "country": "CR", "coord": {"lon": -84.455338, "lat": 9.87276}}, {"id": 3495555, "name": "Palmar Arriba", "country": "DO", "coord": {"lon": -70.738258, "lat": 19.53957}}, {"id": 3993857, "name": "Palmar Chico", "country": "MX", "coord": {"lon": -100.349998, "lat": 18.683331}}, {"id": 3430219, "name": "Palmar Grande", "country": "AR", "coord": {"lon": -57.90057, "lat": -27.94195}}, {"id": 3622606, "name": "Palmar Sur", "country": "CR", "coord": {"lon": -83.466614, "lat": 8.95248}}, {"id": 3522130, "name": "Palmar de Bravo", "country": "MX", "coord": {"lon": -97.566673, "lat": 18.83333}}, {"id": 3495546, "name": "Palmar de Ocoa", "country": "DO", "coord": {"lon": -70.586349, "lat": 18.29656}}, {"id": 3673220, "name": "Palmar de Varela", "country": "CO", "coord": {"lon": -74.754433, "lat": 10.74055}}, {"id": 4566475, "name": "Palmarejo", "country": "PR", "coord": {"lon": -66.325447, "lat": 18.06802}}, {"id": 4566477, "name": "Palmarejo", "country": "PR", "coord": {"lon": -67.076843, "lat": 18.040239}}, {"id": 3393264, "name": "Palmares", "country": "BR", "coord": {"lon": -35.591671, "lat": -8.68333}}, {"id": 3455460, "name": "Palmares Paulista", "country": "BR", "coord": {"lon": -48.800831, "lat": -21.083059}}, {"id": 3455461, "name": "Palmares do Sul", "country": "BR", "coord": {"lon": -50.50972, "lat": -30.25778}}, {"id": 3171570, "name": "Palmariggi", "country": "IT", "coord": {"lon": 18.379431, "lat": 40.130619}}, {"id": 3522118, "name": "Palmarito Tochapan", "country": "MX", "coord": {"lon": -97.616669, "lat": 18.9}}, {"id": 6096371, "name": "Palmarolle", "country": "CA", "coord": {"lon": -79.199638, "lat": 48.666882}}, {"id": 3455459, "name": "Palmas", "country": "BR", "coord": {"lon": -51.990559, "lat": -26.484171}}, {"id": 3522116, "name": "Palmas", "country": "MX", "coord": {"lon": -91.816673, "lat": 18.65}}, {"id": 3474574, "name": "Palmas", "country": "BR", "coord": {"lon": -48.360279, "lat": -10.21278}}, {"id": 4566481, "name": "Palmas", "country": "PR", "coord": {"lon": -66.025436, "lat": 17.98719}}, {"id": 2523904, "name": "Palmas Arborea", "country": "IT", "coord": {"lon": 8.64583, "lat": 39.876389}}, {"id": 3703523, "name": "Palmas Bellas", "country": "PA", "coord": {"lon": -80.08667, "lat": 9.23194}}, {"id": 3455447, "name": "Palmas de Monte Alto", "country": "BR", "coord": {"lon": -43.161942, "lat": -14.26722}}, {"id": 3731933, "name": "Palmas del Socorro", "country": "CO", "coord": {"lon": -73.286942, "lat": 6.40667}}, {"id": 3630999, "name": "Palmasola", "country": "VE", "coord": {"lon": -66.716667, "lat": 9.23333}}, {"id": 3784154, "name": "Palmasola", "country": "VE", "coord": {"lon": -68.54422, "lat": 10.59363}}, {"id": 8010819, "name": "Palmaz", "country": "PT", "coord": {"lon": -8.44185, "lat": 40.790531}}, {"id": 2855664, "name": "Palmbach", "country": "DE", "coord": {"lon": 8.48222, "lat": 48.946579}}, {"id": 2855656, "name": "Palmberg", "country": "DE", "coord": {"lon": 12.41667, "lat": 48.26667}}, {"id": 5380698, "name": "Palmdale", "country": "US", "coord": {"lon": -118.116463, "lat": 34.57943}}, {"id": 5204944, "name": "Palmdale", "country": "US", "coord": {"lon": -76.618584, "lat": 40.297871}}, {"id": 8011001, "name": "Palme", "country": "PT", "coord": {"lon": -8.70652, "lat": 41.583649}}, {"id": 2736801, "name": "Palme", "country": "PT", "coord": {"lon": -8.71789, "lat": 41.58736}}, {"id": 8011062, "name": "Palmeira", "country": "PT", "coord": {"lon": -8.43702, "lat": 41.589321}}, {"id": 2736799, "name": "Palmeira", "country": "PT", "coord": {"lon": -8.42754, "lat": 41.5909}}, {"id": 3114511, "name": "Palmeira", "country": "ES", "coord": {"lon": -8.95, "lat": 42.583328}}, {"id": 3455425, "name": "Palmeira", "country": "BR", "coord": {"lon": -50.00639, "lat": -25.42944}}, {"id": 3455424, "name": "Palmeira", "country": "BR", "coord": {"lon": -50.159439, "lat": -27.582781}}, {"id": 3455435, "name": "Palmeira", "country": "BR", "coord": {"lon": -42.066669, "lat": -17.616671}}, {"id": 3455416, "name": "Palmeira das Missoes", "country": "BR", "coord": {"lon": -53.31361, "lat": -27.899441}}, {"id": 8014751, "name": "Palmeira de Faro", "country": "PT", "coord": {"lon": -8.74017, "lat": 41.543091}}, {"id": 2736798, "name": "Palmeira de Faro", "country": "PT", "coord": {"lon": -8.74465, "lat": 41.54874}}, {"id": 3393240, "name": "Palmeirais", "country": "BR", "coord": {"lon": -43.063332, "lat": -5.97778}}, {"id": 3455390, "name": "Palmeiras", "country": "BR", "coord": {"lon": -47.75, "lat": -21.133329}}, {"id": 3455362, "name": "Palmeiras de Goias", "country": "BR", "coord": {"lon": -49.925831, "lat": -16.805}}, {"id": 8010622, "name": "Palmela", "country": "PT", "coord": {"lon": -8.89996, "lat": 38.584229}}, {"id": 8013143, "name": "Palmela", "country": "PT", "coord": {"lon": -8.88434, "lat": 38.576401}}, {"id": 2265223, "name": "Palmela", "country": "PT", "coord": {"lon": -8.90126, "lat": 38.569019}}, {"id": 5074769, "name": "Palmer", "country": "US", "coord": {"lon": -98.257294, "lat": 41.22224}}, {"id": 5871146, "name": "Palmer", "country": "US", "coord": {"lon": -149.112778, "lat": 61.59972}}, {"id": 4946620, "name": "Palmer", "country": "US", "coord": {"lon": -72.32869, "lat": 42.158428}}, {"id": 4566485, "name": "Palmer", "country": "PR", "coord": {"lon": -65.774048, "lat": 18.37051}}, {"id": 4717283, "name": "Palmer", "country": "US", "coord": {"lon": -96.66777, "lat": 32.431252}}, {"id": 5204947, "name": "Palmer Heights", "country": "US", "coord": {"lon": -75.262398, "lat": 40.687321}}, {"id": 2153914, "name": "Palmer Island", "country": "AU", "coord": {"lon": 153.283325, "lat": -29.41667}}, {"id": 5433828, "name": "Palmer Lake", "country": "US", "coord": {"lon": -104.917198, "lat": 39.122211}}, {"id": 6362053, "name": "Palmera", "country": "ES", "coord": {"lon": -0.15127, "lat": 38.94352}}, {"id": 2512985, "name": "Palmera", "country": "ES", "coord": {"lon": -0.15411, "lat": 38.93927}}, {"id": 7839407, "name": "Palmerston", "country": "AU", "coord": {"lon": 130.977966, "lat": -12.4962}}, {"id": 6301965, "name": "Palmerston", "country": "AU", "coord": {"lon": 130.983307, "lat": -12.48602}}, {"id": 6096436, "name": "Palmerston", "country": "CA", "coord": {"lon": -80.849716, "lat": 43.833401}}, {"id": 2185018, "name": "Palmerston North", "country": "NZ", "coord": {"lon": 175.616669, "lat": -40.349998}}, {"id": 7910056, "name": "Palmerston North City", "country": "NZ", "coord": {"lon": 175.643967, "lat": -40.401901}}, {"id": 5204957, "name": "Palmerton", "country": "US", "coord": {"lon": -75.610191, "lat": 40.801479}}, {"id": 4167632, "name": "Palmetto", "country": "US", "coord": {"lon": -82.572319, "lat": 27.521429}}, {"id": 4214627, "name": "Palmetto", "country": "US", "coord": {"lon": -84.669647, "lat": 33.517891}}, {"id": 4167634, "name": "Palmetto Bay", "country": "US", "coord": {"lon": -80.324768, "lat": 25.621771}}, {"id": 4167647, "name": "Palmetto Estates", "country": "US", "coord": {"lon": -80.362, "lat": 25.62149}}, {"id": 4717326, "name": "Palmhurst", "country": "US", "coord": {"lon": -98.318069, "lat": 26.25841}}, {"id": 6541756, "name": "Palmi", "country": "IT", "coord": {"lon": 15.8615, "lat": 38.365269}}, {"id": 2523902, "name": "Palmi", "country": "IT", "coord": {"lon": 15.84915, "lat": 38.35862}}, {"id": 3171565, "name": "Palmiano", "country": "IT", "coord": {"lon": 13.45958, "lat": 42.90015}}, {"id": 3622602, "name": "Palmichal", "country": "CR", "coord": {"lon": -84.204781, "lat": 9.83778}}, {"id": 966466, "name": "Palmietfontein", "country": "ZA", "coord": {"lon": 29.25572, "lat": -23.53479}}, {"id": 3455351, "name": "Palmin\u00f3polis", "country": "BR", "coord": {"lon": -50.164719, "lat": -16.79611}}, {"id": 3673164, "name": "Palmira", "country": "CO", "coord": {"lon": -76.303612, "lat": 3.53944}}, {"id": 3545040, "name": "Palmira", "country": "CU", "coord": {"lon": -80.390282, "lat": 22.241671}}, {"id": 3703505, "name": "Palmira", "country": "PA", "coord": {"lon": -82.449997, "lat": 8.71667}}, {"id": 3630982, "name": "Palmira", "country": "VE", "coord": {"lon": -72.227577, "lat": 7.83607}}, {"id": 3703496, "name": "Palmiras Norte", "country": "PA", "coord": {"lon": -82.466667, "lat": 8.76667}}, {"id": 4024174, "name": "Palmita", "country": "MX", "coord": {"lon": -100.567497, "lat": 20.74472}}, {"id": 3455342, "name": "Palmital", "country": "BR", "coord": {"lon": -50.217499, "lat": -22.788891}}, {"id": 3842258, "name": "Palmitas", "country": "AR", "coord": {"lon": -64.954582, "lat": -27.234591}}, {"id": 3441377, "name": "Palmitas", "country": "UY", "coord": {"lon": -57.800789, "lat": -33.507191}}, {"id": 3455309, "name": "Palmitinho", "country": "BR", "coord": {"lon": -53.555, "lat": -27.355}}, {"id": 3673143, "name": "Palmito", "country": "CO", "coord": {"lon": -75.550003, "lat": 9.33333}}, {"id": 3455304, "name": "Palmitos", "country": "BR", "coord": {"lon": -53.16111, "lat": -27.067499}}, {"id": 6535650, "name": "Palmoli", "country": "IT", "coord": {"lon": 14.58142, "lat": 41.939442}}, {"id": 4167671, "name": "Palmona Park", "country": "US", "coord": {"lon": -81.896477, "lat": 26.68646}}, {"id": 2512980, "name": "Palmones", "country": "ES", "coord": {"lon": -5.4375, "lat": 36.176102}}, {"id": 3046719, "name": "Palmonostora", "country": "HU", "coord": {"lon": 19.951559, "lat": 46.624168}}, {"id": 2153888, "name": "Palmvale", "country": "AU", "coord": {"lon": 153.483337, "lat": -28.366671}}, {"id": 4717339, "name": "Palmview", "country": "US", "coord": {"lon": -98.37085, "lat": 26.23341}}, {"id": 4717341, "name": "Palmview South", "country": "US", "coord": {"lon": -98.378632, "lat": 26.21563}}, {"id": 2153887, "name": "Palmwoods", "country": "AU", "coord": {"lon": 152.966675, "lat": -26.683331}}, {"id": 4870622, "name": "Palmyra", "country": "US", "coord": {"lon": -93.438271, "lat": 41.4361}}, {"id": 4402381, "name": "Palmyra", "country": "US", "coord": {"lon": -91.523209, "lat": 39.794209}}, {"id": 4777824, "name": "Palmyra", "country": "US", "coord": {"lon": -78.263344, "lat": 37.86097}}, {"id": 4974597, "name": "Palmyra", "country": "US", "coord": {"lon": -69.358658, "lat": 44.846451}}, {"id": 5102378, "name": "Palmyra", "country": "US", "coord": {"lon": -75.028229, "lat": 40.007061}}, {"id": 5130441, "name": "Palmyra", "country": "US", "coord": {"lon": -77.233322, "lat": 43.06395}}, {"id": 5204964, "name": "Palmyra", "country": "US", "coord": {"lon": -76.5933, "lat": 40.308979}}, {"id": 5266156, "name": "Palmyra", "country": "US", "coord": {"lon": -88.586212, "lat": 42.877789}}, {"id": 3455302, "name": "Palm\u00f3polis", "country": "BR", "coord": {"lon": -40.419998, "lat": -16.735001}}, {"id": 1696043, "name": "Palo", "country": "PH", "coord": {"lon": 124.966667, "lat": 11.13333}}, {"id": 1696041, "name": "Palo", "country": "PH", "coord": {"lon": 124.990829, "lat": 11.1575}}, {"id": 6358381, "name": "Palo", "country": "ES", "coord": {"lon": 0.24103, "lat": 42.325958}}, {"id": 3114506, "name": "Palo", "country": "ES", "coord": {"lon": 0.24376, "lat": 42.322701}}, {"id": 4870626, "name": "Palo", "country": "US", "coord": {"lon": -91.795464, "lat": 42.066109}}, {"id": 5380748, "name": "Palo Alto", "country": "US", "coord": {"lon": -122.143021, "lat": 37.441879}}, {"id": 3993763, "name": "Palo Alto", "country": "MX", "coord": {"lon": -101.966667, "lat": 21.91667}}, {"id": 5204971, "name": "Palo Alto", "country": "US", "coord": {"lon": -76.172157, "lat": 40.687309}}, {"id": 5569157, "name": "Palo Cedro", "country": "US", "coord": {"lon": -122.238892, "lat": 40.563759}}, {"id": 3630932, "name": "Palo Negro", "country": "VE", "coord": {"lon": -67.541939, "lat": 10.17389}}, {"id": 4717376, "name": "Palo Pinto", "country": "US", "coord": {"lon": -98.29866, "lat": 32.767349}}, {"id": 4717377, "name": "Palo Pinto County", "country": "US", "coord": {"lon": -98.300331, "lat": 32.750679}}, {"id": 3430186, "name": "Palo Santo", "country": "AR", "coord": {"lon": -59.337811, "lat": -25.56332}}, {"id": 3573995, "name": "Palo Seco", "country": "TT", "coord": {"lon": -61.583328, "lat": 10.08333}}, {"id": 4566492, "name": "Palo Seco", "country": "PR", "coord": {"lon": -65.936829, "lat": 18.007469}}, {"id": 3993566, "name": "Palo Verde", "country": "MX", "coord": {"lon": -110.966667, "lat": 29.049999}}, {"id": 6537555, "name": "Palo del Colle", "country": "IT", "coord": {"lon": 16.700781, "lat": 41.057529}}, {"id": 3171562, "name": "Palo del Colle", "country": "IT", "coord": {"lon": 16.700781, "lat": 41.057529}}, {"id": 3673126, "name": "Palocabildo", "country": "CO", "coord": {"lon": -75.017319, "lat": 5.11705}}, {"id": 8078425, "name": "Paloh", "country": "ID", "coord": {"lon": 112.054199, "lat": -6.8894}}, {"id": 8140901, "name": "Paloh", "country": "ID", "coord": {"lon": 112.448402, "lat": -6.8776}}, {"id": 6534096, "name": "Palol de Revardit", "country": "ES", "coord": {"lon": 2.80367, "lat": 42.057751}}, {"id": 3114501, "name": "Palol de Revardit", "country": "ES", "coord": {"lon": 2.8, "lat": 42.066669}}, {"id": 6361580, "name": "Palomar de Arroyos", "country": "ES", "coord": {"lon": -0.71986, "lat": 40.773602}}, {"id": 3114499, "name": "Palomar de Arroyos", "country": "ES", "coord": {"lon": -0.75056, "lat": 40.77911}}, {"id": 3522013, "name": "Palomares", "country": "MX", "coord": {"lon": -95.066673, "lat": 17.15}}, {"id": 6357490, "name": "Palomares del Campo", "country": "ES", "coord": {"lon": -2.62894, "lat": 39.94268}}, {"id": 2512965, "name": "Palomares del Campo", "country": "ES", "coord": {"lon": -2.59776, "lat": 39.94664}}, {"id": 2512964, "name": "Palomares del Rio", "country": "ES", "coord": {"lon": -6.05863, "lat": 37.322239}}, {"id": 6361025, "name": "Palomares del R\u00edo", "country": "ES", "coord": {"lon": -6.05662, "lat": 37.31625}}, {"id": 6355963, "name": "Palomas", "country": "ES", "coord": {"lon": -6.16363, "lat": 38.701141}}, {"id": 2512963, "name": "Palomas", "country": "ES", "coord": {"lon": -6.1349, "lat": 38.692768}}, {"id": 4566497, "name": "Palomas", "country": "PR", "coord": {"lon": -66.256279, "lat": 18.23246}}, {"id": 4566498, "name": "Palomas", "country": "PR", "coord": {"lon": -66.87323, "lat": 18.01358}}, {"id": 3171558, "name": "Palombara Sabina", "country": "IT", "coord": {"lon": 12.76798, "lat": 42.066719}}, {"id": 3171557, "name": "Palombaro", "country": "IT", "coord": {"lon": 14.23061, "lat": 42.12484}}, {"id": 6361787, "name": "Palomeque", "country": "ES", "coord": {"lon": -3.97125, "lat": 40.117191}}, {"id": 3114489, "name": "Palomeque", "country": "ES", "coord": {"lon": -3.96403, "lat": 40.119659}}, {"id": 6356832, "name": "Palomero", "country": "ES", "coord": {"lon": -6.27506, "lat": 40.246521}}, {"id": 3114486, "name": "Palomero", "country": "ES", "coord": {"lon": -6.27706, "lat": 40.24688}}, {"id": 3842217, "name": "Palomitas", "country": "AR", "coord": {"lon": -65.226982, "lat": -27.46703}}, {"id": 1696023, "name": "Palomoc", "country": "PH", "coord": {"lon": 122.582901, "lat": 7.9153}}, {"id": 3171551, "name": "Palomonte", "country": "IT", "coord": {"lon": 15.29186, "lat": 40.66251}}, {"id": 1696017, "name": "Palompon", "country": "PH", "coord": {"lon": 124.3843, "lat": 11.0508}}, {"id": 7333191, "name": "Palon", "country": "ID", "coord": {"lon": 111.486, "lat": -7.0063}}, {"id": 1260667, "name": "Paloncha", "country": "IN", "coord": {"lon": 80.683327, "lat": 17.6}}, {"id": 3732203, "name": "Palonegro", "country": "CO", "coord": {"lon": -73.198639, "lat": 7.11989}}, {"id": 2153885, "name": "Paloona", "country": "AU", "coord": {"lon": 146.266663, "lat": -41.26667}}, {"id": 7766913, "name": "Palopat", "country": "ID", "coord": {"lon": 106.228699, "lat": -6.5369}}, {"id": 3653523, "name": "Palora", "country": "EC", "coord": {"lon": -77.933327, "lat": -1.7}}, {"id": 1514843, "name": "Palos", "country": "TJ", "coord": {"lon": 69.737427, "lat": 40.31628}}, {"id": 4905259, "name": "Palos Heights", "country": "US", "coord": {"lon": -87.79644, "lat": 41.668091}}, {"id": 4905263, "name": "Palos Hills", "country": "US", "coord": {"lon": -87.817001, "lat": 41.696701}}, {"id": 4905265, "name": "Palos Park", "country": "US", "coord": {"lon": -87.83033, "lat": 41.667252}}, {"id": 5380883, "name": "Palos Verdes Estates", "country": "US", "coord": {"lon": -118.390068, "lat": 33.800571}}, {"id": 2512950, "name": "Palos de la Frontera", "country": "ES", "coord": {"lon": -6.89471, "lat": 37.23457}}, {"id": 6358231, "name": "Palos de la Frontera", "country": "ES", "coord": {"lon": -6.83825, "lat": 37.152809}}, {"id": 3171550, "name": "Palosco", "country": "IT", "coord": {"lon": 9.83646, "lat": 45.589279}}, {"id": 3046711, "name": "Palotas", "country": "HU", "coord": {"lon": 19.59618, "lat": 47.79528}}, {"id": 3455298, "name": "Palotina", "country": "BR", "coord": {"lon": -53.84, "lat": -24.28389}}, {"id": 3193662, "name": "Palovec", "country": "HR", "coord": {"lon": 16.547779, "lat": 46.388889}}, {"id": 3933345, "name": "Palpa", "country": "PE", "coord": {"lon": -75.185562, "lat": -14.53361}}, {"id": 3842190, "name": "Palpala", "country": "AR", "coord": {"lon": -65.211632, "lat": -24.256479}}, {"id": 6534097, "name": "Pals", "country": "ES", "coord": {"lon": 3.17674, "lat": 41.984711}}, {"id": 3114479, "name": "Pals", "country": "ES", "coord": {"lon": 3.14814, "lat": 41.97102}}, {"id": 2684485, "name": "Palsboda", "country": "SE", "coord": {"lon": 15.33747, "lat": 59.065651}}, {"id": 1695994, "name": "Palsong", "country": "PH", "coord": {"lon": 123.296303, "lat": 13.4248}}, {"id": 2855636, "name": "Palsweis", "country": "DE", "coord": {"lon": 11.31257, "lat": 48.254799}}, {"id": 2769270, "name": "Palt", "country": "AT", "coord": {"lon": 15.6138, "lat": 48.38464}}, {"id": 642751, "name": "Paltamo", "country": "FI", "coord": {"lon": 27.83333, "lat": 64.416672}}, {"id": 642750, "name": "Paltamo", "country": "FI", "coord": {"lon": 27.83333, "lat": 64.416672}}, {"id": 671443, "name": "Paltin", "country": "RO", "coord": {"lon": 26.716669, "lat": 45.783329}}, {"id": 671427, "name": "Paltinis", "country": "RO", "coord": {"lon": 26.65, "lat": 48.216671}}, {"id": 671435, "name": "Paltinis", "country": "RO", "coord": {"lon": 22.15, "lat": 45.433331}}, {"id": 671418, "name": "Paltinoasa", "country": "RO", "coord": {"lon": 25.950001, "lat": 47.549999}}, {"id": 1633034, "name": "Palu", "country": "ID", "coord": {"lon": 119.870697, "lat": -0.8917}}, {"id": 3171547, "name": "Palu", "country": "IT", "coord": {"lon": 11.15529, "lat": 45.325481}}, {"id": 302912, "name": "Palu", "country": "TR", "coord": {"lon": 39.92889, "lat": 38.691669}}, {"id": 3171545, "name": "Palu del Fersina", "country": "IT", "coord": {"lon": 11.35088, "lat": 46.129509}}, {"id": 1695982, "name": "Paluan", "country": "PH", "coord": {"lon": 120.462303, "lat": 13.416}}, {"id": 3171546, "name": "Paludea", "country": "IT", "coord": {"lon": 12.90344, "lat": 46.199501}}, {"id": 2523900, "name": "Paludi", "country": "IT", "coord": {"lon": 16.6828, "lat": 39.530102}}, {"id": 7473831, "name": "Palue", "country": "ID", "coord": {"lon": 122.707001, "lat": -8.4691}}, {"id": 3218996, "name": "Paluello", "country": "IT", "coord": {"lon": 12.05083, "lat": 45.410561}}, {"id": 8073521, "name": "Palugon", "country": "ID", "coord": {"lon": 108.6735, "lat": -7.2319}}, {"id": 1633025, "name": "Palumbungan", "country": "ID", "coord": {"lon": 108.415604, "lat": -7.6329}}, {"id": 8018732, "name": "Palumbungan", "country": "ID", "coord": {"lon": 108.112602, "lat": -7.1262}}, {"id": 1695956, "name": "Palusapig", "country": "PH", "coord": {"lon": 120.862778, "lat": 15.68417}}, {"id": 623268, "name": "Paluzhzha", "country": "BY", "coord": {"lon": 26.116671, "lat": 53.533329}}, {"id": 3171541, "name": "Paluzza", "country": "IT", "coord": {"lon": 13.01833, "lat": 46.526669}}, {"id": 1260637, "name": "Palwal", "country": "IN", "coord": {"lon": 77.333336, "lat": 28.15}}, {"id": 7302847, "name": "Palwancha", "country": "IN", "coord": {"lon": 80.676514, "lat": 17.58152}}, {"id": 816218, "name": "Palykavichy Pyershyya", "country": "BY", "coord": {"lon": 30.349167, "lat": 53.993057}}, {"id": 6554779, "name": "Palzem", "country": "DE", "coord": {"lon": 6.36667, "lat": 49.5667}}, {"id": 2855632, "name": "Palzem", "country": "DE", "coord": {"lon": 6.36667, "lat": 49.566669}}, {"id": 2855630, "name": "Palzing", "country": "DE", "coord": {"lon": 11.71667, "lat": 48.466671}}, {"id": 7286769, "name": "Pal\u00e9zieux", "country": "CH", "coord": {"lon": 6.8366, "lat": 46.551979}}, {"id": 3630905, "name": "Pal\u00faa", "country": "VE", "coord": {"lon": -62.674442, "lat": 8.350278}}, {"id": 3058290, "name": "Pal\u00fadzka", "country": "SK", "coord": {"lon": 19.59618, "lat": 49.081509}}, {"id": 7473632, "name": "Pam", "country": "ID", "coord": {"lon": 120.748802, "lat": -1.398}}, {"id": 7872719, "name": "Pama", "country": "AT", "coord": {"lon": 17.04125, "lat": 48.045712}}, {"id": 2769259, "name": "Pama", "country": "AT", "coord": {"lon": 17.033331, "lat": 48.049999}}, {"id": 2356738, "name": "Pama", "country": "BF", "coord": {"lon": 0.7075, "lat": 11.24972}}, {"id": 8041369, "name": "Pamadangan", "country": "ID", "coord": {"lon": 107.173798, "lat": -7.3335}}, {"id": 7089168, "name": "Pamakoe", "country": "ID", "coord": {"lon": 121.250099, "lat": -8.7592}}, {"id": 1633014, "name": "Pamalayan", "country": "ID", "coord": {"lon": 107.509621, "lat": -7.38374}}, {"id": 7521435, "name": "Pamandzi", "country": "YT", "coord": {"lon": 45.281952, "lat": -12.79489}}, {"id": 1695921, "name": "Pamantingan", "country": "PH", "coord": {"lon": 124.458893, "lat": 6.70444}}, {"id": 1632998, "name": "Pamanukan", "country": "ID", "coord": {"lon": 107.810562, "lat": -6.28417}}, {"id": 921707, "name": "Pamanzi Be", "country": "YT", "coord": {"lon": 45.279381, "lat": -12.79674}}, {"id": 7780957, "name": "Pamarayan", "country": "ID", "coord": {"lon": 105.898903, "lat": -6.3554}}, {"id": 1632991, "name": "Pamarican", "country": "ID", "coord": {"lon": 108.524002, "lat": -7.4576}}, {"id": 7766623, "name": "Pamatang", "country": "ID", "coord": {"lon": 105.988098, "lat": -6.4232}}, {"id": 7779950, "name": "Pamatang", "country": "ID", "coord": {"lon": 105.834297, "lat": -6.3295}}, {"id": 1695909, "name": "Pamatawan", "country": "PH", "coord": {"lon": 120.213631, "lat": 14.92779}}, {"id": 1695898, "name": "Pambisan", "country": "PH", "coord": {"lon": 121.412819, "lat": 13.0137}}, {"id": 6096461, "name": "Pambrun", "country": "CA", "coord": {"lon": -107.451317, "lat": 49.933361}}, {"id": 1695893, "name": "Pambuhan", "country": "PH", "coord": {"lon": 123.083702, "lat": 13.9736}}, {"id": 1695887, "name": "Pambujan", "country": "PH", "coord": {"lon": 124.927597, "lat": 12.5642}}, {"id": 2153873, "name": "Pambula", "country": "AU", "coord": {"lon": 149.866669, "lat": -36.933331}}, {"id": 3193659, "name": "Pamece", "country": "SI", "coord": {"lon": 15.07917, "lat": 46.534168}}, {"id": 8078021, "name": "Pamedaran", "country": "ID", "coord": {"lon": 108.8647, "lat": -7.068}}, {"id": 7581723, "name": "Pamedilan", "country": "ID", "coord": {"lon": 114.643303, "lat": -8.3652}}, {"id": 8028845, "name": "Pamekaran", "country": "ID", "coord": {"lon": 108.244102, "lat": -7.1087}}, {"id": 1632978, "name": "Pamekasan", "country": "ID", "coord": {"lon": 113.474602, "lat": -7.1568}}, {"id": 1632974, "name": "Pameungpeuk", "country": "ID", "coord": {"lon": 107.603889, "lat": -7.01833}}, {"id": 1632972, "name": "Pameungpeuk", "country": "ID", "coord": {"lon": 107.7332, "lat": -7.6413}}, {"id": 1632973, "name": "Pameungpeuk", "country": "ID", "coord": {"lon": 106.814796, "lat": -7.3798}}, {"id": 255959, "name": "Pamfylla", "country": "GR", "coord": {"lon": 26.521669, "lat": 39.15667}}, {"id": 7871592, "name": "Pamhagen", "country": "AT", "coord": {"lon": 16.90612, "lat": 47.71526}}, {"id": 2769258, "name": "Pamhagen", "country": "AT", "coord": {"lon": 16.907789, "lat": 47.70092}}, {"id": 3089507, "name": "Pamiatkowo", "country": "PL", "coord": {"lon": 16.680941, "lat": 52.553341}}, {"id": 6461150, "name": "Pamidovo", "country": "BG", "coord": {"lon": 24.216669, "lat": 42.283329}}, {"id": 728451, "name": "Pamidovo", "country": "BG", "coord": {"lon": 24.216669, "lat": 42.283329}}, {"id": 6426273, "name": "Pamiers", "country": "FR", "coord": {"lon": 1.6, "lat": 43.116669}}, {"id": 2988670, "name": "Pamiers", "country": "FR", "coord": {"lon": 1.6, "lat": 43.116669}}, {"id": 4483897, "name": "Pamlico County", "country": "US", "coord": {"lon": -76.749649, "lat": 35.133499}}, {"id": 1632957, "name": "Pamotan", "country": "ID", "coord": {"lon": 111.489799, "lat": -6.7609}}, {"id": 1965930, "name": "Pamotan", "country": "ID", "coord": {"lon": 112.734871, "lat": -8.1996}}, {"id": 7688048, "name": "Pamotan", "country": "ID", "coord": {"lon": 108.76667, "lat": -7.65638}}, {"id": 1632953, "name": "Pamoyanan", "country": "ID", "coord": {"lon": 107.179802, "lat": -7.3066}}, {"id": 1632955, "name": "Pamoyanan", "country": "ID", "coord": {"lon": 108.153801, "lat": -7.1252}}, {"id": 7845424, "name": "Pamoyanan", "country": "ID", "coord": {"lon": 106.576103, "lat": -7.3481}}, {"id": 7850033, "name": "Pamoyanan", "country": "ID", "coord": {"lon": 106.778297, "lat": -7.1403}}, {"id": 5527953, "name": "Pampa", "country": "US", "coord": {"lon": -100.959869, "lat": 35.53616}}, {"id": 3430182, "name": "Pampa Almiron", "country": "AR", "coord": {"lon": -59.133331, "lat": -26.700001}}, {"id": 3842140, "name": "Pampa de los Guanacos", "country": "AR", "coord": {"lon": -61.849998, "lat": -26.23333}}, {"id": 3430180, "name": "Pampa del Indio", "country": "AR", "coord": {"lon": -59.91898, "lat": -26.06468}}, {"id": 3842142, "name": "Pampa del Infierno", "country": "AR", "coord": {"lon": -61.174358, "lat": -26.505171}}, {"id": 3933218, "name": "Pampamarca", "country": "PE", "coord": {"lon": -71.459442, "lat": -14.14639}}, {"id": 3630896, "name": "Pampan", "country": "VE", "coord": {"lon": -70.477592, "lat": 9.44475}}, {"id": 6357759, "name": "Pampaneira", "country": "ES", "coord": {"lon": -3.37534, "lat": 36.966621}}, {"id": 2512948, "name": "Pampaneira", "country": "ES", "coord": {"lon": -3.36096, "lat": 36.940151}}, {"id": 3482204, "name": "Pampanito", "country": "VE", "coord": {"lon": -70.26667, "lat": 9.38944}}, {"id": 3630894, "name": "Pampanito", "country": "VE", "coord": {"lon": -70.50116, "lat": 9.41037}}, {"id": 3171538, "name": "Pamparato", "country": "IT", "coord": {"lon": 7.91304, "lat": 44.27673}}, {"id": 2153870, "name": "Pampas", "country": "AU", "coord": {"lon": 151.416672, "lat": -27.799999}}, {"id": 3933185, "name": "Pampas", "country": "PE", "coord": {"lon": -74.900002, "lat": -12.4}}, {"id": 3630893, "name": "Pampatar", "country": "VE", "coord": {"lon": -63.79343, "lat": 11.00125}}, {"id": 966380, "name": "Pampierstad", "country": "ZA", "coord": {"lon": 24.687679, "lat": -27.783239}}, {"id": 2659258, "name": "Pampigny", "country": "CH", "coord": {"lon": 6.42941, "lat": 46.580929}}, {"id": 7286770, "name": "Pampigny", "country": "CH", "coord": {"lon": 6.42206, "lat": 46.586231}}, {"id": 8010807, "name": "Pampilhosa", "country": "PT", "coord": {"lon": -8.42684, "lat": 40.337711}}, {"id": 2736792, "name": "Pampilhosa do Botao", "country": "PT", "coord": {"lon": -8.42738, "lat": 40.3358}}, {"id": 934213, "name": "Pamplemousses", "country": "MU", "coord": {"lon": 57.570278, "lat": -20.103889}}, {"id": 934212, "name": "Pamplemousses District", "country": "MU", "coord": {"lon": 57.559719, "lat": -20.095831}}, {"id": 4590413, "name": "Pamplico", "country": "US", "coord": {"lon": -79.570061, "lat": 33.995998}}, {"id": 6356522, "name": "Pampliega", "country": "ES", "coord": {"lon": -3.98581, "lat": 42.205952}}, {"id": 3114473, "name": "Pampliega", "country": "ES", "coord": {"lon": -3.98666, "lat": 42.205818}}, {"id": 6359749, "name": "Pamplona", "country": "ES", "coord": {"lon": -1.64432, "lat": 42.812759}}, {"id": 3114472, "name": "Pamplona", "country": "ES", "coord": {"lon": -1.64323, "lat": 42.816872}}, {"id": 3673045, "name": "Pamplona", "country": "CO", "coord": {"lon": -72.647949, "lat": 7.37565}}, {"id": 1695830, "name": "Pamplona", "country": "PH", "coord": {"lon": 121.34111, "lat": 18.466391}}, {"id": 1695833, "name": "Pamplona", "country": "PH", "coord": {"lon": 123.081596, "lat": 13.5916}}, {"id": 1695834, "name": "Pamplona", "country": "PH", "coord": {"lon": 123.119202, "lat": 9.4724}}, {"id": 2153869, "name": "Pampoolah", "country": "AU", "coord": {"lon": 152.533325, "lat": -31.933331}}, {"id": 2855623, "name": "Pampow", "country": "DE", "coord": {"lon": 12.6, "lat": 53.75}}, {"id": 6547965, "name": "Pampow", "country": "DE", "coord": {"lon": 11.3667, "lat": 53.5667}}, {"id": 2855624, "name": "Pampow", "country": "DE", "coord": {"lon": 11.36667, "lat": 53.566669}}, {"id": 6444169, "name": "Pamproux", "country": "FR", "coord": {"lon": -0.055, "lat": 46.395901}}, {"id": 2988663, "name": "Pamproux", "country": "FR", "coord": {"lon": -0.05327, "lat": 46.395779}}, {"id": 302903, "name": "Pamukkale", "country": "TR", "coord": {"lon": 29.11729, "lat": 37.916439}}, {"id": 740729, "name": "Pamukova", "country": "TR", "coord": {"lon": 30.16732, "lat": 40.508099}}, {"id": 1632937, "name": "Pamulang", "country": "ID", "coord": {"lon": 106.738327, "lat": -6.34278}}, {"id": 7782405, "name": "Pamundayan Kaler", "country": "ID", "coord": {"lon": 106.025101, "lat": -6.6966}}, {"id": 7852592, "name": "Pamungguan", "country": "ID", "coord": {"lon": 107.617599, "lat": -7.4772}}, {"id": 8067499, "name": "Pamupukan", "country": "ID", "coord": {"lon": 108.530296, "lat": -7.0469}}, {"id": 512947, "name": "Pamyat Parizhskoy Kommuny", "country": "RU", "coord": {"lon": 44.495201, "lat": 56.104801}}, {"id": 3441358, "name": "Pan de Azucar", "country": "UY", "coord": {"lon": -55.23333, "lat": -34.799999}}, {"id": 1695620, "name": "Pan-an", "country": "PH", "coord": {"lon": 123.840279, "lat": 8.21917}}, {"id": 4246595, "name": "Pana", "country": "US", "coord": {"lon": -89.080078, "lat": 39.388931}}, {"id": 3521972, "name": "Panaba", "country": "MX", "coord": {"lon": -88.26667, "lat": 21.283331}}, {"id": 1695808, "name": "Panabingan", "country": "PH", "coord": {"lon": 120.767502, "lat": 15.3764}}, {"id": 1695804, "name": "Panabo", "country": "PH", "coord": {"lon": 125.684174, "lat": 7.30806}}, {"id": 1695802, "name": "Panabuan", "country": "PH", "coord": {"lon": 120.9627, "lat": 5.9616}}, {"id": 1695751, "name": "Panacan", "country": "PH", "coord": {"lon": 118.408203, "lat": 9.24627}}, {"id": 1632921, "name": "Panacaran", "country": "ID", "coord": {"lon": 105.924004, "lat": -6.6606}}, {"id": 671413, "name": "Panaci", "country": "RO", "coord": {"lon": 25.383329, "lat": 47.26667}}, {"id": 1693721, "name": "Panadtaban", "country": "PH", "coord": {"lon": 124.642776, "lat": 6.90083}}, {"id": 1231410, "name": "Panadura", "country": "LK", "coord": {"lon": 79.902603, "lat": 6.7132}}, {"id": 1260612, "name": "Panagar", "country": "IN", "coord": {"lon": 79.98333, "lat": 23.299999}}, {"id": 728448, "name": "Panagyurishte", "country": "BG", "coord": {"lon": 24.183331, "lat": 42.5}}, {"id": 255945, "name": "Panaitolion", "country": "GR", "coord": {"lon": 21.450001, "lat": 38.583328}}, {"id": 3591750, "name": "Panajachel", "country": "GT", "coord": {"lon": -91.150002, "lat": 14.73333}}, {"id": 1260607, "name": "Panaji", "country": "IN", "coord": {"lon": 73.833328, "lat": 15.48333}}, {"id": 1695743, "name": "Panalanoy", "country": "PH", "coord": {"lon": 125.006393, "lat": 11.25111}}, {"id": 1695736, "name": "Panalingaan", "country": "PH", "coord": {"lon": 117.423058, "lat": 8.78417}}, {"id": 1695734, "name": "Panalipan", "country": "PH", "coord": {"lon": 124.021667, "lat": 10.64833}}, {"id": 1695728, "name": "Panalo-on", "country": "PH", "coord": {"lon": 123.75, "lat": 7.91667}}, {"id": 3703443, "name": "Panama", "country": "PA", "coord": {"lon": -79.51973, "lat": 8.9936}}, {"id": 4547504, "name": "Panama", "country": "US", "coord": {"lon": -94.672447, "lat": 35.16732}}, {"id": 4167694, "name": "Panama City", "country": "US", "coord": {"lon": -85.659828, "lat": 30.15946}}, {"id": 4167695, "name": "Panama City Beach", "country": "US", "coord": {"lon": -85.805489, "lat": 30.17659}}, {"id": 1131173, "name": "Panamay", "country": "AF", "coord": {"lon": 69.010277, "lat": 34.29583}}, {"id": 3430178, "name": "Panambi", "country": "AR", "coord": {"lon": -54.915138, "lat": -27.7237}}, {"id": 3455281, "name": "Panambi", "country": "BR", "coord": {"lon": -53.501671, "lat": -28.2925}}, {"id": 7072825, "name": "Panan", "country": "CN", "coord": {"lon": 120.437576, "lat": 29.05368}}, {"id": 1695702, "name": "Panan", "country": "PH", "coord": {"lon": 120.027199, "lat": 15.2134}}, {"id": 1695693, "name": "Pananaw", "country": "PH", "coord": {"lon": 121.214722, "lat": 5.98111}}, {"id": 8067334, "name": "Pananjung", "country": "ID", "coord": {"lon": 108.650299, "lat": -7.6826}}, {"id": 1282950, "name": "Panaoti", "country": "NP", "coord": {"lon": 85.512398, "lat": 27.581381}}, {"id": 1260600, "name": "Panara", "country": "IN", "coord": {"lon": 78.550003, "lat": 22.066669}}, {"id": 1608007, "name": "Panare", "country": "TH", "coord": {"lon": 101.491028, "lat": 6.86192}}, {"id": 1632903, "name": "Panarukan", "country": "ID", "coord": {"lon": 113.918442, "lat": -7.70181}}, {"id": 1632892, "name": "Panawangan", "country": "ID", "coord": {"lon": 108.381599, "lat": -7.118}}, {"id": 7920377, "name": "Panawuan", "country": "ID", "coord": {"lon": 107.884201, "lat": -7.2147}}, {"id": 1695619, "name": "Panay", "country": "PH", "coord": {"lon": 122.794167, "lat": 11.55778}}, {"id": 1695622, "name": "Panay", "country": "PH", "coord": {"lon": 124.638329, "lat": 6.49778}}, {"id": 1695614, "name": "Panayacan", "country": "PH", "coord": {"lon": 122.223602, "lat": 11.7603}}, {"id": 8018057, "name": "Panayagan", "country": "ID", "coord": {"lon": 108.110199, "lat": -7.3545}}, {"id": 1695602, "name": "Panaytayon", "country": "PH", "coord": {"lon": 123.98333, "lat": 9.95}}, {"id": 6445407, "name": "Panazol", "country": "FR", "coord": {"lon": 1.3, "lat": 45.833328}}, {"id": 2988657, "name": "Panazol", "country": "FR", "coord": {"lon": 1.32759, "lat": 45.834648}}, {"id": 1337356, "name": "Panbang", "country": "BT", "coord": {"lon": 90.98333, "lat": 26.866671}}, {"id": 1904748, "name": "Panbanqiao", "country": "CN", "coord": {"lon": 119.871391, "lat": 30.38472}}, {"id": 7884160, "name": "Pancalan", "country": "ID", "coord": {"lon": 107.313797, "lat": -7.3159}}, {"id": 3171533, "name": "Pancalieri", "country": "IT", "coord": {"lon": 7.58592, "lat": 44.833439}}, {"id": 7781538, "name": "Pancanagara", "country": "ID", "coord": {"lon": 106.0877, "lat": -6.1919}}, {"id": 3171532, "name": "Pancarana", "country": "IT", "coord": {"lon": 9.05065, "lat": 45.074558}}, {"id": 3455277, "name": "Pancas", "country": "BR", "coord": {"lon": -40.851391, "lat": -19.225}}, {"id": 7915045, "name": "Pancasura", "country": "ID", "coord": {"lon": 107.934196, "lat": -7.4637}}, {"id": 2988656, "name": "Pance", "country": "FR", "coord": {"lon": -1.65953, "lat": 47.881809}}, {"id": 1695598, "name": "Pance", "country": "PH", "coord": {"lon": 120.620102, "lat": 15.6885}}, {"id": 671402, "name": "Pancesti", "country": "RO", "coord": {"lon": 27.08333, "lat": 46.333328}}, {"id": 787237, "name": "Pancevo", "country": "RS", "coord": {"lon": 20.64028, "lat": 44.870831}}, {"id": 3933132, "name": "Pancha Paula", "country": "PE", "coord": {"lon": -77.083328, "lat": -11.86667}}, {"id": 1185141, "name": "Panchagarh", "country": "BD", "coord": {"lon": 88.561996, "lat": 26.331289}}, {"id": 728440, "name": "Pancharevo", "country": "BG", "coord": {"lon": 23.411779, "lat": 42.594608}}, {"id": 6957998, "name": "Pancheng", "country": "CN", "coord": {"lon": 118.7201, "lat": 32.206089}}, {"id": 1260577, "name": "Panchgani", "country": "IN", "coord": {"lon": 73.816673, "lat": 17.91667}}, {"id": 3584156, "name": "Panchimalco", "country": "SV", "coord": {"lon": -89.18, "lat": 13.61278}}, {"id": 1282948, "name": "Panchkhal", "country": "NP", "coord": {"lon": 85.616669, "lat": 27.65}}, {"id": 1348785, "name": "Panchla", "country": "IN", "coord": {"lon": 88.138062, "lat": 22.54389}}, {"id": 8013890, "name": "Panchorra", "country": "PT", "coord": {"lon": -7.96353, "lat": 41.018311}}, {"id": 2736790, "name": "Panchorra", "country": "PT", "coord": {"lon": -7.96935, "lat": 41.014919}}, {"id": 7994717, "name": "Panchosa", "country": "NP", "coord": {"lon": 85.507423, "lat": 28.0037}}, {"id": 671398, "name": "Panciu", "country": "RO", "coord": {"lon": 27.08333, "lat": 45.900002}}, {"id": 1695594, "name": "Pancol", "country": "PH", "coord": {"lon": 119.415703, "lat": 10.8715}}, {"id": 7409978, "name": "Pancoran", "country": "ID", "coord": {"lon": 116.487701, "lat": -8.6636}}, {"id": 6356523, "name": "Pancorbo", "country": "ES", "coord": {"lon": -3.13253, "lat": 42.668629}}, {"id": 3114464, "name": "Pancorbo", "country": "ES", "coord": {"lon": -3.1118, "lat": 42.634178}}, {"id": 670794, "name": "Pancota", "country": "RO", "coord": {"lon": 21.700001, "lat": 46.333328}}, {"id": 6361581, "name": "Pancrudo", "country": "ES", "coord": {"lon": -0.99868, "lat": 40.794769}}, {"id": 3114463, "name": "Pancrudo", "country": "ES", "coord": {"lon": -1.02967, "lat": 40.76223}}, {"id": 1632866, "name": "Pancur", "country": "ID", "coord": {"lon": 111.468399, "lat": -6.7215}}, {"id": 6432779, "name": "Panc\u00e9", "country": "FR", "coord": {"lon": -1.66667, "lat": 47.883331}}, {"id": 3046700, "name": "Pand", "country": "HU", "coord": {"lon": 19.63571, "lat": 47.353329}}, {"id": 1695583, "name": "Pandacaqui", "country": "PH", "coord": {"lon": 120.6455, "lat": 15.1835}}, {"id": 1632861, "name": "Pandak", "country": "ID", "coord": {"lon": 110.29361, "lat": -7.91306}}, {"id": 1632859, "name": "Pandakan", "country": "ID", "coord": {"lon": 112.6875, "lat": -7.65268}}, {"id": 1957783, "name": "Pandakan", "country": "PH", "coord": {"lon": 121.165833, "lat": 5.98889}}, {"id": 933178, "name": "Pandamatenga", "country": "BW", "coord": {"lon": 25.62698, "lat": -18.52779}}, {"id": 1632856, "name": "Pandan", "country": "ID", "coord": {"lon": 111.450699, "lat": -6.7335}}, {"id": 7036000, "name": "Pandan", "country": "ID", "coord": {"lon": 111.564003, "lat": -7.2394}}, {"id": 1695546, "name": "Pandan", "country": "PH", "coord": {"lon": 124.169403, "lat": 14.0453}}, {"id": 1695547, "name": "Pandan", "country": "PH", "coord": {"lon": 123.081497, "lat": 13.7421}}, {"id": 1695555, "name": "Pandan", "country": "PH", "coord": {"lon": 122.094902, "lat": 11.7195}}, {"id": 1695566, "name": "Pandan", "country": "PH", "coord": {"lon": 124.727798, "lat": 9.2388}}, {"id": 1695506, "name": "Pandan Niog", "country": "PH", "coord": {"lon": 120.563103, "lat": 6.2282}}, {"id": 1965533, "name": "Pandanajung", "country": "ID", "coord": {"lon": 112.719597, "lat": -8.0074}}, {"id": 8068767, "name": "Pandangan Kulon", "country": "ID", "coord": {"lon": 111.588997, "lat": -6.6669}}, {"id": 8068768, "name": "Pandangan Wetan", "country": "ID", "coord": {"lon": 111.5896, "lat": -6.6702}}, {"id": 8080579, "name": "Pandanrejokrajan", "country": "ID", "coord": {"lon": 112.503899, "lat": -8.3047}}, {"id": 1965316, "name": "Pandansari", "country": "ID", "coord": {"lon": 112.561699, "lat": -8.0074}}, {"id": 7034509, "name": "Pandansari", "country": "ID", "coord": {"lon": 111.982597, "lat": -8.1266}}, {"id": 7081775, "name": "Pandansari", "country": "ID", "coord": {"lon": 112.804398, "lat": -8.0699}}, {"id": 7350482, "name": "Pandansari", "country": "ID", "coord": {"lon": 113.2509, "lat": -8.1503}}, {"id": 8061051, "name": "Pandansili", "country": "ID", "coord": {"lon": 111.2911, "lat": -6.8369}}, {"id": 7375680, "name": "Pandanwangi", "country": "ID", "coord": {"lon": 113.248398, "lat": -8.1508}}, {"id": 1260556, "name": "Pandaria", "country": "IN", "coord": {"lon": 81.416672, "lat": 22.23333}}, {"id": 1693502, "name": "Pandasan", "country": "PH", "coord": {"lon": 125.8535, "lat": 7.2838}}, {"id": 7781154, "name": "Pandat", "country": "ID", "coord": {"lon": 105.960503, "lat": -6.3138}}, {"id": 1260553, "name": "Pandavapura", "country": "IN", "coord": {"lon": 76.673332, "lat": 12.50056}}, {"id": 7780316, "name": "Panday", "country": "ID", "coord": {"lon": 106.0457, "lat": -6.3498}}, {"id": 8076049, "name": "Pandayan Dua", "country": "ID", "coord": {"lon": 111.786499, "lat": -6.9966}}, {"id": 7035328, "name": "Pandean", "country": "ID", "coord": {"lon": 112.32795, "lat": -8.09308}}, {"id": 7375809, "name": "Pandean", "country": "ID", "coord": {"lon": 113.215797, "lat": -8.2297}}, {"id": 8060714, "name": "Pandean", "country": "ID", "coord": {"lon": 111.348, "lat": -6.7044}}, {"id": 1632823, "name": "Pandeglang", "country": "ID", "coord": {"lon": 106.106697, "lat": -6.3084}}, {"id": 8068133, "name": "Pandeyan", "country": "ID", "coord": {"lon": 111.451302, "lat": -6.7009}}, {"id": 1260548, "name": "Pandhana", "country": "IN", "coord": {"lon": 76.216667, "lat": 21.700001}}, {"id": 1260546, "name": "Pandharpur", "country": "IN", "coord": {"lon": 75.333328, "lat": 17.66667}}, {"id": 1260543, "name": "Pandhurna", "country": "IN", "coord": {"lon": 78.51667, "lat": 21.6}}, {"id": 1695463, "name": "Pandi", "country": "PH", "coord": {"lon": 120.949997, "lat": 14.86667}}, {"id": 1695462, "name": "Pandi", "country": "PH", "coord": {"lon": 120.957222, "lat": 14.865}}, {"id": 7372425, "name": "Pandi", "country": "CN", "coord": {"lon": 105.183907, "lat": 33.016041}}, {"id": 3672997, "name": "Pandi", "country": "CO", "coord": {"lon": -74.487503, "lat": 4.19111}}, {"id": 3171529, "name": "Pandino", "country": "IT", "coord": {"lon": 9.55346, "lat": 45.40707}}, {"id": 3441354, "name": "Pando", "country": "UY", "coord": {"lon": -55.950001, "lat": -34.716671}}, {"id": 1695455, "name": "Pando", "country": "PH", "coord": {"lon": 120.684731, "lat": 15.39395}}, {"id": 1260537, "name": "Pandoh", "country": "IN", "coord": {"lon": 77.050003, "lat": 31.683331}}, {"id": 5166061, "name": "Pandora", "country": "US", "coord": {"lon": -83.961052, "lat": 40.948109}}, {"id": 2615222, "name": "Pandrup", "country": "DK", "coord": {"lon": 9.67569, "lat": 57.22147}}, {"id": 1799089, "name": "Pandu", "country": "CN", "coord": {"lon": 119.451942, "lat": 26.237499}}, {"id": 1260527, "name": "Pandua", "country": "IN", "coord": {"lon": 88.283333, "lat": 23.08333}}, {"id": 7743873, "name": "Pane Tongah", "country": "ID", "coord": {"lon": 98.972298, "lat": 2.9059}}, {"id": 3393190, "name": "Panelas", "country": "BR", "coord": {"lon": -36.005829, "lat": -8.66361}}, {"id": 7556146, "name": "Panenggoede", "country": "ID", "coord": {"lon": 119.051102, "lat": -9.6701}}, {"id": 671390, "name": "Panet", "country": "RO", "coord": {"lon": 24.46973, "lat": 46.555141}}, {"id": 2523896, "name": "Panettieri", "country": "IT", "coord": {"lon": 16.456699, "lat": 39.05999}}, {"id": 596128, "name": "Panevezys", "country": "LT", "coord": {"lon": 24.35, "lat": 55.73333}}, {"id": 864480, "name": "Panev\u0117\u017eio Apskritis", "country": "LT", "coord": {"lon": 24.83333, "lat": 55.916672}}, {"id": 6610529, "name": "Panfilovo", "country": "RU", "coord": {"lon": 41.653332, "lat": 58.181946}}, {"id": 1695444, "name": "Pang", "country": "PH", "coord": {"lon": 121.2883, "lat": 5.94837}}, {"id": 7510880, "name": "Pang Sila Thong", "country": "TH", "coord": {"lon": 99.489059, "lat": 16.09631}}, {"id": 1695438, "name": "Pangabuan", "country": "PH", "coord": {"lon": 123.695831, "lat": 8.05694}}, {"id": 4032369, "name": "Pangai", "country": "TO", "coord": {"lon": -174.350006, "lat": -19.799999}}, {"id": 1695427, "name": "Pangal Sur", "country": "PH", "coord": {"lon": 121.663101, "lat": 16.617599}}, {"id": 7916393, "name": "Pangalengan", "country": "ID", "coord": {"lon": 107.965797, "lat": -7.3473}}, {"id": 7765978, "name": "Pangampoan", "country": "ID", "coord": {"lon": 105.851547, "lat": -6.39895}}, {"id": 150793, "name": "Pangani", "country": "TZ", "coord": {"lon": 38.966671, "lat": -5.43333}}, {"id": 1695399, "name": "Panganiban", "country": "PH", "coord": {"lon": 120.7752, "lat": 16.0075}}, {"id": 1695400, "name": "Panganiban", "country": "PH", "coord": {"lon": 124.300301, "lat": 13.9076}}, {"id": 8140923, "name": "Pangansalan", "country": "ID", "coord": {"lon": 112.384697, "lat": -6.9919}}, {"id": 1695391, "name": "Pangantocan", "country": "PH", "coord": {"lon": 124.8125, "lat": 7.84722}}, {"id": 1695383, "name": "Pangao", "country": "PH", "coord": {"lon": 121.125557, "lat": 13.91722}}, {"id": 1695377, "name": "Pangapisan", "country": "PH", "coord": {"lon": 119.984444, "lat": 16.19639}}, {"id": 3933105, "name": "Pangaravi", "country": "PE", "coord": {"lon": -74.949997, "lat": -14.83333}}, {"id": 1632787, "name": "Pangarengan", "country": "ID", "coord": {"lon": 106.072662, "lat": -5.95714}}, {"id": 8070209, "name": "Pangarengan", "country": "ID", "coord": {"lon": 108.645531, "lat": -7.46219}}, {"id": 1695360, "name": "Pangascasan", "country": "PH", "coord": {"lon": 120.086639, "lat": 16.116911}}, {"id": 1632782, "name": "Pangasinan", "country": "ID", "coord": {"lon": 108.529198, "lat": -7.4066}}, {"id": 7920501, "name": "Pangatikan", "country": "ID", "coord": {"lon": 107.988297, "lat": -7.1549}}, {"id": 1632780, "name": "Pangauban", "country": "ID", "coord": {"lon": 107.778503, "lat": -7.2634}}, {"id": 7912002, "name": "Pangauban", "country": "ID", "coord": {"lon": 107.803497, "lat": -7.2736}}, {"id": 8074298, "name": "Pangawaren", "country": "ID", "coord": {"lon": 108.869499, "lat": -7.3878}}, {"id": 1282945, "name": "Pangboche", "country": "NP", "coord": {"lon": 86.800003, "lat": 27.85}}, {"id": 2640654, "name": "Pangbourne", "country": "GB", "coord": {"lon": -1.08519, "lat": 51.4837}}, {"id": 1695324, "name": "Pangdan", "country": "PH", "coord": {"lon": 124.916672, "lat": 11.74444}}, {"id": 1695330, "name": "Pangdan", "country": "PH", "coord": {"lon": 123.7379, "lat": 10.23078}}, {"id": 8048206, "name": "Pangdoi", "country": "CN", "coord": {"lon": 89.302002, "lat": 29.802}}, {"id": 7920314, "name": "Pangeureunan", "country": "ID", "coord": {"lon": 107.931801, "lat": -7.1376}}, {"id": 8017481, "name": "Pangeureunan", "country": "ID", "coord": {"lon": 108.0065, "lat": -7.4295}}, {"id": 7846858, "name": "Panggarangandesa", "country": "ID", "coord": {"lon": 106.22084, "lat": -6.90079}}, {"id": 1799086, "name": "Panggezhuang", "country": "CN", "coord": {"lon": 117.166107, "lat": 39.804722}}, {"id": 1799085, "name": "Pangguang", "country": "CN", "coord": {"lon": 108.661942, "lat": 34.028889}}, {"id": 1632748, "name": "Panggul", "country": "ID", "coord": {"lon": 111.455399, "lat": -8.2492}}, {"id": 7375255, "name": "Panggungasri", "country": "ID", "coord": {"lon": 112.296303, "lat": -8.2099}}, {"id": 7034879, "name": "Panggungduwet", "country": "ID", "coord": {"lon": 112.032097, "lat": -8.2042}}, {"id": 1632740, "name": "Panggungrejo", "country": "ID", "coord": {"lon": 112.278702, "lat": -8.2512}}, {"id": 1965648, "name": "Panggungrejo", "country": "ID", "coord": {"lon": 112.560997, "lat": -8.1464}}, {"id": 1965657, "name": "Panggungrejo", "country": "ID", "coord": {"lon": 112.600899, "lat": -8.1455}}, {"id": 8174593, "name": "Panggungsari", "country": "ID", "coord": {"lon": 112.808197, "lat": -8.2682}}, {"id": 7034881, "name": "Panggunguni", "country": "ID", "coord": {"lon": 112.002403, "lat": -8.2027}}, {"id": 7375287, "name": "Panggungwinong", "country": "ID", "coord": {"lon": 112.287804, "lat": -8.2394}}, {"id": 7780933, "name": "Panghadangan", "country": "ID", "coord": {"lon": 105.897102, "lat": -6.3052}}, {"id": 6795865, "name": "Panghak-tong", "country": "KR", "coord": {"lon": 128.404694, "lat": 37.452099}}, {"id": 1872726, "name": "Panghyon-dong", "country": "KP", "coord": {"lon": 125.241386, "lat": 39.887218}}, {"id": 1695292, "name": "Pangian", "country": "PH", "coord": {"lon": 125.54528, "lat": 6.46278}}, {"id": 1695286, "name": "Pangil", "country": "PH", "coord": {"lon": 121.466667, "lat": 14.4}}, {"id": 1695283, "name": "Pangil", "country": "PH", "coord": {"lon": 121.468498, "lat": 14.4008}}, {"id": 1695284, "name": "Pangil", "country": "PH", "coord": {"lon": 120.907784, "lat": 14.20102}}, {"id": 1632724, "name": "Pangkajene", "country": "ID", "coord": {"lon": 119.547203, "lat": -4.8372}}, {"id": 1632714, "name": "Pangkalan", "country": "ID", "coord": {"lon": 111.490402, "lat": -6.6276}}, {"id": 7764791, "name": "Pangkalan", "country": "ID", "coord": {"lon": 105.757401, "lat": -6.5583}}, {"id": 7920402, "name": "Pangkalan", "country": "ID", "coord": {"lon": 107.884399, "lat": -7.1773}}, {"id": 8056499, "name": "Pangkalan", "country": "ID", "coord": {"lon": 111.0783, "lat": -6.6183}}, {"id": 1214302, "name": "Pangkalan Brandan", "country": "ID", "coord": {"lon": 98.278198, "lat": 4.0238}}, {"id": 1632694, "name": "Pangkalanbuun", "country": "ID", "coord": {"lon": 111.616669, "lat": -2.68333}}, {"id": 1632654, "name": "Pangkalpinang", "country": "ID", "coord": {"lon": 106.133331, "lat": -2.13333}}, {"id": 8080516, "name": "Pangkatrejo", "country": "ID", "coord": {"lon": 112.291901, "lat": -6.9815}}, {"id": 7084582, "name": "Pangkungparuk", "country": "ID", "coord": {"lon": 114.886902, "lat": -8.215}}, {"id": 8056796, "name": "Panglanjan", "country": "ID", "coord": {"lon": 108.512398, "lat": -7.6405}}, {"id": 1695262, "name": "Panglao", "country": "PH", "coord": {"lon": 123.745827, "lat": 9.57806}}, {"id": 7848422, "name": "Pangligaran", "country": "ID", "coord": {"lon": 107.770378, "lat": -7.60046}}, {"id": 6096551, "name": "Pangnirtung", "country": "CA", "coord": {"lon": -65.712517, "lat": 66.145111}}, {"id": 3933104, "name": "Pangoa", "country": "PE", "coord": {"lon": -73, "lat": -12.11667}}, {"id": 1695250, "name": "Pangobilian", "country": "PH", "coord": {"lon": 117.859444, "lat": 8.80111}}, {"id": 1495626, "name": "Pangody", "country": "RU", "coord": {"lon": 74.485931, "lat": 65.850021}}, {"id": 1695220, "name": "Pangpang", "country": "PH", "coord": {"lon": 120.309174, "lat": 15.93944}}, {"id": 1695227, "name": "Pangpang", "country": "PH", "coord": {"lon": 125.073997, "lat": 12.5692}}, {"id": 7844312, "name": "Pangradin Satu", "country": "ID", "coord": {"lon": 106.477303, "lat": -6.5084}}, {"id": 7914555, "name": "Pangrumasan", "country": "ID", "coord": {"lon": 107.897301, "lat": -7.5661}}, {"id": 8064284, "name": "Pangrumasan", "country": "ID", "coord": {"lon": 108.4077, "lat": -7.2046}}, {"id": 7685358, "name": "Pangu", "country": "CN", "coord": {"lon": 115.006897, "lat": 27.432119}}, {"id": 3877348, "name": "Panguipulli", "country": "CL", "coord": {"lon": -72.333328, "lat": -39.633331}}, {"id": 1695194, "name": "Panguiranan", "country": "PH", "coord": {"lon": 123.318512, "lat": 12.06986}}, {"id": 5544525, "name": "Panguitch", "country": "US", "coord": {"lon": -112.43576, "lat": 37.822762}}, {"id": 1695185, "name": "Pangulayan", "country": "PH", "coord": {"lon": 121.447922, "lat": 13.0398}}, {"id": 2404663, "name": "Panguma", "country": "SL", "coord": {"lon": -11.13333, "lat": 8.18333}}, {"id": 2088659, "name": "Panguna", "country": "PG", "coord": {"lon": 155.484833, "lat": -6.3164}}, {"id": 1214294, "name": "Panguruan", "country": "ID", "coord": {"lon": 98.696098, "lat": 2.6081}}, {"id": 1799075, "name": "Pangushan", "country": "CN", "coord": {"lon": 115.42234, "lat": 25.642799}}, {"id": 1695175, "name": "Pangyan", "country": "PH", "coord": {"lon": 125.281113, "lat": 5.70083}}, {"id": 1260488, "name": "Panhala", "country": "IN", "coord": {"lon": 74.116669, "lat": 16.816669}}, {"id": 5527980, "name": "Panhandle", "country": "US", "coord": {"lon": -101.38044, "lat": 35.3456}}, {"id": 1168399, "name": "Panhwar", "country": "PK", "coord": {"lon": 68.356438, "lat": 25.301809}}, {"id": 6536878, "name": "Panicale", "country": "IT", "coord": {"lon": 12.09935, "lat": 43.029541}}, {"id": 3171523, "name": "Panicale", "country": "IT", "coord": {"lon": 12.09935, "lat": 43.029541}}, {"id": 1260482, "name": "Panihati", "country": "IN", "coord": {"lon": 88.374443, "lat": 22.69417}}, {"id": 1695142, "name": "Panikian", "country": "PH", "coord": {"lon": 125.9338, "lat": 9.32935}}, {"id": 1695144, "name": "Panikian", "country": "PH", "coord": {"lon": 126.024178, "lat": 7.0107}}, {"id": 1695137, "name": "Panikihan", "country": "PH", "coord": {"lon": 122.13472, "lat": 13.90278}}, {"id": 7766022, "name": "Panimbang", "country": "ID", "coord": {"lon": 105.796097, "lat": -6.4943}}, {"id": 3993519, "name": "Panindicuaro de la Reforma", "country": "MX", "coord": {"lon": -101.76667, "lat": 19.966669}}, {"id": 8041416, "name": "Panineungan", "country": "ID", "coord": {"lon": 107.195602, "lat": -7.2725}}, {"id": 8054134, "name": "Paninggaran", "country": "ID", "coord": {"lon": 108.402397, "lat": -7.021}}, {"id": 512861, "name": "Panino", "country": "RU", "coord": {"lon": 40.134602, "lat": 51.646702}}, {"id": 512853, "name": "Panino", "country": "RU", "coord": {"lon": 39.25, "lat": 55.366669}}, {"id": 512838, "name": "Paninskiye Dvoriki", "country": "RU", "coord": {"lon": 40.299999, "lat": 54.466667}}, {"id": 3089496, "name": "Paniowki", "country": "PL", "coord": {"lon": 18.78104, "lat": 50.231392}}, {"id": 1260476, "name": "Panipat", "country": "IN", "coord": {"lon": 76.968063, "lat": 29.388889}}, {"id": 1695107, "name": "Panique", "country": "PH", "coord": {"lon": 122.015282, "lat": 12.47972}}, {"id": 1695103, "name": "Paniqui", "country": "PH", "coord": {"lon": 120.566673, "lat": 15.66667}}, {"id": 1695097, "name": "Paniqui", "country": "PH", "coord": {"lon": 120.580597, "lat": 15.6689}}, {"id": 1695100, "name": "Paniqui", "country": "PH", "coord": {"lon": 123.382103, "lat": 12.4532}}, {"id": 2988637, "name": "Panissieres", "country": "FR", "coord": {"lon": 4.33955, "lat": 45.79282}}, {"id": 6434218, "name": "Panissi\u00e8res", "country": "FR", "coord": {"lon": 4.33333, "lat": 45.783329}}, {"id": 1695082, "name": "Panitan", "country": "PH", "coord": {"lon": 122.772499, "lat": 11.466}}, {"id": 1695083, "name": "Panitian", "country": "PH", "coord": {"lon": 118.086403, "lat": 9.0965}}, {"id": 2855608, "name": "Panitzsch", "country": "DE", "coord": {"lon": 12.53317, "lat": 51.363209}}, {"id": 2659256, "name": "Panix", "country": "CH", "coord": {"lon": 9.11667, "lat": 46.816669}}, {"id": 6362887, "name": "Paniza", "country": "ES", "coord": {"lon": -1.20898, "lat": 41.268559}}, {"id": 3114422, "name": "Paniza", "country": "ES", "coord": {"lon": -1.21224, "lat": 41.284}}, {"id": 1220750, "name": "Panj", "country": "TJ", "coord": {"lon": 69.099113, "lat": 37.23634}}, {"id": 1131162, "name": "Panjab", "country": "AF", "coord": {"lon": 67.02327, "lat": 34.387951}}, {"id": 1220798, "name": "Panjakent", "country": "TJ", "coord": {"lon": 67.609306, "lat": 39.495239}}, {"id": 1632604, "name": "Panjalu", "country": "ID", "coord": {"lon": 108.266098, "lat": -7.1313}}, {"id": 1632598, "name": "Panjang", "country": "ID", "coord": {"lon": 105.319817, "lat": -5.4759}}, {"id": 1906551, "name": "Panjangjiwo", "country": "ID", "coord": {"lon": 112.764099, "lat": -7.3129}}, {"id": 1632568, "name": "Panjerrejo", "country": "ID", "coord": {"lon": 112.0177, "lat": -8.1382}}, {"id": 1168446, "name": "Panjgur", "country": "PK", "coord": {"lon": 64.090279, "lat": 26.96446}}, {"id": 1632566, "name": "Panji", "country": "ID", "coord": {"lon": 114.099541, "lat": -7.72528}}, {"id": 6824111, "name": "Panjiang", "country": "CN", "coord": {"lon": 103.124977, "lat": 24.01952}}, {"id": 1799060, "name": "Panjiawan", "country": "CN", "coord": {"lon": 107.306824, "lat": 34.340542}}, {"id": 1799061, "name": "Panjiawan", "country": "CN", "coord": {"lon": 111.199188, "lat": 30.22109}}, {"id": 1799056, "name": "Panjing", "country": "CN", "coord": {"lon": 116.528198, "lat": 25.05286}}, {"id": 7568369, "name": "Panjir", "country": "ID", "coord": {"lon": 120.407204, "lat": -10.025}}, {"id": 6957555, "name": "Panjshir", "country": "AF", "coord": {"lon": 69.98291, "lat": 35.402481}}, {"id": 6551759, "name": "Panker", "country": "DE", "coord": {"lon": 10.5667, "lat": 54.333302}}, {"id": 2855602, "name": "Panker", "country": "DE", "coord": {"lon": 10.56667, "lat": 54.333328}}, {"id": 3089494, "name": "Panki", "country": "PL", "coord": {"lon": 18.7516, "lat": 50.883331}}, {"id": 716611, "name": "Pankotaitanya", "country": "HU", "coord": {"lon": 22.26667, "lat": 47.916672}}, {"id": 512817, "name": "Pankovka", "country": "RU", "coord": {"lon": 31.1999, "lat": 58.500038}}, {"id": 512785, "name": "Pankratovskaya", "country": "RU", "coord": {"lon": 38.930279, "lat": 55.386944}}, {"id": 1495613, "name": "Pankrushikha", "country": "RU", "coord": {"lon": 80.340561, "lat": 53.83194}}, {"id": 2325060, "name": "Pankshin", "country": "NG", "coord": {"lon": 9.45, "lat": 9.33333}}, {"id": 899903, "name": "Panku", "country": "ZM", "coord": {"lon": 31.91715, "lat": -13.26846}}, {"id": 1695065, "name": "Panlaitan", "country": "PH", "coord": {"lon": 119.84861, "lat": 12.11907}}, {"id": 1799051, "name": "Panlian", "country": "CN", "coord": {"lon": 102.10836, "lat": 26.887779}}, {"id": 1695053, "name": "Panlinlang", "country": "PH", "coord": {"lon": 120.699997, "lat": 15.18333}}, {"id": 7367803, "name": "Panlong", "country": "CN", "coord": {"lon": 107.198273, "lat": 34.41811}}, {"id": 2153836, "name": "Panmure", "country": "AU", "coord": {"lon": 142.733337, "lat": -38.333328}}, {"id": 6232216, "name": "Panmure", "country": "NZ", "coord": {"lon": 174.866669, "lat": -36.883331}}, {"id": 1260454, "name": "Panna", "country": "IN", "coord": {"lon": 80.199997, "lat": 24.716667}}, {"id": 2640651, "name": "Pannal", "country": "GB", "coord": {"lon": -1.53573, "lat": 53.960312}}, {"id": 3171519, "name": "Pannarano", "country": "IT", "coord": {"lon": 14.70194, "lat": 41.009819}}, {"id": 2988634, "name": "Pannece", "country": "FR", "coord": {"lon": -1.2394, "lat": 47.485828}}, {"id": 6434488, "name": "Pannec\u00e9", "country": "FR", "coord": {"lon": -1.23333, "lat": 47.48333}}, {"id": 4214668, "name": "Pannell", "country": "US", "coord": {"lon": -83.674889, "lat": 33.768452}}, {"id": 2855589, "name": "Pannensch\u00f6pp", "country": "DE", "coord": {"lon": 6.05, "lat": 50.966671}}, {"id": 6434685, "name": "Pannes", "country": "FR", "coord": {"lon": 2.66667, "lat": 48.01667}}, {"id": 2988632, "name": "Pannes", "country": "FR", "coord": {"lon": 2.66755, "lat": 48.019371}}, {"id": 2855588, "name": "Pannewitz", "country": "DE", "coord": {"lon": 14.31667, "lat": 51.23333}}, {"id": 2855587, "name": "Pannewitz am Taucher", "country": "DE", "coord": {"lon": 14.25, "lat": 51.200001}}, {"id": 3171517, "name": "Panni", "country": "IT", "coord": {"lon": 15.27465, "lat": 41.222019}}, {"id": 4777858, "name": "Pannill Fork", "country": "US", "coord": {"lon": -80.0131, "lat": 36.70903}}, {"id": 3046693, "name": "Pannonhalma", "country": "HU", "coord": {"lon": 17.75535, "lat": 47.549461}}, {"id": 1168412, "name": "Pano Aqil", "country": "PK", "coord": {"lon": 69.111557, "lat": 27.85685}}, {"id": 146225, "name": "Pano Dheftera", "country": "CY", "coord": {"lon": 33.262501, "lat": 35.07917}}, {"id": 146216, "name": "Pano Polemidhia", "country": "CY", "coord": {"lon": 33, "lat": 34.700001}}, {"id": 1694898, "name": "Panognawan", "country": "PH", "coord": {"lon": 124.004997, "lat": 11.1619}}, {"id": 8070884, "name": "Panohan", "country": "ID", "coord": {"lon": 111.436996, "lat": -6.815}}, {"id": 4717434, "name": "Panola County", "country": "US", "coord": {"lon": -94.300201, "lat": 32.166828}}, {"id": 1632558, "name": "Panolan", "country": "ID", "coord": {"lon": 111.533401, "lat": -7.2246}}, {"id": 8025663, "name": "Panoongan", "country": "ID", "coord": {"lon": 108.205399, "lat": -7.1382}}, {"id": 4870654, "name": "Panora", "country": "US", "coord": {"lon": -94.363022, "lat": 41.69165}}, {"id": 3455251, "name": "Panorama", "country": "BR", "coord": {"lon": -51.859718, "lat": -21.35639}}, {"id": 966305, "name": "Panorama", "country": "ZA", "coord": {"lon": 31.89113, "lat": -28.75383}}, {"id": 734771, "name": "Panorama", "country": "GR", "coord": {"lon": 23.0315, "lat": 40.587791}}, {"id": 4717446, "name": "Panorama Village", "country": "US", "coord": {"lon": -95.493553, "lat": 30.381041}}, {"id": 255849, "name": "Panormos", "country": "GR", "coord": {"lon": 24.69091, "lat": 35.418152}}, {"id": 3521951, "name": "Panotla", "country": "MX", "coord": {"lon": -98.26667, "lat": 19.316669}}, {"id": 875310, "name": "Panovo", "country": "RU", "coord": {"lon": 44.048332, "lat": 56.375832}}, {"id": 512758, "name": "Panovo", "country": "RU", "coord": {"lon": 42.078335, "lat": 56.850277}}, {"id": 6800035, "name": "Panpo\u2019bon-dong", "country": "KR", "coord": {"lon": 126.987297, "lat": 37.506329}}, {"id": 2855582, "name": "Panrod", "country": "DE", "coord": {"lon": 8.13333, "lat": 50.26667}}, {"id": 1260448, "name": "Panruti", "country": "IN", "coord": {"lon": 79.550003, "lat": 11.76667}}, {"id": 6548727, "name": "Panschwitz-Kuckau", "country": "DE", "coord": {"lon": 14.2, "lat": 51.233299}}, {"id": 2855574, "name": "Panschwitz-Kuckau", "country": "DE", "coord": {"lon": 14.2, "lat": 51.23333}}, {"id": 2855572, "name": "Pansdorf", "country": "DE", "coord": {"lon": 10.70549, "lat": 53.981392}}, {"id": 1260447, "name": "Pansemal", "country": "IN", "coord": {"lon": 74.699997, "lat": 21.65}}, {"id": 2855568, "name": "Pansfelde", "country": "DE", "coord": {"lon": 11.26667, "lat": 51.650002}}, {"id": 2035513, "name": "Panshan", "country": "CN", "coord": {"lon": 122.049438, "lat": 41.188061}}, {"id": 2035511, "name": "Panshi", "country": "CN", "coord": {"lon": 126.056107, "lat": 42.942219}}, {"id": 1695002, "name": "Pansol", "country": "PH", "coord": {"lon": 121.243202, "lat": 13.8866}}, {"id": 1694992, "name": "Pansoy", "country": "PH", "coord": {"lon": 122.598892, "lat": 13.1825}}, {"id": 2640646, "name": "Pant", "country": "GB", "coord": {"lon": -3.06667, "lat": 52.783329}}, {"id": 1694988, "name": "Pantabangan", "country": "PH", "coord": {"lon": 121.144302, "lat": 15.8113}}, {"id": 1752256, "name": "Pantai Remis", "country": "MY", "coord": {"lon": 100.628799, "lat": 4.4557}}, {"id": 762684, "name": "Pantalowice", "country": "PL", "coord": {"lon": 22.435631, "lat": 49.952099}}, {"id": 3495313, "name": "Pantanal", "country": "DO", "coord": {"lon": -68.365578, "lat": 18.52688}}, {"id": 3993514, "name": "Pantanal", "country": "MX", "coord": {"lon": -104.866669, "lat": 21.433331}}, {"id": 7874482, "name": "Pantanal", "country": "BR", "coord": {"lon": -48.516479, "lat": -27.60985}}, {"id": 1799020, "name": "Pantang", "country": "CN", "coord": {"lon": 111.506157, "lat": 29.214729}}, {"id": 3455222, "name": "Pantano Grande", "country": "BR", "coord": {"lon": -52.373611, "lat": -30.191389}}, {"id": 3455223, "name": "Pantano do Sul", "country": "BR", "coord": {"lon": -48.50861, "lat": -27.77972}}, {"id": 1694964, "name": "Pantao", "country": "PH", "coord": {"lon": 123.327103, "lat": 13.1944}}, {"id": 1694957, "name": "Pantao-Ragat", "country": "PH", "coord": {"lon": 124.116669, "lat": 8.06667}}, {"id": 1694955, "name": "Pantao-Ragat", "country": "PH", "coord": {"lon": 124.133331, "lat": 8.08333}}, {"id": 1694956, "name": "Pantao-Ragat", "country": "PH", "coord": {"lon": 124.152496, "lat": 8.05667}}, {"id": 1694949, "name": "Pantar", "country": "PH", "coord": {"lon": 124.258331, "lat": 8.06611}}, {"id": 1694941, "name": "Pantay Na Matanda", "country": "PH", "coord": {"lon": 121.121109, "lat": 14.1175}}, {"id": 698008, "name": "Pantayivka", "country": "UA", "coord": {"lon": 32.884102, "lat": 48.674}}, {"id": 4717448, "name": "Pantego", "country": "US", "coord": {"lon": -97.156403, "lat": 32.714298}}, {"id": 698006, "name": "Panteleymonovka", "country": "UA", "coord": {"lon": 37.974281, "lat": 48.201809}}, {"id": 671382, "name": "Pantelimon", "country": "RO", "coord": {"lon": 26.200001, "lat": 44.450001}}, {"id": 671376, "name": "Pantelimon de Jos", "country": "RO", "coord": {"lon": 28.383329, "lat": 44.566669}}, {"id": 6548133, "name": "Pantelitz", "country": "DE", "coord": {"lon": 12.9667, "lat": 54.299999}}, {"id": 2855565, "name": "Pantelitz", "country": "DE", "coord": {"lon": 12.96667, "lat": 54.299999}}, {"id": 2523890, "name": "Pantelleria", "country": "IT", "coord": {"lon": 11.95, "lat": 36.833328}}, {"id": 6539114, "name": "Pantelleria", "country": "IT", "coord": {"lon": 11.94243, "lat": 36.827919}}, {"id": 6551488, "name": "Panten", "country": "DE", "coord": {"lon": 10.6167, "lat": 53.666698}}, {"id": 2855564, "name": "Panten", "country": "DE", "coord": {"lon": 10.61667, "lat": 53.666672}}, {"id": 8140950, "name": "Pantenan", "country": "ID", "coord": {"lon": 112.438103, "lat": -6.9199}}, {"id": 6554364, "name": "Pantenburg", "country": "DE", "coord": {"lon": 6.83333, "lat": 50.083302}}, {"id": 2855563, "name": "Pantenburg", "country": "DE", "coord": {"lon": 6.83333, "lat": 50.083328}}, {"id": 4214693, "name": "Panthersville", "country": "US", "coord": {"lon": -84.271873, "lat": 33.707329}}, {"id": 1632531, "name": "Panti", "country": "ID", "coord": {"lon": 113.6259, "lat": -8.1677}}, {"id": 671374, "name": "Panticeu", "country": "RO", "coord": {"lon": 23.566669, "lat": 47.033329}}, {"id": 3114415, "name": "Panticosa", "country": "ES", "coord": {"lon": -0.2817, "lat": 42.723808}}, {"id": 3171502, "name": "Pantigliate", "country": "IT", "coord": {"lon": 9.3522, "lat": 45.435261}}, {"id": 6537128, "name": "Pantigliate", "country": "IT", "coord": {"lon": 9.35355, "lat": 45.436771}}, {"id": 1694929, "name": "Pantijan No 2", "country": "PH", "coord": {"lon": 120.80056, "lat": 14.23306}}, {"id": 6452001, "name": "Pantin", "country": "FR", "coord": {"lon": 2.4, "lat": 48.900002}}, {"id": 2988621, "name": "Pantin", "country": "FR", "coord": {"lon": 2.40935, "lat": 48.894371}}, {"id": 2988443, "name": "Pantine", "country": "FR", "coord": {"lon": 9.44974, "lat": 42.748901}}, {"id": 3521945, "name": "Pantitl\u00e1n", "country": "MX", "coord": {"lon": -98.98333, "lat": 18.9}}, {"id": 4026952, "name": "Pantla", "country": "MX", "coord": {"lon": -101.616669, "lat": 17.75}}, {"id": 1260440, "name": "Pantnagar", "country": "IN", "coord": {"lon": 79.51667, "lat": 29.049999}}, {"id": 3495304, "name": "Pantoja", "country": "DO", "coord": {"lon": -70, "lat": 18.51667}}, {"id": 6361788, "name": "Pantoja", "country": "ES", "coord": {"lon": -3.82067, "lat": 40.044182}}, {"id": 3114411, "name": "Pantoja", "country": "ES", "coord": {"lon": -3.8328, "lat": 40.043362}}, {"id": 3114410, "name": "Panton", "country": "ES", "coord": {"lon": -7.6, "lat": 42.51667}}, {"id": 2153829, "name": "Panton Hill", "country": "AU", "coord": {"lon": 145.233337, "lat": -37.650002}}, {"id": 1694914, "name": "Pantubig", "country": "PH", "coord": {"lon": 120.95472, "lat": 14.96806}}, {"id": 1694911, "name": "Pantukan", "country": "PH", "coord": {"lon": 125.949997, "lat": 7.15}}, {"id": 1694909, "name": "Pantukan", "country": "PH", "coord": {"lon": 125.889717, "lat": 7.13528}}, {"id": 1693020, "name": "Pantukan", "country": "PH", "coord": {"lon": 125.89917, "lat": 7.16333}}, {"id": 6359201, "name": "Pant\u00f3n", "country": "ES", "coord": {"lon": -7.63756, "lat": 42.5089}}, {"id": 1958647, "name": "Panubigan", "country": "PH", "coord": {"lon": 123.346603, "lat": 7.4281}}, {"id": 3521941, "name": "Panuco", "country": "MX", "coord": {"lon": -98.166672, "lat": 22.049999}}, {"id": 3993492, "name": "Panuco de Coronado", "country": "MX", "coord": {"lon": -104.333328, "lat": 24.533331}}, {"id": 8018045, "name": "Panugeran", "country": "ID", "coord": {"lon": 108.103401, "lat": -7.3653}}, {"id": 1694895, "name": "Panukulan", "country": "PH", "coord": {"lon": 121.814438, "lat": 14.93333}}, {"id": 1632518, "name": "Panulisan", "country": "ID", "coord": {"lon": 108.579399, "lat": -7.3079}}, {"id": 7920372, "name": "Panunggangan", "country": "ID", "coord": {"lon": 107.887398, "lat": -7.2274}}, {"id": 8024130, "name": "Panututan", "country": "ID", "coord": {"lon": 108.208801, "lat": -7.341}}, {"id": 8045410, "name": "Panuusan", "country": "ID", "coord": {"lon": 108.312401, "lat": -7.4094}}, {"id": 1260434, "name": "Panvel", "country": "IN", "coord": {"lon": 73.099998, "lat": 18.98333}},