[{"id": 1522026, "name": "Krasnogorskiy", "country": "KZ", "coord": {"lon": 66.57444, "lat": 52.240559}}, {"id": 542356, "name": "Krasnogorskoye", "country": "RU", "coord": {"lon": 52.500019, "lat": 57.70829}}, {"id": 1502105, "name": "Krasnogorskoye", "country": "RU", "coord": {"lon": 86.197899, "lat": 52.2953}}, {"id": 542348, "name": "Krasnogor\u2019ye", "country": "RU", "coord": {"lon": 43.676388, "lat": 57.721111}}, {"id": 542345, "name": "Krasnogvardeyets", "country": "RU", "coord": {"lon": 52.363499, "lat": 52.680401}}, {"id": 1502100, "name": "Krasnogvardeyskiy", "country": "RU", "coord": {"lon": 62.319519, "lat": 57.37928}}, {"id": 542333, "name": "Krasnogvardeyskoye", "country": "RU", "coord": {"lon": 38.403599, "lat": 50.6492}}, {"id": 542335, "name": "Krasnogvardeyskoye", "country": "RU", "coord": {"lon": 39.57246, "lat": 45.1278}}, {"id": 542334, "name": "Krasnogvardeyskoye", "country": "RU", "coord": {"lon": 41.518612, "lat": 45.845554}}, {"id": 704388, "name": "Krasnohrad", "country": "UA", "coord": {"lon": 35.440208, "lat": 49.381401}}, {"id": 704381, "name": "Krasnohvardiys\u2019ke", "country": "UA", "coord": {"lon": 34.30024, "lat": 45.501621}}, {"id": 704377, "name": "Krasnokamenka", "country": "UA", "coord": {"lon": 34.283333, "lat": 44.566666}}, {"id": 1502096, "name": "Krasnokamensk", "country": "RU", "coord": {"lon": 93.259438, "lat": 54.333889}}, {"id": 2021618, "name": "Krasnokamensk", "country": "RU", "coord": {"lon": 118.036903, "lat": 50.0979}}, {"id": 542327, "name": "Krasnokamsk", "country": "RU", "coord": {"lon": 55.754108, "lat": 58.080158}}, {"id": 542322, "name": "Krasnokholm", "country": "RU", "coord": {"lon": 54.1567, "lat": 51.59787}}, {"id": 542965, "name": "Krasnokholmskiy", "country": "RU", "coord": {"lon": 55.046589, "lat": 55.987289}}, {"id": 542312, "name": "Krasnokumskoye", "country": "RU", "coord": {"lon": 43.501942, "lat": 44.178059}}, {"id": 704376, "name": "Krasnokutsk", "country": "UA", "coord": {"lon": 35.16275, "lat": 50.066021}}, {"id": 461705, "name": "Krasnolesnyy", "country": "RU", "coord": {"lon": 39.587719, "lat": 51.880718}}, {"id": 542308, "name": "Krasnolesskiy", "country": "RU", "coord": {"lon": 38.166672, "lat": 53.98333}}, {"id": 542298, "name": "Krasnomayskiy", "country": "RU", "coord": {"lon": 34.409882, "lat": 57.6194}}, {"id": 1502091, "name": "Krasnoobsk", "country": "RU", "coord": {"lon": 82.990898, "lat": 54.9198}}, {"id": 542294, "name": "Krasnooktyabr\u2019skiy", "country": "RU", "coord": {"lon": 40.081669, "lat": 44.579723}}, {"id": 1475271, "name": "Krasnoostrovskiy", "country": "TJ", "coord": {"lon": 68.680717, "lat": 37.348869}}, {"id": 541486, "name": "Krasnopartizanskoye", "country": "RU", "coord": {"lon": 39.778332, "lat": 46.069443}}, {"id": 704363, "name": "Krasnopavlivka", "country": "UA", "coord": {"lon": 36.327221, "lat": 49.137218}}, {"id": 704362, "name": "Krasnoperekopsk", "country": "UA", "coord": {"lon": 33.792221, "lat": 45.955002}}, {"id": 704360, "name": "Krasnopeshchernaya", "country": "UA", "coord": {"lon": 34.333332, "lat": 44.866669}}, {"id": 704343, "name": "Krasnopillya", "country": "UA", "coord": {"lon": 35.259651, "lat": 50.774578}}, {"id": 767610, "name": "Krasnopol", "country": "PL", "coord": {"lon": 23.20476, "lat": 54.116131}}, {"id": 2124185, "name": "Krasnorechensk", "country": "RU", "coord": {"lon": 158.449997, "lat": 53.150002}}, {"id": 2021613, "name": "Krasnorechenskiy", "country": "RU", "coord": {"lon": 135.353195, "lat": 44.626499}}, {"id": 704324, "name": "Krasnoselivka", "country": "UA", "coord": {"lon": 34.633331, "lat": 44.916668}}, {"id": 1502073, "name": "Krasnosel\u2019kup", "country": "RU", "coord": {"lon": 82.466667, "lat": 65.699997}}, {"id": 542235, "name": "Krasnosel\u2019skiy", "country": "RU", "coord": {"lon": 40.607498, "lat": 45.391941}}, {"id": 1502066, "name": "Krasnoshchekovo", "country": "RU", "coord": {"lon": 82.728889, "lat": 51.67083}}, {"id": 767608, "name": "Krasnosielc", "country": "PL", "coord": {"lon": 21.157351, "lat": 53.033779}}, {"id": 704335, "name": "Krasnosilka", "country": "UA", "coord": {"lon": 30.77421, "lat": 46.622581}}, {"id": 542213, "name": "Krasnoslobodsk", "country": "RU", "coord": {"lon": 44.571388, "lat": 48.707222}}, {"id": 542212, "name": "Krasnoslobodsk", "country": "RU", "coord": {"lon": 43.789631, "lat": 54.425301}}, {"id": 6198438, "name": "Krasnostolbinskiy", "country": "RU", "coord": {"lon": 47.115276, "lat": 56.264442}}, {"id": 704303, "name": "Krasnotorka", "country": "UA", "coord": {"lon": 37.532661, "lat": 48.682041}}, {"id": 1502063, "name": "Krasnoturansk", "country": "RU", "coord": {"lon": 91.563889, "lat": 54.318611}}, {"id": 1502061, "name": "Krasnoturinsk", "country": "RU", "coord": {"lon": 60.208599, "lat": 59.766602}}, {"id": 542199, "name": "Krasnoufimsk", "country": "RU", "coord": {"lon": 57.766861, "lat": 56.60585}}, {"id": 1502060, "name": "Krasnouralsk", "country": "RU", "coord": {"lon": 60.040699, "lat": 58.3638}}, {"id": 542185, "name": "Krasnovidovo", "country": "RU", "coord": {"lon": 36.945, "lat": 55.848888}}, {"id": 542184, "name": "Krasnovishersk", "country": "RU", "coord": {"lon": 57.081989, "lat": 60.407829}}, {"id": 542182, "name": "Krasnovka", "country": "RU", "coord": {"lon": 40.092258, "lat": 48.817692}}, {"id": 803572, "name": "Krasnovol'sk", "country": "RU", "coord": {"lon": 39.887222, "lat": 43.5425}}, {"id": 542160, "name": "Krasnovskiy", "country": "RU", "coord": {"lon": 41.963799, "lat": 50.3297}}, {"id": 609180, "name": "Krasnoyanov", "country": "KZ", "coord": {"lon": 50.733334, "lat": 51.450001}}, {"id": 1502041, "name": "Krasnoyarka", "country": "RU", "coord": {"lon": 73.116669, "lat": 55.333328}}, {"id": 1502026, "name": "Krasnoyarsk", "country": "RU", "coord": {"lon": 92.791672, "lat": 56.00972}}, {"id": 542143, "name": "Krasnoyarskaya", "country": "RU", "coord": {"lon": 42.0443, "lat": 47.650101}}, {"id": 795140, "name": "Krasnoyarskaya", "country": "RU", "coord": {"lon": 42.1856, "lat": 47.495499}}, {"id": 541346, "name": "Krasnoyarskiy", "country": "RU", "coord": {"lon": 42.284168, "lat": 48.404999}}, {"id": 542133, "name": "Krasnoyarskiy", "country": "RU", "coord": {"lon": 59.896671, "lat": 51.965}}, {"id": 1502020, "name": "Krasnoyarskiy Kray", "country": "RU", "coord": {"lon": 93, "lat": 58}}, {"id": 542109, "name": "Krasnoye", "country": "RU", "coord": {"lon": 38.79353, "lat": 52.864491}}, {"id": 542121, "name": "Krasnoye", "country": "RU", "coord": {"lon": 38.681702, "lat": 50.929699}}, {"id": 542125, "name": "Krasnoye", "country": "RU", "coord": {"lon": 39.564499, "lat": 46.737301}}, {"id": 1502013, "name": "Krasnoye", "country": "RU", "coord": {"lon": 85.3899, "lat": 54.6068}}, {"id": 542092, "name": "Krasnoye", "country": "RU", "coord": {"lon": 39.197224, "lat": 54.173332}}, {"id": 542075, "name": "Krasnoye", "country": "RU", "coord": {"lon": 42.700001, "lat": 56.200001}}, {"id": 542066, "name": "Krasnoye", "country": "RU", "coord": {"lon": 41.815556, "lat": 56.824165}}, {"id": 542073, "name": "Krasnoye", "country": "RU", "coord": {"lon": 40.5, "lat": 56.433334}}, {"id": 497626, "name": "Krasnoye", "country": "RU", "coord": {"lon": 42.237778, "lat": 59.642776}}, {"id": 839712, "name": "Krasnoye", "country": "RU", "coord": {"lon": 39.154167, "lat": 44.144444}}, {"id": 6416536, "name": "Krasnoye", "country": "RU", "coord": {"lon": 37.79491, "lat": 55.313721}}, {"id": 704277, "name": "Krasnoye", "country": "UA", "coord": {"lon": 24.6134, "lat": 49.914471}}, {"id": 1524192, "name": "Krasnoye Pole", "country": "KZ", "coord": {"lon": 77.052498, "lat": 43.347778}}, {"id": 542076, "name": "Krasnoye Selo", "country": "RU", "coord": {"lon": 40.450001, "lat": 56.166668}}, {"id": 704259, "name": "Krasnoye Selo", "country": "UA", "coord": {"lon": 35.083332, "lat": 45.016666}}, {"id": 542000, "name": "Krasnoye Selo", "country": "RU", "coord": {"lon": 30.089439, "lat": 59.738331}}, {"id": 704253, "name": "Krasnoye Znamya", "country": "UA", "coord": {"lon": 34.299999, "lat": 45.549999}}, {"id": 542024, "name": "Krasnoye-na-Volge", "country": "RU", "coord": {"lon": 41.241943, "lat": 57.512501}}, {"id": 541951, "name": "Krasnozatonskiy", "country": "RU", "coord": {"lon": 50.979389, "lat": 61.675781}}, {"id": 541950, "name": "Krasnozavodsk", "country": "RU", "coord": {"lon": 38.216671, "lat": 56.450001}}, {"id": 1501988, "name": "Krasnozerskoye", "country": "RU", "coord": {"lon": 79.23735, "lat": 53.982769}}, {"id": 6316236, "name": "Krasnoznamenka", "country": "RU", "coord": {"lon": 135.518051, "lat": 48.52972}}, {"id": 541947, "name": "Krasnoznamensk", "country": "RU", "coord": {"lon": 22.489719, "lat": 54.942219}}, {"id": 831153, "name": "Krasnoznamensk", "country": "RU", "coord": {"lon": 36.98333, "lat": 55.599998}}, {"id": 6417459, "name": "Krasnoznamensk", "country": "RU", "coord": {"lon": 37.038609, "lat": 55.599442}}, {"id": 1521998, "name": "Krasnoznamenskoe", "country": "KZ", "coord": {"lon": 69.474167, "lat": 51.053059}}, {"id": 7532093, "name": "Krasnystaw", "country": "PL", "coord": {"lon": 23.1724, "lat": 50.984959}}, {"id": 767605, "name": "Krasnystaw", "country": "PL", "coord": {"lon": 23.1742, "lat": 50.984638}}, {"id": 541867, "name": "Krasnyy", "country": "RU", "coord": {"lon": 31.433332, "lat": 54.56778}}, {"id": 704232, "name": "Krasnyy", "country": "UA", "coord": {"lon": 23.700001, "lat": 48.616669}}, {"id": 541844, "name": "Krasnyy Bogatyr", "country": "RU", "coord": {"lon": 41.129581, "lat": 56.01453}}, {"id": 541826, "name": "Krasnyy Bor", "country": "RU", "coord": {"lon": 30.66806, "lat": 59.681938}}, {"id": 2012349, "name": "Krasnyy Chikoy", "country": "RU", "coord": {"lon": 108.751198, "lat": 50.3643}}, {"id": 541724, "name": "Krasnyy Gorod Sad", "country": "RU", "coord": {"lon": 39.639999, "lat": 47.20639}}, {"id": 541722, "name": "Krasnyy Gulyay", "country": "RU", "coord": {"lon": 48.333271, "lat": 54.02821}}, {"id": 541704, "name": "Krasnyy Kholm", "country": "RU", "coord": {"lon": 37.120319, "lat": 58.060699}}, {"id": 541679, "name": "Krasnyy Klyuch", "country": "RU", "coord": {"lon": 56.65287, "lat": 55.38625}}, {"id": 857649, "name": "Krasnyy Kolos", "country": "RU", "coord": {"lon": 39.948334, "lat": 47.403057}}, {"id": 864018, "name": "Krasnyy Kommunar", "country": "RU", "coord": {"lon": 55.366798, "lat": 51.964359}}, {"id": 797527, "name": "Krasnyy Kurgan", "country": "RU", "coord": {"lon": 37.337502, "lat": 45.013729}}, {"id": 541661, "name": "Krasnyy Kurgan", "country": "RU", "coord": {"lon": 42.610828, "lat": 43.942219}}, {"id": 541647, "name": "Krasnyy Kut", "country": "RU", "coord": {"lon": 46.966671, "lat": 50.950001}}, {"id": 795163, "name": "Krasnyy Kut", "country": "RU", "coord": {"lon": 42.445278, "lat": 47.133057}}, {"id": 704207, "name": "Krasnyy Kut", "country": "UA", "coord": {"lon": 38.797649, "lat": 48.201382}}, {"id": 704204, "name": "Krasnyy Liman", "country": "UA", "coord": {"lon": 37.80225, "lat": 48.988361}}, {"id": 541629, "name": "Krasnyy Luch", "country": "RU", "coord": {"lon": 30.090321, "lat": 57.066761}}, {"id": 541631, "name": "Krasnyy Luch", "country": "RU", "coord": {"lon": 38.972221, "lat": 55.965279}}, {"id": 704202, "name": "Krasnyy Luch", "country": "UA", "coord": {"lon": 38.937149, "lat": 48.139542}}, {"id": 704201, "name": "Krasnyy Mak", "country": "UA", "coord": {"lon": 33.783333, "lat": 44.650002}}, {"id": 541549, "name": "Krasnyy Oktyabr", "country": "RU", "coord": {"lon": 38.883331, "lat": 56.116669}}, {"id": 541550, "name": "Krasnyy Oktyabr", "country": "RU", "coord": {"lon": 41.383949, "lat": 56.10347}}, {"id": 541573, "name": "Krasnyy Oktyabr", "country": "RU", "coord": {"lon": 45.703819, "lat": 51.54018}}, {"id": 1501925, "name": "Krasnyy Oktyabr", "country": "RU", "coord": {"lon": 64.813332, "lat": 55.65667}}, {"id": 541552, "name": "Krasnyy Oktyabr\u2019", "country": "RU", "coord": {"lon": 36.511112, "lat": 55.619446}}, {"id": 541547, "name": "Krasnyy Oktyabr\u2019", "country": "RU", "coord": {"lon": 44.566666, "lat": 48.766666}}, {"id": 812877, "name": "Krasnyy Oktyabr\u2019", "country": "UA", "coord": {"lon": 36.025558, "lat": 49.778889}}, {"id": 549887, "name": "Krasnyy Oktyabr\u2019", "country": "RU", "coord": {"lon": 41.981571, "lat": 47.027111}}, {"id": 541520, "name": "Krasnyy Pakhar\u2019", "country": "RU", "coord": {"lon": 43.099998, "lat": 44.200001}}, {"id": 810074, "name": "Krasnyy Pakhar\u2019", "country": "UA", "coord": {"lon": 38.305, "lat": 48.286671}}, {"id": 541484, "name": "Krasnyy Partizan", "country": "RU", "coord": {"lon": 39.761112, "lat": 46.394722}}, {"id": 7018274, "name": "Krasnyy Partyzan", "country": "UA", "coord": {"lon": 34.20821, "lat": 45.406109}}, {"id": 541458, "name": "Krasnyy Pos\u00eblok", "country": "RU", "coord": {"lon": 38.150002, "lat": 56.116669}}, {"id": 818968, "name": "Krasnyy Pos\u00eblok", "country": "RU", "coord": {"lon": 39.339722, "lat": 54.651669}}, {"id": 626579, "name": "Krasnyy Pos\u00eblok", "country": "BY", "coord": {"lon": 30.583332, "lat": 54.533333}}, {"id": 541446, "name": "Krasnyy Profintern", "country": "RU", "coord": {"lon": 40.43502, "lat": 57.744591}}, {"id": 8037857, "name": "Krasnyy Prohres", "country": "UA", "coord": {"lon": 34.036709, "lat": 52.158852}}, {"id": 1521975, "name": "Krasnyy Rybak", "country": "KZ", "coord": {"lon": 61.599998, "lat": 45.183334}}, {"id": 857673, "name": "Krasnyy Sad", "country": "RU", "coord": {"lon": 39.728611, "lat": 47.097778}}, {"id": 704183, "name": "Krasnyy Shlyakh", "country": "UA", "coord": {"lon": 29.433332, "lat": 50.366669}}, {"id": 541404, "name": "Krasnyy Sulin", "country": "RU", "coord": {"lon": 40.07037, "lat": 47.892208}}, {"id": 541402, "name": "Krasnyy Tekstil\u2019shchik", "country": "RU", "coord": {"lon": 45.83482, "lat": 51.360199}}, {"id": 541401, "name": "Krasnyy Tkach", "country": "RU", "coord": {"lon": 39.08017, "lat": 55.472099}}, {"id": 541383, "name": "Krasnyy Ugol", "country": "RU", "coord": {"lon": 38.700001, "lat": 56.033333}}, {"id": 819360, "name": "Krasnyy Voskhod", "country": "RU", "coord": {"lon": 39.888332, "lat": 54.695}}, {"id": 541341, "name": "Krasnyy Yar", "country": "RU", "coord": {"lon": 46.421669, "lat": 51.629169}}, {"id": 541344, "name": "Krasnyy Yar", "country": "RU", "coord": {"lon": 44.727921, "lat": 50.696522}}, {"id": 541349, "name": "Krasnyy Yar", "country": "RU", "coord": {"lon": 48.345589, "lat": 46.533138}}, {"id": 1501876, "name": "Krasnyy Yar", "country": "RU", "coord": {"lon": 84.530281, "lat": 57.127499}}, {"id": 1501887, "name": "Krasnyy Yar", "country": "RU", "coord": {"lon": 72.926353, "lat": 55.24242}}, {"id": 541330, "name": "Krasnyy Yar", "country": "RU", "coord": {"lon": 40.349998, "lat": 54.816666}}, {"id": 541337, "name": "Krasnyy Yar", "country": "RU", "coord": {"lon": 50.39312, "lat": 53.499882}}, {"id": 541796, "name": "Krasnyye Baki", "country": "RU", "coord": {"lon": 45.15992, "lat": 57.131001}}, {"id": 541795, "name": "Krasnyye Barrikady", "country": "RU", "coord": {"lon": 47.8535, "lat": 46.204498}}, {"id": 541792, "name": "Krasnyye Chelny", "country": "RU", "coord": {"lon": 52.349998, "lat": 55.700001}}, {"id": 541791, "name": "Krasnyye Chetai", "country": "RU", "coord": {"lon": 46.138649, "lat": 55.688709}}, {"id": 541784, "name": "Krasnyye Gorki", "country": "RU", "coord": {"lon": 29.91716, "lat": 57.532009}}, {"id": 704218, "name": "Krasnyye Partizany", "country": "UA", "coord": {"lon": 31.783333, "lat": 50.950001}}, {"id": 541747, "name": "Krasnyye Tkachi", "country": "RU", "coord": {"lon": 39.75629, "lat": 57.492592}}, {"id": 767604, "name": "Krasocin", "country": "PL", "coord": {"lon": 20.118629, "lat": 50.888741}}, {"id": 2884699, "name": "Krassolzheim", "country": "DE", "coord": {"lon": 10.35, "lat": 49.599998}}, {"id": 704492, "name": "Krasyliv", "country": "UA", "coord": {"lon": 26.972521, "lat": 49.651859}}, {"id": 541288, "name": "Krasyukovskaya", "country": "RU", "coord": {"lon": 40.108849, "lat": 47.552219}}, {"id": 541289, "name": "Krasyukovskaya", "country": "RU", "coord": {"lon": 40.079521, "lat": 47.520981}}, {"id": 3094746, "name": "Kraszewice", "country": "PL", "coord": {"lon": 18.219971, "lat": 51.518681}}, {"id": 1609395, "name": "Krathum Baen", "country": "TH", "coord": {"lon": 100.25972, "lat": 13.6533}}, {"id": 1830564, "name": "Kratie", "country": "KH", "coord": {"lon": 106.018791, "lat": 12.48811}}, {"id": 8180942, "name": "Kraton", "country": "ID", "coord": {"lon": 113.3489, "lat": -8.2997}}, {"id": 8195479, "name": "Kraton", "country": "ID", "coord": {"lon": 113.677299, "lat": -8.3849}}, {"id": 541286, "name": "Kratovo", "country": "RU", "coord": {"lon": 38.204723, "lat": 55.586945}}, {"id": 789091, "name": "Kratovo", "country": "MK", "coord": {"lon": 22.181391, "lat": 42.07917}}, {"id": 2773581, "name": "Kratschach", "country": "AT", "coord": {"lon": 13.9, "lat": 46.599998}}, {"id": 7286220, "name": "Krattigen", "country": "CH", "coord": {"lon": 7.7402, "lat": 46.650249}}, {"id": 2660113, "name": "Krattigen", "country": "CH", "coord": {"lon": 7.72777, "lat": 46.661388}}, {"id": 6548008, "name": "Kratzeburg", "country": "DE", "coord": {"lon": 12.95, "lat": 53.4333}}, {"id": 2884680, "name": "Kratzeburg", "country": "DE", "coord": {"lon": 12.94138, "lat": 53.429379}}, {"id": 6553916, "name": "Kratzenburg", "country": "DE", "coord": {"lon": 7.55, "lat": 50.1833}}, {"id": 2884677, "name": "Kratzenburg", "country": "DE", "coord": {"lon": 7.55, "lat": 50.183331}}, {"id": 7873484, "name": "Kraubath an der Mur", "country": "AT", "coord": {"lon": 14.91739, "lat": 47.319698}}, {"id": 2773577, "name": "Kraubath an der Mur", "country": "AT", "coord": {"lon": 14.93333, "lat": 47.299999}}, {"id": 6556086, "name": "Krauchenwies", "country": "DE", "coord": {"lon": 9.25, "lat": 48.033298}}, {"id": 2884667, "name": "Krauchenwies", "country": "DE", "coord": {"lon": 9.25, "lat": 48.033329}}, {"id": 7286221, "name": "Krauchthal", "country": "CH", "coord": {"lon": 7.56236, "lat": 47.009628}}, {"id": 2660112, "name": "Krauchthal", "country": "CH", "coord": {"lon": 7.5664, "lat": 47.00964}}, {"id": 2884664, "name": "Kraupa", "country": "DE", "coord": {"lon": 13.5, "lat": 51.5}}, {"id": 6548641, "name": "Krauschwitz", "country": "DE", "coord": {"lon": 14.7, "lat": 51.516701}}, {"id": 2884656, "name": "Krauschwitz", "country": "DE", "coord": {"lon": 14.7, "lat": 51.51667}}, {"id": 6549244, "name": "Krauschwitz", "country": "DE", "coord": {"lon": 11.9667, "lat": 51.116699}}, {"id": 2884657, "name": "Krauschwitz", "country": "DE", "coord": {"lon": 11.96667, "lat": 51.116669}}, {"id": 2884658, "name": "Krausch\u00fctz", "country": "DE", "coord": {"lon": 13.53333, "lat": 51.450001}}, {"id": 2884647, "name": "Krausnick", "country": "DE", "coord": {"lon": 13.83333, "lat": 52.033329}}, {"id": 3011425, "name": "Krautergersheim", "country": "FR", "coord": {"lon": 7.56718, "lat": 48.476341}}, {"id": 6549882, "name": "Krauthausen", "country": "DE", "coord": {"lon": 10.2673, "lat": 50.959099}}, {"id": 2884628, "name": "Krauthausen", "country": "DE", "coord": {"lon": 10.26667, "lat": 51.01667}}, {"id": 2884625, "name": "Krautheim", "country": "DE", "coord": {"lon": 9.63389, "lat": 49.386391}}, {"id": 6550256, "name": "Krautheim", "country": "DE", "coord": {"lon": 11.3, "lat": 51.083302}}, {"id": 2884623, "name": "Krautheim", "country": "DE", "coord": {"lon": 11.3, "lat": 51.083328}}, {"id": 6554559, "name": "Krautscheid", "country": "DE", "coord": {"lon": 6.33333, "lat": 50.0667}}, {"id": 2884611, "name": "Krautscheid", "country": "DE", "coord": {"lon": 6.33333, "lat": 50.066669}}, {"id": 3072841, "name": "Kravare", "country": "CZ", "coord": {"lon": 18.004721, "lat": 49.93203}}, {"id": 3197338, "name": "Kravarsko", "country": "HR", "coord": {"lon": 16.049999, "lat": 45.583328}}, {"id": 804443, "name": "Kravchenko", "country": "RU", "coord": {"lon": 38.038059, "lat": 44.897221}}, {"id": 817409, "name": "Kravtsovo", "country": "RU", "coord": {"lon": 37.807701, "lat": 55.05442}}, {"id": 2884608, "name": "Krawinkel", "country": "DE", "coord": {"lon": 7.36667, "lat": 50.833328}}, {"id": 2884607, "name": "Krawinkel", "country": "DE", "coord": {"lon": 11.61667, "lat": 51.200001}}, {"id": 2884604, "name": "Kraxenh\u00f6fen", "country": "DE", "coord": {"lon": 12.18333, "lat": 48.849998}}, {"id": 827658, "name": "Krayniye Sheshmary", "country": "RU", "coord": {"lon": 46.184444, "lat": 56.140835}}, {"id": 7532072, "name": "Kra\u015bnik", "country": "PL", "coord": {"lon": 22.213301, "lat": 50.943401}}, {"id": 789076, "name": "Krcedin", "country": "RS", "coord": {"lon": 20.132219, "lat": 45.139999}}, {"id": 6552340, "name": "Krebeck", "country": "DE", "coord": {"lon": 10.1167, "lat": 51.583302}}, {"id": 2884597, "name": "Krebeck", "country": "DE", "coord": {"lon": 10.11667, "lat": 51.583328}}, {"id": 1965437, "name": "Krebet", "country": "ID", "coord": {"lon": 112.637703, "lat": -8.0944}}, {"id": 8185050, "name": "Krebetkrajan", "country": "ID", "coord": {"lon": 113.396698, "lat": -8.2967}}, {"id": 4540422, "name": "Krebs", "country": "US", "coord": {"lon": -95.71582, "lat": 34.927872}}, {"id": 541256, "name": "Krechevitsy", "country": "RU", "coord": {"lon": 31.401011, "lat": 58.617031}}, {"id": 2884520, "name": "Krecklenburg", "country": "DE", "coord": {"lon": 6.98333, "lat": 51.083328}}, {"id": 2884517, "name": "Kredenbach", "country": "DE", "coord": {"lon": 9.5325, "lat": 49.850281}}, {"id": 2884509, "name": "Krefeld", "country": "DE", "coord": {"lon": 6.56667, "lat": 51.333328}}, {"id": 6548365, "name": "Kreien", "country": "DE", "coord": {"lon": 12.05, "lat": 53.400002}}, {"id": 2884490, "name": "Kreien", "country": "DE", "coord": {"lon": 12.05544, "lat": 53.40749}}, {"id": 6552381, "name": "Kreiensen", "country": "DE", "coord": {"lon": 9.96667, "lat": 51.866699}}, {"id": 2884482, "name": "Kreiensen", "country": "DE", "coord": {"lon": 9.96667, "lat": 51.866669}}, {"id": 6555118, "name": "Kreimbach-Kaulbach", "country": "DE", "coord": {"lon": 7.63333, "lat": 49.549999}}, {"id": 3207528, "name": "Kreimbach-Kaulbach", "country": "DE", "coord": {"lon": 7.63333, "lat": 49.549999}}, {"id": 3247441, "name": "Kreis Borken", "country": "DE", "coord": {"lon": 6.9225, "lat": 51.957779}}, {"id": 2939944, "name": "Kreis Coesfeld", "country": "DE", "coord": {"lon": 7.36472, "lat": 51.870831}}, {"id": 3249069, "name": "Kreis Dithmarschen", "country": "DE", "coord": {"lon": 9.05556, "lat": 54.131672}}, {"id": 3247453, "name": "Kreis D\u00fcren", "country": "DE", "coord": {"lon": 6.46944, "lat": 50.827782}}, {"id": 3247452, "name": "Kreis Euskirchen", "country": "DE", "coord": {"lon": 6.65528, "lat": 50.54583}}, {"id": 3221127, "name": "Kreis G\u00fctersloh", "country": "DE", "coord": {"lon": 8.32444, "lat": 51.92944}}, {"id": 3247455, "name": "Kreis Heinsberg", "country": "DE", "coord": {"lon": 6.15361, "lat": 51.049999}}, {"id": 3221129, "name": "Kreis Herford", "country": "DE", "coord": {"lon": 8.66194, "lat": 52.189442}}, {"id": 2905434, "name": "Kreis Herzogtum Lauenburg", "country": "DE", "coord": {"lon": 10.625, "lat": 53.607498}}, {"id": 3231882, "name": "Kreis H\u00f6xter", "country": "DE", "coord": {"lon": 9.19583, "lat": 51.680561}}, {"id": 3231905, "name": "Kreis Kleve", "country": "DE", "coord": {"lon": 6.22917, "lat": 51.628059}}, {"id": 2876922, "name": "Kreis Lippe", "country": "DE", "coord": {"lon": 8.95278, "lat": 51.99472}}, {"id": 2871034, "name": "Kreis Minden-L\u00fcbbecke", "country": "DE", "coord": {"lon": 8.75, "lat": 52.333328}}, {"id": 3247434, "name": "Kreis Neuss", "country": "DE", "coord": {"lon": 6.65389, "lat": 51.165279}}, {"id": 3249073, "name": "Kreis Nordfriesland", "country": "DE", "coord": {"lon": 8.9675, "lat": 54.583889}}, {"id": 3221122, "name": "Kreis Olpe", "country": "DE", "coord": {"lon": 7.97306, "lat": 51.10944}}, {"id": 3231898, "name": "Kreis Paderborn", "country": "DE", "coord": {"lon": 8.74917, "lat": 51.680561}}, {"id": 2853657, "name": "Kreis Pinneberg", "country": "DE", "coord": {"lon": 9.75722, "lat": 53.73444}}, {"id": 2853161, "name": "Kreis Pl\u00f6n", "country": "DE", "coord": {"lon": 10.36972, "lat": 54.233608}}, {"id": 3249075, "name": "Kreis Rendsburg-Eckernf\u00f6rde", "country": "DE", "coord": {"lon": 9.76083, "lat": 54.32222}}, {"id": 2838633, "name": "Kreis Schleswig-Flensburg", "country": "DE", "coord": {"lon": 9.46917, "lat": 54.577782}}, {"id": 3249076, "name": "Kreis Segeberg", "country": "DE", "coord": {"lon": 10.18722, "lat": 53.95472}}, {"id": 3221123, "name": "Kreis Siegen-Wittgenstein", "country": "DE", "coord": {"lon": 8.23972, "lat": 50.974442}}, {"id": 3221124, "name": "Kreis Soest", "country": "DE", "coord": {"lon": 8.20444, "lat": 51.56694}}, {"id": 3249077, "name": "Kreis Steinburg", "country": "DE", "coord": {"lon": 9.50361, "lat": 53.93306}}, {"id": 3247443, "name": "Kreis Steinfurt", "country": "DE", "coord": {"lon": 7.585, "lat": 52.213612}}, {"id": 3249078, "name": "Kreis Stormarn", "country": "DE", "coord": {"lon": 10.33111, "lat": 53.764721}}, {"id": 2820086, "name": "Kreis Unna", "country": "DE", "coord": {"lon": 7.7175, "lat": 51.568611}}, {"id": 3247436, "name": "Kreis Viersen", "country": "DE", "coord": {"lon": 6.34556, "lat": 51.290829}}, {"id": 3247444, "name": "Kreis Warendorf", "country": "DE", "coord": {"lon": 7.94694, "lat": 51.89917}}, {"id": 2810674, "name": "Kreis Wesel", "country": "DE", "coord": {"lon": 6.63917, "lat": 51.643608}}, {"id": 6548707, "name": "Kreischa", "country": "DE", "coord": {"lon": 13.7667, "lat": 50.950001}}, {"id": 2884451, "name": "Kreischa", "country": "DE", "coord": {"lon": 13.75514, "lat": 50.945339}}, {"id": 2884448, "name": "Kreischau", "country": "DE", "coord": {"lon": 13.02944, "lat": 51.570992}}, {"id": 2884444, "name": "Kreisfeld", "country": "DE", "coord": {"lon": 11.48333, "lat": 51.533329}}, {"id": 3220890, "name": "Kreisfreie Stadt Aschaffenburg", "country": "DE", "coord": {"lon": 9.14778, "lat": 49.966942}}, {"id": 3221125, "name": "Kreisfreie Stadt Bielefeld", "country": "DE", "coord": {"lon": 8.55861, "lat": 52.017502}}, {"id": 3247450, "name": "Kreisfreie Stadt Bonn", "country": "DE", "coord": {"lon": 7.11139, "lat": 50.715832}}, {"id": 2892916, "name": "Kreisfreie Stadt Chemnitz", "country": "DE", "coord": {"lon": 12.93611, "lat": 50.83194}}, {"id": 2935020, "name": "Kreisfreie Stadt Dresden", "country": "DE", "coord": {"lon": 13.73333, "lat": 51.049999}}, {"id": 3231904, "name": "Kreisfreie Stadt Essen", "country": "DE", "coord": {"lon": 7.01597, "lat": 51.45829}}, {"id": 3220968, "name": "Kreisfreie Stadt Frankfurt am Main", "country": "DE", "coord": {"lon": 8.66361, "lat": 50.130829}}, {"id": 2918985, "name": "Kreisfreie Stadt G\u00f6rlitz", "country": "DE", "coord": {"lon": 14.975, "lat": 51.148891}}, {"id": 3221111, "name": "Kreisfreie Stadt Hamm", "country": "DE", "coord": {"lon": 7.825, "lat": 51.67194}}, {"id": 3220995, "name": "Kreisfreie Stadt Kassel", "country": "DE", "coord": {"lon": 9.46722, "lat": 51.32111}}, {"id": 2879137, "name": "Kreisfreie Stadt Leipzig", "country": "DE", "coord": {"lon": 12.33333, "lat": 51.333328}}, {"id": 3249071, "name": "Kreisfreie Stadt L\u00fcbeck", "country": "DE", "coord": {"lon": 10.74361, "lat": 53.89333}}, {"id": 3220812, "name": "Kreisfreie Stadt Passau", "country": "DE", "coord": {"lon": 13.43306, "lat": 48.58194}}, {"id": 3247911, "name": "Kreisfreie Stadt Trier", "country": "DE", "coord": {"lon": 6.675, "lat": 49.769169}}, {"id": 3221100, "name": "Kreisfreie Stadt Wilhelmshaven", "country": "DE", "coord": {"lon": 8.08417, "lat": 53.570278}}, {"id": 2803558, "name": "Kreisfreie Stadt Zwickau", "country": "DE", "coord": {"lon": 12.48333, "lat": 50.716671}}, {"id": 2884426, "name": "Kreitz", "country": "DE", "coord": {"lon": 6.65, "lat": 51.166672}}, {"id": 2793992, "name": "Krekelberg", "country": "BE", "coord": {"lon": 3.6, "lat": 50.75}}, {"id": 541250, "name": "Krekhtino", "country": "RU", "coord": {"lon": 39.416668, "lat": 55.266666}}, {"id": 2884421, "name": "Krelau", "country": "DE", "coord": {"lon": 9.2, "lat": 54.366669}}, {"id": 408684, "name": "Kremasti", "country": "GR", "coord": {"lon": 28.118931, "lat": 36.411121}}, {"id": 6548194, "name": "Krembz", "country": "DE", "coord": {"lon": 11.0667, "lat": 53.650002}}, {"id": 2884415, "name": "Krembz", "country": "DE", "coord": {"lon": 11.06667, "lat": 53.650002}}, {"id": 704147, "name": "Kremenchuk", "country": "UA", "coord": {"lon": 33.41972, "lat": 49.097252}}, {"id": 704143, "name": "Kremenets", "country": "UA", "coord": {"lon": 25.72459, "lat": 50.096931}}, {"id": 541235, "name": "Kremenki", "country": "RU", "coord": {"lon": 37.12611, "lat": 54.884998}}, {"id": 704138, "name": "Kreminna", "country": "UA", "coord": {"lon": 38.217918, "lat": 49.0495}}, {"id": 2884407, "name": "Kremkau", "country": "DE", "coord": {"lon": 11.45, "lat": 52.633331}}, {"id": 2884403, "name": "Kremmen", "country": "DE", "coord": {"lon": 13.02515, "lat": 52.762161}}, {"id": 6547950, "name": "Kremmin", "country": "DE", "coord": {"lon": 11.6, "lat": 53.25}}, {"id": 2884396, "name": "Kremmin", "country": "DE", "coord": {"lon": 11.6, "lat": 53.25}}, {"id": 5578775, "name": "Kremmling", "country": "US", "coord": {"lon": -106.388924, "lat": 40.058868}}, {"id": 3059282, "name": "Kremnica", "country": "SK", "coord": {"lon": 18.918341, "lat": 48.705189}}, {"id": 2021552, "name": "Kremovo", "country": "RU", "coord": {"lon": 132.266937, "lat": 44.045834}}, {"id": 6552205, "name": "Krempdorf", "country": "DE", "coord": {"lon": 9.46667, "lat": 53.833302}}, {"id": 3208304, "name": "Krempdorf", "country": "DE", "coord": {"lon": 9.46667, "lat": 53.833328}}, {"id": 2884393, "name": "Krempe", "country": "DE", "coord": {"lon": 9.48333, "lat": 53.833328}}, {"id": 6551342, "name": "Krempel", "country": "DE", "coord": {"lon": 9.03333, "lat": 54.3167}}, {"id": 2884391, "name": "Krempel", "country": "DE", "coord": {"lon": 9.03333, "lat": 54.316669}}, {"id": 6552206, "name": "Kremperheide", "country": "DE", "coord": {"lon": 9.47807, "lat": 53.887199}}, {"id": 2884380, "name": "Kremperheide", "country": "DE", "coord": {"lon": 9.47809, "lat": 53.887211}}, {"id": 6552207, "name": "Krempermoor", "country": "DE", "coord": {"lon": 9.48079, "lat": 53.877102}}, {"id": 2884377, "name": "Krempermoor", "country": "DE", "coord": {"lon": 9.48084, "lat": 53.877102}}, {"id": 2884375, "name": "Krempin", "country": "DE", "coord": {"lon": 11.71667, "lat": 54.01667}}, {"id": 767561, "name": "Krempna", "country": "PL", "coord": {"lon": 21.50042, "lat": 49.51128}}, {"id": 3209084, "name": "Krems I", "country": "DE", "coord": {"lon": 10.25, "lat": 53.849998}}, {"id": 7871496, "name": "Krems an der Donau", "country": "AT", "coord": {"lon": 15.61944, "lat": 48.40855}}, {"id": 2773547, "name": "Krems an der Donau", "country": "AT", "coord": {"lon": 15.60574, "lat": 48.4104}}, {"id": 2773549, "name": "Krems an der Donau", "country": "AT", "coord": {"lon": 15.61415, "lat": 48.40921}}, {"id": 2773538, "name": "Kremsmunster", "country": "AT", "coord": {"lon": 14.12919, "lat": 48.052898}}, {"id": 7871034, "name": "Kremsm\u00fcnster", "country": "AT", "coord": {"lon": 14.12842, "lat": 48.053009}}, {"id": 2773536, "name": "Kremsthal", "country": "AT", "coord": {"lon": 15.6, "lat": 48.416672}}, {"id": 3072781, "name": "Kremze", "country": "CZ", "coord": {"lon": 14.30568, "lat": 48.904968}}, {"id": 704121, "name": "Krenichi", "country": "UA", "coord": {"lon": 30.505831, "lat": 50.241291}}, {"id": 3072771, "name": "Krenovice", "country": "CZ", "coord": {"lon": 16.829321, "lat": 49.142159}}, {"id": 7871583, "name": "Krensdorf", "country": "AT", "coord": {"lon": 16.42033, "lat": 47.786331}}, {"id": 2773528, "name": "Krensdorf", "country": "AT", "coord": {"lon": 16.41667, "lat": 47.783329}}, {"id": 704118, "name": "Krepenskiy", "country": "UA", "coord": {"lon": 39.057999, "lat": 48.077099}}, {"id": 3072760, "name": "Krepice", "country": "CZ", "coord": {"lon": 16.719891, "lat": 48.999859}}, {"id": 1639362, "name": "Kresek", "country": "ID", "coord": {"lon": 106.379723, "lat": -6.13139}}, {"id": 3072748, "name": "Kresice", "country": "CZ", "coord": {"lon": 14.2145, "lat": 50.522591}}, {"id": 729942, "name": "Kresna", "country": "BG", "coord": {"lon": 23.15, "lat": 41.73333}}, {"id": 6556044, "name": "Kressbronn am Bodensee", "country": "DE", "coord": {"lon": 9.60195, "lat": 47.596901}}, {"id": 2884344, "name": "Kressbronn am Bodensee", "country": "DE", "coord": {"lon": 9.6, "lat": 47.599998}}, {"id": 258842, "name": "Krestena", "country": "GR", "coord": {"lon": 21.633329, "lat": 37.616669}}, {"id": 2021532, "name": "Krestovo", "country": "RU", "coord": {"lon": 108.633331, "lat": 53.316669}}, {"id": 541116, "name": "Kresttsy", "country": "RU", "coord": {"lon": 32.516479, "lat": 58.245201}}, {"id": 541087, "name": "Kresty", "country": "RU", "coord": {"lon": 28.4188, "lat": 57.797001}}, {"id": 8046073, "name": "Kreteg", "country": "ID", "coord": {"lon": 108.334999, "lat": -7.3103}}, {"id": 597989, "name": "Kretinga", "country": "LT", "coord": {"lon": 21.25083, "lat": 55.875832}}, {"id": 2884315, "name": "Krettenhof", "country": "DE", "coord": {"lon": 9.66996, "lat": 48.746571}}, {"id": 2884313, "name": "Krettnich", "country": "DE", "coord": {"lon": 6.93333, "lat": 49.533329}}, {"id": 6553762, "name": "Kretz", "country": "DE", "coord": {"lon": 7.36667, "lat": 50.400002}}, {"id": 2884312, "name": "Kretz", "country": "DE", "coord": {"lon": 7.36667, "lat": 50.400002}}, {"id": 6549017, "name": "Kretzschau", "country": "DE", "coord": {"lon": 12.0667, "lat": 51.049999}}, {"id": 2884308, "name": "Kretzschau", "country": "DE", "coord": {"lon": 12.06667, "lat": 51.049999}}, {"id": 2884296, "name": "Kreut", "country": "DE", "coord": {"lon": 11.48312, "lat": 47.798679}}, {"id": 6547448, "name": "Kreuth", "country": "DE", "coord": {"lon": 11.75, "lat": 47.650002}}, {"id": 2884280, "name": "Kreuth", "country": "DE", "coord": {"lon": 11.75, "lat": 47.650002}}, {"id": 6553056, "name": "Kreuzau", "country": "DE", "coord": {"lon": 6.4771, "lat": 50.729401}}, {"id": 2884245, "name": "Kreuzau", "country": "DE", "coord": {"lon": 6.48333, "lat": 50.75}}, {"id": 2884163, "name": "Kreuzberg", "country": "DE", "coord": {"lon": 13.38333, "lat": 52.48333}}, {"id": 2884147, "name": "Kreuzburg", "country": "DE", "coord": {"lon": 11.98333, "lat": 53.116669}}, {"id": 6294466, "name": "Kreuzb\u00fchl", "country": "CH", "coord": {"lon": 8.67275, "lat": 47.336189}}, {"id": 6549795, "name": "Kreuzebra", "country": "DE", "coord": {"lon": 10.25, "lat": 51.349998}}, {"id": 2884141, "name": "Kreuzebra", "country": "DE", "coord": {"lon": 10.25, "lat": 51.349998}}, {"id": 2884133, "name": "Kreuzenstein", "country": "DE", "coord": {"lon": 8.96965, "lat": 51.889999}}, {"id": 2884122, "name": "Kreuzfelderhof", "country": "DE", "coord": {"lon": 6.68333, "lat": 51.033329}}, {"id": 7286222, "name": "Kreuzlingen", "country": "CH", "coord": {"lon": 9.17267, "lat": 47.639751}}, {"id": 2660108, "name": "Kreuzlingen", "country": "CH", "coord": {"lon": 9.18333, "lat": 47.650002}}, {"id": 6292319, "name": "Kreuzplatz", "country": "CH", "coord": {"lon": 8.83093, "lat": 47.304508}}, {"id": 2884066, "name": "Kreuzrath", "country": "DE", "coord": {"lon": 6.02514, "lat": 51.00555}}, {"id": 2884053, "name": "Kreuzstra\u00dfe", "country": "DE", "coord": {"lon": 11.73333, "lat": 47.783329}}, {"id": 2884050, "name": "Kreuztal", "country": "DE", "coord": {"lon": 7.98333, "lat": 50.966671}}, {"id": 2884026, "name": "Kreuzwertheim", "country": "DE", "coord": {"lon": 9.51833, "lat": 49.76722}}, {"id": 626548, "name": "Kreva", "country": "BY", "coord": {"lon": 26.289989, "lat": 54.311138}}, {"id": 2884024, "name": "Krevese", "country": "DE", "coord": {"lon": 11.7, "lat": 52.816669}}, {"id": 1639356, "name": "Krian", "country": "ID", "coord": {"lon": 112.579201, "lat": -7.4104}}, {"id": 7036676, "name": "Krian", "country": "ID", "coord": {"lon": 112.419403, "lat": -7.1163}}, {"id": 2229761, "name": "Kribi", "country": "CM", "coord": {"lon": 9.91667, "lat": 2.95}}, {"id": 729936, "name": "Krichim", "country": "BG", "coord": {"lon": 24.466669, "lat": 42.049999}}, {"id": 6555044, "name": "Krickenbach", "country": "DE", "coord": {"lon": 7.66667, "lat": 49.366699}}, {"id": 2883994, "name": "Krickenbach", "country": "DE", "coord": {"lon": 7.66667, "lat": 49.366669}}, {"id": 6550545, "name": "Kriebitzsch", "country": "DE", "coord": {"lon": 12.3396, "lat": 51.024101}}, {"id": 2883987, "name": "Kriebitzsch", "country": "DE", "coord": {"lon": 12.33318, "lat": 51.023472}}, {"id": 6548567, "name": "Kriebstein", "country": "DE", "coord": {"lon": 13.0167, "lat": 51.049999}}, {"id": 2883986, "name": "Kriebstein", "country": "DE", "coord": {"lon": 13.01667, "lat": 51.049999}}, {"id": 2660107, "name": "Kriechenwil", "country": "CH", "coord": {"lon": 7.21957, "lat": 46.909679}}, {"id": 7286223, "name": "Kriechenwil", "country": "CH", "coord": {"lon": 7.21592, "lat": 46.911179}}, {"id": 7873516, "name": "Krieglach", "country": "AT", "coord": {"lon": 15.57669, "lat": 47.53862}}, {"id": 2773447, "name": "Krieglach", "country": "AT", "coord": {"lon": 15.55, "lat": 47.533329}}, {"id": 2883963, "name": "Kriegsdorf", "country": "DE", "coord": {"lon": 7.1, "lat": 50.799999}}, {"id": 6554961, "name": "Kriegsfeld", "country": "DE", "coord": {"lon": 7.91667, "lat": 49.716702}}, {"id": 2883961, "name": "Kriegsfeld", "country": "DE", "coord": {"lon": 7.91667, "lat": 49.716671}}, {"id": 7286224, "name": "Kriegstetten", "country": "CH", "coord": {"lon": 7.59506, "lat": 47.174889}}, {"id": 2660105, "name": "Kriegstetten", "country": "CH", "coord": {"lon": 7.59799, "lat": 47.174492}}, {"id": 2883946, "name": "Kriel", "country": "DE", "coord": {"lon": 6.9, "lat": 50.916672}}, {"id": 987202, "name": "Kriel", "country": "ZA", "coord": {"lon": 29.2253, "lat": -26.273911}}, {"id": 6548280, "name": "Krien", "country": "DE", "coord": {"lon": 13.45, "lat": 53.833302}}, {"id": 2883942, "name": "Krien", "country": "DE", "coord": {"lon": 13.45, "lat": 53.833328}}, {"id": 7286225, "name": "Kriens", "country": "CH", "coord": {"lon": 8.2589, "lat": 47.020748}}, {"id": 2660104, "name": "Kriens", "country": "CH", "coord": {"lon": 8.27631, "lat": 47.03537}}, {"id": 6547838, "name": "Kriesow", "country": "DE", "coord": {"lon": 13.05, "lat": 53.733299}}, {"id": 2883927, "name": "Kriesow", "country": "DE", "coord": {"lon": 13.05, "lat": 53.73333}}, {"id": 6553193, "name": "Kriftel", "country": "DE", "coord": {"lon": 8.4748, "lat": 50.087502}}, {"id": 2883920, "name": "Kriftel", "country": "DE", "coord": {"lon": 8.48333, "lat": 50.083328}}, {"id": 258819, "name": "Krikellos", "country": "GR", "coord": {"lon": 21.183331, "lat": 38.950001}}, {"id": 6374080, "name": "Krikil", "country": "ID", "coord": {"lon": 109.146667, "lat": -7.62472}}, {"id": 8061043, "name": "Krikilan", "country": "ID", "coord": {"lon": 111.274803, "lat": -6.8289}}, {"id": 2883916, "name": "Krim", "country": "DE", "coord": {"lon": 10.31667, "lat": 53.533329}}, {"id": 2773437, "name": "Krimml", "country": "AT", "coord": {"lon": 12.18333, "lat": 47.216671}}, {"id": 3323923, "name": "Krimml", "country": "AT", "coord": {"lon": 12.18333, "lat": 47.216671}}, {"id": 2752264, "name": "Krimpen aan den IJssel", "country": "NL", "coord": {"lon": 4.60278, "lat": 51.916672}}, {"id": 2883895, "name": "Krina", "country": "DE", "coord": {"lon": 12.48333, "lat": 51.650002}}, {"id": 7286226, "name": "Krinau", "country": "CH", "coord": {"lon": 9.05036, "lat": 47.316639}}, {"id": 2660103, "name": "Krinau", "country": "CH", "coord": {"lon": 9.05003, "lat": 47.317558}}, {"id": 3072717, "name": "Krinec", "country": "CZ", "coord": {"lon": 15.13782, "lat": 50.264488}}, {"id": 2883889, "name": "Kringelsdorf", "country": "DE", "coord": {"lon": 14.61667, "lat": 51.383331}}, {"id": 704074, "name": "Krinichnaya", "country": "UA", "coord": {"lon": 38.02597, "lat": 48.12899}}, {"id": 704067, "name": "Krinichnyy", "country": "UA", "coord": {"lon": 35.299999, "lat": 47.866669}}, {"id": 6355257, "name": "Kripan", "country": "ES", "coord": {"lon": -2.51248, "lat": 42.593399}}, {"id": 2883875, "name": "Krippehna", "country": "DE", "coord": {"lon": 12.52613, "lat": 51.505749}}, {"id": 7249577, "name": "Kris Kay Mobile Home Park", "country": "US", "coord": {"lon": -84.133331, "lat": 43.400558}}, {"id": 1265863, "name": "Krishnagiri", "country": "IN", "coord": {"lon": 78.23333, "lat": 12.53333}}, {"id": 1265859, "name": "Krishnanagar", "country": "IN", "coord": {"lon": 88.5, "lat": 23.4}}, {"id": 1348742, "name": "Krishnapur", "country": "IN", "coord": {"lon": 88.26944, "lat": 22.67028}}, {"id": 1265852, "name": "Krishnarajpet", "country": "IN", "coord": {"lon": 76.488327, "lat": 12.655}}, {"id": 2752260, "name": "Krispijn", "country": "NL", "coord": {"lon": 4.6607, "lat": 51.80167}}, {"id": 7872198, "name": "Krispl", "country": "AT", "coord": {"lon": 13.21174, "lat": 47.711479}}, {"id": 2773426, "name": "Krispl", "country": "AT", "coord": {"lon": 13.18333, "lat": 47.716671}}, {"id": 6453405, "name": "Kristiansand", "country": "NO", "coord": {"lon": 7.99687, "lat": 58.14642}}, {"id": 3149318, "name": "Kristiansand", "country": "NO", "coord": {"lon": 7.9956, "lat": 58.146709}}, {"id": 2699310, "name": "Kristianstad", "country": "SE", "coord": {"lon": 14.15242, "lat": 56.031288}}, {"id": 2699308, "name": "Kristianstads Kommun", "country": "SE", "coord": {"lon": 14.15, "lat": 56}}, {"id": 3149312, "name": "Kristiansund", "country": "NO", "coord": {"lon": 7.72795, "lat": 63.110451}}, {"id": 6453331, "name": "Kristiansund", "country": "NO", "coord": {"lon": 7.73198, "lat": 63.111519}}, {"id": 2699282, "name": "Kristinehamn", "country": "SE", "coord": {"lon": 14.10808, "lat": 59.30978}}, {"id": 2699281, "name": "Kristinehamns Kommun", "country": "SE", "coord": {"lon": 14.13333, "lat": 59.299999}}, {"id": 650770, "name": "Kristinestad", "country": "FI", "coord": {"lon": 21.383329, "lat": 62.283329}}, {"id": 650769, "name": "Kristinestad", "country": "FI", "coord": {"lon": 21.375959, "lat": 62.274288}}, {"id": 735526, "name": "Kristoni", "country": "GR", "coord": {"lon": 22.85528, "lat": 40.955559}}, {"id": 7487343, "name": "Kristopur", "country": "BD", "coord": {"lon": 88.398262, "lat": 26.01403}}, {"id": 735523, "name": "Krithia", "country": "GR", "coord": {"lon": 22.977779, "lat": 40.84111}}, {"id": 258759, "name": "Kritsa", "country": "GR", "coord": {"lon": 25.65, "lat": 35.166672}}, {"id": 2883862, "name": "Kritzkow", "country": "DE", "coord": {"lon": 12.25, "lat": 53.883331}}, {"id": 6547780, "name": "Kritzmow", "country": "DE", "coord": {"lon": 12.05, "lat": 54.049999}}, {"id": 2883860, "name": "Kritzmow", "country": "DE", "coord": {"lon": 12.05, "lat": 54.049999}}, {"id": 6548366, "name": "Kritzow", "country": "DE", "coord": {"lon": 12.1333, "lat": 53.450001}}, {"id": 2883859, "name": "Kritzow", "country": "DE", "coord": {"lon": 12.13148, "lat": 53.446152}}, {"id": 789045, "name": "Kriva Palanka", "country": "MK", "coord": {"lon": 22.33194, "lat": 42.201939}}, {"id": 3197266, "name": "Krivaja", "country": "RS", "coord": {"lon": 19.60194, "lat": 44.555279}}, {"id": 3197263, "name": "Krivaja", "country": "HR", "coord": {"lon": 16.799999, "lat": 45.716671}}, {"id": 704051, "name": "Krivaya Balka", "country": "UA", "coord": {"lon": 30.683332, "lat": 46.5}}, {"id": 540966, "name": "Krivenkovskoye", "country": "RU", "coord": {"lon": 39.238056, "lat": 44.184723}}, {"id": 6461725, "name": "Krivina", "country": "BG", "coord": {"lon": 23.466669, "lat": 42.683331}}, {"id": 729919, "name": "Krivina", "country": "BG", "coord": {"lon": 23.466669, "lat": 42.683331}}, {"id": 1501803, "name": "Krivodanovka", "country": "RU", "coord": {"lon": 82.655098, "lat": 55.0881}}, {"id": 729909, "name": "Krivodol", "country": "BG", "coord": {"lon": 23.48444, "lat": 43.374439}}, {"id": 789028, "name": "Krivogashtani", "country": "MK", "coord": {"lon": 21.333059, "lat": 41.336109}}, {"id": 540923, "name": "Krivonogovskaya", "country": "RU", "coord": {"lon": 35.333332, "lat": 62.549999}}, {"id": 6608850, "name": "Krivonosovo", "country": "RU", "coord": {"lon": 43.64389, "lat": 56.895}}, {"id": 1501795, "name": "Krivosheino", "country": "RU", "coord": {"lon": 83.926109, "lat": 57.34306}}, {"id": 540819, "name": "Krivtsy", "country": "RU", "coord": {"lon": 38.197777, "lat": 55.465279}}, {"id": 540797, "name": "Krivyanskaya", "country": "RU", "coord": {"lon": 40.166199, "lat": 47.396252}}, {"id": 540795, "name": "Krivyye Verkhi", "country": "RU", "coord": {"lon": 36.283329, "lat": 52.466671}}, {"id": 3197242, "name": "Kriz", "country": "HR", "coord": {"lon": 16.523331, "lat": 45.665001}}, {"id": 3072693, "name": "Krizanov", "country": "CZ", "coord": {"lon": 16.1096, "lat": 49.38858}}, {"id": 3197230, "name": "Krizevci", "country": "HR", "coord": {"lon": 16.5425, "lat": 46.021938}}, {"id": 3197226, "name": "Krizevci pri Ljutomeru", "country": "SI", "coord": {"lon": 16.138611, "lat": 46.568329}}, {"id": 3072675, "name": "Krizova", "country": "CZ", "coord": {"lon": 15.85207, "lat": 49.688412}}, {"id": 3197208, "name": "Krk", "country": "HR", "coord": {"lon": 14.57306, "lat": 45.025829}}, {"id": 3072661, "name": "Krmelin", "country": "CZ", "coord": {"lon": 18.235411, "lat": 49.729141}}, {"id": 729785, "name": "Krnalovo", "country": "BG", "coord": {"lon": 23.216669, "lat": 41.466671}}, {"id": 789019, "name": "Krnjevo", "country": "RS", "coord": {"lon": 21.04694, "lat": 44.409439}}, {"id": 789021, "name": "Krnje\u0161evci", "country": "RS", "coord": {"lon": 20.135281, "lat": 44.886391}}, {"id": 3072656, "name": "Krnov", "country": "CZ", "coord": {"lon": 17.70385, "lat": 50.089668}}, {"id": 3094690, "name": "Krobia", "country": "PL", "coord": {"lon": 16.98237, "lat": 51.774052}}, {"id": 8067910, "name": "Krocok", "country": "ID", "coord": {"lon": 111.275398, "lat": -6.9735}}, {"id": 3094683, "name": "Kroczyce", "country": "PL", "coord": {"lon": 19.57, "lat": 50.56176}}, {"id": 2883831, "name": "Krofdorf-Gleiberg", "country": "DE", "coord": {"lon": 8.63333, "lat": 50.616669}}, {"id": 3197164, "name": "Krog", "country": "SI", "coord": {"lon": 16.14139, "lat": 46.638062}}, {"id": 6551870, "name": "Krogaspe", "country": "DE", "coord": {"lon": 9.93333, "lat": 54.133301}}, {"id": 2883827, "name": "Krogaspe", "country": "DE", "coord": {"lon": 9.93333, "lat": 54.133331}}, {"id": 2883812, "name": "Krohn", "country": "DE", "coord": {"lon": 11.46667, "lat": 53.25}}, {"id": 2883805, "name": "Krohstorf", "country": "DE", "coord": {"lon": 13.01667, "lat": 48.566669}}, {"id": 8074780, "name": "Krojo", "country": "ID", "coord": {"lon": 111.6866, "lat": -6.8602}}, {"id": 1609379, "name": "Krok Phra", "country": "TH", "coord": {"lon": 100.071533, "lat": 15.55589}}, {"id": 6551745, "name": "Krokau", "country": "DE", "coord": {"lon": 10.35, "lat": 54.400002}}, {"id": 2883801, "name": "Krokau", "country": "DE", "coord": {"lon": 10.35, "lat": 54.400002}}, {"id": 258754, "name": "Krokeai", "country": "GR", "coord": {"lon": 22.549999, "lat": 36.883331}}, {"id": 2699206, "name": "Krokek", "country": "SE", "coord": {"lon": 16.4, "lat": 58.666672}}, {"id": 6946003, "name": "Kroken", "country": "NO", "coord": {"lon": 10.50413, "lat": 61.122181}}, {"id": 2699176, "name": "Krokom", "country": "SE", "coord": {"lon": 14.44883, "lat": 63.32589}}, {"id": 735521, "name": "Krokos", "country": "GR", "coord": {"lon": 21.816669, "lat": 40.26667}}, {"id": 7531620, "name": "Krokowa", "country": "PL", "coord": {"lon": 18.104191, "lat": 54.762749}}, {"id": 3094672, "name": "Krokowa", "country": "PL", "coord": {"lon": 18.1616, "lat": 54.779209}}, {"id": 3149239, "name": "Krokstadora", "country": "NO", "coord": {"lon": 9.50062, "lat": 63.40099}}, {"id": 704000, "name": "Krolevets", "country": "UA", "coord": {"lon": 33.38475, "lat": 51.547749}}, {"id": 2883794, "name": "Krolpa", "country": "DE", "coord": {"lon": 11.53848, "lat": 50.677429}}, {"id": 7579655, "name": "Kromasan", "country": "ID", "coord": {"lon": 111.978996, "lat": -8.097}}, {"id": 6549796, "name": "Krombach", "country": "DE", "coord": {"lon": 10.1333, "lat": 51.299999}}, {"id": 2883791, "name": "Krombach", "country": "DE", "coord": {"lon": 10.13333, "lat": 51.299999}}, {"id": 6556952, "name": "Krombach", "country": "DE", "coord": {"lon": 9.21667, "lat": 50.083302}}, {"id": 2883793, "name": "Krombach", "country": "DE", "coord": {"lon": 9.21667, "lat": 50.083328}}, {"id": 3197163, "name": "Kromberk", "country": "SI", "coord": {"lon": 13.66556, "lat": 45.960831}}, {"id": 7034983, "name": "Kromengan", "country": "ID", "coord": {"lon": 112.491096, "lat": -8.1296}}, {"id": 3072649, "name": "Kromeriz", "country": "CZ", "coord": {"lon": 17.39312, "lat": 49.297852}}, {"id": 987015, "name": "Kromhof", "country": "ZA", "coord": {"lon": 29.5, "lat": -27.933331}}, {"id": 540783, "name": "Kromino", "country": "RU", "coord": {"lon": 37.516666, "lat": 56.266666}}, {"id": 6417504, "name": "Kromino", "country": "RU", "coord": {"lon": 37.068611, "lat": 55.528332}}, {"id": 2752240, "name": "Krommenie", "country": "NL", "coord": {"lon": 4.7625, "lat": 52.499168}}, {"id": 7333390, "name": "Kromot", "country": "ID", "coord": {"lon": 113.302902, "lat": -8.043}}, {"id": 724377, "name": "Krompachy", "country": "SK", "coord": {"lon": 20.875139, "lat": 48.914471}}, {"id": 986958, "name": "Krompan", "country": "ZA", "coord": {"lon": 28.31756, "lat": -27.075411}}, {"id": 6550257, "name": "Kromsdorf", "country": "DE", "coord": {"lon": 11.3667, "lat": 51}}, {"id": 3207130, "name": "Kromsdorf", "country": "DE", "coord": {"lon": 11.36667, "lat": 51}}, {"id": 540776, "name": "Kromy", "country": "RU", "coord": {"lon": 35.766651, "lat": 52.687618}}, {"id": 2773397, "name": "Kronabittedt", "country": "AT", "coord": {"lon": 14.26669, "lat": 48.394852}}, {"id": 2883784, "name": "Kronach", "country": "DE", "coord": {"lon": 11.33308, "lat": 50.239632}}, {"id": 5994252, "name": "Kronau", "country": "CA", "coord": {"lon": -104.301079, "lat": 50.300079}}, {"id": 6555610, "name": "Kronau", "country": "DE", "coord": {"lon": 8.6214, "lat": 49.220551}}, {"id": 2883777, "name": "Kronau", "country": "DE", "coord": {"lon": 8.63111, "lat": 49.2225}}, {"id": 2883754, "name": "Kronberg", "country": "DE", "coord": {"lon": 8.51252, "lat": 50.177448}}, {"id": 2883756, "name": "Kronberg", "country": "DE", "coord": {"lon": 13.2, "lat": 48.450001}}, {"id": 6547459, "name": "Kronburg", "country": "DE", "coord": {"lon": 10.1667, "lat": 47.916698}}, {"id": 2883749, "name": "Kronburg", "country": "DE", "coord": {"lon": 10.1572, "lat": 47.90432}}, {"id": 2660102, "name": "Kronb\u00fchl", "country": "CH", "coord": {"lon": 9.3952, "lat": 47.459549}}, {"id": 5258916, "name": "Kronenwetter", "country": "US", "coord": {"lon": -89.590401, "lat": 44.822189}}, {"id": 1830468, "name": "Krong Kaoh Kong", "country": "KH", "coord": {"lon": 102.98056, "lat": 11.6175}}, {"id": 1830467, "name": "Krong Keb", "country": "KH", "coord": {"lon": 104.316673, "lat": 10.48333}}, {"id": 1610296, "name": "Krong Pi Nang", "country": "TH", "coord": {"lon": 101.273941, "lat": 6.4112}}, {"id": 2068185, "name": "Kronkup", "country": "AU", "coord": {"lon": 117.624168, "lat": -35.036942}}, {"id": 2699050, "name": "Kronobergs L\u00e4n", "country": "SE", "coord": {"lon": 14.66667, "lat": 56.666672}}, {"id": 650755, "name": "Kronoby", "country": "FI", "coord": {"lon": 23.16667, "lat": 63.666672}}, {"id": 650754, "name": "Kronoby", "country": "FI", "coord": {"lon": 23.021009, "lat": 63.72456}}, {"id": 6551343, "name": "Kronprinzenkoog", "country": "DE", "coord": {"lon": 8.96667, "lat": 53.966702}}, {"id": 2883683, "name": "Kronprinzenkoog", "country": "DE", "coord": {"lon": 8.96667, "lat": 53.966671}}, {"id": 2883655, "name": "Kronsburg", "country": "DE", "coord": {"lon": 10.13901, "lat": 54.287979}}, {"id": 2883652, "name": "Kronsdorf", "country": "DE", "coord": {"lon": 11.76667, "lat": 48.5}}, {"id": 6552033, "name": "Kronsgaard", "country": "DE", "coord": {"lon": 9.98333, "lat": 54.733299}}, {"id": 2883648, "name": "Kronsgaard", "country": "DE", "coord": {"lon": 9.98333, "lat": 54.73333}}, {"id": 3232866, "name": "Kronsgaarderdrecht", "country": "DE", "coord": {"lon": 9.98333, "lat": 54.716671}}, {"id": 6551871, "name": "Kronshagen", "country": "DE", "coord": {"lon": 10.0994, "lat": 54.3433}}, {"id": 2883647, "name": "Kronshagen", "country": "DE", "coord": {"lon": 10.08333, "lat": 54.333328}}, {"id": 540771, "name": "Kronshtadt", "country": "RU", "coord": {"lon": 29.773611, "lat": 59.99361}}, {"id": 2883643, "name": "Kronskamp", "country": "DE", "coord": {"lon": 11.58654, "lat": 53.402618}}, {"id": 6552208, "name": "Kronsmoor", "country": "DE", "coord": {"lon": 9.59392, "lat": 53.9076}}, {"id": 2883640, "name": "Kronsmoor", "country": "DE", "coord": {"lon": 9.59389, "lat": 53.907619}}, {"id": 2883631, "name": "Kronungen", "country": "DE", "coord": {"lon": 10.14424, "lat": 50.083858}}, {"id": 6553608, "name": "Kronweiler", "country": "DE", "coord": {"lon": 7.26667, "lat": 49.650002}}, {"id": 2883627, "name": "Kronweiler", "country": "DE", "coord": {"lon": 7.26667, "lat": 49.650002}}, {"id": 2883622, "name": "Kronwinkl", "country": "DE", "coord": {"lon": 11.88333, "lat": 48.48333}}, {"id": 2883615, "name": "Kronwitt", "country": "DE", "coord": {"lon": 12.01667, "lat": 47.783329}}, {"id": 986873, "name": "Kroondal", "country": "ZA", "coord": {"lon": 27.315969, "lat": -25.719351}}, {"id": 986846, "name": "Kroonstad", "country": "ZA", "coord": {"lon": 27.23488, "lat": -27.65036}}, {"id": 540769, "name": "Kropachevo", "country": "RU", "coord": {"lon": 57.989601, "lat": 55.0112}}, {"id": 2883602, "name": "Kropelin", "country": "DE", "coord": {"lon": 11.8, "lat": 54.066669}}, {"id": 3206680, "name": "Kropfm\u00fchl", "country": "DE", "coord": {"lon": 13.73333, "lat": 48.616669}}, {"id": 2021504, "name": "Kropotkin", "country": "RU", "coord": {"lon": 115.321671, "lat": 58.509441}}, {"id": 540761, "name": "Kropotkin", "country": "RU", "coord": {"lon": 40.575558, "lat": 45.4375}}, {"id": 6551974, "name": "Kropp", "country": "DE", "coord": {"lon": 9.5087, "lat": 54.411098}}, {"id": 2883591, "name": "Kropp", "country": "DE", "coord": {"lon": 9.51667, "lat": 54.416672}}, {"id": 6554230, "name": "Kroppach", "country": "DE", "coord": {"lon": 7.73333, "lat": 50.700001}}, {"id": 2883589, "name": "Kroppach", "country": "DE", "coord": {"lon": 7.73333, "lat": 50.700001}}, {"id": 2883585, "name": "Kroppelshagen-Fahrendorf", "country": "DE", "coord": {"lon": 10.33333, "lat": 53.48333}}, {"id": 6547632, "name": "Kroppen", "country": "DE", "coord": {"lon": 13.8, "lat": 51.383301}}, {"id": 2883583, "name": "Kroppen", "country": "DE", "coord": {"lon": 13.8, "lat": 51.383331}}, {"id": 2883584, "name": "Kroppen", "country": "DE", "coord": {"lon": 7.53333, "lat": 49.150002}}, {"id": 2883580, "name": "Kroppenstedt", "country": "DE", "coord": {"lon": 11.3, "lat": 51.933331}}, {"id": 2883570, "name": "Kropstadt", "country": "DE", "coord": {"lon": 12.73333, "lat": 51.966671}}, {"id": 767479, "name": "Kroscienko Wyzne", "country": "PL", "coord": {"lon": 21.828979, "lat": 49.679459}}, {"id": 6565267, "name": "Kroscienko nad Dunajcem", "country": "PL", "coord": {"lon": 20.426241, "lat": 49.440811}}, {"id": 540750, "name": "Kroshnozero", "country": "RU", "coord": {"lon": 33.183521, "lat": 61.629238}}, {"id": 2883560, "name": "Kroslin", "country": "DE", "coord": {"lon": 13.76667, "lat": 54.116669}}, {"id": 767474, "name": "Krosnica", "country": "PL", "coord": {"lon": 20.33956, "lat": 49.447868}}, {"id": 3094639, "name": "Krosnice", "country": "PL", "coord": {"lon": 17.359171, "lat": 51.47641}}, {"id": 3094638, "name": "Krosniewice", "country": "PL", "coord": {"lon": 19.17037, "lat": 52.25592}}, {"id": 7530976, "name": "Krosno", "country": "PL", "coord": {"lon": 21.753019, "lat": 49.689251}}, {"id": 7532430, "name": "Krosno", "country": "PL", "coord": {"lon": 21.753, "lat": 49.689201}}, {"id": 767470, "name": "Krosno", "country": "PL", "coord": {"lon": 21.77058, "lat": 49.68866}}, {"id": 3094636, "name": "Krosno", "country": "PL", "coord": {"lon": 16.83251, "lat": 52.223572}}, {"id": 3094633, "name": "Krosno Odrzanskie", "country": "PL", "coord": {"lon": 15.09882, "lat": 52.05492}}, {"id": 7533247, "name": "Krosno Odrza\u0144skie", "country": "PL", "coord": {"lon": 15.1014, "lat": 52.040901}}, {"id": 6548741, "name": "Krostitz", "country": "DE", "coord": {"lon": 12.4519, "lat": 51.4701}}, {"id": 2883552, "name": "Krostitz", "country": "DE", "coord": {"lon": 12.4536, "lat": 51.462078}}, {"id": 7531987, "name": "Krotoszyce", "country": "PL", "coord": {"lon": 16.092699, "lat": 51.154099}}, {"id": 3094626, "name": "Krotoszyce", "country": "PL", "coord": {"lon": 16.04562, "lat": 51.146938}}, {"id": 7533246, "name": "Krotoszyn", "country": "PL", "coord": {"lon": 17.443701, "lat": 51.695099}}, {"id": 3094625, "name": "Krotoszyn", "country": "PL", "coord": {"lon": 17.43738, "lat": 51.698681}}, {"id": 540740, "name": "Krotovka", "country": "RU", "coord": {"lon": 51.168598, "lat": 53.285801}}, {"id": 6555119, "name": "Krottelbach", "country": "DE", "coord": {"lon": 7.33333, "lat": 49.466702}}, {"id": 2883544, "name": "Krottelbach", "country": "DE", "coord": {"lon": 7.33333, "lat": 49.466671}}, {"id": 7873566, "name": "Krottendorf", "country": "AT", "coord": {"lon": 15.6593, "lat": 47.206219}}, {"id": 2773366, "name": "Krottendorf", "country": "AT", "coord": {"lon": 15.63333, "lat": 47.200001}}, {"id": 2883507, "name": "Krottorf", "country": "DE", "coord": {"lon": 11.18333, "lat": 51.966671}}, {"id": 4330019, "name": "Krotz Springs", "country": "US", "coord": {"lon": -91.752892, "lat": 30.53686}}, {"id": 3072638, "name": "Krouna", "country": "CZ", "coord": {"lon": 16.026739, "lat": 49.7724}}, {"id": 258744, "name": "Krouson", "country": "GR", "coord": {"lon": 24.98291, "lat": 35.230621}}, {"id": 2883504, "name": "Krov", "country": "DE", "coord": {"lon": 7.08333, "lat": 49.98333}}, {"id": 2160994, "name": "Krowera", "country": "AU", "coord": {"lon": 145.666672, "lat": -38.433331}}, {"id": 1639337, "name": "Kroya", "country": "ID", "coord": {"lon": 109.246109, "lat": -7.63306}}, {"id": 839726, "name": "Kroyanskoye", "country": "RU", "coord": {"lon": 39.123611, "lat": 44.093334}}, {"id": 7532697, "name": "Kro\u015bnice", "country": "PL", "coord": {"lon": 17.3976, "lat": 51.444599}}, {"id": 3185087, "name": "Krrabe", "country": "AL", "coord": {"lon": 19.97139, "lat": 41.215561}}, {"id": 3197147, "name": "Krsko", "country": "SI", "coord": {"lon": 15.49167, "lat": 45.959148}}, {"id": 788993, "name": "Krstur", "country": "RS", "coord": {"lon": 20.1, "lat": 46.133331}}, {"id": 703973, "name": "Krucha", "country": "UA", "coord": {"lon": 34.650002, "lat": 46.183334}}, {"id": 703972, "name": "Krucha", "country": "UA", "coord": {"lon": 35.400002, "lat": 46.849998}}, {"id": 540721, "name": "Kruchinino", "country": "RU", "coord": {"lon": 55.650002, "lat": 54.76667}}, {"id": 6554455, "name": "Kruchten", "country": "DE", "coord": {"lon": 6.31667, "lat": 49.900002}}, {"id": 2883495, "name": "Kruchten", "country": "DE", "coord": {"lon": 6.31667, "lat": 49.900002}}, {"id": 6547839, "name": "Kruckow", "country": "DE", "coord": {"lon": 13.2333, "lat": 53.900002}}, {"id": 2883477, "name": "Kruckow", "country": "DE", "coord": {"lon": 13.23333, "lat": 53.900002}}, {"id": 6553763, "name": "Kruft", "country": "DE", "coord": {"lon": 7.3334, "lat": 50.3811}}, {"id": 2883471, "name": "Kruft", "country": "DE", "coord": {"lon": 7.33333, "lat": 50.383331}}, {"id": 2883463, "name": "Kruge", "country": "DE", "coord": {"lon": 13.87779, "lat": 52.757019}}, {"id": 3208745, "name": "Kruge-Gersdorf", "country": "DE", "coord": {"lon": 13.88955, "lat": 52.769951}}, {"id": 986822, "name": "Krugersdorp", "country": "ZA", "coord": {"lon": 27.77515, "lat": -26.08577}}, {"id": 986820, "name": "Krugersdorp West", "country": "ZA", "coord": {"lon": 27.748409, "lat": -26.0979}}, {"id": 4703759, "name": "Krugerville", "country": "US", "coord": {"lon": -96.990562, "lat": 33.281509}}, {"id": 540690, "name": "Kruglolesskoye", "country": "RU", "coord": {"lon": 42.814171, "lat": 44.65889}}, {"id": 609167, "name": "Krugloozernoe", "country": "KZ", "coord": {"lon": 51.285278, "lat": 51.0825}}, {"id": 6608299, "name": "Kruglovo", "country": "RU", "coord": {"lon": 43.152222, "lat": 56.630554}}, {"id": 6548462, "name": "Krugsdorf", "country": "DE", "coord": {"lon": 14.0833, "lat": 53.516701}}, {"id": 2883444, "name": "Krugsdorf", "country": "DE", "coord": {"lon": 14.08464, "lat": 53.525509}}, {"id": 626491, "name": "Kruhlaye", "country": "BY", "coord": {"lon": 29.7957, "lat": 54.246571}}, {"id": 1639334, "name": "Krui", "country": "ID", "coord": {"lon": 103.937462, "lat": -5.18251}}, {"id": 2793941, "name": "Kruibeke", "country": "BE", "coord": {"lon": 4.30904, "lat": 51.167931}}, {"id": 2793940, "name": "Kruibeke", "country": "BE", "coord": {"lon": 4.31444, "lat": 51.170479}}, {"id": 2883437, "name": "Kruichen", "country": "DE", "coord": {"lon": 10.69553, "lat": 48.432388}}, {"id": 986717, "name": "Kruisfontein", "country": "ZA", "coord": {"lon": 24.731421, "lat": -34.00333}}, {"id": 2793908, "name": "Kruishoutem", "country": "BE", "coord": {"lon": 3.53052, "lat": 50.911121}}, {"id": 2793907, "name": "Kruishoutem", "country": "BE", "coord": {"lon": 3.52588, "lat": 50.90168}}, {"id": 2752192, "name": "Kruisland", "country": "NL", "coord": {"lon": 4.40972, "lat": 51.569172}}, {"id": 2752187, "name": "Kruisschot", "country": "NL", "coord": {"lon": 5.68472, "lat": 51.486671}}, {"id": 2793880, "name": "Kruisweg", "country": "BE", "coord": {"lon": 4.48333, "lat": 51.083328}}, {"id": 3185082, "name": "Kruje", "country": "AL", "coord": {"lon": 19.79278, "lat": 41.509171}}, {"id": 767435, "name": "Kruklanki", "country": "PL", "coord": {"lon": 21.92227, "lat": 54.088551}}, {"id": 6551468, "name": "Krukow", "country": "DE", "coord": {"lon": 10.4833, "lat": 53.416698}}, {"id": 2883432, "name": "Krukow", "country": "DE", "coord": {"lon": 10.48333, "lat": 53.416672}}, {"id": 6548070, "name": "Krukow", "country": "DE", "coord": {"lon": 13.1333, "lat": 53.516701}}, {"id": 2883431, "name": "Krukow", "country": "DE", "coord": {"lon": 13.13333, "lat": 53.51667}}, {"id": 4703760, "name": "Krum", "country": "US", "coord": {"lon": -97.238068, "lat": 33.261509}}, {"id": 7872917, "name": "Krumau am Kamp", "country": "AT", "coord": {"lon": 15.46469, "lat": 48.589432}}, {"id": 2773343, "name": "Krumau am Kamp", "country": "AT", "coord": {"lon": 15.43333, "lat": 48.583328}}, {"id": 7873735, "name": "Krumbach", "country": "AT", "coord": {"lon": 9.9184, "lat": 47.485512}}, {"id": 2773341, "name": "Krumbach", "country": "AT", "coord": {"lon": 9.93583, "lat": 47.483059}}, {"id": 2883410, "name": "Krumbach", "country": "DE", "coord": {"lon": 10.3632, "lat": 48.241821}}, {"id": 2883390, "name": "Krumbek", "country": "DE", "coord": {"lon": 10.55, "lat": 53.916672}}, {"id": 7872337, "name": "Krumegg", "country": "AT", "coord": {"lon": 15.63802, "lat": 47.025299}}, {"id": 2773335, "name": "Krumegg", "country": "AT", "coord": {"lon": 15.63139, "lat": 47.021111}}, {"id": 2883385, "name": "Krumhermersdorf", "country": "DE", "coord": {"lon": 13.1, "lat": 50.73333}}, {"id": 6551746, "name": "Krummbek", "country": "DE", "coord": {"lon": 10.4, "lat": 54.383301}}, {"id": 2883366, "name": "Krummbek", "country": "DE", "coord": {"lon": 10.4, "lat": 54.383331}}, {"id": 2883350, "name": "Krummel", "country": "DE", "coord": {"lon": 7.71667, "lat": 50.533329}}, {"id": 2660099, "name": "Krummenau", "country": "CH", "coord": {"lon": 9.17054, "lat": 47.247551}}, {"id": 6553609, "name": "Krummenau", "country": "DE", "coord": {"lon": 7.26667, "lat": 49.883301}}, {"id": 2883335, "name": "Krummenau", "country": "DE", "coord": {"lon": 7.26667, "lat": 49.883331}}, {"id": 6552805, "name": "Krummendeich", "country": "DE", "coord": {"lon": 9.21667, "lat": 53.833302}}, {"id": 2883329, "name": "Krummendeich", "country": "DE", "coord": {"lon": 9.21667, "lat": 53.833328}}, {"id": 6552209, "name": "Krummendiek", "country": "DE", "coord": {"lon": 9.41664, "lat": 53.946621}}, {"id": 2883326, "name": "Krummendiek", "country": "DE", "coord": {"lon": 9.41655, "lat": 53.946651}}, {"id": 6556719, "name": "Krummennaab", "country": "DE", "coord": {"lon": 12.1, "lat": 49.833302}}, {"id": 2883317, "name": "Krummennaab", "country": "DE", "coord": {"lon": 12.1, "lat": 49.833328}}, {"id": 6551469, "name": "Krummesse", "country": "DE", "coord": {"lon": 10.65, "lat": 53.783298}}, {"id": 2883270, "name": "Krummesse", "country": "DE", "coord": {"lon": 10.65, "lat": 53.783329}}, {"id": 6548282, "name": "Krummin", "country": "DE", "coord": {"lon": 13.85, "lat": 54.049999}}, {"id": 2883260, "name": "Krummin", "country": "DE", "coord": {"lon": 13.85, "lat": 54.049999}}, {"id": 6551872, "name": "Krummwisch", "country": "DE", "coord": {"lon": 9.9, "lat": 54.333302}}, {"id": 2883247, "name": "Krummwisch", "country": "DE", "coord": {"lon": 9.9, "lat": 54.333328}}, {"id": 729896, "name": "Krumovgrad", "country": "BG", "coord": {"lon": 25.65, "lat": 41.466671}}, {"id": 6459967, "name": "Krumovo", "country": "BG", "coord": {"lon": 24.816669, "lat": 42.083328}}, {"id": 729892, "name": "Krumovo", "country": "BG", "coord": {"lon": 24.816669, "lat": 42.083328}}, {"id": 729889, "name": "Krumovo Gradishte", "country": "BG", "coord": {"lon": 26.933331, "lat": 42.616669}}, {"id": 6460055, "name": "Krumovo gradishhe", "country": "BG", "coord": {"lon": 26.933331, "lat": 42.616669}}, {"id": 2883246, "name": "Krumpa", "country": "DE", "coord": {"lon": 11.84412, "lat": 51.297241}}, {"id": 2883240, "name": "Krumscheid", "country": "DE", "coord": {"lon": 7.46667, "lat": 50.666672}}, {"id": 6551344, "name": "Krumstedt", "country": "DE", "coord": {"lon": 9.18333, "lat": 54.0667}}, {"id": 2883238, "name": "Krumstedt", "country": "DE", "coord": {"lon": 9.18333, "lat": 54.066669}}, {"id": 3072605, "name": "Krumvir", "country": "CZ", "coord": {"lon": 16.910271, "lat": 48.98901}}, {"id": 2883236, "name": "Krun", "country": "DE", "coord": {"lon": 11.28333, "lat": 47.5}}, {"id": 1609348, "name": "Krung Thep Mahanakhon", "country": "TH", "coord": {"lon": 100.71991, "lat": 13.87719}}, {"id": 6553414, "name": "Krunkel", "country": "DE", "coord": {"lon": 7.5, "lat": 50.583302}}, {"id": 2883234, "name": "Krunkel", "country": "DE", "coord": {"lon": 7.5, "lat": 50.583328}}, {"id": 3197111, "name": "Krupanj", "country": "RS", "coord": {"lon": 19.36194, "lat": 44.365559}}, {"id": 626478, "name": "Krupenina", "country": "BY", "coord": {"lon": 29.802641, "lat": 55.131592}}, {"id": 3059244, "name": "Krupina", "country": "SK", "coord": {"lon": 19.064739, "lat": 48.3554}}, {"id": 540597, "name": "Krupino", "country": "RU", "coord": {"lon": 38.73, "lat": 55.631668}}, {"id": 3072598, "name": "Krupka", "country": "CZ", "coord": {"lon": 13.85815, "lat": 50.68449}}, {"id": 626471, "name": "Krupki", "country": "BY", "coord": {"lon": 29.135839, "lat": 54.317799}}, {"id": 6459669, "name": "Krupnik", "country": "BG", "coord": {"lon": 23.116671, "lat": 41.849998}}, {"id": 729884, "name": "Krupnik", "country": "BG", "coord": {"lon": 23.116671, "lat": 41.849998}}, {"id": 540591, "name": "Krupskaya", "country": "RU", "coord": {"lon": 39.97488, "lat": 45.698769}}, {"id": 3094597, "name": "Krupski Mlyn", "country": "PL", "coord": {"lon": 18.622511, "lat": 50.573372}}, {"id": 540586, "name": "Krupskoy", "country": "RU", "coord": {"lon": 38.333332, "lat": 45.400002}}, {"id": 626462, "name": "Kruptsy", "country": "BY", "coord": {"lon": 27.5, "lat": 53.933334}}, {"id": 2618148, "name": "Krusa", "country": "DK", "coord": {"lon": 9.40129, "lat": 54.850971}}, {"id": 7872296, "name": "Krusdorf", "country": "AT", "coord": {"lon": 15.86707, "lat": 46.838539}}, {"id": 2773317, "name": "Krusdorf", "country": "AT", "coord": {"lon": 15.86083, "lat": 46.839439}}, {"id": 2883219, "name": "Krusemark", "country": "DE", "coord": {"lon": 11.95, "lat": 52.716671}}, {"id": 6548283, "name": "Krusenfelde", "country": "DE", "coord": {"lon": 13.4, "lat": 53.849998}}, {"id": 2883212, "name": "Krusenfelde", "country": "DE", "coord": {"lon": 13.4, "lat": 53.849998}}, {"id": 6548195, "name": "Krusenhagen", "country": "DE", "coord": {"lon": 11.5333, "lat": 53.950001}}, {"id": 2883211, "name": "Krusenhagen", "country": "DE", "coord": {"lon": 11.53333, "lat": 53.950001}}, {"id": 788975, "name": "Krusevac", "country": "RS", "coord": {"lon": 21.333891, "lat": 43.580002}}, {"id": 3197086, "name": "Krusevica", "country": "HR", "coord": {"lon": 18.48278, "lat": 45.077499}}, {"id": 3197071, "name": "Krusevo", "country": "HR", "coord": {"lon": 15.65, "lat": 44.183331}}, {"id": 729880, "name": "Krushari", "country": "BG", "coord": {"lon": 27.75, "lat": 43.816669}}, {"id": 788961, "name": "Krushevo", "country": "MK", "coord": {"lon": 21.24889, "lat": 41.368889}}, {"id": 788950, "name": "Krushopek", "country": "MK", "coord": {"lon": 21.354441, "lat": 41.978329}}, {"id": 6461578, "name": "Krushovica", "country": "BG", "coord": {"lon": 23.85, "lat": 43.616669}}, {"id": 729857, "name": "Krushovitsa", "country": "BG", "coord": {"lon": 23.85, "lat": 43.616669}}, {"id": 6459363, "name": "Krushuna", "country": "BG", "coord": {"lon": 25.033331, "lat": 43.25}}, {"id": 729854, "name": "Krushuna", "country": "BG", "coord": {"lon": 25.033331, "lat": 43.25}}, {"id": 6460039, "name": "Krustina", "country": "BG", "coord": {"lon": 27.23333, "lat": 42.583328}}, {"id": 3094585, "name": "Kruszwica", "country": "PL", "coord": {"lon": 18.33131, "lat": 52.675621}}, {"id": 540551, "name": "Krutaya Gora", "country": "RU", "coord": {"lon": 36.23333, "lat": 52.950001}}, {"id": 1501710, "name": "Krutaya Gorka", "country": "RU", "coord": {"lon": 73.223099, "lat": 55.364929}}, {"id": 540539, "name": "Kruten\u2019kiy", "country": "RU", "coord": {"lon": 44.333332, "lat": 48.683334}}, {"id": 540510, "name": "Krutets", "country": "RU", "coord": {"lon": 38.733334, "lat": 56.349998}}, {"id": 540511, "name": "Krutets", "country": "RU", "coord": {"lon": 38.549999, "lat": 56.166668}}, {"id": 3011421, "name": "Kruth", "country": "FR", "coord": {"lon": 6.96475, "lat": 47.93079}}, {"id": 1501706, "name": "Krutikha", "country": "RU", "coord": {"lon": 81.209297, "lat": 53.9599}}, {"id": 6610266, "name": "Krutikovo", "country": "RU", "coord": {"lon": 42.713612, "lat": 56.6525}}, {"id": 1501690, "name": "Krutinka", "country": "RU", "coord": {"lon": 71.511307, "lat": 56.005501}}, {"id": 540458, "name": "Krutinskiy", "country": "RU", "coord": {"lon": 40.889168, "lat": 48.256111}}, {"id": 6608927, "name": "Krutovo", "country": "RU", "coord": {"lon": 43.853058, "lat": 56.953609}}, {"id": 540355, "name": "Krutoy Pochinok", "country": "RU", "coord": {"lon": 41.930481, "lat": 60.014462}}, {"id": 540394, "name": "Krutoyarskiy", "country": "RU", "coord": {"lon": 41.400002, "lat": 54.933334}}, {"id": 7460667, "name": "Krutsy", "country": "RU", "coord": {"lon": 42.358799, "lat": 58.337502}}, {"id": 2883195, "name": "Krutweiler", "country": "DE", "coord": {"lon": 6.56667, "lat": 49.583328}}, {"id": 703903, "name": "Kruty", "country": "UA", "coord": {"lon": 32.106339, "lat": 51.059738}}, {"id": 650744, "name": "Kruununhaka", "country": "FI", "coord": {"lon": 24.9566, "lat": 60.171741}}, {"id": 2883191, "name": "Kruzen", "country": "DE", "coord": {"lon": 10.53333, "lat": 53.400002}}, {"id": 3197095, "name": "Kru\u0161edol", "country": "RS", "coord": {"lon": 19.94722, "lat": 45.113609}}, {"id": 735546, "name": "Krya Vrysi", "country": "GR", "coord": {"lon": 22.302219, "lat": 40.687222}}, {"id": 6422506, "name": "Kryachkovo", "country": "RU", "coord": {"lon": 41.274723, "lat": 56.44278}}, {"id": 626450, "name": "Krychaw", "country": "BY", "coord": {"lon": 31.70994, "lat": 53.694481}}, {"id": 5994273, "name": "Krydor", "country": "CA", "coord": {"lon": -107.067902, "lat": 52.783409}}, {"id": 540267, "name": "Krylovskaya", "country": "RU", "coord": {"lon": 39.971111, "lat": 46.319439}}, {"id": 540268, "name": "Krylovskaya", "country": "RU", "coord": {"lon": 39.303501, "lat": 46.109699}}, {"id": 540259, "name": "Krym", "country": "RU", "coord": {"lon": 39.516369, "lat": 47.300251}}, {"id": 540251, "name": "Krymsk", "country": "RU", "coord": {"lon": 37.991169, "lat": 44.92934}}, {"id": 3094562, "name": "Krynica Morska", "country": "PL", "coord": {"lon": 19.44413, "lat": 54.380508}}, {"id": 767369, "name": "Krynica-Wie\u015b", "country": "PL", "coord": {"lon": 20.9555, "lat": 49.410259}}, {"id": 767374, "name": "Krynica-Zdroj", "country": "PL", "coord": {"lon": 20.959419, "lat": 49.422249}}, {"id": 767368, "name": "Krynice", "country": "PL", "coord": {"lon": 23.381571, "lat": 50.587601}}, {"id": 767357, "name": "Krynki", "country": "PL", "coord": {"lon": 23.773041, "lat": 53.264439}}, {"id": 704079, "name": "Krynychky", "country": "UA", "coord": {"lon": 34.46701, "lat": 48.375511}}, {"id": 258793, "name": "Kryoneri", "country": "GR", "coord": {"lon": 23.83333, "lat": 38.150002}}, {"id": 3072581, "name": "Kryry", "country": "CZ", "coord": {"lon": 13.4266, "lat": 50.17437}}, {"id": 3094558, "name": "Kryry", "country": "PL", "coord": {"lon": 18.805679, "lat": 50.01667}}, {"id": 3094556, "name": "Kryspinow", "country": "PL", "coord": {"lon": 19.79822, "lat": 50.0438}}, {"id": 820143, "name": "Kryuchkov", "country": "RU", "coord": {"lon": 36.797779, "lat": 55.880001}}, {"id": 540197, "name": "Kryukovka", "country": "RU", "coord": {"lon": 36.299999, "lat": 52.799999}}, {"id": 540171, "name": "Kryukovo", "country": "RU", "coord": {"lon": 41.616669, "lat": 54.916668}}, {"id": 7601295, "name": "Kryukovo", "country": "RU", "coord": {"lon": 36.4118, "lat": 56.419899}}, {"id": 704055, "name": "Kryva", "country": "UA", "coord": {"lon": 23.236469, "lat": 48.17234}}, {"id": 704048, "name": "Kryva Hora", "country": "UA", "coord": {"lon": 30.19978, "lat": 51.384941}}, {"id": 704010, "name": "Kryve Ozero", "country": "UA", "coord": {"lon": 30.349279, "lat": 47.952419}}, {"id": 626523, "name": "Kryvichy", "country": "BY", "coord": {"lon": 27.290421, "lat": 54.713188}}, {"id": 703845, "name": "Kryvyy Rih", "country": "UA", "coord": {"lon": 33.349998, "lat": 47.916668}}, {"id": 703844, "name": "Kryzhanivka", "country": "UA", "coord": {"lon": 30.79487, "lat": 46.561668}}, {"id": 3094549, "name": "Krzanowice", "country": "PL", "coord": {"lon": 18.122511, "lat": 50.018219}}, {"id": 3094547, "name": "Krzczonow", "country": "PL", "coord": {"lon": 19.918209, "lat": 49.738129}}, {"id": 7536163, "name": "Krzczonow", "country": "PL", "coord": {"lon": 22.71097, "lat": 51.007271}}, {"id": 3094542, "name": "Krzecin", "country": "PL", "coord": {"lon": 15.49008, "lat": 53.0816}}, {"id": 3094543, "name": "Krzecin", "country": "PL", "coord": {"lon": 19.74157, "lat": 49.943161}}, {"id": 767311, "name": "Krzeczow", "country": "PL", "coord": {"lon": 20.487789, "lat": 49.988762}}, {"id": 767310, "name": "Krzeczowice", "country": "PL", "coord": {"lon": 22.463779, "lat": 49.989201}}, {"id": 767300, "name": "Krzemienica", "country": "PL", "coord": {"lon": 22.18054, "lat": 50.062099}}, {"id": 3094525, "name": "Krzemieniewo", "country": "PL", "coord": {"lon": 16.83354, "lat": 51.859051}}, {"id": 7532995, "name": "Krzepice", "country": "PL", "coord": {"lon": 18.7257, "lat": 50.9608}}, {"id": 3094513, "name": "Krzepice", "country": "PL", "coord": {"lon": 18.728861, "lat": 50.970589}}, {"id": 3094508, "name": "Krzepocinek", "country": "PL", "coord": {"lon": 19.10252, "lat": 52.003189}}, {"id": 767283, "name": "Krzeszow", "country": "PL", "coord": {"lon": 22.342409, "lat": 50.403809}}, {"id": 3094494, "name": "Krzeszow", "country": "PL", "coord": {"lon": 16.06991, "lat": 50.734341}}, {"id": 3094495, "name": "Krzeszow", "country": "PL", "coord": {"lon": 19.489149, "lat": 49.759151}}, {"id": 3094490, "name": "Krzeszowice", "country": "PL", "coord": {"lon": 19.632231, "lat": 50.142479}}, {"id": 3094488, "name": "Krzeszyce", "country": "PL", "coord": {"lon": 15.00707, "lat": 52.58329}}, {"id": 3094480, "name": "Krzewina", "country": "PL", "coord": {"lon": 14.95042, "lat": 51.02034}}, {"id": 3094461, "name": "Krzykosy", "country": "PL", "coord": {"lon": 17.374109, "lat": 52.110409}}, {"id": 3094457, "name": "Krzymow", "country": "PL", "coord": {"lon": 18.431101, "lat": 52.189602}}, {"id": 767253, "name": "Krzynowloga Mala", "country": "PL", "coord": {"lon": 20.785789, "lat": 53.15773}}, {"id": 3094449, "name": "Krzyszkowice", "country": "PL", "coord": {"lon": 19.92285, "lat": 49.883461}}, {"id": 3094442, "name": "Krzywaczka", "country": "PL", "coord": {"lon": 19.832211, "lat": 49.893532}}, {"id": 767241, "name": "Krzywcza", "country": "PL", "coord": {"lon": 22.54549, "lat": 49.798939}}, {"id": 767237, "name": "Krzywda", "country": "PL", "coord": {"lon": 22.19994, "lat": 51.795189}}, {"id": 767234, "name": "Krzywe", "country": "PL", "coord": {"lon": 22.201139, "lat": 49.65715}}, {"id": 3094423, "name": "Krzywin", "country": "PL", "coord": {"lon": 16.819851, "lat": 51.962959}}, {"id": 3094408, "name": "Krzyz Wielkopolski", "country": "PL", "coord": {"lon": 16.01116, "lat": 52.88097}}, {"id": 3094402, "name": "Krzyzanow", "country": "PL", "coord": {"lon": 19.45619, "lat": 52.18409}}, {"id": 3094400, "name": "Krzyzanowice", "country": "PL", "coord": {"lon": 18.268459, "lat": 49.982471}}, {"id": 3094390, "name": "Krzyzowa", "country": "PL", "coord": {"lon": 19.34469, "lat": 49.59235}}, {"id": 3094386, "name": "Krzyzowice", "country": "PL", "coord": {"lon": 18.67281, "lat": 49.985279}}, {"id": 7531872, "name": "Krzy\u017canowice", "country": "PL", "coord": {"lon": 18.26623, "lat": 49.981468}}, {"id": 7874460, "name": "Krzy\u017canowice", "country": "PL", "coord": {"lon": 17.050739, "lat": 51.175251}}, {"id": 3094374, "name": "Krzy\u017cowniki", "country": "PL", "coord": {"lon": 16.795361, "lat": 52.438332}}, {"id": 2618304, "name": "Kr\u00e1ir", "country": "FO", "coord": {"lon": -6.8138, "lat": 61.467419}}, {"id": 3339540, "name": "Kr\u00e1lov\u00e9hradeck\u00fd kraj", "country": "CZ", "coord": {"lon": 15.91667, "lat": 50.416672}}, {"id": 2885020, "name": "Kr\u00e4ft", "country": "DE", "coord": {"lon": 10.6, "lat": 49.450001}}, {"id": 6555378, "name": "Kr\u00e4henberg", "country": "DE", "coord": {"lon": 7.46667, "lat": 49.333302}}, {"id": 2884728, "name": "Kr\u00e4nzlin", "country": "DE", "coord": {"lon": 12.74397, "lat": 52.929138}}, {"id": 2884724, "name": "Kr\u00e4pelin", "country": "DE", "coord": {"lon": 13.6, "lat": 54.116669}}, {"id": 2883830, "name": "Kr\u00f6ffelbach", "country": "DE", "coord": {"lon": 8.47235, "lat": 50.446789}}, {"id": 2883795, "name": "Kr\u00f6lpa", "country": "DE", "coord": {"lon": 11.88333, "lat": 50.666672}}, {"id": 6550481, "name": "Kr\u00f6lpa", "country": "DE", "coord": {"lon": 11.53976, "lat": 50.6777}}, {"id": 6551466, "name": "Kr\u00f6ppelshagen-Fahrendorf", "country": "DE", "coord": {"lon": 10.3333, "lat": 53.483299}}, {"id": 6555336, "name": "Kr\u00f6ppen", "country": "DE", "coord": {"lon": 7.53333, "lat": 49.150002}}, {"id": 2660100, "name": "Kr\u00f6schenbrunnen", "country": "CH", "coord": {"lon": 7.87831, "lat": 46.910252}}, {"id": 6548281, "name": "Kr\u00f6slin", "country": "DE", "coord": {"lon": 13.7667, "lat": 54.116699}}, {"id": 2883542, "name": "Kr\u00f6ttenbach", "country": "DE", "coord": {"lon": 10.63333, "lat": 49.083328}}, {"id": 6554343, "name": "Kr\u00f6v", "country": "DE", "coord": {"lon": 7.08333, "lat": 49.983299}}, {"id": 2883481, "name": "Kr\u00fcckenkrug", "country": "DE", "coord": {"lon": 10, "lat": 54.116669}}, {"id": 6554150, "name": "Kr\u00fcmmel", "country": "DE", "coord": {"lon": 7.71667, "lat": 50.533298}}, {"id": 2883239, "name": "Kr\u00fcmse", "country": "DE", "coord": {"lon": 10.31337, "lat": 53.40995}}, {"id": 6556242, "name": "Kr\u00fcn", "country": "DE", "coord": {"lon": 11.2833, "lat": 47.5}}, {"id": 2883204, "name": "Kr\u00fcssau", "country": "DE", "coord": {"lon": 12.06667, "lat": 52.26667}}, {"id": 6551467, "name": "Kr\u00fczen", "country": "DE", "coord": {"lon": 10.5333, "lat": 53.400002}}, {"id": 458621, "name": "Kr\u0101slavas Rajons", "country": "LV", "coord": {"lon": 27.5, "lat": 56.083328}}, {"id": 1830103, "name": "Kr\u014fng Phnum P\u00e9nh", "country": "KH", "coord": {"lon": 104.866669, "lat": 11.55}}, {"id": 729845, "name": "Kr\u016dstina", "country": "BG", "coord": {"lon": 27.23687, "lat": 42.585381}}, {"id": 2595352, "name": "Ksar", "country": "MR", "coord": {"lon": -15.9574, "lat": 18.099501}}, {"id": 2491340, "name": "Ksar Ahmera", "country": "DZ", "coord": {"lon": 3.14012, "lat": 34.370159}}, {"id": 2491335, "name": "Ksar Chellala", "country": "DZ", "coord": {"lon": 2.31889, "lat": 35.212219}}, {"id": 2491300, "name": "Ksar Sbahi", "country": "DZ", "coord": {"lon": 7.25806, "lat": 36.083061}}, {"id": 2491323, "name": "Ksar el Boukhari", "country": "DZ", "coord": {"lon": 2.74905, "lat": 35.888889}}, {"id": 2544001, "name": "Ksar el Kebir", "country": "MA", "coord": {"lon": -5.90534, "lat": 35.00174}}, {"id": 3094370, "name": "Ksawerow", "country": "PL", "coord": {"lon": 19.4028, "lat": 51.68288}}, {"id": 540121, "name": "Kshenskiy", "country": "RU", "coord": {"lon": 37.713612, "lat": 51.840832}}, {"id": 3094355, "name": "Ksiaz Wielkopolski", "country": "PL", "coord": {"lon": 17.239519, "lat": 52.061668}}, {"id": 3094361, "name": "Ksiazenice", "country": "PL", "coord": {"lon": 18.599251, "lat": 50.155239}}, {"id": 3094359, "name": "Ksiazki", "country": "PL", "coord": {"lon": 19.07029, "lat": 53.3298}}, {"id": 767150, "name": "Ksiezomierz", "country": "PL", "coord": {"lon": 21.989651, "lat": 50.90855}}, {"id": 767145, "name": "Ksiezpol", "country": "PL", "coord": {"lon": 22.73526, "lat": 50.423229}}, {"id": 2467856, "name": "Ksour Essaf", "country": "TN", "coord": {"lon": 10.99475, "lat": 35.418079}}, {"id": 540103, "name": "Kstovo", "country": "RU", "coord": {"lon": 44.197868, "lat": 56.147331}}, {"id": 7510980, "name": "Ku Kaeo", "country": "TH", "coord": {"lon": 103.15303, "lat": 17.17214}}, {"id": 7839740, "name": "Ku-ring-gai", "country": "AU", "coord": {"lon": 151.148773, "lat": -33.727009}}, {"id": 6949380, "name": "Ku-ring-gai", "country": "AU", "coord": {"lon": 151.149994, "lat": -33.75}}, {"id": 1222396, "name": "Kuah", "country": "MY", "coord": {"lon": 99.843201, "lat": 6.32649}}, {"id": 1941816, "name": "Kuaian", "country": "CN", "coord": {"lon": 119.416389, "lat": 26.03417}}, {"id": 2036287, "name": "Kuaidamao", "country": "CN", "coord": {"lon": 125.742249, "lat": 41.655319}}, {"id": 1820491, "name": "Kuala Belait", "country": "BN", "coord": {"lon": 114.183327, "lat": 4.58333}}, {"id": 1734599, "name": "Kuala Kangsar", "country": "MY", "coord": {"lon": 100.933327, "lat": 4.76667}}, {"id": 1736305, "name": "Kuala Kedah", "country": "MY", "coord": {"lon": 100.300003, "lat": 6.1}}, {"id": 1733023, "name": "Kuala Lipis", "country": "MY", "coord": {"lon": 102.046799, "lat": 4.1842}}, {"id": 1733046, "name": "Kuala Lumpur", "country": "MY", "coord": {"lon": 101.686531, "lat": 3.14309}}, {"id": 1735161, "name": "Kuala Lumpur", "country": "MY", "coord": {"lon": 101.686531, "lat": 3.1412}}, {"id": 1736292, "name": "Kuala Perlis", "country": "MY", "coord": {"lon": 100.133331, "lat": 6.4}}, {"id": 1734841, "name": "Kuala Pilah", "country": "MY", "coord": {"lon": 102.248703, "lat": 2.7389}}, {"id": 1732891, "name": "Kuala Selangor", "country": "MY", "coord": {"lon": 101.25, "lat": 3.35}}, {"id": 1759513, "name": "Kuala Sungai Baru", "country": "MY", "coord": {"lon": 102.035301, "lat": 2.3594}}, {"id": 1734705, "name": "Kuala Terengganu", "country": "MY", "coord": {"lon": 103.1408, "lat": 5.3302}}, {"id": 1639304, "name": "Kualakapuas", "country": "ID", "coord": {"lon": 114.387589, "lat": -3.00913}}, {"id": 5849718, "name": "Kualapuu", "country": "US", "coord": {"lon": -157.039719, "lat": 21.155279}}, {"id": 1639286, "name": "Kualatungkal", "country": "ID", "coord": {"lon": 103.466667, "lat": -0.81667}}, {"id": 2036286, "name": "Kuanbang", "country": "CN", "coord": {"lon": 120.121391, "lat": 40.507278}}, {"id": 1804694, "name": "Kuanchuan", "country": "CN", "coord": {"lon": 106.259399, "lat": 32.99437}}, {"id": 2055815, "name": "Kuanda", "country": "RU", "coord": {"lon": 116.080559, "lat": 56.316109}}, {"id": 2036283, "name": "Kuandian", "country": "CN", "coord": {"lon": 124.784721, "lat": 40.728611}}, {"id": 1759486, "name": "Kuang", "country": "MY", "coord": {"lon": 101.5541, "lat": 3.2594}}, {"id": 2036281, "name": "Kuangdonggou", "country": "CN", "coord": {"lon": 122.70417, "lat": 40.173611}}, {"id": 8060811, "name": "Kuangsan", "country": "ID", "coord": {"lon": 111.299301, "lat": -6.7459}}, {"id": 7063446, "name": "Kuangshan", "country": "CN", "coord": {"lon": 113.495728, "lat": 33.378738}}, {"id": 1804686, "name": "Kuangyan", "country": "CN", "coord": {"lon": 121.29586, "lat": 30.15127}}, {"id": 1804685, "name": "Kuangyuan", "country": "CN", "coord": {"lon": 103.147888, "lat": 24.91379}}, {"id": 1708510, "name": "Kuanos", "country": "PH", "coord": {"lon": 123.779999, "lat": 10.28298}}, {"id": 1735227, "name": "Kuantan", "country": "MY", "coord": {"lon": 103.325996, "lat": 3.8077}}, {"id": 73650, "name": "Kuaydinah", "country": "YE", "coord": {"lon": 43.3372, "lat": 15.82104}}, {"id": 3355916, "name": "Kub", "country": "NA", "coord": {"lon": 17.5, "lat": -24.23333}}, {"id": 540042, "name": "Kuba-Taba", "country": "RU", "coord": {"lon": 43.44278, "lat": 43.776112}}, {"id": 540078, "name": "Kubachi", "country": "RU", "coord": {"lon": 47.603378, "lat": 42.085979}}, {"id": 7764293, "name": "Kubang", "country": "ID", "coord": {"lon": 106.484901, "lat": -6.7864}}, {"id": 7766425, "name": "Kubang", "country": "ID", "coord": {"lon": 105.883003, "lat": -6.4194}}, {"id": 8017657, "name": "Kubang", "country": "ID", "coord": {"lon": 108.110603, "lat": -7.4585}}, {"id": 8018339, "name": "Kubang", "country": "ID", "coord": {"lon": 108.019997, "lat": -7.0526}}, {"id": 8072321, "name": "Kubang", "country": "ID", "coord": {"lon": 108.638199, "lat": -7.2738}}, {"id": 8023579, "name": "Kubangeceng", "country": "ID", "coord": {"lon": 108.126404, "lat": -7.2966}}, {"id": 7766037, "name": "Kubangkampil", "country": "ID", "coord": {"lon": 105.8395, "lat": -6.4908}}, {"id": 1625804, "name": "Kubangkepuh", "country": "ID", "coord": {"lon": 106.028397, "lat": -5.8994}}, {"id": 7766432, "name": "Kubangkondang", "country": "ID", "coord": {"lon": 105.908897, "lat": -6.4219}}, {"id": 7766429, "name": "Kubangkondanglapangan", "country": "ID", "coord": {"lon": 105.912102, "lat": -6.4154}}, {"id": 7928442, "name": "Kubangsari", "country": "ID", "coord": {"lon": 108.030701, "lat": -7.5174}}, {"id": 8076311, "name": "Kubangwaru", "country": "ID", "coord": {"lon": 108.8004, "lat": -7.3249}}, {"id": 540060, "name": "Kubanskaya", "country": "RU", "coord": {"lon": 39.713612, "lat": 44.604721}}, {"id": 540055, "name": "Kubanskiy", "country": "RU", "coord": {"lon": 40.580555, "lat": 45.929169}}, {"id": 540054, "name": "Kubanskiy", "country": "RU", "coord": {"lon": 39.803333, "lat": 46.36639}}, {"id": 283316, "name": "Kubar", "country": "PS", "coord": {"lon": 35.157879, "lat": 31.987221}}, {"id": 540030, "name": "Kubinka", "country": "RU", "coord": {"lon": 36.689999, "lat": 55.583889}}, {"id": 6548009, "name": "Kublank", "country": "DE", "coord": {"lon": 13.5, "lat": 53.549999}}, {"id": 2883175, "name": "Kublank", "country": "DE", "coord": {"lon": 13.5, "lat": 53.549999}}, {"id": 7930860, "name": "Kuborka", "country": "BY", "coord": {"lon": 25.8363, "lat": 53.587601}}, {"id": 2960359, "name": "Kuborn", "country": "LU", "coord": {"lon": 5.90306, "lat": 49.87056}}, {"id": 6419788, "name": "Kubota", "country": "JP", "coord": {"lon": 140.008331, "lat": 35.453331}}, {"id": 729839, "name": "Kubrat", "country": "BG", "coord": {"lon": 26.5, "lat": 43.799999}}, {"id": 2883170, "name": "Kubschutz", "country": "DE", "coord": {"lon": 14.5, "lat": 51.166672}}, {"id": 6548616, "name": "Kubsch\u00fctz", "country": "DE", "coord": {"lon": 14.4838, "lat": 51.1698}}, {"id": 1639246, "name": "Kubu", "country": "ID", "coord": {"lon": 115.566597, "lat": -8.2524}}, {"id": 935055, "name": "Kubuta", "country": "SZ", "coord": {"lon": 31.48333, "lat": -26.883329}}, {"id": 540004, "name": "Kubysh", "country": "RU", "coord": {"lon": 39.397778, "lat": 44.086388}}, {"id": 788937, "name": "Kucevo", "country": "RS", "coord": {"lon": 21.67, "lat": 44.477501}}, {"id": 1265830, "name": "Kuchaiburi", "country": "IN", "coord": {"lon": 86.166672, "lat": 22.26667}}, {"id": 1265828, "name": "Kuchaman", "country": "IN", "coord": {"lon": 74.849998, "lat": 27.15}}, {"id": 3094325, "name": "Kuchary", "country": "PL", "coord": {"lon": 19.383329, "lat": 52.150002}}, {"id": 2883156, "name": "Kuchelmiss", "country": "DE", "coord": {"lon": 12.36168, "lat": 53.68227}}, {"id": 6547891, "name": "Kuchelmi\u00df", "country": "DE", "coord": {"lon": 12.3667, "lat": 53.6833}}, {"id": 6555464, "name": "Kuchen", "country": "DE", "coord": {"lon": 9.80011, "lat": 48.63586}}, {"id": 2883151, "name": "Kuchen", "country": "DE", "coord": {"lon": 9.79989, "lat": 48.63583}}, {"id": 2883137, "name": "Kuchenheim", "country": "DE", "coord": {"lon": 6.83333, "lat": 50.650002}}, {"id": 2883136, "name": "Kuchenreuth", "country": "DE", "coord": {"lon": 11.9, "lat": 49.866669}}, {"id": 1265821, "name": "Kuchera", "country": "IN", "coord": {"lon": 73.971939, "lat": 26.983891}}, {"id": 1609345, "name": "Kuchinarai", "country": "TH", "coord": {"lon": 104.050041, "lat": 16.541}}, {"id": 1735634, "name": "Kuching", "country": "MY", "coord": {"lon": 110.333328, "lat": 1.55}}, {"id": 539967, "name": "Kuchino", "country": "RU", "coord": {"lon": 37.97028, "lat": 55.759724}}, {"id": 539970, "name": "Kuchino", "country": "RU", "coord": {"lon": 37.066669, "lat": 56.916672}}, {"id": 539960, "name": "Kuchki", "country": "RU", "coord": {"lon": 44.483334, "lat": 53.016666}}, {"id": 7872199, "name": "Kuchl", "country": "AT", "coord": {"lon": 13.13196, "lat": 47.618999}}, {"id": 2773304, "name": "Kuchl", "country": "AT", "coord": {"lon": 13.1448, "lat": 47.626469}}, {"id": 539946, "name": "Kuchugury", "country": "RU", "coord": {"lon": 36.95586, "lat": 45.407021}}, {"id": 864871, "name": "Kuchurhan", "country": "UA", "coord": {"lon": 29.789379, "lat": 47.163021}}, {"id": 2883095, "name": "Kuckhof", "country": "DE", "coord": {"lon": 6.75, "lat": 51.133331}}, {"id": 2882623, "name": "Kuckuk", "country": "DE", "coord": {"lon": 12.26667, "lat": 53.200001}}, {"id": 3185060, "name": "Kucove", "country": "AL", "coord": {"lon": 19.91667, "lat": 40.800282}}, {"id": 436324, "name": "Kucukkendirci", "country": "TR", "coord": {"lon": 38.346111, "lat": 36.90583}}, {"id": 742348, "name": "Kucukkumla", "country": "TR", "coord": {"lon": 29.12306, "lat": 40.477371}}, {"id": 767121, "name": "Kuczbork-Osada", "country": "PL", "coord": {"lon": 20.047819, "lat": 53.086189}}, {"id": 1265815, "name": "Kud", "country": "IN", "coord": {"lon": 75.283333, "lat": 33.083328}}, {"id": 2021442, "name": "Kuda", "country": "RU", "coord": {"lon": 104.40583, "lat": 52.443611}}, {"id": 1265811, "name": "Kudachi", "country": "IN", "coord": {"lon": 74.849998, "lat": 16.633329}}, {"id": 1337607, "name": "Kudahuvadhoo", "country": "MV", "coord": {"lon": 72.894371, "lat": 2.67075}}, {"id": 1265809, "name": "Kudal", "country": "IN", "coord": {"lon": 73.683327, "lat": 16.033331}}, {"id": 1858498, "name": "Kudamatsu", "country": "JP", "coord": {"lon": 131.866669, "lat": 34}}, {"id": 1708501, "name": "Kudanding", "country": "PH", "coord": {"lon": 124.623062, "lat": 6.58694}}, {"id": 7914999, "name": "Kudang", "country": "ID", "coord": {"lon": 107.971603, "lat": -7.4565}}, {"id": 7920947, "name": "Kudang", "country": "ID", "coord": {"lon": 107.927902, "lat": -7.2175}}, {"id": 7921453, "name": "Kudang", "country": "ID", "coord": {"lon": 107.9841, "lat": -7.0331}}, {"id": 8023622, "name": "Kudang", "country": "ID", "coord": {"lon": 108.143402, "lat": -7.2762}}, {"id": 8025786, "name": "Kudang", "country": "ID", "coord": {"lon": 108.151901, "lat": -7.1641}}, {"id": 2021434, "name": "Kudara-Somon", "country": "RU", "coord": {"lon": 107.40139, "lat": 50.15472}}, {"id": 2068177, "name": "Kudardup", "country": "AU", "coord": {"lon": 115.099998, "lat": -34.283329}}, {"id": 1736458, "name": "Kudat", "country": "MY", "coord": {"lon": 116.847702, "lat": 6.8837}}, {"id": 2883066, "name": "Kuddeworde", "country": "DE", "coord": {"lon": 10.4, "lat": 53.583328}}, {"id": 6551470, "name": "Kuddew\u00f6rde", "country": "DE", "coord": {"lon": 10.4, "lat": 53.583302}}, {"id": 6551345, "name": "Kuden", "country": "DE", "coord": {"lon": 9.18333, "lat": 53.966702}}, {"id": 2883065, "name": "Kuden", "country": "DE", "coord": {"lon": 9.18333, "lat": 53.966671}}, {"id": 6552210, "name": "Kudensee", "country": "DE", "coord": {"lon": 9.21667, "lat": 53.9333}}, {"id": 2883062, "name": "Kudensee", "country": "DE", "coord": {"lon": 9.21667, "lat": 53.933331}}, {"id": 539907, "name": "Kudepsta", "country": "RU", "coord": {"lon": 39.896389, "lat": 43.494446}}, {"id": 539897, "name": "Kudeyevskiy", "country": "RU", "coord": {"lon": 56.756672, "lat": 54.875832}}, {"id": 626418, "name": "Kudinovichi", "country": "BY", "coord": {"lon": 26.883333, "lat": 53.183334}}, {"id": 539885, "name": "Kudinovo", "country": "RU", "coord": {"lon": 36.253311, "lat": 54.99939}}, {"id": 539884, "name": "Kudinovo", "country": "RU", "coord": {"lon": 38.209167, "lat": 55.764442}}, {"id": 539887, "name": "Kudinovo", "country": "RU", "coord": {"lon": 38.827122, "lat": 54.668159}}, {"id": 597904, "name": "Kudirkos Naumiestis", "country": "LT", "coord": {"lon": 22.86306, "lat": 54.77306}}, {"id": 1265795, "name": "Kudligi", "country": "IN", "coord": {"lon": 76.383331, "lat": 14.9}}, {"id": 539868, "name": "Kudnavolok", "country": "RU", "coord": {"lon": 34.900002, "lat": 62.633331}}, {"id": 2160987, "name": "Kudo", "country": "AU", "coord": {"lon": 151.833328, "lat": -27.33333}}, {"id": 8183625, "name": "Kudo", "country": "ID", "coord": {"lon": 111.452599, "lat": -8.0058}}, {"id": 3094303, "name": "Kudowa-Zdroj", "country": "PL", "coord": {"lon": 16.243971, "lat": 50.44297}}, {"id": 1858492, "name": "Kudoyama", "country": "JP", "coord": {"lon": 135.566666, "lat": 34.283329}}, {"id": 539844, "name": "Kudrinskaya", "country": "RU", "coord": {"lon": 35.550301, "lat": 54.2505}}, {"id": 539839, "name": "Kudrovo", "country": "RU", "coord": {"lon": 30.505833, "lat": 59.907223}}, {"id": 1501573, "name": "Kudryashovskiy", "country": "RU", "coord": {"lon": 82.7742, "lat": 55.097401}}, {"id": 804374, "name": "Kudryavtseva", "country": "RU", "coord": {"lon": 40.07444, "lat": 44.281391}}, {"id": 703776, "name": "Kudryne", "country": "UA", "coord": {"lon": 33.950001, "lat": 44.700001}}, {"id": 8060272, "name": "Kudukeras", "country": "ID", "coord": {"lon": 111.149399, "lat": -6.7133}}, {"id": 1639215, "name": "Kudus", "country": "ID", "coord": {"lon": 110.8405, "lat": -6.8048}}, {"id": 7579625, "name": "Kudusan", "country": "ID", "coord": {"lon": 111.926804, "lat": -8.0785}}, {"id": 539818, "name": "Kudykino", "country": "RU", "coord": {"lon": 38.978333, "lat": 55.734165}}, {"id": 539817, "name": "Kudymkar", "country": "RU", "coord": {"lon": 54.655998, "lat": 59.017288}}, {"id": 7336948, "name": "Kuekobo", "country": "ID", "coord": {"lon": 121.392601, "lat": -8.7158}}, {"id": 2882366, "name": "Kueps Oberfranken", "country": "DE", "coord": {"lon": 11.28333, "lat": 50.200001}}, {"id": 2660089, "name": "Kuesnacht", "country": "CH", "coord": {"lon": 8.58401, "lat": 47.31805}}, {"id": 6293330, "name": "Kuesnacht / Dorf", "country": "CH", "coord": {"lon": 8.58303, "lat": 47.317829}}, {"id": 6293331, "name": "Kuesnacht / Goldbach", "country": "CH", "coord": {"lon": 8.58077, "lat": 47.32729}}, {"id": 6293334, "name": "Kuesnacht / Heslibach", "country": "CH", "coord": {"lon": 8.58849, "lat": 47.313068}}, {"id": 6293332, "name": "Kuesnacht / Itschnach", "country": "CH", "coord": {"lon": 8.60068, "lat": 47.327141}}, {"id": 6293333, "name": "Kuesnacht / Schiedhalden", "country": "CH", "coord": {"lon": 8.58881, "lat": 47.321121}}, {"id": 283040, "name": "Kufayrit", "country": "PS", "coord": {"lon": 35.201839, "lat": 32.443802}}, {"id": 2883054, "name": "Kufferath", "country": "DE", "coord": {"lon": 6.46667, "lat": 50.75}}, {"id": 7873650, "name": "Kufstein", "country": "AT", "coord": {"lon": 12.20915, "lat": 47.57909}}, {"id": 2773300, "name": "Kufstein", "country": "AT", "coord": {"lon": 12.16667, "lat": 47.583328}}, {"id": 1858486, "name": "Kuga", "country": "JP", "coord": {"lon": 132.083328, "lat": 34.083328}}, {"id": 5994330, "name": "Kugaaruk", "country": "CA", "coord": {"lon": -89.824707, "lat": 68.535767}}, {"id": 609142, "name": "Kugal", "country": "KZ", "coord": {"lon": 53.599998, "lat": 50.083332}}, {"id": 1858480, "name": "Kugayama", "country": "JP", "coord": {"lon": 139.600006, "lat": 35.683331}}, {"id": 2883026, "name": "Kugelreuth", "country": "DE", "coord": {"lon": 12.11667, "lat": 50.333328}}, {"id": 539794, "name": "Kugesi", "country": "RU", "coord": {"lon": 47.292549, "lat": 56.02895}}, {"id": 5994339, "name": "Kugluktuk", "country": "CA", "coord": {"lon": -115.096489, "lat": 67.827431}}, {"id": 539781, "name": "Kugul\u2019ta", "country": "RU", "coord": {"lon": 42.388889, "lat": 45.363609}}, {"id": 390054, "name": "Kuh Sefid", "country": "IR", "coord": {"lon": 56.801399, "lat": 29.276199}}, {"id": 6555011, "name": "Kuhardt", "country": "DE", "coord": {"lon": 8.3295, "lat": 49.1483}}, {"id": 2883005, "name": "Kuhardt", "country": "DE", "coord": {"lon": 8.31444, "lat": 49.145828}}, {"id": 2883000, "name": "Kuhbach", "country": "DE", "coord": {"lon": 11.18691, "lat": 48.491009}}, {"id": 126409, "name": "Kuhdasht", "country": "IR", "coord": {"lon": 47.606098, "lat": 33.535}}, {"id": 2882879, "name": "Kuhdorf", "country": "DE", "coord": {"lon": 12.11062, "lat": 50.706791}}, {"id": 6549685, "name": "Kuhfelde", "country": "DE", "coord": {"lon": 11.1167, "lat": 52.783298}}, {"id": 2882875, "name": "Kuhfelde", "country": "DE", "coord": {"lon": 11.11667, "lat": 52.783329}}, {"id": 73638, "name": "Kuhlan Afar", "country": "YE", "coord": {"lon": 43.719021, "lat": 15.73309}}, {"id": 2882777, "name": "Kuhlenthal", "country": "DE", "coord": {"lon": 10.81667, "lat": 48.566669}}, {"id": 650707, "name": "Kuhmalahti", "country": "FI", "coord": {"lon": 24.566669, "lat": 61.5}}, {"id": 650706, "name": "Kuhmo", "country": "FI", "coord": {"lon": 29.75, "lat": 64.25}}, {"id": 650705, "name": "Kuhmo", "country": "FI", "coord": {"lon": 29.51667, "lat": 64.133331}}, {"id": 650704, "name": "Kuhmoinen", "country": "FI", "coord": {"lon": 25.25, "lat": 61.666672}}, {"id": 650703, "name": "Kuhmoinen", "country": "FI", "coord": {"lon": 25.183331, "lat": 61.566669}}, {"id": 2882729, "name": "Kuhndorf", "country": "DE", "coord": {"lon": 10.48333, "lat": 50.616669}}, {"id": 2882708, "name": "Kuhnhofen", "country": "DE", "coord": {"lon": 7.86667, "lat": 50.533329}}, {"id": 6554231, "name": "Kuhnh\u00f6fen", "country": "DE", "coord": {"lon": 7.86667, "lat": 50.533298}}, {"id": 2882692, "name": "Kuhren", "country": "DE", "coord": {"lon": 10.25956, "lat": 54.19878}}, {"id": 2882681, "name": "Kuhrstedt", "country": "DE", "coord": {"lon": 8.80091, "lat": 53.577469}}, {"id": 6547892, "name": "Kuhs", "country": "DE", "coord": {"lon": 12.2333, "lat": 53.866699}}, {"id": 2882675, "name": "Kuhs", "country": "DE", "coord": {"lon": 12.2319, "lat": 53.858101}}, {"id": 1120483, "name": "Kuhsan", "country": "AF", "coord": {"lon": 61.197781, "lat": 34.653889}}, {"id": 2882673, "name": "Kuhschnappel", "country": "DE", "coord": {"lon": 12.64432, "lat": 50.806568}}, {"id": 2882670, "name": "Kuhsen", "country": "DE", "coord": {"lon": 10.61667, "lat": 53.683331}},