[{"id": 78776, "name": "Al Misrakh", "country": "YE", "coord": {"lon": 44.020432, "lat": 13.46059}}, {"id": 78814, "name": "Al Milah", "country": "YE", "coord": {"lon": 44.825562, "lat": 13.42611}}, {"id": 78823, "name": "Al Mighlaf", "country": "YE", "coord": {"lon": 43.18914, "lat": 15.2871}}, {"id": 78905, "name": "Markaz al Marir", "country": "YE", "coord": {"lon": 43.59547, "lat": 13.98178}}, {"id": 78909, "name": "Al Marawiah", "country": "YE", "coord": {"lon": 43.153912, "lat": 14.83069}}, {"id": 78929, "name": "Al Mansuriyah", "country": "YE", "coord": {"lon": 43.299221, "lat": 14.6856}}, {"id": 78931, "name": "Al Mansurah", "country": "YE", "coord": {"lon": 44.981659, "lat": 12.86019}}, {"id": 78964, "name": "Al Makhadir", "country": "YE", "coord": {"lon": 44.19796, "lat": 14.12224}}, {"id": 78977, "name": "Al Mahwit", "country": "YE", "coord": {"lon": 43.544811, "lat": 15.47007}}, {"id": 78991, "name": "Al Mahfid", "country": "YE", "coord": {"lon": 46.91328, "lat": 14.05847}}, {"id": 79006, "name": "Al Mahabishah", "country": "YE", "coord": {"lon": 43.435871, "lat": 15.94758}}, {"id": 79050, "name": "Al Luhayyah", "country": "YE", "coord": {"lon": 42.690929, "lat": 15.70309}}, {"id": 79088, "name": "Kirsh", "country": "YE", "coord": {"lon": 44.490459, "lat": 13.36473}}, {"id": 79131, "name": "Al Khawkhah", "country": "YE", "coord": {"lon": 43.249298, "lat": 13.8071}}, {"id": 79219, "name": "Al Jurbah", "country": "YE", "coord": {"lon": 45.158939, "lat": 13.7915}}, {"id": 79284, "name": "Al Jarrahi", "country": "YE", "coord": {"lon": 43.388451, "lat": 14.13254}}, {"id": 79384, "name": "Al Husayn", "country": "YE", "coord": {"lon": 44.76886, "lat": 13.79199}}, {"id": 79393, "name": "Huraydah", "country": "YE", "coord": {"lon": 48.182781, "lat": 15.59861}}, {"id": 79455, "name": "Al Hazm", "country": "YE", "coord": {"lon": 44.77692, "lat": 16.164061}}, {"id": 79478, "name": "Al Qatn", "country": "YE", "coord": {"lon": 48.455559, "lat": 15.84056}}, {"id": 79531, "name": "Al Harf", "country": "YE", "coord": {"lon": 44.094212, "lat": 16.363951}}, {"id": 79609, "name": "Hajar al Mushaikh", "country": "YE", "coord": {"lon": 47.833328, "lat": 16.133329}}, {"id": 79700, "name": "Al Ghayzah", "country": "YE", "coord": {"lon": 52.176048, "lat": 16.20787}}, {"id": 79845, "name": "Al Batinah", "country": "YE", "coord": {"lon": 48.433331, "lat": 15.48333}}, {"id": 79967, "name": "Al Aqir", "country": "YE", "coord": {"lon": 45.91156, "lat": 14.56816}}, {"id": 80105, "name": "Ahwar", "country": "YE", "coord": {"lon": 46.713669, "lat": 13.52019}}, {"id": 80309, "name": "Ad Durayhimi", "country": "YE", "coord": {"lon": 43.05505, "lat": 14.63702}}, {"id": 80331, "name": "Ad Dis ash Sharqiyah", "country": "YE", "coord": {"lon": 49.947781, "lat": 14.90806}}, {"id": 80336, "name": "Ad Dimnah", "country": "YE", "coord": {"lon": 44.181679, "lat": 13.45398}}, {"id": 80379, "name": "Ad Dann", "country": "YE", "coord": {"lon": 43.852749, "lat": 14.3518}}, {"id": 80383, "name": "Az Zaliah", "country": "YE", "coord": {"lon": 48.01667, "lat": 15.01667}}, {"id": 80384, "name": "Dhalie", "country": "YE", "coord": {"lon": 44.731369, "lat": 13.69572}}, {"id": 80393, "name": "Dhahi", "country": "YE", "coord": {"lon": 43.06974, "lat": 15.21467}}, {"id": 400734, "name": "Markaz Bilad at Taam", "country": "YE", "coord": {"lon": 43.536388, "lat": 14.83361}}, {"id": 401000, "name": "Al Jumah", "country": "YE", "coord": {"lon": 43.96489, "lat": 14.73779}}, {"id": 401019, "name": "Al Hadiyah", "country": "YE", "coord": {"lon": 43.57045, "lat": 14.52638}}, {"id": 401023, "name": "Kusmah", "country": "YE", "coord": {"lon": 43.636761, "lat": 14.58175}}, {"id": 401653, "name": "Riqab", "country": "YE", "coord": {"lon": 43.464909, "lat": 14.88596}}, {"id": 401672, "name": "As Sukhnah", "country": "YE", "coord": {"lon": 43.436199, "lat": 14.79408}}, {"id": 402074, "name": "Ar Rujum", "country": "YE", "coord": {"lon": 43.632259, "lat": 15.45776}}, {"id": 402470, "name": "Al Khamis", "country": "YE", "coord": {"lon": 43.511219, "lat": 15.18533}}, {"id": 402753, "name": "Al Urr", "country": "YE", "coord": {"lon": 43.888359, "lat": 15.24648}}, {"id": 403270, "name": "Al Maghrabah", "country": "YE", "coord": {"lon": 43.666672, "lat": 15.87722}}, {"id": 403271, "name": "As Sararah", "country": "YE", "coord": {"lon": 43.869968, "lat": 15.79449}}, {"id": 403272, "name": "An Nasirah", "country": "YE", "coord": {"lon": 43.809021, "lat": 15.77277}}, {"id": 403316, "name": "Mabyan", "country": "YE", "coord": {"lon": 43.557011, "lat": 15.73773}}, {"id": 403754, "name": "Matnah", "country": "YE", "coord": {"lon": 44.024719, "lat": 15.25333}}, {"id": 404914, "name": "Al Hayfah", "country": "YE", "coord": {"lon": 44.237881, "lat": 15.73494}}, {"id": 404915, "name": "Bayt Marran", "country": "YE", "coord": {"lon": 44.205299, "lat": 15.69312}}, {"id": 406072, "name": "Al Nashmah", "country": "YE", "coord": {"lon": 43.96833, "lat": 13.39028}}, {"id": 406635, "name": "Al Hashwah", "country": "YE", "coord": {"lon": 44.276218, "lat": 16.90641}}, {"id": 406662, "name": "Saqayn", "country": "YE", "coord": {"lon": 43.52499, "lat": 16.877001}}, {"id": 406737, "name": "Al Mahjal", "country": "YE", "coord": {"lon": 44.847691, "lat": 16.711691}}, {"id": 406761, "name": "Rajuzah", "country": "YE", "coord": {"lon": 44.414539, "lat": 16.70056}}, {"id": 406845, "name": "Al Khirab", "country": "YE", "coord": {"lon": 44.290482, "lat": 16.554399}}, {"id": 406884, "name": "Al Humaydat", "country": "YE", "coord": {"lon": 44.430279, "lat": 16.485661}}, {"id": 407014, "name": "Al Madan", "country": "YE", "coord": {"lon": 43.643829, "lat": 16.224131}}, {"id": 407024, "name": "Al Ashshah", "country": "YE", "coord": {"lon": 43.854759, "lat": 16.256519}}, {"id": 407036, "name": "Hasan Bini Sad", "country": "YE", "coord": {"lon": 44.47728, "lat": 16.27293}}, {"id": 407042, "name": "Al Matun", "country": "YE", "coord": {"lon": 44.584759, "lat": 16.230631}}, {"id": 407048, "name": "Al Maslub", "country": "YE", "coord": {"lon": 44.626129, "lat": 16.182711}}, {"id": 407049, "name": "Al Ghayl", "country": "YE", "coord": {"lon": 44.68005, "lat": 16.10774}}, {"id": 407094, "name": "Al Jamimah", "country": "YE", "coord": {"lon": 43.59647, "lat": 16.01787}}, {"id": 407096, "name": "Habur", "country": "YE", "coord": {"lon": 43.706989, "lat": 16.05097}}, {"id": 407129, "name": "Ar Rawd", "country": "YE", "coord": {"lon": 44.81012, "lat": 16.061449}}, {"id": 407690, "name": "Ar Rubu", "country": "YE", "coord": {"lon": 43.869011, "lat": 13.78024}}, {"id": 407716, "name": "Maqbanah", "country": "YE", "coord": {"lon": 43.687302, "lat": 13.66394}}, {"id": 408124, "name": "Dubah", "country": "YE", "coord": {"lon": 44.131081, "lat": 14.49052}}, {"id": 408342, "name": "Ar Radai", "country": "YE", "coord": {"lon": 44.39299, "lat": 14.01708}}, {"id": 408801, "name": "Al Mayfaah", "country": "YE", "coord": {"lon": 44.54866, "lat": 14.46392}}, {"id": 408846, "name": "Ar Radmah", "country": "YE", "coord": {"lon": 44.586571, "lat": 14.21973}}, {"id": 408866, "name": "Hammam Damt", "country": "YE", "coord": {"lon": 44.670059, "lat": 14.09031}}, {"id": 408883, "name": "Zakhim", "country": "YE", "coord": {"lon": 44.68504, "lat": 14.29496}}, {"id": 408970, "name": "Maswarah", "country": "YE", "coord": {"lon": 45.726231, "lat": 14.34399}}, {"id": 409051, "name": "Tawr al Bahah", "country": "YE", "coord": {"lon": 44.29966, "lat": 13.18179}}, {"id": 410914, "name": "Kushar", "country": "YE", "coord": {"lon": 43.421021, "lat": 16.15523}}, {"id": 410915, "name": "Aslam", "country": "YE", "coord": {"lon": 43.32745, "lat": 16.05961}}, {"id": 411056, "name": "Haydan", "country": "YE", "coord": {"lon": 43.43372, "lat": 16.77899}}, {"id": 413170, "name": "Al Miftah", "country": "YE", "coord": {"lon": 43.46381, "lat": 15.97431}}, {"id": 7341410, "name": "Mudghil", "country": "YE", "coord": {"lon": 45.040131, "lat": 15.59858}}, {"id": 7341563, "name": "Al Harajah", "country": "YE", "coord": {"lon": 44.665352, "lat": 15.48818}}, {"id": 7344394, "name": "Bani al Awwam", "country": "YE", "coord": {"lon": 43.587269, "lat": 15.58119}}, {"id": 7344569, "name": "Bani an Nahari", "country": "YE", "coord": {"lon": 43.556332, "lat": 15.63981}}, {"id": 7345723, "name": "Al Hijrah", "country": "YE", "coord": {"lon": 43.38718, "lat": 17.29788}}, {"id": 7345827, "name": "Suq al Khamis", "country": "YE", "coord": {"lon": 43.288109, "lat": 17.181259}}, {"id": 7346082, "name": "Al Mashaf", "country": "YE", "coord": {"lon": 43.197811, "lat": 16.85836}}, {"id": 7346660, "name": "Al Kharab", "country": "YE", "coord": {"lon": 43.338879, "lat": 16.991289}}, {"id": 7354697, "name": "Al Ayn", "country": "YE", "coord": {"lon": 44.092079, "lat": 13.33005}}, {"id": 7356864, "name": "Qaryat ad Dais", "country": "YE", "coord": {"lon": 44.274899, "lat": 13.9877}}, {"id": 7360069, "name": "Hazm al Udayn", "country": "YE", "coord": {"lon": 44.00526, "lat": 14.02743}}, {"id": 7363900, "name": "An Najd", "country": "YE", "coord": {"lon": 45.295959, "lat": 14.42152}}, {"id": 7364022, "name": "Rahabah al Kawlah", "country": "YE", "coord": {"lon": 44.989182, "lat": 14.89574}}, {"id": 7364546, "name": "Al Amud", "country": "YE", "coord": {"lon": 45.20676, "lat": 14.72103}}, {"id": 7364784, "name": "Al Aqabah", "country": "YE", "coord": {"lon": 44.786991, "lat": 14.27179}}, {"id": 7364913, "name": "Al Qurayshiyah", "country": "YE", "coord": {"lon": 44.85358, "lat": 14.5122}}, {"id": 7367232, "name": "Hawrah", "country": "YE", "coord": {"lon": 44.145802, "lat": 13.35751}}, {"id": 7683765, "name": "Ash Shawati", "country": "YE", "coord": {"lon": 43.812649, "lat": 16.78314}}, {"id": 7792745, "name": "Al Hamdi", "country": "YE", "coord": {"lon": 48.779652, "lat": 15.94727}}, {"id": 7792748, "name": "At Tahalif", "country": "YE", "coord": {"lon": 48.7864, "lat": 15.93786}}, {"id": 7792750, "name": "Suhayl Shibam", "country": "YE", "coord": {"lon": 48.638641, "lat": 15.91448}}, {"id": 7890531, "name": "Al Khaniq", "country": "YE", "coord": {"lon": 44.18158, "lat": 15.50253}}, {"id": 7928383, "name": "Bir Hat", "country": "YE", "coord": {"lon": 52.095661, "lat": 17.32197}}, {"id": 7928384, "name": "Hadadah", "country": "YE", "coord": {"lon": 44.274609, "lat": 13.17535}}, {"id": 7930439, "name": "Rimat", "country": "YE", "coord": {"lon": 50.577888, "lat": 17.45532}}, {"id": 7930440, "name": "Rumah", "country": "YE", "coord": {"lon": 50.577702, "lat": 17.455481}}, {"id": 7931038, "name": "Al Shiruj", "country": "YE", "coord": {"lon": 47.76926, "lat": 14.68526}}, {"id": 7931039, "name": "Jawl al Majma", "country": "YE", "coord": {"lon": 47.02763, "lat": 14.93278}}, {"id": 7931040, "name": "Suq Sibah", "country": "YE", "coord": {"lon": 45.3923, "lat": 13.81436}}, {"id": 7931041, "name": "Al Hazm", "country": "YE", "coord": {"lon": 45.609619, "lat": 14.68919}}, {"id": 7931042, "name": "Al Aqta", "country": "YE", "coord": {"lon": 45.351231, "lat": 14.66217}}, {"id": 8015577, "name": "Baqim as Suq", "country": "YE", "coord": {"lon": 43.477428, "lat": 17.397129}}, {"id": 921900, "name": "Dzaoudzi", "country": "YT", "coord": {"lon": 45.269939, "lat": -12.7887}}, {"id": 921917, "name": "Dembeni", "country": "YT", "coord": {"lon": 45.184361, "lat": -12.8436}}, {"id": 1090119, "name": "Bandraboua", "country": "YT", "coord": {"lon": 45.122311, "lat": -12.7044}}, {"id": 1090161, "name": "MTsangamouji", "country": "YT", "coord": {"lon": 45.083611, "lat": -12.75944}}, {"id": 1090311, "name": "Ouangani", "country": "YT", "coord": {"lon": 45.136108, "lat": -12.84639}}, {"id": 1090340, "name": "Sada", "country": "YT", "coord": {"lon": 45.102051, "lat": -12.85055}}, {"id": 1090467, "name": "Boueni", "country": "YT", "coord": {"lon": 45.076111, "lat": -12.9025}}, {"id": 1090476, "name": "Kani Keli", "country": "YT", "coord": {"lon": 45.103329, "lat": -12.95361}}, {"id": 939608, "name": "Winburg", "country": "ZA", "coord": {"lon": 27.009331, "lat": -28.518049}}, {"id": 939676, "name": "Willowmore", "country": "ZA", "coord": {"lon": 23.48954, "lat": -33.292648}}, {"id": 940186, "name": "Whittlesea", "country": "ZA", "coord": {"lon": 26.824369, "lat": -32.17588}}, {"id": 942701, "name": "Vrede", "country": "ZA", "coord": {"lon": 29.16585, "lat": -27.42573}}, {"id": 944540, "name": "Ventersburg", "country": "ZA", "coord": {"lon": 27.13814, "lat": -28.085609}}, {"id": 945813, "name": "Utrecht", "country": "ZA", "coord": {"lon": 30.321659, "lat": -27.658621}}, {"id": 949026, "name": "Thulamahashi", "country": "ZA", "coord": {"lon": 31.19939, "lat": -24.72459}}, {"id": 951441, "name": "Sundumbili", "country": "ZA", "coord": {"lon": 31.39752, "lat": -29.133711}}, {"id": 964090, "name": "Prieska", "country": "ZA", "coord": {"lon": 22.747419, "lat": -29.664089}}, {"id": 964408, "name": "Port Saint Johns", "country": "ZA", "coord": {"lon": 29.544769, "lat": -31.62291}}, {"id": 967580, "name": "Orange Farm", "country": "ZA", "coord": {"lon": 27.866671, "lat": -26.48333}}, {"id": 972673, "name": "Muldersdriseloop", "country": "ZA", "coord": {"lon": 27.83798, "lat": -26.03673}}, {"id": 974222, "name": "Mooirivier", "country": "ZA", "coord": {"lon": 29.9946, "lat": -29.208241}}, {"id": 974719, "name": "Molteno", "country": "ZA", "coord": {"lon": 26.362459, "lat": -31.396761}}, {"id": 975144, "name": "Modderfontein", "country": "ZA", "coord": {"lon": 28.16534, "lat": -26.08909}}, {"id": 978677, "name": "Marquard", "country": "ZA", "coord": {"lon": 27.430479, "lat": -28.66449}}, {"id": 979365, "name": "Mankoeng", "country": "ZA", "coord": {"lon": 29.816669, "lat": -23.9}}, {"id": 986134, "name": "Kuruman", "country": "ZA", "coord": {"lon": 23.432461, "lat": -27.4524}}, {"id": 987875, "name": "Koppies", "country": "ZA", "coord": {"lon": 27.574221, "lat": -27.241791}}, {"id": 994023, "name": "Jan Kempdorp", "country": "ZA", "coord": {"lon": 24.830521, "lat": -27.922461}}, {"id": 994939, "name": "Ilinge", "country": "ZA", "coord": {"lon": 27.042669, "lat": -31.976761}}, {"id": 995573, "name": "Hoopstad", "country": "ZA", "coord": {"lon": 25.908331, "lat": -27.832741}}, {"id": 1000006, "name": "Greytown", "country": "ZA", "coord": {"lon": 30.592791, "lat": -29.064159}}, {"id": 1003462, "name": "GAKGAPANE", "country": "ZA", "coord": {"lon": 30.216669, "lat": -23.633329}}, {"id": 1006420, "name": "Ekuvukeni", "country": "ZA", "coord": {"lon": 30.15513, "lat": -28.46752}}, {"id": 1008858, "name": "Dordrecht", "country": "ZA", "coord": {"lon": 27.04878, "lat": -31.372}}, {"id": 1010962, "name": "Deneysville", "country": "ZA", "coord": {"lon": 28.097071, "lat": -26.8908}}, {"id": 1011918, "name": "Danielskuil", "country": "ZA", "coord": {"lon": 23.539511, "lat": -28.18873}}, {"id": 1013076, "name": "Colesberg", "country": "ZA", "coord": {"lon": 25.097179, "lat": -30.71999}}, {"id": 1013266, "name": "Clocolan", "country": "ZA", "coord": {"lon": 27.565559, "lat": -28.91367}}, {"id": 1014034, "name": "Carnarvon", "country": "ZA", "coord": {"lon": 22.13303, "lat": -30.968269}}, {"id": 1014653, "name": "Burgersdorp", "country": "ZA", "coord": {"lon": 26.328621, "lat": -30.99766}}, {"id": 1015694, "name": "Breyten", "country": "ZA", "coord": {"lon": 29.986959, "lat": -26.30176}}, {"id": 1015776, "name": "Bredasdorp", "country": "ZA", "coord": {"lon": 20.04031, "lat": -34.53215}}, {"id": 1020066, "name": "Berea", "country": "ZA", "coord": {"lon": 30.99337, "lat": -29.851851}}, {"id": 1020340, "name": "Belfast", "country": "ZA", "coord": {"lon": 30.03504, "lat": -25.689911}}, {"id": 1023332, "name": "Alice", "country": "ZA", "coord": {"lon": 26.8344, "lat": -32.787491}}, {"id": 1023656, "name": "Adelaide", "country": "ZA", "coord": {"lon": 26.295641, "lat": -32.70747}}, {"id": 3362024, "name": "Rosebank", "country": "ZA", "coord": {"lon": 18.474171, "lat": -33.955559}}, {"id": 3369056, "name": "Constantia", "country": "ZA", "coord": {"lon": 18.418329, "lat": -34.031391}}, {"id": 3369098, "name": "Claremont", "country": "ZA", "coord": {"lon": 18.465281, "lat": -33.98056}}, {"id": 6942529, "name": "Sunset Beach", "country": "ZA", "coord": {"lon": 18.49231, "lat": -33.853951}}, {"id": 175555, "name": "Nakonde", "country": "ZM", "coord": {"lon": 32.744999, "lat": -9.34213}}, {"id": 175961, "name": "Mpulungu", "country": "ZM", "coord": {"lon": 31.11405, "lat": -8.76234}}, {"id": 175967, "name": "Mporokoso", "country": "ZM", "coord": {"lon": 30.12501, "lat": -9.37272}}, {"id": 176758, "name": "Kaputa", "country": "ZM", "coord": {"lon": 29.661921, "lat": -8.46887}}, {"id": 897456, "name": "Sinazongwe", "country": "ZM", "coord": {"lon": 27.46179, "lat": -17.2614}}, {"id": 898912, "name": "Serenje", "country": "ZM", "coord": {"lon": 30.23522, "lat": -13.23251}}, {"id": 900056, "name": "Nyimba", "country": "ZM", "coord": {"lon": 30.814899, "lat": -14.55656}}, {"id": 901766, "name": "Namwala", "country": "ZM", "coord": {"lon": 26.438391, "lat": -15.75042}}, {"id": 902344, "name": "Nakambala", "country": "ZM", "coord": {"lon": 27.77994, "lat": -15.83244}}, {"id": 902620, "name": "Mwinilunga", "country": "ZM", "coord": {"lon": 24.42926, "lat": -11.73584}}, {"id": 902721, "name": "Mwense", "country": "ZM", "coord": {"lon": 28.698, "lat": -10.38446}}, {"id": 904241, "name": "Mungwi", "country": "ZM", "coord": {"lon": 31.369419, "lat": -10.1732}}, {"id": 905382, "name": "Mufumbwe", "country": "ZM", "coord": {"lon": 24.799999, "lat": -13.68333}}, {"id": 905789, "name": "Mpongwe", "country": "ZM", "coord": {"lon": 28.155041, "lat": -13.50914}}, {"id": 906221, "name": "Mkushi", "country": "ZM", "coord": {"lon": 29.3939, "lat": -13.62015}}, {"id": 908718, "name": "Maamba", "country": "ZM", "coord": {"lon": 27.15, "lat": -17.366671}}, {"id": 908913, "name": "Luwingu", "country": "ZM", "coord": {"lon": 29.92712, "lat": -10.2621}}, {"id": 909299, "name": "Lundazi", "country": "ZM", "coord": {"lon": 33.1782, "lat": -12.29292}}, {"id": 909488, "name": "Lukulu", "country": "ZM", "coord": {"lon": 23.241961, "lat": -14.37067}}, {"id": 909887, "name": "Luangwa", "country": "ZM", "coord": {"lon": 30.41667, "lat": -15.61667}}, {"id": 910361, "name": "Limulunga", "country": "ZM", "coord": {"lon": 23.137581, "lat": -15.09691}}, {"id": 912628, "name": "Kasempa", "country": "ZM", "coord": {"lon": 25.833799, "lat": -13.45836}}, {"id": 913323, "name": "Kaoma", "country": "ZM", "coord": {"lon": 24.799999, "lat": -14.78333}}, {"id": 915285, "name": "Kalengwa", "country": "ZM", "coord": {"lon": 25.00271, "lat": -13.46586}}, {"id": 915471, "name": "Kalabo", "country": "ZM", "coord": {"lon": 22.681379, "lat": -14.97004}}, {"id": 916246, "name": "Kabompo", "country": "ZM", "coord": {"lon": 24.200809, "lat": -13.59268}}, {"id": 916668, "name": "Isoka", "country": "ZM", "coord": {"lon": 32.63353, "lat": -10.16062}}, {"id": 917011, "name": "Gwembe", "country": "ZM", "coord": {"lon": 27.606911, "lat": -16.497549}}, {"id": 917688, "name": "Chongwe", "country": "ZM", "coord": {"lon": 28.682039, "lat": -15.32916}}, {"id": 918905, "name": "Chinsali", "country": "ZM", "coord": {"lon": 32.081619, "lat": -10.54142}}, {"id": 920233, "name": "Chibombo", "country": "ZM", "coord": {"lon": 28.07057, "lat": -14.65685}}, {"id": 920820, "name": "Chambishi", "country": "ZM", "coord": {"lon": 28.053671, "lat": -12.63247}}, {"id": 920901, "name": "Chama", "country": "ZM", "coord": {"lon": 33.1521, "lat": -11.21304}}, {"id": 921028, "name": "Chadiza", "country": "ZM", "coord": {"lon": 32.439171, "lat": -14.06779}}, {"id": 881331, "name": "Shangani", "country": "ZW", "coord": {"lon": 29.366671, "lat": -19.783331}}, {"id": 881345, "name": "Shamva", "country": "ZW", "coord": {"lon": 31.575609, "lat": -17.31159}}, {"id": 882722, "name": "Raffingora", "country": "ZW", "coord": {"lon": 30.433331, "lat": -17.033331}}, {"id": 882859, "name": "Plumtree", "country": "ZW", "coord": {"lon": 27.816669, "lat": -20.48333}}, {"id": 882955, "name": "Penhalonga", "country": "ZW", "coord": {"lon": 32.697811, "lat": -18.891121}}, {"id": 883183, "name": "Odzi", "country": "ZW", "coord": {"lon": 32.405571, "lat": -18.96167}}, {"id": 883258, "name": "Nyazura", "country": "ZW", "coord": {"lon": 32.167961, "lat": -18.70587}}, {"id": 883481, "name": "Nyanga", "country": "ZW", "coord": {"lon": 32.75, "lat": -18.216669}}, {"id": 884798, "name": "Mvurwi", "country": "ZW", "coord": {"lon": 30.85, "lat": -17.033331}}, {"id": 884814, "name": "Mvuma", "country": "ZW", "coord": {"lon": 30.52828, "lat": -19.27924}}, {"id": 884927, "name": "Mutoko", "country": "ZW", "coord": {"lon": 32.226768, "lat": -17.39699}}, {"id": 885159, "name": "Murehwa", "country": "ZW", "coord": {"lon": 31.784, "lat": -17.643221}}, {"id": 885800, "name": "Mount Darwin", "country": "ZW", "coord": {"lon": 31.583811, "lat": -16.772511}}, {"id": 886146, "name": "Mhangura", "country": "ZW", "coord": {"lon": 30.16828, "lat": -16.89386}}, {"id": 886384, "name": "Mazoe", "country": "ZW", "coord": {"lon": 30.973881, "lat": -17.50404}}, {"id": 886864, "name": "Mashava", "country": "ZW", "coord": {"lon": 30.48225, "lat": -20.03665}}, {"id": 888089, "name": "Macheke", "country": "ZW", "coord": {"lon": 31.849331, "lat": -18.139009}}, {"id": 888225, "name": "Lupane", "country": "ZW", "coord": {"lon": 27.806959, "lat": -18.93149}}, {"id": 888667, "name": "Lalapanzi", "country": "ZW", "coord": {"lon": 30.177679, "lat": -19.332251}}, {"id": 889390, "name": "Kamativi Mine", "country": "ZW", "coord": {"lon": 27.05728, "lat": -18.31563}}, {"id": 889723, "name": "Inyathi", "country": "ZW", "coord": {"lon": 28.84687, "lat": -19.675631}}, {"id": 889795, "name": "Insiza", "country": "ZW", "coord": {"lon": 29.200001, "lat": -19.783331}}, {"id": 890516, "name": "Gwanda", "country": "ZW", "coord": {"lon": 29, "lat": -20.933331}}, {"id": 891515, "name": "Filabusi", "country": "ZW", "coord": {"lon": 29.285021, "lat": -20.533331}}, {"id": 891699, "name": "Esigodini", "country": "ZW", "coord": {"lon": 28.922609, "lat": -20.289789}}, {"id": 892156, "name": "Dorowa Mining Lease", "country": "ZW", "coord": {"lon": 31.75, "lat": -19.066669}}, {"id": 892440, "name": "Dete", "country": "ZW", "coord": {"lon": 26.866671, "lat": -18.616671}}, {"id": 893172, "name": "Chivhu", "country": "ZW", "coord": {"lon": 30.892179, "lat": -19.02112}}, {"id": 893397, "name": "Chirundu", "country": "ZW", "coord": {"lon": 28.85, "lat": -16.033331}}, {"id": 893813, "name": "Chimanimani", "country": "ZW", "coord": {"lon": 32.866669, "lat": -19.799999}}, {"id": 894413, "name": "Chakari", "country": "ZW", "coord": {"lon": 29.89246, "lat": -18.062941}}, {"id": 894460, "name": "Centenary", "country": "ZW", "coord": {"lon": 31.11462, "lat": -16.722891}}, {"id": 895057, "name": "Binga", "country": "ZW", "coord": {"lon": 27.341391, "lat": -17.620279}}, {"id": 895308, "name": "Beatrice", "country": "ZW", "coord": {"lon": 30.8473, "lat": -18.252831}}, {"id": 895417, "name": "Banket", "country": "ZW", "coord": {"lon": 30.4, "lat": -17.383329}}, {"id": 6640252, "name": "Sophia Antipolis", "country": "FR", "coord": {"lon": 7.04721, "lat": 43.622349}}, {"id": 591951, "name": "Yarvekyulya", "country": "EE", "coord": {"lon": 24.79278, "lat": 59.376671}}, {"id": 3204552, "name": "Banj", "country": "HR", "coord": {"lon": 15.29444, "lat": 44.00111}}, {"id": 6446163, "name": "Marcoussis", "country": "FR", "coord": {"lon": 2.22972, "lat": 48.64167}}, {"id": 6540322, "name": "Carnago", "country": "IT", "coord": {"lon": 8.83424, "lat": 45.722069}}, {"id": 7758810, "name": "BF Homes", "country": "PH", "coord": {"lon": 120.997688, "lat": 14.45337}}, {"id": 1267937, "name": "Kaparw\u0101i", "country": "IN", "coord": {"lon": 83.666672, "lat": 26.299999}}, {"id": 541792, "name": "Krasnyye Chelny", "country": "RU", "coord": {"lon": 52.349998, "lat": 55.700001}}, {"id": 2614602, "name": "R\u00f8dk\u00e6rsbro", "country": "DK", "coord": {"lon": 9.50514, "lat": 56.3531}}, {"id": 2915087, "name": "Gro\u00dfschafhausen", "country": "DE", "coord": {"lon": 9.97267, "lat": 48.19075}}, {"id": 6618988, "name": "Britanski trg", "country": "HR", "coord": {"lon": 15.96497, "lat": 45.81284}}, {"id": 681082, "name": "Colonia Fabricii", "country": "RO", "coord": {"lon": 26.299999, "lat": 45.416672}}, {"id": 7091093, "name": "Alicia", "country": "PH", "coord": {"lon": 121.020798, "lat": 14.665}}, {"id": 744498, "name": "Kara\u00e7al\u0131", "country": "TR", "coord": {"lon": 30.318609, "lat": 41.108109}}, {"id": 2938326, "name": "Dellwig", "country": "DE", "coord": {"lon": 6.93333, "lat": 51.48333}}, {"id": 3574766, "name": "Coco", "country": "TT", "coord": {"lon": -61.583328, "lat": 10.68333}}, {"id": 2614105, "name": "Sejstrup", "country": "DK", "coord": {"lon": 8.7418, "lat": 55.435322}}, {"id": 6949461, "name": "Indre By", "country": "DK", "coord": {"lon": 12.5683, "lat": 55.676102}}, {"id": 2820205, "name": "Ulstrup", "country": "DE", "coord": {"lon": 9.55, "lat": 54.816669}}, {"id": 1255987, "name": "Sital", "country": "IN", "coord": {"lon": 73.599998, "lat": 27.966669}}, {"id": 2497460, "name": "Bir Mourad Ra\u00efs", "country": "DZ", "coord": {"lon": 3.03916, "lat": 36.7458}}, {"id": 109771, "name": "Al Gha\u0163gha\u0163", "country": "SA", "coord": {"lon": 46.249908, "lat": 24.47649}}, {"id": 2751536, "name": "Gemeente Lochem", "country": "NL", "coord": {"lon": 6.41667, "lat": 52.150002}}, {"id": 7116850, "name": "Potsdam", "country": "DE", "coord": {"lon": 13.05794, "lat": 52.396549}}, {"id": 3515419, "name": "Tlaltenco", "country": "MX", "coord": {"lon": -99.01667, "lat": 19.283331}}, {"id": 6358153, "name": "Soraluze / Placencia de las Armas", "country": "ES", "coord": {"lon": -2.41397, "lat": 43.17807}}, {"id": 6754916, "name": "Rawa Barat", "country": "ID", "coord": {"lon": 106.812103, "lat": -6.2377}}, {"id": 8063445, "name": "Glenmarais", "country": "ZA", "coord": {"lon": 28.270309, "lat": -26.057859}}, {"id": 6691018, "name": "Maryland", "country": "IE", "coord": {"lon": -6.28954, "lat": 53.337769}}, {"id": 2888776, "name": "Klein Heidorn", "country": "DE", "coord": {"lon": 9.43333, "lat": 52.433331}}, {"id": 1252736, "name": "Yerandwane", "country": "IN", "coord": {"lon": 73.833328, "lat": 18.5}}, {"id": 3068399, "name": "Pet\u0159\u00edkov", "country": "CZ", "coord": {"lon": 14.75461, "lat": 48.84697}}, {"id": 1882118, "name": "Tanglin Halt", "country": "SG", "coord": {"lon": 103.797501, "lat": 1.30139}}, {"id": 6536483, "name": "Castronno", "country": "IT", "coord": {"lon": 8.81283, "lat": 45.74567}}, {"id": 6545158, "name": "Trevi", "country": "IT", "coord": {"lon": 12.49176, "lat": 41.90464}}, {"id": 2827436, "name": "Stennewitz", "country": "DE", "coord": {"lon": 13.95, "lat": 51.866669}}, {"id": 1856239, "name": "Nagahamamachi", "country": "JP", "coord": {"lon": 131.616669, "lat": 33.23333}}, {"id": 1855933, "name": "Nakajima", "country": "JP", "coord": {"lon": 137.216675, "lat": 36.716671}}, {"id": 1851099, "name": "Takamatsu", "country": "JP", "coord": {"lon": 136.716675, "lat": 36.76667}}, {"id": 2112209, "name": "Kita-sannomaru", "country": "JP", "coord": {"lon": 140.483337, "lat": 36.366669}}, {"id": 1856685, "name": "Mizoguchi", "country": "JP", "coord": {"lon": 133.433334, "lat": 35.349998}}, {"id": 1848919, "name": "Wakinohamach\u014d", "country": "JP", "coord": {"lon": 135.216675, "lat": 34.700001}}, {"id": 1857706, "name": "Mameda-shimmachi", "country": "JP", "coord": {"lon": 136.633331, "lat": 36.566669}}, {"id": 1849708, "name": "Tsukasamachi", "country": "JP", "coord": {"lon": 136.766663, "lat": 35.416672}}, {"id": 1848739, "name": "Yakuin-Horibata", "country": "JP", "coord": {"lon": 130.399994, "lat": 33.583328}}, {"id": 6541769, "name": "Milo", "country": "IT", "coord": {"lon": 15.11589, "lat": 37.723259}}, {"id": 2534249, "name": "Sidi Ma\u2019rouf", "country": "MA", "coord": {"lon": -7.65384, "lat": 33.514019}}, {"id": 3927548, "name": "Tierra Amarilla", "country": "PE", "coord": {"lon": -76.433327, "lat": -12.13333}}, {"id": 6542338, "name": "Teverola", "country": "IT", "coord": {"lon": 14.20763, "lat": 40.995609}}, {"id": 2854950, "name": "Pennigb\u00fcttel", "country": "DE", "coord": {"lon": 8.81667, "lat": 53.25}}, {"id": 1632312, "name": "Parit", "country": "ID", "coord": {"lon": 104.633331, "lat": -3.16667}}, {"id": 1730555, "name": "Aupagan", "country": "PH", "coord": {"lon": 125.555, "lat": 8.89056}}, {"id": 2644749, "name": "Leadgate", "country": "GB", "coord": {"lon": -1.8, "lat": 54.866669}}, {"id": 448600, "name": "Al Kh\u0101lid\u012byah", "country": "SA", "coord": {"lon": 46.759441, "lat": 24.622219}}, {"id": 3428067, "name": "San Vicente", "country": "AR", "coord": {"lon": -58.42276, "lat": -35.025002}}, {"id": 3179952, "name": "Case Arfel", "country": "IT", "coord": {"lon": 7.78333, "lat": 44.25}}, {"id": 6443216, "name": "Fontaine-sous-Pr\u00e9aux", "country": "FR", "coord": {"lon": 1.16806, "lat": 49.48444}}, {"id": 3017998, "name": "Fontaine-sous-Pr\u00e9aux", "country": "FR", "coord": {"lon": 1.16728, "lat": 49.484051}}, {"id": 3187413, "name": "Volosko", "country": "HR", "coord": {"lon": 14.3175, "lat": 45.348888}}, {"id": 2614935, "name": "Ravnkilde", "country": "DK", "coord": {"lon": 9.75264, "lat": 56.756088}}, {"id": 2611539, "name": "Tolne", "country": "DK", "coord": {"lon": 10.31169, "lat": 57.48135}}, {"id": 2612157, "name": "Studsdal", "country": "DK", "coord": {"lon": 9.59834, "lat": 55.53117}}, {"id": 2620249, "name": "Hjelmager", "country": "DK", "coord": {"lon": 10.31756, "lat": 56.276562}}, {"id": 2617834, "name": "Lejbjerg", "country": "DK", "coord": {"lon": 9.96667, "lat": 57.01667}}, {"id": 605314, "name": "Karesuando", "country": "SE", "coord": {"lon": 22.47047, "lat": 68.43959}}, {"id": 1688216, "name": "Santa Cruz", "country": "PH", "coord": {"lon": 120.98333, "lat": 14.6}}, {"id": 6545083, "name": "Sol", "country": "ES", "coord": {"lon": -3.70327, "lat": 40.416641}}, {"id": 8010463, "name": "Freixo de Espada \u00c0 Cinta", "country": "PT", "coord": {"lon": -6.82463, "lat": 41.12344}}, {"id": 8014178, "name": "Freixo de Espada \u00c0 Cinta", "country": "PT", "coord": {"lon": -6.82992, "lat": 41.083981}}, {"id": 2739222, "name": "Freixo de Espada \u00e0 Cinta", "country": "PT", "coord": {"lon": -6.80648, "lat": 41.090328}}, {"id": 3998025, "name": "Los Camotes", "country": "MX", "coord": {"lon": -108.833328, "lat": 27.26667}}, {"id": 6433286, "name": "Pisieu", "country": "FR", "coord": {"lon": 5.06028, "lat": 45.387218}}, {"id": 3005646, "name": "La Verrerie", "country": "FR", "coord": {"lon": 5.08726, "lat": 45.41375}}, {"id": 2646356, "name": "Hurst Green", "country": "GB", "coord": {"lon": -2.48333, "lat": 53.833328}}, {"id": 3365999, "name": "Kenridge", "country": "ZA", "coord": {"lon": 18.63633, "lat": -33.85918}}, {"id": 3361026, "name": "Stellenberg", "country": "ZA", "coord": {"lon": 18.65992, "lat": -33.866089}}, {"id": 7304451, "name": "Bagarmossen", "country": "SE", "coord": {"lon": 18.131821, "lat": 59.277199}}, {"id": 3043700, "name": "Trombit\u00e1smalom", "country": "HU", "coord": {"lon": 16.949181, "lat": 47.27306}}, {"id": 6451495, "name": "Gonfaron", "country": "FR", "coord": {"lon": 6.28917, "lat": 43.32056}}, {"id": 4464080, "name": "Drake", "country": "US", "coord": {"lon": -77.817482, "lat": 36.038212}}, {"id": 2511125, "name": "Santa Mar\u00eda de Gracia", "country": "ES", "coord": {"lon": -16.26667, "lat": 28.466669}}, {"id": 6542131, "name": "Livigno", "country": "IT", "coord": {"lon": 10.13375, "lat": 46.53471}}, {"id": 5415005, "name": "Bronquist", "country": "US", "coord": {"lon": -104.891647, "lat": 38.20195}}, {"id": 5415546, "name": "Burnt Mill", "country": "US", "coord": {"lon": -104.796371, "lat": 38.05167}}, {"id": 3832717, "name": "Villa Independencia", "country": "AR", "coord": {"lon": -64.513222, "lat": -31.45594}}, {"id": 1549542, "name": "Zhudun", "country": "CN", "coord": {"lon": 118.58889, "lat": 34.561111}}, {"id": 2688188, "name": "Norsborg", "country": "SE", "coord": {"lon": 17.81394, "lat": 59.24493}}, {"id": 3911642, "name": "La Villa", "country": "BO", "coord": {"lon": -65.800003, "lat": -17.51667}}, {"id": 3337383, "name": "V\u00e6rl\u00f8se", "country": "DK", "coord": {"lon": 12.375, "lat": 55.724998}}, {"id": 559577, "name": "Gorodishchi", "country": "RU", "coord": {"lon": 38.733608, "lat": 55.110229}}, {"id": 1882707, "name": "Chinese Gardens", "country": "SG", "coord": {"lon": 103.797783, "lat": 1.31139}}, {"id": 2617982, "name": "Lang\u00e5", "country": "DK", "coord": {"lon": 10.72176, "lat": 55.194229}}, {"id": 2616773, "name": "M\u00f8rke", "country": "DK", "coord": {"lon": 10.38187, "lat": 56.33453}}, {"id": 2646588, "name": "Horning", "country": "GB", "coord": {"lon": 1.46491, "lat": 52.70715}}, {"id": 2610155, "name": "Virum", "country": "DK", "coord": {"lon": 12.45103, "lat": 55.79488}}, {"id": 2615754, "name": "\u00d8lby Lyng", "country": "DK", "coord": {"lon": 12.18416, "lat": 55.49015}}, {"id": 2617179, "name": "Lystrup", "country": "DK", "coord": {"lon": 12.24028, "lat": 55.36055}}, {"id": 2641005, "name": "Old Monkland", "country": "GB", "coord": {"lon": -4.03781, "lat": 55.850319}}, {"id": 2612025, "name": "Svenstrup", "country": "DK", "coord": {"lon": 10.56038, "lat": 56.407902}}, {"id": 2610912, "name": "Ulstrup", "country": "DK", "coord": {"lon": 11.67649, "lat": 55.32753}}, {"id": 2620229, "name": "Hjerm", "country": "DK", "coord": {"lon": 8.63453, "lat": 56.438438}}, {"id": 2623240, "name": "Bur", "country": "DK", "coord": {"lon": 8.42665, "lat": 56.36496}}, {"id": 2610543, "name": "Vemb", "country": "DK", "coord": {"lon": 8.33749, "lat": 56.3423}}, {"id": 2620577, "name": "Hee", "country": "DK", "coord": {"lon": 8.2844, "lat": 56.144371}}, {"id": 2617822, "name": "Lem", "country": "DK", "coord": {"lon": 8.78626, "lat": 56.591839}}, {"id": 2611652, "name": "Tistrup Stationsby", "country": "DK", "coord": {"lon": 8.6043, "lat": 55.717178}}, {"id": 2614045, "name": "Sig", "country": "DK", "coord": {"lon": 8.57531, "lat": 55.664619}}, {"id": 2621307, "name": "G\u00f8rding", "country": "DK", "coord": {"lon": 8.7974, "lat": 55.474651}}, {"id": 2612273, "name": "Strandby", "country": "DK", "coord": {"lon": 8.43333, "lat": 55.48333}}, {"id": 2621488, "name": "Gesing", "country": "DK", "coord": {"lon": 8.44901, "lat": 55.514439}}, {"id": 2624850, "name": "Alken", "country": "DK", "coord": {"lon": 9.84693, "lat": 56.052589}}, {"id": 6453496, "name": "Ry", "country": "FR", "coord": {"lon": 1.3445, "lat": 49.471199}}, {"id": 2982098, "name": "Ry", "country": "FR", "coord": {"lon": 1.34245, "lat": 49.471352}}, {"id": 2623692, "name": "Bording Stationsby", "country": "DK", "coord": {"lon": 9.2765, "lat": 56.144138}}, {"id": 2612156, "name": "Studsg\u00e5rd", "country": "DK", "coord": {"lon": 8.9079, "lat": 56.090172}}, {"id": 2611221, "name": "Troldhede", "country": "DK", "coord": {"lon": 8.74471, "lat": 55.991539}}, {"id": 2623640, "name": "Borris", "country": "DK", "coord": {"lon": 8.64445, "lat": 55.959881}}, {"id": 2611731, "name": "Thyregod", "country": "DK", "coord": {"lon": 9.26217, "lat": 55.909039}}, {"id": 2618729, "name": "Kliplev", "country": "DK", "coord": {"lon": 9.40849, "lat": 54.935848}}, {"id": 2619664, "name": "Humlum", "country": "DK", "coord": {"lon": 8.55035, "lat": 56.540539}}, {"id": 2615880, "name": "Oddesund Nord", "country": "DK", "coord": {"lon": 8.54728, "lat": 56.582378}}, {"id": 2610971, "name": "Uglev", "country": "DK", "coord": {"lon": 8.54428, "lat": 56.611462}}, {"id": 2619553, "name": "Hvidbjerg", "country": "DK", "coord": {"lon": 9.74153, "lat": 55.642731}}, {"id": 2617211, "name": "Lyngs", "country": "DK", "coord": {"lon": 8.45206, "lat": 56.665741}}, {"id": 2622395, "name": "Ettrup", "country": "DK", "coord": {"lon": 8.40172, "lat": 56.766201}}, {"id": 2619863, "name": "H\u00f8rdum", "country": "DK", "coord": {"lon": 8.49002, "lat": 56.848751}}, {"id": 2613327, "name": "Snedsted", "country": "DK", "coord": {"lon": 8.52436, "lat": 56.892448}}, {"id": 2613968, "name": "Sj\u00f8rring", "country": "DK", "coord": {"lon": 8.5893, "lat": 56.9529}}, {"id": 2621236, "name": "Gredstedbro", "country": "DK", "coord": {"lon": 8.73914, "lat": 55.398281}}, {"id": 2622765, "name": "Egeb\u00e6k", "country": "DK", "coord": {"lon": 8.72721, "lat": 55.282299}}, {"id": 2614875, "name": "Rejsby", "country": "DK", "coord": {"lon": 8.71643, "lat": 55.23476}}, {"id": 2623326, "name": "Br\u00f8ns", "country": "DK", "coord": {"lon": 8.72857, "lat": 55.194981}}, {"id": 2622962, "name": "D\u00f8strup", "country": "DK", "coord": {"lon": 8.80857, "lat": 55.118061}}, {"id": 2623505, "name": "Bredebro", "country": "DK", "coord": {"lon": 8.82932, "lat": 55.054829}}, {"id": 2610150, "name": "Visby", "country": "DK", "coord": {"lon": 8.7804, "lat": 55.010151}}, {"id": 2618989, "name": "Kavslunde", "country": "DK", "coord": {"lon": 9.8096, "lat": 55.48378}}, {"id": 2616736, "name": "Moseg\u00e5rd", "country": "DK", "coord": {"lon": 9.90593, "lat": 55.43716}}, {"id": 2621522, "name": "Gelsted", "country": "DK", "coord": {"lon": 9.97314, "lat": 55.398781}}, {"id": 3255123, "name": "Bara", "country": "HR", "coord": {"lon": 18.921391, "lat": 44.987221}}, {"id": 6457120, "name": "La Garde-Freinet", "country": "FR", "coord": {"lon": 6.46917, "lat": 43.31694}}, {"id": 469671, "name": "Yakhino", "country": "RU", "coord": {"lon": 31.89249, "lat": 56.460629}}, {"id": 6451008, "name": "Ar\u00e2ches-la-Frasse", "country": "FR", "coord": {"lon": 6.63145, "lat": 46.04327}}, {"id": 6621555, "name": "Flaine", "country": "FR", "coord": {"lon": 6.68956, "lat": 46.006561}}, {"id": 6449121, "name": "Mesquer", "country": "FR", "coord": {"lon": -2.46, "lat": 47.399441}}, {"id": 2857763, "name": "\u00d6fingen", "country": "DE", "coord": {"lon": 8.63663, "lat": 47.990879}}, {"id": 1853908, "name": "Osaka", "country": "JP", "coord": {"lon": 137.266663, "lat": 35.950001}}, {"id": 3908895, "name": "Palca", "country": "BO", "coord": {"lon": -64.900002, "lat": -17.700001}}, {"id": 959931, "name": "Rooihuiskraal", "country": "ZA", "coord": {"lon": 28.150761, "lat": -25.894279}}, {"id": 1764027, "name": "Kampung Sungai Glugur", "country": "MY", "coord": {"lon": 100.31353, "lat": 5.36966}}, {"id": 1763774, "name": "Kampong Sungai Tanah Liat", "country": "MY", "coord": {"lon": 100.683327, "lat": 4.63333}}, {"id": 1735105, "name": "Kampung Sungai Nibung Besar", "country": "MY", "coord": {"lon": 100.300194, "lat": 5.33529}}, {"id": 2623514, "name": "Bred", "country": "DK", "coord": {"lon": 10.10227, "lat": 55.374989}}, {"id": 2613919, "name": "Skalbjerg", "country": "DK", "coord": {"lon": 10.15256, "lat": 55.367352}}, {"id": 1015633, "name": "Brink\u2019s Vlakfontein", "country": "ZA", "coord": {"lon": 27.799999, "lat": -26.183331}}, {"id": 3073557, "name": "Klu\u010dov", "country": "CZ", "coord": {"lon": 15.93508, "lat": 49.166988}}, {"id": 2623412, "name": "Br\u00e6ndekilde", "country": "DK", "coord": {"lon": 10.26712, "lat": 55.347851}}, {"id": 3573794, "name": "Saint Clair", "country": "TT", "coord": {"lon": -61.521679, "lat": 10.67039}}, {"id": 3310920, "name": "Cooney", "country": "IE", "coord": {"lon": -8.545, "lat": 54.201939}}, {"id": 2808686, "name": "Wilhelmsh\u00f6he", "country": "DE", "coord": {"lon": 8.58333, "lat": 48.849998}}, {"id": 3493000, "name": "Santa Ana Arriba", "country": "DO", "coord": {"lon": -70.349998, "lat": 19.299999}}, {"id": 3493612, "name": "Sabana Angosta", "country": "DO", "coord": {"lon": -70.401917, "lat": 19.305401}}, {"id": 1880701, "name": "Chye Kay", "country": "SG", "coord": {"lon": 103.824173, "lat": 1.42611}}, {"id": 6536421, "name": "Paesana", "country": "IT", "coord": {"lon": 7.27342, "lat": 44.687229}}, {"id": 794319, "name": "Kannu", "country": "EE", "coord": {"lon": 27.13139, "lat": 57.90667}}, {"id": 4568511, "name": "Valle Verde", "country": "PR", "coord": {"lon": -66.046829, "lat": 18.25745}}, {"id": 3110467, "name": "Sallobente-Ermuaran", "country": "ES", "coord": {"lon": -2.38534, "lat": 43.197201}}, {"id": 3427435, "name": "Villa Galicia", "country": "AR", "coord": {"lon": -58.379829, "lat": -34.762249}}, {"id": 7391131, "name": "San Martin De Porres", "country": "PH", "coord": {"lon": 121.043999, "lat": 14.4961}}, {"id": 8015556, "name": "Vieux Lyon", "country": "FR", "coord": {"lon": 4.82613, "lat": 45.759109}}, {"id": 3009453, "name": "La Fillotte", "country": "FR", "coord": {"lon": 5.01667, "lat": 47.333328}}, {"id": 6540574, "name": "Solbiate Arno", "country": "IT", "coord": {"lon": 8.81433, "lat": 45.72197}}, {"id": 6542517, "name": "Solbiate", "country": "IT", "coord": {"lon": 8.93314, "lat": 45.78968}}, {"id": 6429924, "name": "Orve", "country": "FR", "coord": {"lon": 6.55389, "lat": 47.325829}}, {"id": 2989168, "name": "Orve", "country": "FR", "coord": {"lon": 6.55343, "lat": 47.325619}}, {"id": 3574466, "name": "Green Hill", "country": "TT", "coord": {"lon": -61.566669, "lat": 10.73333}}, {"id": 4018711, "name": "Altamirano", "country": "MX", "coord": {"lon": -101.949997, "lat": 20.73333}}, {"id": 1694781, "name": "Paranaque City", "country": "PH", "coord": {"lon": 121.017487, "lat": 14.48156}}, {"id": 8133769, "name": "Dimos Hydra / Ydra (Dimos Ydras)", "country": "GR", "coord": {"lon": 23.433479, "lat": 37.332211}}, {"id": 6448071, "name": "Esquibien", "country": "FR", "coord": {"lon": -4.56278, "lat": 48.025002}}, {"id": 6573747, "name": "Dongjinwon", "country": "KR", "coord": {"lon": 127.145828, "lat": 37.282501}}, {"id": 5916974, "name": "Caribou Ferry", "country": "CA", "coord": {"lon": -62.681938, "lat": 45.73344}}, {"id": 1270138, "name": "Hempur", "country": "IN", "coord": {"lon": 80.583328, "lat": 27.633329}}, {"id": 485496, "name": "Svoboda", "country": "RU", "coord": {"lon": 38.666672, "lat": 53.433331}}, {"id": 1852679, "name": "Seta", "country": "JP", "coord": {"lon": 135.916672, "lat": 34.966671}}, {"id": 1847979, "name": "Zeze-Awazumachi", "country": "JP", "coord": {"lon": 135.899994, "lat": 34.98333}}, {"id": 2112034, "name": "Maebara", "country": "JP", "coord": {"lon": 140.100006, "lat": 35.099998}}, {"id": 6419719, "name": "Chuo", "country": "JP", "coord": {"lon": 140.126663, "lat": 35.60778}}, {"id": 1853072, "name": "Sakurabashid\u014dri", "country": "JP", "coord": {"lon": 137.216675, "lat": 36.700001}}, {"id": 2114128, "name": "Motodate", "country": "JP", "coord": {"lon": 140.290283, "lat": 38.35944}}, {"id": 1898186, "name": "Yakataishi", "country": "JP", "coord": {"lon": 129.925003, "lat": 33.521671}}, {"id": 2129048, "name": "Nakanosawa", "country": "JP", "coord": {"lon": 141.550003, "lat": 42.966671}}, {"id": 1848575, "name": "Yanada", "country": "JP", "coord": {"lon": 139.483337, "lat": 36.299999}}, {"id": 2127436, "name": "Yokohama", "country": "JP", "coord": {"lon": 141.25, "lat": 41.083328}}, {"id": 3468504, "name": "Cachoeira", "country": "BR", "coord": {"lon": -49.26667, "lat": -25.33333}}, {"id": 595115, "name": "Rumpi\u0161k\u0117", "country": "LT", "coord": {"lon": 21.15, "lat": 55.700001}}, {"id": 2849775, "name": "Rebberg", "country": "DE", "coord": {"lon": 7.8778, "lat": 48.036999}}, {"id": 2523125, "name": "Siano", "country": "IT", "coord": {"lon": 16.6, "lat": 38.916672}}, {"id": 2962486, "name": "Mountjoy", "country": "IE", "coord": {"lon": -6.25, "lat": 53.349998}}, {"id": 2816052, "name": "Vornhagen", "country": "DE", "coord": {"lon": 9.25, "lat": 52.349998}}, {"id": 3169413, "name": "Riese Pio X", "country": "IT", "coord": {"lon": 11.91667, "lat": 45.73333}}, {"id": 2798798, "name": "Elverdinge", "country": "BE", "coord": {"lon": 2.8171, "lat": 50.884762}}, {"id": 2963297, "name": "Killurin", "country": "IE", "coord": {"lon": -6.575, "lat": 52.384998}}, {"id": 1625995, "name": "Sungaidua", "country": "ID", "coord": {"lon": 116.01667, "lat": -3.3}}, {"id": 8133868, "name": "Dimos Aristotelis", "country": "GR", "coord": {"lon": 23.7236, "lat": 40.483089}}, {"id": 1348591, "name": "Meria", "country": "IN", "coord": {"lon": 88.327782, "lat": 22.976669}}, {"id": 6457113, "name": "Le Beausset", "country": "FR", "coord": {"lon": 5.80278, "lat": 43.19833}}, {"id": 3272007, "name": "Plitka Draga", "country": "HR", "coord": {"lon": 15.03694, "lat": 44.55444}}, {"id": 6439447, "name": "Clenleu", "country": "FR", "coord": {"lon": 1.871, "lat": 50.5233}}, {"id": 3024670, "name": "Clenleu", "country": "FR", "coord": {"lon": 1.87892, "lat": 50.524231}}, {"id": 6536637, "name": "Caerano di San Marco", "country": "IT", "coord": {"lon": 12.0028, "lat": 45.785198}}, {"id": 6543164, "name": "Rogno", "country": "IT", "coord": {"lon": 10.13216, "lat": 45.85659}}, {"id": 2802243, "name": "Berendrecht", "country": "BE", "coord": {"lon": 4.31419, "lat": 51.342522}}, {"id": 7731911, "name": "Hovila", "country": "FI", "coord": {"lon": 29.120159, "lat": 63.555431}}, {"id": 878676, "name": "Zimbabwe", "country": "ZW", "coord": {"lon": 30.91667, "lat": -20.26667}}, {"id": 3656356, "name": "Hacienda Rumipamba", "country": "EC", "coord": {"lon": -78.5, "lat": -0.18333}}, {"id": 7538533, "name": "Pav\u00e3o-Pavaozinho", "country": "BR", "coord": {"lon": -43.196621, "lat": -22.980141}}, {"id": 7521912, "name": "Consola\u00e7\u00e3o", "country": "BR", "coord": {"lon": -46.657909, "lat": -23.548491}}, {"id": 4001811, "name": "La Julia", "country": "MX", "coord": {"lon": -117.066673, "lat": 32.48333}}, {"id": 4013403, "name": "Colonia Herrera", "country": "MX", "coord": {"lon": -117.066673, "lat": 32.51667}}, {"id": 2635808, "name": "Tilty", "country": "GB", "coord": {"lon": 0.31878, "lat": 51.914101}}, {"id": 7870801, "name": "Harbourfront", "country": "CA", "coord": {"lon": -79.383003, "lat": 43.638779}}, {"id": 2155552, "name": "Nelsons Hill", "country": "AU", "coord": {"lon": 145.25, "lat": -37.799999}}, {"id": 1501230, "name": "Kur\u2019ya", "country": "RU", "coord": {"lon": 82.316673, "lat": 51.599998}}, {"id": 4017354, "name": "Bascobampo", "country": "MX", "coord": {"lon": -109.650002, "lat": 26.98333}}, {"id": 1787768, "name": "Yamenkou", "country": "CN", "coord": {"lon": 116.200279, "lat": 39.882778}}, {"id": 1266741, "name": "Khetw\u0101di", "country": "IN", "coord": {"lon": 72.822372, "lat": 18.959909}}, {"id": 7091184, "name": "Valenzuela", "country": "PH", "coord": {"lon": 121.025398, "lat": 14.5701}}, {"id": 6543133, "name": "Busnago", "country": "IT", "coord": {"lon": 9.46375, "lat": 45.616482}}, {"id": 6542529, "name": "Assago", "country": "IT", "coord": {"lon": 9.12565, "lat": 45.408871}}, {"id": 6541777, "name": "San Teodoro", "country": "IT", "coord": {"lon": 9.67344, "lat": 40.77037}}, {"id": 3167663, "name": "Sesti\u00e8re di Santa Croce", "country": "IT", "coord": {"lon": 12.31842, "lat": 45.439659}}, {"id": 6537128, "name": "Pantigliate", "country": "IT", "coord": {"lon": 9.35355, "lat": 45.436771}}, {"id": 6536539, "name": "Curno", "country": "IT", "coord": {"lon": 9.60705, "lat": 45.68898}}, {"id": 6543740, "name": "Caponago", "country": "IT", "coord": {"lon": 9.37585, "lat": 45.566479}}, {"id": 6539477, "name": "Carugate", "country": "IT", "coord": {"lon": 9.34375, "lat": 45.54977}}, {"id": 6536291, "name": "Marcon", "country": "IT", "coord": {"lon": 12.29832, "lat": 45.5606}}, {"id": 6536527, "name": "Baranzate", "country": "IT", "coord": {"lon": 9.11724, "lat": 45.527168}}, {"id": 2950158, "name": "Berlin", "country": "DE", "coord": {"lon": 10.45, "lat": 54.033329}}, {"id": 1614875, "name": "Ban Nong Yao", "country": "TH", "coord": {"lon": 100.466667, "lat": 14.88333}}, {"id": 8056564, "name": "Al Am\u0101n", "country": "AE", "coord": {"lon": 54.423531, "lat": 24.432261}}, {"id": 6800035, "name": "Panpo\u2019bon-dong", "country": "KR", "coord": {"lon": 126.987297, "lat": 37.506329}}, {"id": 7294501, "name": "Colwall", "country": "GB", "coord": {"lon": -2.37469, "lat": 52.076328}}, {"id": 2652518, "name": "Colwall", "country": "GB", "coord": {"lon": -2.38182, "lat": 52.078709}}, {"id": 7001297, "name": "Gangxia", "country": "CN", "coord": {"lon": 114.061363, "lat": 22.540331}}, {"id": 1899371, "name": "Qingyu", "country": "CN", "coord": {"lon": 107.178787, "lat": 32.21571}}, {"id": 1254447, "name": "Timurn\u012b", "country": "IN", "coord": {"lon": 77.216667, "lat": 22.366671}}, {"id": 6539673, "name": "Livo", "country": "IT", "coord": {"lon": 9.30414, "lat": 46.168491}}, {"id": 3372490, "name": "Valverde", "country": "PT", "coord": {"lon": -25.133329, "lat": 36.950001}}, {"id": 7532936, "name": "Wisznia Ma\u0142a", "country": "PL", "coord": {"lon": 17.030199, "lat": 51.225399}}, {"id": 7874460, "name": "Krzy\u017canowice", "country": "PL", "coord": {"lon": 17.050739, "lat": 51.175251}}, {"id": 587977, "name": "V\u00e4\u00e4nikvere", "country": "EE", "coord": {"lon": 26.398331, "lat": 58.513611}}, {"id": 3507304, "name": "El Hoyito", "country": "DO", "coord": {"lon": -69.966011, "lat": 19.416969}}, {"id": 2814226, "name": "Wanne-Eickel", "country": "DE", "coord": {"lon": 7.16667, "lat": 51.533329}}, {"id": 2932026, "name": "Eickelerbruch", "country": "DE", "coord": {"lon": 7.16667, "lat": 51.51667}}, {"id": 3197263, "name": "Krivaja", "country": "HR", "coord": {"lon": 16.799999, "lat": 45.716671}}, {"id": 2641631, "name": "New Hunstanton", "country": "GB", "coord": {"lon": 0.49211, "lat": 52.936531}}, {"id": 2768815, "name": "Pimpfing", "country": "AT", "coord": {"lon": 13.55352, "lat": 48.34267}}, {"id": 705797, "name": "Kirovskoye", "country": "UA", "coord": {"lon": 38.363239, "lat": 48.148251}}, {"id": 6749251, "name": "Dongbuzi", "country": "TW", "coord": {"lon": 121.306458, "lat": 25.00996}}, {"id": 1673200, "name": "Guomin", "country": "TW", "coord": {"lon": 121.616669, "lat": 24}}, {"id": 1672222, "name": "Huiyaozi", "country": "TW", "coord": {"lon": 121.12825, "lat": 22.76885}}, {"id": 693577, "name": "Svyatohirs\u2019k", "country": "UA", "coord": {"lon": 37.567081, "lat": 49.0382}}, {"id": 705798, "name": "Kirovs\u2019ke", "country": "UA", "coord": {"lon": 33.077702, "lat": 45.54504}}, {"id": 7280714, "name": "Colonia Roma", "country": "MX", "coord": {"lon": -99.163048, "lat": 19.41819}}, {"id": 1006919, "name": "Ebenhaezer", "country": "ZA", "coord": {"lon": 28.283331, "lat": -28.383329}}, {"id": 2755862, "name": "Fort", "country": "NL", "coord": {"lon": 6.38611, "lat": 52.651669}}, {"id": 3463909, "name": "Estaca", "country": "BR", "coord": {"lon": -54.533329, "lat": -20.299999}}, {"id": 2950908, "name": "Benzhausen", "country": "DE", "coord": {"lon": 7.81667, "lat": 48.049999}}, {"id": 2757698, "name": "Dedemsvaart", "country": "NL", "coord": {"lon": 6.45833, "lat": 52.599998}}, {"id": 5972930, "name": "Hazlet", "country": "CA", "coord": {"lon": -108.60141, "lat": 50.400082}}, {"id": 2900248, "name": "Holsterhausen", "country": "DE", "coord": {"lon": 7.18333, "lat": 51.533329}}, {"id": 2932029, "name": "Eickel", "country": "DE", "coord": {"lon": 7.18333, "lat": 51.51667}}, {"id": 2784102, "name": "Wanne", "country": "BE", "coord": {"lon": 5.92083, "lat": 50.355}}, {"id": 2643273, "name": "Lytham", "country": "GB", "coord": {"lon": -2.96293, "lat": 53.73695}}, {"id": 5908999, "name": "Bristol", "country": "CA", "coord": {"lon": -76.466103, "lat": 45.533409}}, {"id": 1880242, "name": "Somapah Serangoon", "country": "SG", "coord": {"lon": 103.883331, "lat": 1.36667}}, {"id": 7910261, "name": "Woodthorpe", "country": "GB", "coord": {"lon": -1.12867, "lat": 52.988991}}, {"id": 6449590, "name": "Autreville-sur-la-Renne", "country": "FR", "coord": {"lon": 4.97917, "lat": 48.117222}}, {"id": 2978219, "name": "Saint-Martin-sur-la-Renne", "country": "FR", "coord": {"lon": 4.95387, "lat": 48.145119}}, {"id": 1507220, "name": "Dovol\u2019noye", "country": "RU", "coord": {"lon": 79.667267, "lat": 54.496498}}, {"id": 1438738, "name": "\u1e28am\u0101mak", "country": "AF", "coord": {"lon": 61.87384, "lat": 31.705509}}, {"id": 7622194, "name": "Perkampungan Kertih Lima", "country": "MY", "coord": {"lon": 103.321899, "lat": 4.5777}}, {"id": 6539511, "name": "Pieve Tesino", "country": "IT", "coord": {"lon": 11.61029, "lat": 46.068211}}, {"id": 3174159, "name": "Malga Quarazza", "country": "IT", "coord": {"lon": 11.6, "lat": 46.116669}}, {"id": 593315, "name": "Vel\u017eys", "country": "LT", "coord": {"lon": 24.433331, "lat": 55.700001}}, {"id": 3239104, "name": "Ob\u010dina Naklo", "country": "SI", "coord": {"lon": 14.28667, "lat": 46.29361}}, {"id": 3190253, "name": "Spodnja Besnica", "country": "SI", "coord": {"lon": 14.31667, "lat": 46.26667}}, {"id": 3502497, "name": "La Guamita", "country": "DO", "coord": {"lon": -70.684601, "lat": 18.92034}}, {"id": 2692644, "name": "Marieberg", "country": "SE", "coord": {"lon": 18.01667, "lat": 59.333328}}, {"id": 2187821, "name": "Manakau", "country": "NZ", "coord": {"lon": 175.216675, "lat": -40.716671}}, {"id": 7910024, "name": "Binalong Bay", "country": "AU", "coord": {"lon": 148.311646, "lat": -41.251141}}, {"id": 4011482, "name": "Ejido Pantanito", "country": "MX", "coord": {"lon": -111.050003, "lat": 30.6}}, {"id": 3946931, "name": "Aznapuquio", "country": "PE", "coord": {"lon": -77.066673, "lat": -11.98333}}, {"id": 3934385, "name": "Naranjal", "country": "PE", "coord": {"lon": -77.062218, "lat": -11.97278}}, {"id": 6538777, "name": "Casalbore", "country": "IT", "coord": {"lon": 15.00674, "lat": 41.233921}}, {"id": 8131502, "name": "Satara Division", "country": "IN", "coord": {"lon": 73.859283, "lat": 18.51787}}, {"id": 8222846, "name": "Solnechnaya", "country": "RU", "coord": {"lon": 131.732803, "lat": 49.237499}}, {"id": 3467431, "name": "Cantareira", "country": "BR", "coord": {"lon": -46.633331, "lat": -23.466669}}, {"id": 3456225, "name": "Freguesia do O", "country": "BR", "coord": {"lon": -46.699829, "lat": -23.49877}}, {"id": 2659921, "name": "Les P\u00e2quis", "country": "CH", "coord": {"lon": 6.14676, "lat": 46.210491}}, {"id": 590457, "name": "M\u00e4\u00e4ltse", "country": "EE", "coord": {"lon": 22.76, "lat": 58.852779}}, {"id": 589004, "name": "Ristiv\u00e4lja", "country": "EE", "coord": {"lon": 22.771391, "lat": 58.850559}}, {"id": 3678413, "name": "La Merced", "country": "CO", "coord": {"lon": -74.069221, "lat": 4.6213}}, {"id": 6996360, "name": "Biria M\u0101dhogarh", "country": "IN", "coord": {"lon": 79.191002, "lat": 26.260201}}, {"id": 1676959, "name": "Erqiao", "country": "TW", "coord": {"lon": 120.366669, "lat": 22.549999}}, {"id": 7300019, "name": "Looe", "country": "GB", "coord": {"lon": -4.46111, "lat": 50.352951}}, {"id": 3490446, "name": "Four Paths", "country": "JM", "coord": {"lon": -77.291687, "lat": 17.96953}}, {"id": 2822234, "name": "Tiergarten", "country": "DE", "coord": {"lon": 13.36667, "lat": 52.51667}}, {"id": 6268219, "name": "Kobrino", "country": "RU", "coord": {"lon": 30.11417, "lat": 59.424721}}, {"id": 3088150, "name": "Pr\u0105dnik Czerwony", "country": "PL", "coord": {"lon": 19.97604, "lat": 50.092468}}, {"id": 3085041, "name": "\u015ar\u00f3dmie\u015bcie", "country": "PL", "coord": {"lon": 19.939581, "lat": 50.061779}}, {"id": 7625467, "name": "T\u016bs\u0101s\u0101n", "country": "IR", "coord": {"lon": 50.661572, "lat": 36.919189}}, {"id": 3231216, "name": "Kerbonne", "country": "FR", "coord": {"lon": -4.5012, "lat": 48.383282}}, {"id": 3231196, "name": "K\u00e9roriou", "country": "FR", "coord": {"lon": -4.48333, "lat": 48.383331}}, {"id": 2755996, "name": "Etten-Leur", "country": "NL", "coord": {"lon": 4.63726, "lat": 51.57056}}, {"id": 8223990, "name": "Kolonaki", "country": "GR", "coord": {"lon": 23.74103, "lat": 37.978661}}, {"id": 6542798, "name": "Cavaso del Tomba", "country": "IT", "coord": {"lon": 11.8984, "lat": 45.860699}}, {"id": 6540389, "name": "Asolo", "country": "IT", "coord": {"lon": 11.9117, "lat": 45.792301}}, {"id": 6536482, "name": "Castelseprio", "country": "IT", "coord": {"lon": 8.86264, "lat": 45.715969}}, {"id": 6542068, "name": "Oppido Lucano", "country": "IT", "coord": {"lon": 15.98667, "lat": 40.761822}}, {"id": 6537618, "name": "Filiano", "country": "IT", "coord": {"lon": 15.70616, "lat": 40.810719}}, {"id": 3176508, "name": "Frusci", "country": "IT", "coord": {"lon": 15.73333, "lat": 40.783329}}, {"id": 663094, "name": "Vatra Veche", "country": "RO", "coord": {"lon": 27.966669, "lat": 45.26667}}, {"id": 1665988, "name": "Zhigaozhuang", "country": "TW", "coord": {"lon": 120.61602, "lat": 24.154539}}, {"id": 71532, "name": "Mu\u1e29\u0101faz\u0327at Raymah", "country": "YE", "coord": {"lon": 43.666672, "lat": 14.63333}}, {"id": 6940638, "name": "As Salafiyah", "country": "YE", "coord": {"lon": 43.821602, "lat": 14.6866}}, {"id": 79657, "name": "Al \u1e28ab\u012bt", "country": "YE", "coord": {"lon": 43.799999, "lat": 14.75}}, {"id": 2864071, "name": "Neustadt", "country": "DE", "coord": {"lon": 12.56667, "lat": 52.400002}}, {"id": 1704628, "name": "Mabiga", "country": "PH", "coord": {"lon": 120.585098, "lat": 15.1917}}, {"id": 3076348, "name": "Dub\u00ed", "country": "CZ", "coord": {"lon": 15.41857, "lat": 49.533878}}, {"id": 6811761, "name": "W\u014fns\u014fngil-tong", "country": "KR", "coord": {"lon": 127.161346, "lat": 36.809792}}, {"id": 696416, "name": "Potok", "country": "UA", "coord": {"lon": 25.03334, "lat": 49.512241}}, {"id": 6845986, "name": "Mironovka", "country": "RU", "coord": {"lon": 44.214001, "lat": 54.499802}}, {"id": 670942, "name": "Petroman", "country": "RO", "coord": {"lon": 21.116671, "lat": 45.533329}}, {"id": 2620274, "name": "Hjallese", "country": "DK", "coord": {"lon": 10.38499, "lat": 55.348289}}, {"id": 2624596, "name": "\u00c5rslev", "country": "DK", "coord": {"lon": 9.3485, "lat": 55.026772}}, {"id": 2615199, "name": "Pederstrup", "country": "DK", "coord": {"lon": 10.48753, "lat": 55.285309}}, {"id": 2617486, "name": "Lombjerg", "country": "DK", "coord": {"lon": 10.48705, "lat": 55.229301}}, {"id": 2622198, "name": "Findinge", "country": "DK", "coord": {"lon": 10.4216, "lat": 55.21748}}, {"id": 2618070, "name": "Kv\u00e6rndrup", "country": "DK", "coord": {"lon": 10.52549, "lat": 55.177521}}, {"id": 2612594, "name": "Stenstrup", "country": "DK", "coord": {"lon": 10.50474, "lat": 55.133518}}, {"id": 2623621, "name": "Borup", "country": "DK", "coord": {"lon": 9.50689, "lat": 56.922081}}, {"id": 2750888, "name": "Middeldijk", "country": "NL", "coord": {"lon": 4.51667, "lat": 51.849998}}, {"id": 2610888, "name": "Understed", "country": "DK", "coord": {"lon": 10.51667, "lat": 57.383331}}, {"id": 2613685, "name": "Skodsborg", "country": "DK", "coord": {"lon": 12.57324, "lat": 55.822498}}, {"id": 2613357, "name": "Smidstrup", "country": "DK", "coord": {"lon": 12.55787, "lat": 55.865688}}, {"id": 6460975, "name": "Rastnik", "country": "BG", "coord": {"lon": 25.283331, "lat": 41.400002}}, {"id": 727762, "name": "Rastnik", "country": "BG", "coord": {"lon": 25.283331, "lat": 41.400002}}, {"id": 596826, "name": "Murava", "country": "LT", "coord": {"lon": 23.966669, "lat": 54.916672}}]