[{"id": 3793791, "name": "Los Lagos", "country": "CO", "coord": {"lon": -76.157707, "lat": 8.26914}}, {"id": 3672651, "name": "Paz de R\u00edo", "country": "CO", "coord": {"lon": -72.750504, "lat": 5.98452}}, {"id": 3675780, "name": "Macaravita", "country": "CO", "coord": {"lon": -72.592987, "lat": 6.50567}}, {"id": 3671161, "name": "Quebradanegra", "country": "CO", "coord": {"lon": -74.479439, "lat": 5.11737}}, {"id": 3829349, "name": "Puerto Caicedo", "country": "CO", "coord": {"lon": -76.604393, "lat": 0.68362}}, {"id": 3671630, "name": "Pueblorrico", "country": "CO", "coord": {"lon": -75.841011, "lat": 5.79176}}, {"id": 3665898, "name": "Villavieja", "country": "CO", "coord": {"lon": -75.218643, "lat": 3.22052}}, {"id": 3686027, "name": "Concepcion", "country": "CO", "coord": {"lon": -72.694, "lat": 6.7662}}, {"id": 3670929, "name": "Recreo", "country": "CO", "coord": {"lon": -77.533333, "lat": 1.4}}, {"id": 3685578, "name": "Cuba", "country": "CO", "coord": {"lon": -74.883331, "lat": 10.9}}, {"id": 3670350, "name": "Salgar", "country": "CO", "coord": {"lon": -75.965408, "lat": 5.96502}}, {"id": 3679778, "name": "Bella Suiza", "country": "CO", "coord": {"lon": -74.034599, "lat": 4.70898}}, {"id": 7033249, "name": "Santa Barbara Central", "country": "CO", "coord": {"lon": -74.039192, "lat": 4.7021}}, {"id": 3690592, "name": "Abejorral", "country": "CO", "coord": {"lon": -75.427254, "lat": 5.78928}}, {"id": 3688499, "name": "Briceno", "country": "CO", "coord": {"lon": -75.551521, "lat": 7.11096}}, {"id": 3667649, "name": "Sutatausa", "country": "CO", "coord": {"lon": -73.852379, "lat": 5.24779}}, {"id": 3669977, "name": "San Cayetano", "country": "CO", "coord": {"lon": -72.624298, "lat": 7.87707}}, {"id": 3689039, "name": "Bayunca", "country": "CO", "coord": {"lon": -75.397278, "lat": 10.53569}}, {"id": 3687451, "name": "Caracoli", "country": "CO", "coord": {"lon": -74.760559, "lat": 6.41194}}, {"id": 3684945, "name": "El Bagre", "country": "CO", "coord": {"lon": -74.808578, "lat": 7.59272}}, {"id": 3665965, "name": "Villa Mej\u00eda", "country": "CO", "coord": {"lon": -74.150261, "lat": 4.64967}}, {"id": 3675808, "name": "Mabobo", "country": "CO", "coord": {"lon": -75.170479, "lat": 8.43372}}, {"id": 3689175, "name": "Barranca", "country": "CO", "coord": {"lon": -73.699997, "lat": 6.03333}}, {"id": 3689723, "name": "Aratoca", "country": "CO", "coord": {"lon": -73.020828, "lat": 6.69353}}, {"id": 3792383, "name": "Agustin Codazzi", "country": "CO", "coord": {"lon": -73.236107, "lat": 10.03409}}, {"id": 3781858, "name": "El Toronjo", "country": "CO", "coord": {"lon": -73.619019, "lat": 4.70131}}, {"id": 3793692, "name": "Viva Dios", "country": "CO", "coord": {"lon": -76.448212, "lat": 8.06669}}, {"id": 3770718, "name": "Morales", "country": "CO", "coord": {"lon": -76.617233, "lat": 2.75701}}, {"id": 3685628, "name": "Cuajadoras", "country": "CO", "coord": {"lon": -72.716667, "lat": 7.73333}}, {"id": 3685984, "name": "Consaca", "country": "CO", "coord": {"lon": -77.469551, "lat": 1.21544}}, {"id": 3671437, "name": "Puerto Leguizamo", "country": "CO", "coord": {"lon": -74.781891, "lat": -0.19337}}, {"id": 3666314, "name": "Vallecito", "country": "CO", "coord": {"lon": -75.486969, "lat": 6.72594}}, {"id": 3736146, "name": "Nochebuena", "country": "CO", "coord": {"lon": -75.489441, "lat": 3.255}}, {"id": 3680857, "name": "Hispania", "country": "CO", "coord": {"lon": -75.907181, "lat": 5.79925}}, {"id": 3665851, "name": "Viterbo", "country": "CO", "coord": {"lon": -75.87159, "lat": 5.06242}}, {"id": 3685814, "name": "Corozalito", "country": "CO", "coord": {"lon": -75.629189, "lat": 9.04634}}, {"id": 3681767, "name": "Guacheta", "country": "CO", "coord": {"lon": -73.686172, "lat": 5.38425}}, {"id": 3685271, "name": "D\u00e1vila", "country": "CO", "coord": {"lon": -75.949997, "lat": 4.45}}, {"id": 3669938, "name": "Sandona", "country": "CO", "coord": {"lon": -77.474091, "lat": 1.29151}}, {"id": 3682944, "name": "El Tendido", "country": "CO", "coord": {"lon": -72.988609, "lat": 5.73135}}, {"id": 3828718, "name": "Yapurquer", "country": "CO", "coord": {"lon": -77.731049, "lat": 0.8482}}, {"id": 3731909, "name": "El Naranjito", "country": "CO", "coord": {"lon": -73.48983, "lat": 7.1003}}, {"id": 3671604, "name": "Puente Aranda", "country": "CO", "coord": {"lon": -74.116669, "lat": 4.63333}}, {"id": 3675987, "name": "Los Palmitos", "country": "CO", "coord": {"lon": -75.267693, "lat": 9.37899}}, {"id": 3685418, "name": "Cunday", "country": "CO", "coord": {"lon": -74.692123, "lat": 4.06004}}, {"id": 3688072, "name": "Caicedo", "country": "CO", "coord": {"lon": -75.982552, "lat": 6.40511}}, {"id": 3685295, "name": "Dabeiba", "country": "CO", "coord": {"lon": -76.26722, "lat": 7.00172}}, {"id": 3689239, "name": "Barandillas", "country": "CO", "coord": {"lon": -73.966667, "lat": 5.01667}}, {"id": 3670061, "name": "San Antonio de Prado", "country": "CO", "coord": {"lon": -75.657318, "lat": 6.18394}}, {"id": 3756455, "name": "Tuteh\u00f3n", "country": "CO", "coord": {"lon": -72.576576, "lat": 11.46745}}, {"id": 3680349, "name": "Java", "country": "CO", "coord": {"lon": -74.433327, "lat": 4.51667}}, {"id": 3778835, "name": "La Cumbre", "country": "CO", "coord": {"lon": -76.020828, "lat": 3.7225}}, {"id": 3673902, "name": "Neira", "country": "CO", "coord": {"lon": -75.520012, "lat": 5.1665}}, {"id": 3782071, "name": "Las Tominejas", "country": "CO", "coord": {"lon": -73.972816, "lat": 4.82806}}, {"id": 3669557, "name": "San Jose de La Montana", "country": "CO", "coord": {"lon": -75.683327, "lat": 6.85028}}, {"id": 3673668, "name": "Ocache", "country": "CO", "coord": {"lon": -76.486458, "lat": 3.70638}}, {"id": 3673413, "name": "Pacora", "country": "CO", "coord": {"lon": -75.459297, "lat": 5.52708}}, {"id": 3671950, "name": "Polonuevo", "country": "CO", "coord": {"lon": -74.853439, "lat": 10.77697}}, {"id": 3828811, "name": "Kil\u00f3metro Diez y Ocho", "country": "CO", "coord": {"lon": -76.62336, "lat": 3.5369}}, {"id": 3673536, "name": "Orocue", "country": "CO", "coord": {"lon": -71.335419, "lat": 4.79118}}, {"id": 3776586, "name": "La Belleza", "country": "CO", "coord": {"lon": -73.848892, "lat": 5.79083}}, {"id": 3685432, "name": "Cumbal", "country": "CO", "coord": {"lon": -77.791451, "lat": 0.90875}}, {"id": 3681596, "name": "Guamal", "country": "CO", "coord": {"lon": -74.223839, "lat": 9.14334}}, {"id": 3668033, "name": "Silos", "country": "CO", "coord": {"lon": -72.756393, "lat": 7.20524}}, {"id": 3674130, "name": "Mutata", "country": "CO", "coord": {"lon": -76.435638, "lat": 7.24407}}, {"id": 3673268, "name": "Palestina", "country": "CO", "coord": {"lon": -73.5, "lat": 7.4}}, {"id": 3688128, "name": "Caceres", "country": "CO", "coord": {"lon": -75.348419, "lat": 7.58078}}, {"id": 3600026, "name": "Puerto Cortez", "country": "HN", "coord": {"lon": -87.949997, "lat": 15.83333}}, {"id": 3600193, "name": "Departamento de Yoro", "country": "HN", "coord": {"lon": -87.166672, "lat": 15.25}}, {"id": 3604584, "name": "Morazan", "country": "HN", "coord": {"lon": -87.599998, "lat": 15.31667}}, {"id": 3613314, "name": "Comayag\u00fcela", "country": "HN", "coord": {"lon": -87.216667, "lat": 14.08333}}, {"id": 3613140, "name": "Departamento de Cort\u00e9s", "country": "HN", "coord": {"lon": -88, "lat": 15.41667}}, {"id": 3602790, "name": "R\u00edo Blanco", "country": "HN", "coord": {"lon": -88.033333, "lat": 15.5}}, {"id": 3600195, "name": "Yoro", "country": "HN", "coord": {"lon": -87.133331, "lat": 15.13333}}, {"id": 3613805, "name": "Cerro Grande", "country": "HN", "coord": {"lon": -87.25, "lat": 13.81667}}, {"id": 3604303, "name": "Ocotillo Occidental", "country": "HN", "coord": {"lon": -87.949997, "lat": 15.61667}}, {"id": 3610942, "name": "Departamento de El Para\u00edso", "country": "HN", "coord": {"lon": -86.5, "lat": 14.08333}}, {"id": 3600841, "name": "Teupasenti", "country": "HN", "coord": {"lon": -86.699997, "lat": 14.21667}}, {"id": 3613528, "name": "Ciudad Choluteca", "country": "HN", "coord": {"lon": -87.190826, "lat": 13.30028}}, {"id": 3600422, "name": "Valle de Angeles", "country": "HN", "coord": {"lon": -87.033333, "lat": 14.15}}, {"id": 3611008, "name": "El Pa\u00eds", "country": "HN", "coord": {"lon": -87.116669, "lat": 14.1}}, {"id": 3604579, "name": "Moroceli", "country": "HN", "coord": {"lon": -86.866669, "lat": 14.11667}}, {"id": 3613319, "name": "Departamento de Comayagua", "country": "HN", "coord": {"lon": -87.666672, "lat": 14.58333}}, {"id": 3613321, "name": "Comayagua", "country": "HN", "coord": {"lon": -87.633331, "lat": 14.45}}, {"id": 3609690, "name": "Flores", "country": "HN", "coord": {"lon": -87.566673, "lat": 14.28333}}, {"id": 3613229, "name": "Departamento de Cop\u00e1n", "country": "HN", "coord": {"lon": -88.916672, "lat": 14.91667}}, {"id": 3607986, "name": "La Entrada", "country": "HN", "coord": {"lon": -88.73333, "lat": 15.05}}, {"id": 3601072, "name": "Talanga", "country": "HN", "coord": {"lon": -87.083328, "lat": 14.4}}, {"id": 3604249, "name": "Departamento de Olancho", "country": "HN", "coord": {"lon": -86, "lat": 14.83333}}, {"id": 3613974, "name": "Catacamas", "country": "HN", "coord": {"lon": -85.900002, "lat": 14.8}}, {"id": 3612907, "name": "Danli", "country": "HN", "coord": {"lon": -86.583328, "lat": 14.03333}}, {"id": 3601311, "name": "Siguatepeque", "country": "HN", "coord": {"lon": -87.833328, "lat": 14.6}}, {"id": 3615027, "name": "Departamento de Atl\u00e1ntida", "country": "HN", "coord": {"lon": -87, "lat": 15.66667}}, {"id": 3610676, "name": "El Porvenir", "country": "HN", "coord": {"lon": -86.933327, "lat": 15.75}}, {"id": 3600704, "name": "Tocoa", "country": "HN", "coord": {"lon": -86, "lat": 15.68333}}, {"id": 3607723, "name": "La Inea", "country": "HN", "coord": {"lon": -88.783333, "lat": 14.76667}}, {"id": 3600450, "name": "Vallecillo", "country": "HN", "coord": {"lon": -87.400002, "lat": 14.51667}}, {"id": 3604229, "name": "Omoa", "country": "HN", "coord": {"lon": -88.033333, "lat": 15.76667}}, {"id": 3613394, "name": "Cofradia", "country": "HN", "coord": {"lon": -88.150002, "lat": 15.4}}, {"id": 3601689, "name": "Departamento de Santa B\u00e1rbara", "country": "HN", "coord": {"lon": -88.333328, "lat": 15.08333}}, {"id": 3603799, "name": "Petoa", "country": "HN", "coord": {"lon": -88.283333, "lat": 15.26667}}, {"id": 3606066, "name": "Departamento de Lempira", "country": "HN", "coord": {"lon": -88.583328, "lat": 14.5}}, {"id": 3600800, "name": "Tierra Blanca", "country": "HN", "coord": {"lon": -88.583328, "lat": 14.58333}}, {"id": 3607436, "name": "Lamani", "country": "HN", "coord": {"lon": -87.616669, "lat": 14.2}}, {"id": 3615028, "name": "Atima", "country": "HN", "coord": {"lon": -88.48333, "lat": 14.93333}}, {"id": 3611144, "name": "El Nispero", "country": "HN", "coord": {"lon": -88.333328, "lat": 14.76667}}, {"id": 3613015, "name": "Cucuyagua", "country": "HN", "coord": {"lon": -88.866669, "lat": 14.65}}, {"id": 3602444, "name": "San Antonio de Cortes", "country": "HN", "coord": {"lon": -88.033333, "lat": 15.11667}}, {"id": 3611628, "name": "El Higuerito", "country": "HN", "coord": {"lon": -86.199997, "lat": 14.65}}, {"id": 3601627, "name": "Santa Cruz de Yojoa", "country": "HN", "coord": {"lon": -87.900002, "lat": 14.98333}}, {"id": 3606035, "name": "Lepaterique", "country": "HN", "coord": {"lon": -87.466667, "lat": 14.06667}}, {"id": 3608833, "name": "Departamento de Intibuc\u00e1", "country": "HN", "coord": {"lon": -88.166672, "lat": 14.33333}}, {"id": 3607966, "name": "La Esperanza", "country": "HN", "coord": {"lon": -88.183327, "lat": 14.3}}, {"id": 3609583, "name": "Departamento de Gracias a Dios", "country": "HN", "coord": {"lon": -84.333328, "lat": 15.25}}, {"id": 3603157, "name": "Puerto Lempira", "country": "HN", "coord": {"lon": -83.76667, "lat": 15.26667}}, {"id": 3607419, "name": "La Masica", "country": "HN", "coord": {"lon": -87.116669, "lat": 15.61667}}, {"id": 3604318, "name": "Departamento de Ocotepeque", "country": "HN", "coord": {"lon": -89, "lat": 14.5}}, {"id": 3604384, "name": "Nueva Ocotepeque", "country": "HN", "coord": {"lon": -89.183327, "lat": 14.43333}}, {"id": 3606097, "name": "La Virtud", "country": "HN", "coord": {"lon": -88.699997, "lat": 14.05}}, {"id": 3601903, "name": "San Marcos", "country": "HN", "coord": {"lon": -88.949997, "lat": 14.4}}, {"id": 3602936, "name": "Quiscamote", "country": "HN", "coord": {"lon": -87.98333, "lat": 14.48333}}, {"id": 3602097, "name": "San Jose de Colinas", "country": "HN", "coord": {"lon": -88.300003, "lat": 15.03333}}, {"id": 3601211, "name": "Sonaguera", "country": "HN", "coord": {"lon": -86.333328, "lat": 15.63333}}, {"id": 3614319, "name": "Campamento", "country": "HN", "coord": {"lon": -86.650002, "lat": 14.55}}, {"id": 3605010, "name": "Maraquito", "country": "HN", "coord": {"lon": -86.816673, "lat": 14.53333}}, {"id": 3601403, "name": "Saba", "country": "HN", "coord": {"lon": -86.25, "lat": 15.46667}}, {"id": 3610331, "name": "El Salvador", "country": "HN", "coord": {"lon": -88.150002, "lat": 15.2}}, {"id": 3611150, "name": "El Negrito", "country": "HN", "coord": {"lon": -87.699997, "lat": 15.31667}}, {"id": 3602952, "name": "Quimistan", "country": "HN", "coord": {"lon": -88.400002, "lat": 15.35}}, {"id": 3602758, "name": "Rio Lindo", "country": "HN", "coord": {"lon": -87.98333, "lat": 15.03333}}, {"id": 3601783, "name": "San Pedro Sula", "country": "HN", "coord": {"lon": -88, "lat": 15.5}}, {"id": 3603856, "name": "Pena Blanca", "country": "HN", "coord": {"lon": -88.050003, "lat": 15.53333}}, {"id": 3601999, "name": "San Juan de Flores", "country": "HN", "coord": {"lon": -87.033333, "lat": 14.26667}}, {"id": 3606048, "name": "Lepaera", "country": "HN", "coord": {"lon": -88.583328, "lat": 14.78333}}, {"id": 3614975, "name": "Azacualpa", "country": "HN", "coord": {"lon": -88.099998, "lat": 14.71667}}, {"id": 3611185, "name": "El Naranjo", "country": "HN", "coord": {"lon": -86.800003, "lat": 13.43333}}, {"id": 3600254, "name": "Yamaranguila", "country": "HN", "coord": {"lon": -88.25, "lat": 14.28333}}, {"id": 3609389, "name": "Gualaco", "country": "HN", "coord": {"lon": -86.050003, "lat": 15.05}}, {"id": 7626836, "name": "Land Cura\u00e7ao", "country": "CW", "coord": {"lon": -69, "lat": 12.16667}}, {"id": 7626844, "name": "Bonaire, Saint Eustatius and Saba", "country": "BQ", "coord": {"lon": -68.294449, "lat": 12.21286}}, {"id": 7610358, "name": "Saba", "country": "BQ", "coord": {"lon": -63.23333, "lat": 17.633329}}, {"id": 3513173, "name": "The Bottom", "country": "BQ", "coord": {"lon": -63.249191, "lat": 17.6259}}, {"id": 3513083, "name": "Windward Side", "country": "BQ", "coord": {"lon": -63.231361, "lat": 17.628639}}, {"id": 3513228, "name": "Sint Joris", "country": "BQ", "coord": {"lon": -68.333328, "lat": 12.23333}}, {"id": 7609695, "name": "Land Sint Maarten", "country": "SX", "coord": {"lon": -63.066669, "lat": 18.04167}}, {"id": 75411, "name": "Mu\u1e29\u0101faz\u0327at \u1e28a\u1e11ramawt", "country": "YE", "coord": {"lon": 49, "lat": 16}}, {"id": 6940615, "name": "Rakhyah", "country": "YE", "coord": {"lon": 47.7728, "lat": 15.4618}}, {"id": 71136, "name": "Sana", "country": "YE", "coord": {"lon": 47.76667, "lat": 15.4}}, {"id": 80412, "name": "Mu\u1e29\u0101faz\u0327at \u2018Adan", "country": "YE", "coord": {"lon": 44.916672, "lat": 12.83333}}, {"id": 6940814, "name": "Craiter", "country": "YE", "coord": {"lon": 45.038101, "lat": 12.7731}}, {"id": 415189, "name": "Aden", "country": "YE", "coord": {"lon": 45.036671, "lat": 12.77944}}, {"id": 76183, "name": "Mu\u1e29\u0101faz\u0327at Dham\u0101r", "country": "YE", "coord": {"lon": 44.272942, "lat": 14.68296}}, {"id": 6940616, "name": "Dawran Aness", "country": "YE", "coord": {"lon": 44.1143, "lat": 14.8288}}, {"id": 70223, "name": "Ta\u2018izz", "country": "YE", "coord": {"lon": 44.033329, "lat": 14.78333}}, {"id": 6940756, "name": "Al Mukalla City", "country": "YE", "coord": {"lon": 49.192902, "lat": 14.5396}}, {"id": 7472737, "name": "\u1e28ayy as Sal\u0101m", "country": "YE", "coord": {"lon": 49.130562, "lat": 14.53314}}, {"id": 79416, "name": "Mu\u1e29\u0101faz\u0327at al \u1e28udaydah", "country": "YE", "coord": {"lon": 43.192791, "lat": 14.91732}}, {"id": 6940725, "name": "Al Mina", "country": "YE", "coord": {"lon": 42.909901, "lat": 14.8522}}, {"id": 7475283, "name": "\u1e28\u0101rat al Bust\u0101n", "country": "YE", "coord": {"lon": 42.951511, "lat": 14.79922}}, {"id": 6940764, "name": "Tarim", "country": "YE", "coord": {"lon": 49.0229, "lat": 16.066}}, {"id": 70160, "name": "Tarim", "country": "YE", "coord": {"lon": 48.99889, "lat": 16.05694}}, {"id": 76182, "name": "Mad\u012bnat Dham\u0101r", "country": "YE", "coord": {"lon": 44.403389, "lat": 14.60684}}, {"id": 76184, "name": "Dhamar", "country": "YE", "coord": {"lon": 44.40514, "lat": 14.54274}}, {"id": 3577718, "name": "British Virgin Islands", "country": "VG", "coord": {"lon": -64.5, "lat": 18.5}}, {"id": 3577430, "name": "Road Town", "country": "VG", "coord": {"lon": -64.616669, "lat": 18.41667}}, {"id": 162627, "name": "Yabrud", "country": "SY", "coord": {"lon": 36.65741, "lat": 33.967361}}, {"id": 167541, "name": "Mu\u1e29\u0101faz\u0327at Dimashq", "country": "SY", "coord": {"lon": 36.299999, "lat": 33.5}}, {"id": 170062, "name": "Mu\u1e29\u0101faz\u0327at \u1e28alab", "country": "SY", "coord": {"lon": 37.5, "lat": 36.25}}, {"id": 7744976, "name": "Al Far\u0101firah", "country": "SY", "coord": {"lon": 37.1595, "lat": 36.202221}}, {"id": 173578, "name": "Mu\u1e29\u0101faz\u0327at al L\u0101dhiq\u012byah", "country": "SY", "coord": {"lon": 36.166672, "lat": 35.5}}, {"id": 173576, "name": "Latakia", "country": "SY", "coord": {"lon": 35.77684, "lat": 35.514839}}, {"id": 169575, "name": "Mu\u1e29\u0101faz\u0327at \u1e28im\u015f", "country": "SY", "coord": {"lon": 38, "lat": 34.25}}, {"id": 7637147, "name": "\u1e28ayy al \u1e28am\u012bd\u012byah", "country": "SY", "coord": {"lon": 36.717419, "lat": 34.73325}}, {"id": 169387, "name": "Mu\u1e29\u0101faz\u0327at Idlib", "country": "SY", "coord": {"lon": 36.666672, "lat": 35.833328}}, {"id": 8181926, "name": "Bust\u0101n Ghan\u016bm", "country": "SY", "coord": {"lon": 36.630249, "lat": 35.929581}}, {"id": 170903, "name": "Mu\u1e29\u0101faz\u0327at Dar\u2018\u0101", "country": "SY", "coord": {"lon": 36.166672, "lat": 33}}, {"id": 166365, "name": "Nawa", "country": "SY", "coord": {"lon": 36.039902, "lat": 32.890442}}, {"id": 163342, "name": "Mu\u1e29\u0101faz\u0327at \u0162ar\u0163\u016bs", "country": "SY", "coord": {"lon": 36.158669, "lat": 35.004269}}, {"id": 171830, "name": "Baniyas", "country": "SY", "coord": {"lon": 35.948711, "lat": 35.181881}}, {"id": 170015, "name": "Mu\u1e29\u0101faz\u0327at \u1e28am\u0101h", "country": "SY", "coord": {"lon": 37.25, "lat": 35.166672}}, {"id": 8181847, "name": "B\u0101sh\u016brah", "country": "SY", "coord": {"lon": 36.75108, "lat": 35.132679}}, {"id": 173813, "name": "Mu\u1e29\u0101faz\u0327at al \u1e28asakah", "country": "SY", "coord": {"lon": 41, "lat": 36.5}}, {"id": 173377, "name": "Al Qamishli", "country": "SY", "coord": {"lon": 41.22842, "lat": 37.051411}}, {"id": 3617762, "name": "Departamento de Managua", "country": "NI", "coord": {"lon": -86.416672, "lat": 12}}, {"id": 3617763, "name": "Managua", "country": "NI", "coord": {"lon": -86.250397, "lat": 12.13282}}, {"id": 7019741, "name": "Barrio Santo Domingo", "country": "NI", "coord": {"lon": -86.266724, "lat": 12.15178}}, {"id": 3617722, "name": "Departamento de Masaya", "country": "NI", "coord": {"lon": -86.166672, "lat": 12}}, {"id": 3616064, "name": "Ticuantepe", "country": "NI", "coord": {"lon": -86.204933, "lat": 12.02263}}, {"id": 3618030, "name": "Leon", "country": "NI", "coord": {"lon": -86.878036, "lat": 12.43787}}, {"id": 3618336, "name": "Larreynaga", "country": "NI", "coord": {"lon": -86.57193, "lat": 12.67692}}, {"id": 3617723, "name": "Masaya", "country": "NI", "coord": {"lon": -86.09417, "lat": 11.97444}}, {"id": 3620380, "name": "Departamento de Chinandega", "country": "NI", "coord": {"lon": -87.083328, "lat": 12.83333}}, {"id": 3620390, "name": "Chichigalpa", "country": "NI", "coord": {"lon": -87.027046, "lat": 12.57758}}, {"id": 3617473, "name": "Nindiri", "country": "NI", "coord": {"lon": -86.121277, "lat": 12.00386}}, {"id": 3620481, "name": "Departamento de Carazo", "country": "NI", "coord": {"lon": -86.25, "lat": 11.75}}, {"id": 3618926, "name": "Jinotepe", "country": "NI", "coord": {"lon": -86.199028, "lat": 11.84962}}, {"id": 3617707, "name": "Departamento de Matagalpa", "country": "NI", "coord": {"lon": -85.666672, "lat": 12.91667}}, {"id": 3616311, "name": "S\u00e9baco", "country": "NI", "coord": {"lon": -86.096298, "lat": 12.85321}}, {"id": 3617697, "name": "Mateare", "country": "NI", "coord": {"lon": -86.428093, "lat": 12.23512}}, {"id": 3618546, "name": "La Gaveta", "country": "NI", "coord": {"lon": -87.155479, "lat": 12.63132}}, {"id": 3620350, "name": "Ciudad Dario", "country": "NI", "coord": {"lon": -86.124023, "lat": 12.73143}}, {"id": 3617470, "name": "Niquinohomo", "country": "NI", "coord": {"lon": -86.09446, "lat": 11.90518}}, {"id": 3619193, "name": "Departamento de Estel\u00ed", "country": "NI", "coord": {"lon": -86.333328, "lat": 13.16667}}, {"id": 3619194, "name": "Esteli", "country": "NI", "coord": {"lon": -86.353844, "lat": 13.09185}}, {"id": 3617708, "name": "Matagalpa", "country": "NI", "coord": {"lon": -85.917473, "lat": 12.92559}}, {"id": 3619135, "name": "Departamento de Granada", "country": "NI", "coord": {"lon": -85.916672, "lat": 11.83333}}, {"id": 3619136, "name": "Granada", "country": "NI", "coord": {"lon": -85.956017, "lat": 11.92988}}, {"id": 3617796, "name": "Departamento de Madriz", "country": "NI", "coord": {"lon": -86.416672, "lat": 13.5}}, {"id": 3616232, "name": "Somoto", "country": "NI", "coord": {"lon": -86.582077, "lat": 13.48082}}, {"id": 3617458, "name": "Departamento de Nueva Segovia", "country": "NI", "coord": {"lon": -86.166672, "lat": 13.7}}, {"id": 3617448, "name": "Ocotal", "country": "NI", "coord": {"lon": -86.475159, "lat": 13.63208}}, {"id": 3616035, "name": "Tipitapa", "country": "NI", "coord": {"lon": -86.097061, "lat": 12.19732}}, {"id": 3620170, "name": "Diriamba", "country": "NI", "coord": {"lon": -86.238777, "lat": 11.85842}}, {"id": 3617522, "name": "Nagarote", "country": "NI", "coord": {"lon": -86.564743, "lat": 12.26593}}, {"id": 3618954, "name": "Jalapa", "country": "NI", "coord": {"lon": -86.123459, "lat": 13.92222}}, {"id": 3616726, "name": "San Juan del Sur", "country": "NI", "coord": {"lon": -85.870491, "lat": 11.25292}}, {"id": 3620298, "name": "Condega", "country": "NI", "coord": {"lon": -86.39846, "lat": 13.36502}}, {"id": 3619394, "name": "El Salto", "country": "NI", "coord": {"lon": -85.386841, "lat": 12.1197}}, {"id": 3828262, "name": "Ciudad Sandino", "country": "NI", "coord": {"lon": -86.34417, "lat": 12.15889}}, {"id": 3830308, "name": "Regi\u00f3n Aut\u00f3noma Atl\u00e1ntico Sur", "country": "NI", "coord": {"lon": -84.25, "lat": 12.25}}, {"id": 3620680, "name": "Bluefields", "country": "NI", "coord": {"lon": -83.763527, "lat": 12.01366}}, {"id": 3616751, "name": "San Jos\u00e9 del Sur", "country": "NI", "coord": {"lon": -85.647614, "lat": 11.48705}}, {"id": 3619451, "name": "El Realejo", "country": "NI", "coord": {"lon": -87.164658, "lat": 12.54307}}, {"id": 3616358, "name": "Santo Domingo", "country": "NI", "coord": {"lon": -86.133331, "lat": 11.86667}}, {"id": 3830307, "name": "Regi\u00f3n Aut\u00f3noma Atl\u00e1ntico Norte", "country": "NI", "coord": {"lon": -84.25, "lat": 14}}, {"id": 3617154, "name": "Puerto Cabezas", "country": "NI", "coord": {"lon": -83.388817, "lat": 14.03507}}, {"id": 3620673, "name": "Departamento de Boaco", "country": "NI", "coord": {"lon": -85.5, "lat": 12.5}}, {"id": 3620544, "name": "Camoapa", "country": "NI", "coord": {"lon": -85.511574, "lat": 12.38386}}, {"id": 3616597, "name": "San Rafael del Norte", "country": "NI", "coord": {"lon": -86.110588, "lat": 13.21248}}, {"id": 3616594, "name": "San Rafael del Sur", "country": "NI", "coord": {"lon": -86.438393, "lat": 11.84854}}, {"id": 3617565, "name": "Mozonte", "country": "NI", "coord": {"lon": -86.438408, "lat": 13.66034}}, {"id": 3617109, "name": "Quilali", "country": "NI", "coord": {"lon": -86.026001, "lat": 13.56695}}, {"id": 3619267, "name": "El Viejo", "country": "NI", "coord": {"lon": -87.167221, "lat": 12.6633}}, {"id": 3617069, "name": "Rio Blanco", "country": "NI", "coord": {"lon": -85.223541, "lat": 12.93435}}, {"id": 3616459, "name": "Santa Lucia", "country": "NI", "coord": {"lon": -85.710991, "lat": 12.53268}}, {"id": 3618337, "name": "La Rosita", "country": "NI", "coord": {"lon": -84.403221, "lat": 13.92681}}, {"id": 3492908, "name": "Santo Domingo", "country": "DO", "coord": {"lon": -69.988571, "lat": 18.50012}}, {"id": 3491941, "name": "Villa Francisca", "country": "DO", "coord": {"lon": -69.900002, "lat": 18.466669}}, {"id": 3492918, "name": "Provincia de Santiago", "country": "DO", "coord": {"lon": -70.916672, "lat": 19.41667}}, {"id": 3492914, "name": "Santiago de los Caballeros", "country": "DO", "coord": {"lon": -70.699997, "lat": 19.450001}}, {"id": 3497667, "name": "Los Prados", "country": "DO", "coord": {"lon": -69.949997, "lat": 18.466669}}, {"id": 3505933, "name": "Ensanche Piantini", "country": "DO", "coord": {"lon": -69.949997, "lat": 18.466669}}, {"id": 3500955, "name": "Provincia de La Romana", "country": "DO", "coord": {"lon": -68.966667, "lat": 18.5}}, {"id": 3511074, "name": "Buena Vista", "country": "DO", "coord": {"lon": -68.958221, "lat": 18.42432}}, {"id": 3499977, "name": "Provincia de La Vega", "country": "DO", "coord": {"lon": -70.616669, "lat": 19.116671}}, {"id": 3494552, "name": "Pont\u00f3n Abajo", "country": "DO", "coord": {"lon": -70.51667, "lat": 19.216669}}, {"id": 3493031, "name": "Provincia de San Pedro de Macor\u00eds", "country": "DO", "coord": {"lon": -69.333328, "lat": 18.5}}, {"id": 3494121, "name": "Quisqueya", "country": "DO", "coord": {"lon": -69.408142, "lat": 18.55542}}, {"id": 3504766, "name": "Provincia de Hato Mayor", "country": "DO", "coord": {"lon": -69.333328, "lat": 18.83333}}, {"id": 3504765, "name": "Hato Mayor del Rey", "country": "DO", "coord": {"lon": -69.256813, "lat": 18.762779}}, {"id": 3493032, "name": "San Pedro de Macoris", "country": "DO", "coord": {"lon": -69.29718, "lat": 18.461559}}, {"id": 3511233, "name": "Bonao", "country": "DO", "coord": {"lon": -70.409233, "lat": 18.936871}}, {"id": 3493192, "name": "Provincia S\u00e1nchez Ram\u00edrez", "country": "DO", "coord": {"lon": -70.166672, "lat": 19}}, {"id": 3493186, "name": "Provincia de San Crist\u00f3bal", "country": "DO", "coord": {"lon": -70.199997, "lat": 18.549999}}, {"id": 3511540, "name": "San Cristobal", "country": "DO", "coord": {"lon": -70.099998, "lat": 18.41667}}, {"id": 3512209, "name": "Provincia de Azua", "country": "DO", "coord": {"lon": -70.666672, "lat": 18.58333}}, {"id": 3512208, "name": "Azua de Compostela", "country": "DO", "coord": {"lon": -70.734901, "lat": 18.45319}}, {"id": 3493240, "name": "Salvaleon de Higuey", "country": "DO", "coord": {"lon": -68.707977, "lat": 18.615009}}, {"id": 3493282, "name": "Provincia de Hermanas Mirabal", "country": "DO", "coord": {"lon": -70.333328, "lat": 19.41667}}, {"id": 3492628, "name": "Sos\u00faa", "country": "DO", "coord": {"lon": -70.516632, "lat": 19.751381}}, {"id": 3504158, "name": "Jarabacoa", "country": "DO", "coord": {"lon": -70.642181, "lat": 19.12178}}, {"id": 3505867, "name": "Provincia Espaillat", "country": "DO", "coord": {"lon": -70.449997, "lat": 19.5}}, {"id": 3493152, "name": "San Francisco Abajo", "country": "DO", "coord": {"lon": -70.558067, "lat": 19.42062}}, {"id": 3508010, "name": "El Cercado", "country": "DO", "coord": {"lon": -70.757782, "lat": 18.915119}}, {"id": 3502736, "name": "La Ermita", "country": "DO", "coord": {"lon": -70.608803, "lat": 19.477039}}, {"id": 6201373, "name": "Provincia de Santo Domingo", "country": "DO", "coord": {"lon": -69.918709, "lat": 18.480419}}, {"id": 3505943, "name": "Ensanche Bella Vista", "country": "DO", "coord": {"lon": -69.599998, "lat": 18.450001}}, {"id": 3512152, "name": "Baito\u00edta", "country": "DO", "coord": {"lon": -71.096382, "lat": 18.193451}}, {"id": 3493232, "name": "Provincia de Saman\u00e1", "country": "DO", "coord": {"lon": -69.449997, "lat": 19.25}}, {"id": 3508170, "name": "El Callej\u00f3n", "country": "DO", "coord": {"lon": -69.533333, "lat": 19.316669}}, {"id": 3492112, "name": "Provincia de Valverde", "country": "DO", "coord": {"lon": -71, "lat": 19.616671}}, {"id": 3504815, "name": "Hatico", "country": "DO", "coord": {"lon": -71.074661, "lat": 19.567341}}, {"id": 3493091, "name": "Provincia de San Juan", "country": "DO", "coord": {"lon": -71.25, "lat": 18.83333}}, {"id": 3493081, "name": "San Juan de la Maguana", "country": "DO", "coord": {"lon": -71.229912, "lat": 18.80588}}, {"id": 3491952, "name": "Villa Altagracia", "country": "DO", "coord": {"lon": -70.170952, "lat": 18.67297}}, {"id": 3497042, "name": "Mamey", "country": "DO", "coord": {"lon": -69.900002, "lat": 18.566669}}, {"id": 3496132, "name": "Provincia de Monte Plata", "country": "DO", "coord": {"lon": -69.833328, "lat": 18.83333}}, {"id": 3505006, "name": "Guayabo", "country": "DO", "coord": {"lon": -69.630692, "lat": 18.75215}}, {"id": 3498029, "name": "Los Montones Abajo", "country": "DO", "coord": {"lon": -70.099167, "lat": 18.531731}}, {"id": 3493198, "name": "Sanchez", "country": "DO", "coord": {"lon": -69.613701, "lat": 19.2281}}, {"id": 3513047, "name": "Acosta", "country": "DO", "coord": {"lon": -69.316673, "lat": 19.216669}}, {"id": 3496772, "name": "Provincia Mar\u00eda Trinidad S\u00e1nchez", "country": "DO", "coord": {"lon": -70, "lat": 19.5}}, {"id": 3507247, "name": "El Jamo", "country": "DO", "coord": {"lon": -69.904984, "lat": 19.6318}}, {"id": 3512689, "name": "Andr\u00e9s", "country": "DO", "coord": {"lon": -69.633331, "lat": 18.433331}}, {"id": 3508951, "name": "Provincia de Dajab\u00f3n", "country": "DO", "coord": {"lon": -71.583328, "lat": 19.5}}, {"id": 3508952, "name": "Dajabon", "country": "DO", "coord": {"lon": -71.70829, "lat": 19.54878}}, {"id": 3502935, "name": "La Cruz de Mendoza", "country": "DO", "coord": {"lon": -69.866669, "lat": 18.48333}}, {"id": 3498607, "name": "Los Frailes", "country": "DO", "coord": {"lon": -69.89798, "lat": 18.75625}}, {"id": 3507852, "name": "El Consuelo", "country": "DO", "coord": {"lon": -70.074821, "lat": 18.739161}}, {"id": 3504702, "name": "Herrera", "country": "DO", "coord": {"lon": -69.966667, "lat": 18.466669}}, {"id": 3500432, "name": "Las Lagunas", "country": "DO", "coord": {"lon": -70.783333, "lat": 19.533331}}, {"id": 3506189, "name": "Provincia de El Se\u00edbo", "country": "DO", "coord": {"lon": -69.050003, "lat": 18.799999}}, {"id": 3492984, "name": "Santa Cruz de El Seibo", "country": "DO", "coord": {"lon": -69.038857, "lat": 18.765591}}, {"id": 3493568, "name": "Sabana de La Mar", "country": "DO", "coord": {"lon": -69.388428, "lat": 19.05934}}, {"id": 3508266, "name": "El Cach\u00f3n", "country": "DO", "coord": {"lon": -69.933327, "lat": 18.5}}, {"id": 3508234, "name": "El Caim\u00e1n", "country": "DO", "coord": {"lon": -70.288239, "lat": 19.61097}}, {"id": 3505855, "name": "Esperanza", "country": "DO", "coord": {"lon": -70.984894, "lat": 19.5847}}, {"id": 3507662, "name": "El Ensanchito", "country": "DO", "coord": {"lon": -69.900002, "lat": 18.48333}}, {"id": 3491923, "name": "Villa Mar\u00eda", "country": "DO", "coord": {"lon": -69.900002, "lat": 18.48333}}, {"id": 3507770, "name": "El Cruce", "country": "DO", "coord": {"lon": -70.199997, "lat": 18.450001}}, {"id": 3496460, "name": "Mej\u00eda de Navarrete", "country": "DO", "coord": {"lon": -70.883331, "lat": 19.566669}}, {"id": 3508718, "name": "Provincia Duarte", "country": "DO", "coord": {"lon": -70.083328, "lat": 19.25}}, {"id": 3504438, "name": "Hostos", "country": "DO", "coord": {"lon": -70.020462, "lat": 19.180429}}, {"id": 3502373, "name": "Laguna Salada", "country": "DO", "coord": {"lon": -71.09446, "lat": 19.64827}}, {"id": 3496134, "name": "Monte Plata", "country": "DO", "coord": {"lon": -69.783989, "lat": 18.806999}}, {"id": 3503782, "name": "Juncalito Abajo", "country": "DO", "coord": {"lon": -70.819054, "lat": 19.2199}}, {"id": 3512027, "name": "Barcequillo", "country": "DO", "coord": {"lon": -70.033333, "lat": 18.433331}}, {"id": 3512206, "name": "Azucey", "country": "DO", "coord": {"lon": -69.916672, "lat": 19.183331}}, {"id": 3491908, "name": "Villa Tapia", "country": "DO", "coord": {"lon": -70.421989, "lat": 19.30084}}, {"id": 3502675, "name": "La Excavaci\u00f3n", "country": "DO", "coord": {"lon": -70.092751, "lat": 19.181089}}, {"id": 3496247, "name": "Monte Adentro", "country": "DO", "coord": {"lon": -69.650002, "lat": 18.433331}}, {"id": 3510425, "name": "Canca La Piedra", "country": "DO", "coord": {"lon": -70.584259, "lat": 19.477301}}, {"id": 3493811, "name": "Rinc\u00f3n Largo", "country": "DO", "coord": {"lon": -70.77523, "lat": 19.22303}}, {"id": 3509028, "name": "Cuesta Colorada", "country": "DO", "coord": {"lon": -70.73333, "lat": 19.48333}}, {"id": 3495136, "name": "Provincia de Pedernales", "country": "DO", "coord": {"lon": -71.495003, "lat": 18.066389}}, {"id": 3495137, "name": "Pedernales", "country": "DO", "coord": {"lon": -71.744034, "lat": 18.03838}}, {"id": 3508639, "name": "El Aguacate", "country": "DO", "coord": {"lon": -70.540932, "lat": 19.600719}}, {"id": 3492912, "name": "Provincia de Santiago Rodr\u00edguez", "country": "DO", "coord": {"lon": -71.333328, "lat": 19.41667}}, {"id": 3499829, "name": "L\u00e1zaro", "country": "DO", "coord": {"lon": -71.326149, "lat": 19.455839}}, {"id": 3503011, "name": "La Colorada", "country": "DO", "coord": {"lon": -70.017212, "lat": 18.770281}}, {"id": 3512735, "name": "Amador", "country": "DO", "coord": {"lon": -69.186203, "lat": 18.55047}}, {"id": 6201372, "name": "Provincia de San Jos\u00e9 de Ocoa", "country": "DO", "coord": {"lon": -70.508774, "lat": 18.54882}}, {"id": 3508569, "name": "El Alto", "country": "DO", "coord": {"lon": -70.449997, "lat": 18.616671}}, {"id": 3495546, "name": "Palmar de Ocoa", "country": "DO", "coord": {"lon": -70.586349, "lat": 18.29656}}, {"id": 3495304, "name": "Pantoja", "country": "DO", "coord": {"lon": -70, "lat": 18.51667}}, {"id": 3502015, "name": "La Laguneta", "country": "DO", "coord": {"lon": -70.184998, "lat": 19.30228}}, {"id": 3512050, "name": "Provincia de Baoruco", "country": "DO", "coord": {"lon": -71.349998, "lat": 18.5}}, {"id": 3502616, "name": "La Fuentecita", "country": "DO", "coord": {"lon": -71.428673, "lat": 18.475349}}, {"id": 3493949, "name": "Rancho Viejo", "country": "DO", "coord": {"lon": -70.431633, "lat": 19.207951}}, {"id": 3495964, "name": "Naranjo", "country": "DO", "coord": {"lon": -69.848473, "lat": 18.82176}}, {"id": 3580239, "name": "Grenada", "country": "GD", "coord": {"lon": -61.666672, "lat": 12.11667}}, {"id": 3598132, "name": "Guatemala City", "country": "GT", "coord": {"lon": -90.513268, "lat": 14.64072}}, {"id": 3595802, "name": "Departamento de Escuintla", "country": "GT", "coord": {"lon": -91, "lat": 14.16667}}, {"id": 3591060, "name": "Puerto San Jose", "country": "GT", "coord": {"lon": -90.82444, "lat": 13.92556}}, {"id": 3589801, "name": "Departamento de San Marcos", "country": "GT", "coord": {"lon": -91.916672, "lat": 15}}, {"id": 3590978, "name": "Departamento de Quetzaltenango", "country": "GT", "coord": {"lon": -91.666672, "lat": 14.75}}, {"id": 3590979, "name": "Quetzaltenango", "country": "GT", "coord": {"lon": -91.51667, "lat": 14.83333}}, {"id": 3590964, "name": "Departamento del Quich\u00e9", "country": "GT", "coord": {"lon": -90.916672, "lat": 15.5}}, {"id": 3598659, "name": "Chiche", "country": "GT", "coord": {"lon": -91.065002, "lat": 15.00861}}, {"id": 3589627, "name": "San Pedro Sacatepequez", "country": "GT", "coord": {"lon": -90.644173, "lat": 14.68417}}, {"id": 3588697, "name": "Departamento de Solol\u00e1", "country": "GT", "coord": {"lon": -91.25, "lat": 14.66667}}, {"id": 3595108, "name": "Jucany\u00e1", "country": "GT", "coord": {"lon": -91.150002, "lat": 14.73333}}, {"id": 3598571, "name": "Departamento de Chimaltenango", "country": "GT", "coord": {"lon": -90.916672, "lat": 14.66667}}, {"id": 3590529, "name": "San Andres Itzapa", "country": "GT", "coord": {"lon": -90.84417, "lat": 14.62}}, {"id": 3589646, "name": "San Pedro Ayampuc", "country": "GT", "coord": {"lon": -90.451111, "lat": 14.78667}}, {"id": 3589850, "name": "San Lucas Toliman", "country": "GT", "coord": {"lon": -91.133331, "lat": 14.63333}}, {"id": 3590686, "name": "Departamento de Sacatep\u00e9quez", "country": "GT", "coord": {"lon": -90.75, "lat": 14.58333}}, {"id": 3589072, "name": "Santo Domingo Xenacoj", "country": "GT", "coord": {"lon": -90.697777, "lat": 14.67778}}, {"id": 3595714, "name": "Fraijanes", "country": "GT", "coord": {"lon": -90.440826, "lat": 14.46528}}, {"id": 3588476, "name": "Tecpan Guatemala", "country": "GT", "coord": {"lon": -90.994171, "lat": 14.76694}}, {"id": 3595236, "name": "Departamento de Jalapa", "country": "GT", "coord": {"lon": -89.916672, "lat": 14.58333}}, {"id": 3592635, "name": "Mataquescuintla", "country": "GT", "coord": {"lon": -90.184174, "lat": 14.52917}}, {"id": 3591521, "name": "Municipio de Patzic\u00eda", "country": "GT", "coord": {"lon": -90.933327, "lat": 14.63333}}, {"id": 3591523, "name": "Patzicia", "country": "GT", "coord": {"lon": -90.926941, "lat": 14.63167}}, {"id": 3591210, "name": "Pochuta", "country": "GT", "coord": {"lon": -91.083328, "lat": 14.55}}, {"id": 3589282, "name": "Santa Lucia Utatlan", "country": "GT", "coord": {"lon": -91.26667, "lat": 14.76667}}, {"id": 3589975, "name": "San Jose Poaquil", "country": "GT", "coord": {"lon": -90.906387, "lat": 14.81972}}, {"id": 3600008, "name": "Acatenango", "country": "GT", "coord": {"lon": -90.942223, "lat": 14.55194}}, {"id": 3590393, "name": "San Bartolome Milpas Altas", "country": "GT", "coord": {"lon": -90.68, "lat": 14.60611}}, {"id": 3589285, "name": "Santa Lucia Milpas Altas", "country": "GT", "coord": {"lon": -90.678612, "lat": 14.57583}}, {"id": 3589885, "name": "San Juan Sacatepequez", "country": "GT", "coord": {"lon": -90.644173, "lat": 14.71889}}, {"id": 3589780, "name": "San Martin Jilotepeque", "country": "GT", "coord": {"lon": -90.792503, "lat": 14.78778}}, {"id": 3591939, "name": "Pachoj", "country": "GT", "coord": {"lon": -91.116669, "lat": 14.93333}}, {"id": 3589407, "name": "Municipio de Santa Cruz Balany\u00e1", "country": "GT", "coord": {"lon": -90.916672, "lat": 14.68333}}, {"id": 3589408, "name": "Santa Cruz Balanya", "country": "GT", "coord": {"lon": -90.915001, "lat": 14.68722}}, {"id": 3596041, "name": "El Tejar", "country": "GT", "coord": {"lon": -90.792778, "lat": 14.64778}}, {"id": 3599788, "name": "Alotenango", "country": "GT", "coord": {"lon": -90.807503, "lat": 14.48028}}, {"id": 3587636, "name": "Yepocapa", "country": "GT", "coord": {"lon": -90.95694, "lat": 14.50417}}, {"id": 3591512, "name": "Patzun", "country": "GT", "coord": {"lon": -91.01667, "lat": 14.68333}}, {"id": 3589852, "name": "San Lucas Sacatepequez", "country": "GT", "coord": {"lon": -90.656937, "lat": 14.60972}}, {"id": 3588257, "name": "Departamento de Totonicap\u00e1n", "country": "GT", "coord": {"lon": -91.333328, "lat": 15}}, {"id": 3588255, "name": "Municipio de Totonicap\u00e1n", "country": "GT", "coord": {"lon": -91.366669, "lat": 14.91667}}, {"id": 3588258, "name": "Totonicapan", "country": "GT", "coord": {"lon": -91.366669, "lat": 14.91667}}, {"id": 3596416, "name": "Departamento de El Progreso", "country": "GT", "coord": {"lon": -90, "lat": 14.83333}}, {"id": 3596421, "name": "Guastatoya", "country": "GT", "coord": {"lon": -90.06472, "lat": 14.85389}}, {"id": 3592349, "name": "Morazan", "country": "GT", "coord": {"lon": -90.143059, "lat": 14.93278}}, {"id": 3599602, "name": "Departamento de Baja Verapaz", "country": "GT", "coord": {"lon": -90.333328, "lat": 15.08333}}, {"id": 3590114, "name": "San Jeronimo", "country": "GT", "coord": {"lon": -90.199997, "lat": 15.05}}, {"id": 3590547, "name": "San Agustin Acasaguastlan", "country": "GT", "coord": {"lon": -89.966667, "lat": 14.95}}, {"id": 3590524, "name": "San Andres Semetabaj", "country": "GT", "coord": {"lon": -91.133331, "lat": 14.75}}, {"id": 3595415, "name": "Departamento de Huehuetenango", "country": "GT", "coord": {"lon": -91.583328, "lat": 15.66667}}, {"id": 3595414, "name": "Municipio de Huehuetenango", "country": "GT", "coord": {"lon": -91.471649, "lat": 15.3192}}, {"id": 3595416, "name": "Huehuetenango", "country": "GT", "coord": {"lon": -91.470833, "lat": 15.31972}}, {"id": 3589730, "name": "San Miguel Chicaj", "country": "GT", "coord": {"lon": -90.400002, "lat": 15.1}}, {"id": 3589977, "name": "San Jose Pinula", "country": "GT", "coord": {"lon": -90.411392, "lat": 14.54611}}, {"id": 3592770, "name": "Magdalena Milpas Altas", "country": "GT", "coord": {"lon": -90.675278, "lat": 14.54528}}, {"id": 3590406, "name": "Sanarate", "country": "GT", "coord": {"lon": -90.192223, "lat": 14.795}}, {"id": 3589452, "name": "Santa Catarina Pinula", "country": "GT", "coord": {"lon": -90.495277, "lat": 14.56889}}, {"id": 3598128, "name": "Ciudad Vieja", "country": "GT", "coord": {"lon": -90.75972, "lat": 14.52639}}, {"id": 3599699, "name": "Antigua Guatemala", "country": "GT", "coord": {"lon": -90.734444, "lat": 14.56111}}, {"id": 3587586, "name": "Departamento de Zacapa", "country": "GT", "coord": {"lon": -89.5, "lat": 15}}, {"id": 3587587, "name": "Zacapa", "country": "GT", "coord": {"lon": -89.533333, "lat": 14.96667}}, {"id": 3599773, "name": "Departamento de Alta Verapaz", "country": "GT", "coord": {"lon": -90, "lat": 15.66667}}, {"id": 3588206, "name": "Tucuru", "country": "GT", "coord": {"lon": -90.066673, "lat": 15.3}}, {"id": 3589629, "name": "San Pedro Pinula", "country": "GT", "coord": {"lon": -89.849998, "lat": 14.66667}}, {"id": 3595148, "name": "Joyabaj", "country": "GT", "coord": {"lon": -90.806107, "lat": 14.995}}, {"id": 3596644, "name": "El Palmar", "country": "GT", "coord": {"lon": -91.583328, "lat": 14.65}}, {"id": 3591629, "name": "Parramos", "country": "GT", "coord": {"lon": -90.803062, "lat": 14.60778}}, {"id": 3598968, "name": "Casillas", "country": "GT", "coord": {"lon": -90.244171, "lat": 14.42222}}, {"id": 3589251, "name": "Municipio de Santa Mar\u00eda de Jes\u00fas", "country": "GT", "coord": {"lon": -90.716667, "lat": 14.5}}, {"id": 3589253, "name": "Santa Maria de Jesus", "country": "GT", "coord": {"lon": -90.726669, "lat": 14.51833}}, {"id": 3599735, "name": "Amatitlan", "country": "GT", "coord": {"lon": -90.61528, "lat": 14.4875}}, {"id": 3590219, "name": "San Francisco El Alto", "country": "GT", "coord": {"lon": -91.449997, "lat": 14.95}}, {"id": 3591064, "name": "Puerta Parada", "country": "GT", "coord": {"lon": -90.466667, "lat": 14.56667}}, {"id": 3588668, "name": "Departamento de Suchitep\u00e9quez", "country": "GT", "coord": {"lon": -91.333328, "lat": 14.41667}}, {"id": 3592609, "name": "Mazatenango", "country": "GT", "coord": {"lon": -91.5, "lat": 14.53333}}, {"id": 3593087, "name": "Los Encuentros", "country": "GT", "coord": {"lon": -90.26667, "lat": 15.1}}, {"id": 3599298, "name": "Cabanas", "country": "GT", "coord": {"lon": -89.800003, "lat": 14.93333}}, {"id": 3595067, "name": "Departamento de Jutiapa", "country": "GT", "coord": {"lon": -89.833328, "lat": 14.16667}}, {"id": 3597509, "name": "El Calvario", "country": "GT", "coord": {"lon": -89.916672, "lat": 14.11667}}, {"id": 3598119, "name": "Coban", "country": "GT", "coord": {"lon": -90.366669, "lat": 15.48333}}, {"id": 3589460, "name": "Santa Catarina Barahona", "country": "GT", "coord": {"lon": -90.78833, "lat": 14.54889}}, {"id": 3597804, "name": "Cuilapa", "country": "GT", "coord": {"lon": -90.300278, "lat": 14.27639}}, {"id": 3589289, "name": "Santa Lucia Cotzumalguapa", "country": "GT", "coord": {"lon": -91.01667, "lat": 14.33333}}, {"id": 3591541, "name": "Patulul", "country": "GT", "coord": {"lon": -91.166672, "lat": 14.41667}}, {"id": 3589105, "name": "Santiago Atitlan", "country": "GT", "coord": {"lon": -91.229012, "lat": 14.63823}}, {"id": 3589643, "name": "San Pedro Carcha", "country": "GT", "coord": {"lon": -90.26667, "lat": 15.48333}}, {"id": 3589573, "name": "San Rafael Soche", "country": "GT", "coord": {"lon": -91.800003, "lat": 14.96667}}, {"id": 3595259, "name": "Departamento de Izabal", "country": "GT", "coord": {"lon": -89, "lat": 15.5}}, {"id": 3593235, "name": "Los Amates", "country": "GT", "coord": {"lon": -89.099998, "lat": 15.26667}}, {"id": 3592612, "name": "Mayuelas", "country": "GT", "coord": {"lon": -89.366669, "lat": 15.13333}}, {"id": 3589060, "name": "Santo Tom\u00e1s Milpas Altas", "country": "GT", "coord": {"lon": -90.666672, "lat": 14.56667}}, {"id": 3598415, "name": "Chisec", "country": "GT", "coord": {"lon": -90.283333, "lat": 15.81667}}, {"id": 3589404, "name": "Santa Cruz del Quiche", "country": "GT", "coord": {"lon": -91.148888, "lat": 15.03056}}, {"id": 3594425, "name": "La Libertad", "country": "GT", "coord": {"lon": -92.050003, "lat": 14.9}}, {"id": 3590924, "name": "Rabinal", "country": "GT", "coord": {"lon": -90.449997, "lat": 15.1}}, {"id": 3599639, "name": "Asuncion Mita", "country": "GT", "coord": {"lon": -89.710831, "lat": 14.33083}}, {"id": 3598122, "name": "Coatepeque", "country": "GT", "coord": {"lon": -91.866669, "lat": 14.7}}, {"id": 3592910, "name": "Los Puentes", "country": "GT", "coord": {"lon": -89.716667, "lat": 14.98333}}, {"id": 3590857, "name": "Departamento de Retalhuleu", "country": "GT", "coord": {"lon": -91.833328, "lat": 14.33333}}, {"id": 3590288, "name": "San Felipe", "country": "GT", "coord": {"lon": -91.599998, "lat": 14.61667}}, {"id": 3590197, "name": "San Francisco Zapotitlan", "country": "GT", "coord": {"lon": -91.51667, "lat": 14.58333}}, {"id": 3598131, "name": "Ciudad Melchor de Mencos", "country": "GT", "coord": {"lon": -89.152222, "lat": 17.068609}}, {"id": 3592482, "name": "Municipio de Momostenango", "country": "GT", "coord": {"lon": -91.40625, "lat": 15.04726}}, {"id": 3592483, "name": "Momostenango", "country": "GT", "coord": {"lon": -91.408607, "lat": 15.04361}}, {"id": 3588491, "name": "Taxisco", "country": "GT", "coord": {"lon": -90.463058, "lat": 14.07083}}, {"id": 3598464, "name": "Departamento de Chiquimula", "country": "GT", "coord": {"lon": -89.416672, "lat": 14.66667}}, {"id": 3590973, "name": "Quezaltepeque", "country": "GT", "coord": {"lon": -89.449997, "lat": 14.63333}}, {"id": 3595248, "name": "Jacaltenango", "country": "GT", "coord": {"lon": -91.73333, "lat": 15.66667}}, {"id": 3591181, "name": "Poptun", "country": "GT", "coord": {"lon": -89.416939, "lat": 16.33111}}, {"id": 3589298, "name": "Santa Luc\u00eda", "country": "GT", "coord": {"lon": -91.48333, "lat": 14.46667}}, {"id": 3598786, "name": "Municipio de Champerico", "country": "GT", "coord": {"lon": -91.916672, "lat": 14.3}}, {"id": 3598787, "name": "Champerico", "country": "GT", "coord": {"lon": -91.916672, "lat": 14.3}}, {"id": 3588726, "name": "Sipacapa", "country": "GT", "coord": {"lon": -91.666672, "lat": 15.2}}, {"id": 3589637, "name": "San Pedro La Laguna", "country": "GT", "coord": {"lon": -91.26667, "lat": 14.68333}}, {"id": 3590411, "name": "Municipio de San Antonio Suchitep\u00e9quez", "country": "GT", "coord": {"lon": -91.416672, "lat": 14.53333}}, {"id": 3590412, "name": "San Antonio Suchitepequez", "country": "GT", "coord": {"lon": -91.416672, "lat": 14.53333}}, {"id": 3597837, "name": "Cubulco", "country": "GT", "coord": {"lon": -90.583328, "lat": 15.13333}}, {"id": 3594750, "name": "Municipio de La Democracia", "country": "GT", "coord": {"lon": -90.949997, "lat": 14.23333}}, {"id": 3594753, "name": "La Democracia", "country": "GT", "coord": {"lon": -90.94722, "lat": 14.23083}}, {"id": 3599912, "name": "Aguacatan", "country": "GT", "coord": {"lon": -91.311668, "lat": 15.34306}}, {"id": 3590788, "name": "Rio Hondo", "country": "GT", "coord": {"lon": -89.583328, "lat": 15.06667}}, {"id": 3588603, "name": "Tactic", "country": "GT", "coord": {"lon": -90.300003, "lat": 15.33333}}, {"id": 3595503, "name": "Guazacapan", "country": "GT", "coord": {"lon": -90.416672, "lat": 14.07417}}, {"id": 3592477, "name": "Monjas", "country": "GT", "coord": {"lon": -89.866669, "lat": 14.5}}, {"id": 3587917, "name": "Villa Hermosa", "country": "GT", "coord": {"lon": -91.566673, "lat": 14.86667}}, {"id": 3598513, "name": "Chinique", "country": "GT", "coord": {"lon": -91.025833, "lat": 15.04472}}, {"id": 3595757, "name": "Estanzuela", "country": "GT", "coord": {"lon": -89.566673, "lat": 15}}, {"id": 3592126, "name": "Nueva Santa Rosa", "country": "GT", "coord": {"lon": -90.276108, "lat": 14.38111}}, {"id": 3597002, "name": "El Hato", "country": "GT", "coord": {"lon": -90.300003, "lat": 14.75}}, {"id": 3599180, "name": "Municipio de Camot\u00e1n", "country": "GT", "coord": {"lon": -89.366669, "lat": 14.81667}}, {"id": 3599181, "name": "Camotan", "country": "GT", "coord": {"lon": -89.366669, "lat": 14.81667}}, {"id": 3589456, "name": "Santa Catarina Mita", "country": "GT", "coord": {"lon": -89.75, "lat": 14.45}}, {"id": 3598529, "name": "Chinautla", "country": "GT", "coord": {"lon": -90.499443, "lat": 14.70833}}, {"id": 3587578, "name": "Zacualpa", "country": "GT", "coord": {"lon": -90.833328, "lat": 15.08333}}, {"id": 3621849, "name": "San Jose", "country": "CR", "coord": {"lon": -84.083328, "lat": 9.93333}}, {"id": 3623484, "name": "Provincia de Heredia", "country": "CR", "coord": {"lon": -84, "lat": 10.33333}}, {"id": 3623486, "name": "Heredia", "country": "CR", "coord": {"lon": -84.116669, "lat": 10}}, {"id": 3623811, "name": "El Prado", "country": "CR", "coord": {"lon": -84.050003, "lat": 9.93333}}, {"id": 3623936, "name": "Desamparados", "country": "CR", "coord": {"lon": -84.062943, "lat": 9.8968}}, {"id": 3624368, "name": "Provincia de Cartago", "country": "CR", "coord": {"lon": -83.75, "lat": 9.83333}}, {"id": 3624370, "name": "Cartago", "country": "CR", "coord": {"lon": -83.916672, "lat": 9.86667}}, {"id": 3624953, "name": "Provincia de Alajuela", "country": "CR", "coord": {"lon": -84.5, "lat": 10.5}}, {"id": 3624955, "name": "Alajuela", "country": "CR", "coord": {"lon": -84.216667, "lat": 10.01667}}, {"id": 3623582, "name": "Provincia de Guanacaste", "country": "CR", "coord": {"lon": -85.25, "lat": 10.5}}, {"id": 3623076, "name": "Liberia", "country": "CR", "coord": {"lon": -85.437721, "lat": 10.63504}}, {"id": 3623977, "name": "Curridabat", "country": "CR", "coord": {"lon": -84.034073, "lat": 9.91178}}, {"id": 3622616, "name": "Palmar", "country": "CR", "coord": {"lon": -84.455338, "lat": 9.87276}}, {"id": 3623595, "name": "Guadalupe", "country": "CR", "coord": {"lon": -84.007973, "lat": 9.65286}}, {"id": 3621644, "name": "San Ramon", "country": "CR", "coord": {"lon": -84.470222, "lat": 10.08802}}, {"id": 3624171, "name": "Colon", "country": "CR", "coord": {"lon": -84.241699, "lat": 9.91491}}, {"id": 3623064, "name": "Provincia de Lim\u00f3n", "country": "CR", "coord": {"lon": -83.216667, "lat": 10}}, {"id": 3623580, "name": "Guapiles", "country": "CR", "coord": {"lon": -83.786613, "lat": 10.21588}}, {"id": 3622660, "name": "Orotina", "country": "CR", "coord": {"lon": -84.523369, "lat": 9.91197}}, {"id": 3623307, "name": "Juntas", "country": "CR", "coord": {"lon": -84.959511, "lat": 10.2809}}, {"id": 3621768, "name": "San Luis", "country": "CR", "coord": {"lon": -84.400002, "lat": 10.18333}}, {"id": 3622854, "name": "Miramar", "country": "CR", "coord": {"lon": -84.729782, "lat": 10.0925}}, {"id": 3623961, "name": "Daniel Flores", "country": "CR", "coord": {"lon": -83.669403, "lat": 9.33554}}, {"id": 3622228, "name": "Puntarenas", "country": "CR", "coord": {"lon": -84.838364, "lat": 9.97625}}, {"id": 3622265, "name": "Pueblo Nuevo", "country": "CR", "coord": {"lon": -84.833328, "lat": 9.96667}}, {"id": 3624468, "name": "Canas", "country": "CR", "coord": {"lon": -85.093109, "lat": 10.4294}}, {"id": 3621515, "name": "Santo Domingo", "country": "CR", "coord": {"lon": -84.154991, "lat": 10.06388}}, {"id": 3622751, "name": "Naranjo", "country": "CR", "coord": {"lon": -84.378242, "lat": 10.09866}}, {"id": 3621278, "name": "Tilaran", "country": "CR", "coord": {"lon": -84.967087, "lat": 10.47029}}, {"id": 3621942, "name": "San Carlos", "country": "CR", "coord": {"lon": -83.593147, "lat": 9.23396}}, {"id": 3623716, "name": "Fortuna", "country": "CR", "coord": {"lon": -84.645348, "lat": 10.47089}}, {"id": 3621153, "name": "Upala", "country": "CR", "coord": {"lon": -85.014542, "lat": 10.89792}}, {"id": 3621607, "name": "Santa Cruz", "country": "CR", "coord": {"lon": -85.585098, "lat": 10.26053}}, {"id": 3621832, "name": "San Josecito", "country": "CR", "coord": {"lon": -84.037163, "lat": 10.01908}}, {"id": 3624208, "name": "Cinco Esquinas", "country": "CR", "coord": {"lon": -84.167824, "lat": 10.10374}}, {"id": 3622205, "name": "Quebrada Honda", "country": "CR", "coord": {"lon": -85.298622, "lat": 10.18617}}, {"id": 3622895, "name": "Matina", "country": "CR", "coord": {"lon": -83.289528, "lat": 10.07609}}, {"id": 3622706, "name": "Nosara", "country": "CR", "coord": {"lon": -85.651939, "lat": 9.98017}}, {"id": 3622248, "name": "Puerto Jim\u00e9nez", "country": "CR", "coord": {"lon": -83.305283, "lat": 8.53627}}, {"id": 3623602, "name": "Gu\u00e1cimo", "country": "CR", "coord": {"lon": -83.109581, "lat": 8.9484}}, {"id": 3624024, "name": "Cristo", "country": "CR", "coord": {"lon": -84.033333, "lat": 9.95}}, {"id": 3621362, "name": "Hacienda Tamarindo", "country": "CR", "coord": {"lon": -85.26667, "lat": 10.43333}}, {"id": 3622382, "name": "Pital", "country": "CR", "coord": {"lon": -84.274063, "lat": 10.45056}}, {"id": 3623601, "name": "Guacimo", "country": "CR", "coord": {"lon": -83.680672, "lat": 10.21044}}, {"id": 3622294, "name": "Potrero", "country": "CR", "coord": {"lon": -85.433327, "lat": 10.11667}}, {"id": 3624198, "name": "Ciudad Cortes", "country": "CR", "coord": {"lon": -83.523811, "lat": 8.95988}}, {"id": 3622196, "name": "Quebrada Yeguas", "country": "CR", "coord": {"lon": -84.150002, "lat": 9.95}}, {"id": 3622537, "name": "Parrita", "country": "CR", "coord": {"lon": -84.322487, "lat": 9.52012}}, {"id": 3623279, "name": "La Caja", "country": "CR", "coord": {"lon": -84.116669, "lat": 9.96667}}, {"id": 3621490, "name": "Sardinal", "country": "CR", "coord": {"lon": -85.647476, "lat": 10.51674}}, {"id": 3621501, "name": "San Vito", "country": "CR", "coord": {"lon": -82.970917, "lat": 8.82079}}, {"id": 3622057, "name": "Rodeo", "country": "CR", "coord": {"lon": -84.062714, "lat": 9.53843}}, {"id": 3624745, "name": "Barrio Hispano", "country": "CR", "coord": {"lon": -84.050003, "lat": 9.91667}}, {"id": 3623877, "name": "Dulce Nombre", "country": "CR", "coord": {"lon": -84.192131, "lat": 10.10549}}, {"id": 3622497, "name": "Pavas", "country": "CR", "coord": {"lon": -84.134537, "lat": 9.94333}}, {"id": 3623342, "name": "Jim\u00e9nez", "country": "CR", "coord": {"lon": -83.741341, "lat": 10.20932}}, {"id": 3621894, "name": "San Gerardo", "country": "CR", "coord": {"lon": -84.050003, "lat": 9.95}}, {"id": 3623426, "name": "Huacas", "country": "CR", "coord": {"lon": -85.333328, "lat": 10.03333}}, {"id": 3623454, "name": "Hojancha", "country": "CR", "coord": {"lon": -85.41803, "lat": 10.0579}}, {"id": 3623183, "name": "La Mona", "country": "CR", "coord": {"lon": -84.619522, "lat": 9.65486}}, {"id": 3622602, "name": "Palmichal", "country": "CR", "coord": {"lon": -84.204781, "lat": 9.83778}}, {"id": 3621508, "name": "Santo Tom\u00e1s", "country": "CR", "coord": {"lon": -84.073021, "lat": 9.98113}}, {"id": 3623500, "name": "Hacienda Trancas", "country": "CR", "coord": {"lon": -85.592491, "lat": 10.56959}}, {"id": 3621498, "name": "Sarapiqu\u00ed", "country": "CR", "coord": {"lon": -84.01667, "lat": 10.48333}}, {"id": 3621678, "name": "San Rafael", "country": "CR", "coord": {"lon": -84.255524, "lat": 10.09107}}, {"id": 3622274, "name": "Pueblo Nuevo", "country": "CR", "coord": {"lon": -83.037041, "lat": 8.53928}}, {"id": 3624702, "name": "Bijagua", "country": "CR", "coord": {"lon": -85.056763, "lat": 10.7328}}, {"id": 3623318, "name": "Juan Vi\u00f1as", "country": "CR", "coord": {"lon": -83.744682, "lat": 9.89412}}, {"id": 3624359, "name": "Cascajal", "country": "CR", "coord": {"lon": -84.066673, "lat": 9.91667}}, {"id": 3621375, "name": "Tacares", "country": "CR", "coord": {"lon": -84.2901, "lat": 10.02998}}, {"id": 3622035, "name": "Sabalito", "country": "CR", "coord": {"lon": -82.909111, "lat": 8.81814}}, {"id": 3622914, "name": "Mata de Guineo", "country": "CR", "coord": {"lon": -83.797997, "lat": 9.88034}}, {"id": 3622507, "name": "Patarra", "country": "CR", "coord": {"lon": -84.035011, "lat": 9.88071}}, {"id": 3623206, "name": "Lajas", "country": "CR", "coord": {"lon": -84.433327, "lat": 10.25}}, {"id": 3624804, "name": "Bajo La Legua", "country": "CR", "coord": {"lon": -84.357224, "lat": 9.81183}}, {"id": 3622015, "name": "Sagrada Familia", "country": "CR", "coord": {"lon": -84.083328, "lat": 9.91667}}, {"id": 3621617, "name": "Santa Cecilia", "country": "CR", "coord": {"lon": -85.416672, "lat": 11.1}}, {"id": 3623081, "name": "Lepanto", "country": "CR", "coord": {"lon": -85.031502, "lat": 9.95092}}, {"id": 3587362, "name": "Antiguo Cuscatlan", "country": "SV", "coord": {"lon": -89.240829, "lat": 13.67306}}, {"id": 3586957, "name": "Comalapa", "country": "SV", "coord": {"lon": -88.949997, "lat": 14.13333}}, {"id": 3584317, "name": "Departamento de Moraz\u00e1n", "country": "SV", "coord": {"lon": -88.099998, "lat": 13.8}}, {"id": 3586066, "name": "El Progreso", "country": "SV", "coord": {"lon": -88.23333, "lat": 13.88333}}, {"id": 3585484, "name": "Ilopango", "country": "SV", "coord": {"lon": -89.109444, "lat": 13.70167}}, {"id": 3583332, "name": "Departamento de Santa Ana", "country": "SV", "coord": {"lon": -89.583328, "lat": 14.1}}, {"id": 3583334, "name": "Santa Ana", "country": "SV", "coord": {"lon": -89.559723, "lat": 13.99417}}, {"id": 3583463, "name": "San Miguel", "country": "SV", "coord": {"lon": -89.566673, "lat": 14.15}}, {"id": 3583531, "name": "San Juan Opico", "country": "SV", "coord": {"lon": -89.359718, "lat": 13.87611}}, {"id": 3584399, "name": "Mejicanos", "country": "SV", "coord": {"lon": -89.213058, "lat": 13.74028}}, {"id": 3584257, "name": "Santa Tecla", "country": "SV", "coord": {"lon": -89.279716, "lat": 13.67694}}, {"id": 3583127, "name": "Sitio de Los Nejapa", "country": "SV", "coord": {"lon": -89.272781, "lat": 13.89194}}, {"id": 3586833, "name": "Cuscatancingo", "country": "SV", "coord": {"lon": -89.181389, "lat": 13.73611}}, {"id": 3583096, "name": "Soyapango", "country": "SV", "coord": {"lon": -89.15139, "lat": 13.73472}}, {"id": 3583176, "name": "Departamento de San Vicente", "country": "SV", "coord": {"lon": -88.75, "lat": 13.51667}}, {"id": 3583833, "name": "San Antonio Tras El Cerro", "country": "SV", "coord": {"lon": -88.800003, "lat": 13.63333}}, {"id": 3586831, "name": "Departamento de Cuscatl\u00e1n", "country": "SV", "coord": {"lon": -89.033333, "lat": 13.83333}}, {"id": 3583090, "name": "Suchitoto", "country": "SV", "coord": {"lon": -89.027779, "lat": 13.93806}}, {"id": 3587349, "name": "Apastepeque", "country": "SV", "coord": {"lon": -88.783333, "lat": 13.66667}}, {"id": 3582954, "name": "Texistepeque", "country": "SV", "coord": {"lon": -89.5, "lat": 14.13333}}, {"id": 3583101, "name": "Departamento de Sonsonate", "country": "SV", "coord": {"lon": -89.699997, "lat": 13.7}}, {"id": 3583102, "name": "Sonsonate", "country": "SV", "coord": {"lon": -89.724167, "lat": 13.71889}}, {"id": 3586977, "name": "Cojutepeque", "country": "SV", "coord": {"lon": -88.933327, "lat": 13.71667}}, {"id": 3583981, "name": "Quezaltepeque", "country": "SV", "coord": {"lon": -89.274437, "lat": 13.835}}, {"id": 3583009, "name": "Tecoluca", "country": "SV", "coord": {"lon": -89.00528, "lat": 13.78917}}, {"id": 3585757, "name": "Espino Abajo", "country": "SV", "coord": {"lon": -88.866669, "lat": 13.5}}, {"id": 3582882, "name": "Departamento de Usulut\u00e1n", "country": "SV", "coord": {"lon": -88.533333, "lat": 13.43333}}, {"id": 3582883, "name": "Usulutan", "country": "SV", "coord": {"lon": -88.449997, "lat": 13.35}}, {"id": 3584251, "name": "Nuevo Cuscatlan", "country": "SV", "coord": {"lon": -89.265282, "lat": 13.64861}}, {"id": 3584767, "name": "Departamento de La Uni\u00f3n", "country": "SV", "coord": {"lon": -87.900002, "lat": 13.55}}, {"id": 3583214, "name": "Santa Rosa de Lima", "country": "SV", "coord": {"lon": -87.893608, "lat": 13.62472}}, {"id": 3583155, "name": "Sesori", "country": "SV", "coord": {"lon": -88.366669, "lat": 13.71667}}, {"id": 3584156, "name": "Panchimalco", "country": "SV", "coord": {"lon": -89.18, "lat": 13.61278}}, {"id": 3587217, "name": "Departamento de Caba\u00f1as", "country": "SV", "coord": {"lon": -88.75, "lat": 13.86667}}, {"id": 3585880, "name": "El Tempisque", "country": "SV", "coord": {"lon": -88.633331, "lat": 13.86667}}, {"id": 3586981, "name": "Coatepeque", "country": "SV", "coord": {"lon": -89.504173, "lat": 13.92861}}, {"id": 3583183, "name": "Santo Tomas", "country": "SV", "coord": {"lon": -89.133331, "lat": 13.64083}}, {"id": 3583937, "name": "Rosario de Mora", "country": "SV", "coord": {"lon": -89.208893, "lat": 13.57528}}, {"id": 3584212, "name": "Olocuilta", "country": "SV", "coord": {"lon": -89.117218, "lat": 13.56972}}, {"id": 3583528, "name": "San Juan Talpa", "country": "SV", "coord": {"lon": -89.090828, "lat": 13.50278}}, {"id": 3582918, "name": "Tonacatepeque", "country": "SV", "coord": {"lon": -89.118607, "lat": 13.78111}}, {"id": 3587250, "name": "Boquer\u00f3n", "country": "SV", "coord": {"lon": -88.349998, "lat": 13.5}}, {"id": 3587425, "name": "Departamento de Ahuachap\u00e1n", "country": "SV", "coord": {"lon": -89.916672, "lat": 13.86667}}, {"id": 3587317, "name": "Atiquizaya", "country": "SV", "coord": {"lon": -89.752502, "lat": 13.97694}}, {"id": 3587086, "name": "Chalchuapa", "country": "SV", "coord": {"lon": -89.681107, "lat": 13.98667}}, {"id": 3587345, "name": "Apopa", "country": "SV", "coord": {"lon": -89.179169, "lat": 13.80722}}, {"id": 3586814, "name": "Delgado", "country": "SV", "coord": {"lon": -89.17028, "lat": 13.72417}}, {"id": 3584260, "name": "Nueva Guadalupe", "country": "SV", "coord": {"lon": -88.349998, "lat": 13.53333}}, {"id": 3585157, "name": "La Libertad", "country": "SV", "coord": {"lon": -89.32222, "lat": 13.48833}}, {"id": 3586081, "name": "El Porvenir", "country": "SV", "coord": {"lon": -89.533333, "lat": 13.85}}, {"id": 3585636, "name": "Guazapa", "country": "SV", "coord": {"lon": -89.173058, "lat": 13.87694}}, {"id": 3583905, "name": "San Alejo", "country": "SV", "coord": {"lon": -87.963058, "lat": 13.43139}}, {"id": 3583196, "name": "Santiago Nonualco", "country": "SV", "coord": {"lon": -88.949997, "lat": 13.51667}}, {"id": 3586204, "name": "El Paisnal", "country": "SV", "coord": {"lon": -89.218613, "lat": 13.97361}}, {"id": 3584297, "name": "Nahuizalco", "country": "SV", "coord": {"lon": -89.736671, "lat": 13.7775}}, {"id": 3585473, "name": "Izalco", "country": "SV", "coord": {"lon": -89.673058, "lat": 13.74472}}, {"id": 3587426, "name": "Ahuachapan", "country": "SV", "coord": {"lon": -89.845001, "lat": 13.92139}}, {"id": 3587308, "name": "Ayutuxtepeque", "country": "SV", "coord": {"lon": -89.20639, "lat": 13.74556}}, {"id": 3586983, "name": "Ciudad Barrios", "country": "SV", "coord": {"lon": -88.26667, "lat": 13.76667}}, {"id": 3583747, "name": "San Francisco", "country": "SV", "coord": {"lon": -88.099998, "lat": 13.7}}, {"id": 3585401, "name": "Juayua", "country": "SV", "coord": {"lon": -89.74556, "lat": 13.84139}}, {"id": 3587091, "name": "Chalatenango", "country": "SV", "coord": {"lon": -88.933327, "lat": 14.03333}}, {"id": 3587372, "name": "Anamoros", "country": "SV", "coord": {"lon": -87.873611, "lat": 13.74056}}, {"id": 3583199, "name": "Santiago de Maria", "country": "SV", "coord": {"lon": -88.466667, "lat": 13.48333}}, {"id": 3582974, "name": "Tepecoyo", "country": "SV", "coord": {"lon": -89.467781, "lat": 13.70028}}, {"id": 3585455, "name": "Jayaque", "country": "SV", "coord": {"lon": -89.43972, "lat": 13.67333}}, {"id": 3585480, "name": "Intipuca", "country": "SV", "coord": {"lon": -88.054443, "lat": 13.19694}}, {"id": 3583499, "name": "San Luis Talpa", "country": "SV", "coord": {"lon": -89.089172, "lat": 13.47389}}, {"id": 3587498, "name": "Acajutla", "country": "SV", "coord": {"lon": -89.827499, "lat": 13.59278}}, {"id": 3584424, "name": "Masahuat", "country": "SV", "coord": {"lon": -89.433327, "lat": 14.18333}}, {"id": 3586917, "name": "Conchagua", "country": "SV", "coord": {"lon": -87.864723, "lat": 13.30778}}, {"id": 3583098, "name": "Sonzacate", "country": "SV", "coord": {"lon": -89.714722, "lat": 13.73417}}, {"id": 3585427, "name": "Jocoro", "country": "SV", "coord": {"lon": -88.01667, "lat": 13.61667}}, {"id": 3587357, "name": "Apaneca", "country": "SV", "coord": {"lon": -89.801109, "lat": 13.86}}, {"id": 3585856, "name": "El Transito", "country": "SV", "coord": {"lon": -88.349998, "lat": 13.35}}, {"id": 3583457, "name": "San Miguel de Mercedes", "country": "SV", "coord": {"lon": -88.933327, "lat": 14.01667}}, {"id": 3583065, "name": "Tacuba", "country": "SV", "coord": {"lon": -89.929718, "lat": 13.90111}}, {"id": 3587157, "name": "Candelaria de La Frontera", "country": "SV", "coord": {"lon": -89.650002, "lat": 14.11667}}, {"id": 3583533, "name": "San Juan Nonualco", "country": "SV", "coord": {"lon": -88.883331, "lat": 13.5}}, {"id": 3584349, "name": "Molineros", "country": "SV", "coord": {"lon": -88.866669, "lat": 13.65}}, {"id": 3583041, "name": "Tamanique", "country": "SV", "coord": {"lon": -89.42028, "lat": 13.59833}}, {"id": 3585487, "name": "Ilobasco", "country": "SV", "coord": {"lon": -88.849998, "lat": 13.85}}, {"id": 3585653, "name": "Guatajiagua", "country": "SV", "coord": {"lon": -88.199997, "lat": 13.66667}}, {"id": 3583120, "name": "Sitio Las Palomas", "country": "SV", "coord": {"lon": -89.5, "lat": 14}}, {"id": 3585438, "name": "Jiquilisco", "country": "SV", "coord": {"lon": -88.583328, "lat": 13.31667}}, {"id": 3583404, "name": "San Pedro Nonualco", "country": "SV", "coord": {"lon": -88.933327, "lat": 13.6}}, {"id": 3583194, "name": "Santiago Texacuangos", "country": "SV", "coord": {"lon": -89.118332, "lat": 13.64278}}, {"id": 3586926, "name": "Concepcion de Ataco", "country": "SV", "coord": {"lon": -89.84861, "lat": 13.87028}}, {"id": 3587277, "name": "Barrios", "country": "SV", "coord": {"lon": -88.116669, "lat": 13.6}}, {"id": 3583381, "name": "San Rafael Obrajuelo", "country": "SV", "coord": {"lon": -88.933327, "lat": 13.5}}, {"id": 3583338, "name": "San Sebasti\u00e1n Salitrillo", "country": "SV", "coord": {"lon": -89.636108, "lat": 13.96917}}, {"id": 3585640, "name": "Guaymango", "country": "SV", "coord": {"lon": -89.842216, "lat": 13.75028}}, {"id": 3587148, "name": "Cara Sucia", "country": "SV", "coord": {"lon": -90.035828, "lat": 13.77917}}, {"id": 3587018, "name": "Chirilagua", "country": "SV", "coord": {"lon": -88.138611, "lat": 13.22028}}, {"id": 3608198, "name": "La Chorrera", "country": "HN", "coord": {"lon": -88.216667, "lat": 13.91667}}, {"id": 3583900, "name": "San Andr\u00e9s", "country": "SV", "coord": {"lon": -89.849998, "lat": 13.71667}}, {"id": 3583690, "name": "San Isidro", "country": "SV", "coord": {"lon": -89.533333, "lat": 14}}, {"id": 3584958, "name": "Las Flores", "country": "SV", "coord": {"lon": -88.48333, "lat": 13.5}}, {"id": 3587192, "name": "Caluco", "country": "SV", "coord": {"lon": -89.662216, "lat": 13.72361}}, {"id": 3587321, "name": "Ateos", "country": "SV", "coord": {"lon": -89.433327, "lat": 13.73333}}, {"id": 3641481, "name": "El Silencio", "country": "VE", "coord": {"lon": -66.916672, "lat": 10.5}}, {"id": 3646751, "name": "Estado Carabobo", "country": "VE", "coord": {"lon": -68.083328, "lat": 10.16667}}, {"id": 3481471, "name": "Santa Cecilia", "country": "VE", "coord": {"lon": -68.005959, "lat": 10.18882}}, {"id": 3632537, "name": "Municipio Matur\u00edn", "country": "VE", "coord": {"lon": -63.033329, "lat": 9.4}}, {"id": 3778045, "name": "Maturin", "country": "VE", "coord": {"lon": -63.17667, "lat": 9.75}}, {"id": 3633341, "name": "Maiquetia", "country": "VE", "coord": {"lon": -66.954849, "lat": 10.59621}}, {"id": 3646527, "name": "Municipio Carirubana", "country": "VE", "coord": {"lon": -70, "lat": 11.71667}}, {"id": 3629576, "name": "Punto Fijo", "country": "VE", "coord": {"lon": -70.19957, "lat": 11.6956}}, {"id": 3636539, "name": "Estado Lara", "country": "VE", "coord": {"lon": -69.833328, "lat": 10.16667}}, {"id": 3639346, "name": "Municipio Iribarren", "country": "VE", "coord": {"lon": -69.416672, "lat": 10.08333}}, {"id": 3648522, "name": "Barquisimeto", "country": "VE", "coord": {"lon": -69.322777, "lat": 10.07389}}, {"id": 3633009, "name": "Maracaibo", "country": "VE", "coord": {"lon": -71.640556, "lat": 10.63167}}, {"id": 3625541, "name": "Municipio Valera", "country": "VE", "coord": {"lon": -70.607758, "lat": 9.3206}}, {"id": 3625542, "name": "Valera", "country": "VE", "coord": {"lon": -70.603607, "lat": 9.31778}}, {"id": 3631462, "name": "Estado Nueva Esparta", "country": "VE", "coord": {"lon": -64, "lat": 11}}, {"id": 3632894, "name": "Municipio Mari\u00f1o", "country": "VE", "coord": {"lon": -63.883331, "lat": 10.95}}, {"id": 3629965, "name": "Porlamar", "country": "VE", "coord": {"lon": -63.84906, "lat": 10.95796}}, {"id": 3633622, "name": "Los Teques", "country": "VE", "coord": {"lon": -67.043251, "lat": 10.34447}}, {"id": 3634711, "name": "Llano de Miquil\u00e9n", "country": "VE", "coord": {"lon": -67.033333, "lat": 10.35}}, {"id": 3640595, "name": "Municipio Girardot", "country": "VE", "coord": {"lon": -67.666672, "lat": 10.41667}}, {"id": 3632998, "name": "Maracay", "country": "VE", "coord": {"lon": -67.595833, "lat": 10.24694}}, {"id": 3644182, "name": "El Barbudo", "country": "VE", "coord": {"lon": -64.16893, "lat": 10.47659}}, {"id": 3796318, "name": "Barrio Mundo Nuevo", "country": "VE", "coord": {"lon": -64.16864, "lat": 10.46491}}, {"id": 3641784, "name": "El Recreo", "country": "VE", "coord": {"lon": -66.883331, "lat": 10.5}}, {"id": 3481078, "name": "Sabana Grande", "country": "VE", "coord": {"lon": -66.877808, "lat": 10.49414}}, {"id": 3649333, "name": "Amanita", "country": "VE", "coord": {"lon": -63.517078, "lat": 10.16099}}, {"id": 3626553, "name": "Estado T\u00e1chira", "country": "VE", "coord": {"lon": -72.083328, "lat": 7.83333}}, {"id": 3628468, "name": "Municipio San Crist\u00f3bal", "country": "VE", "coord": {"lon": -72.166672, "lat": 7.71667}}, {"id": 3628473, "name": "San Cristobal", "country": "VE", "coord": {"lon": -72.224998, "lat": 7.76694}}, {"id": 3631170, "name": "Municipio P\u00e1ez", "country": "VE", "coord": {"lon": -69.050003, "lat": 9.5}}, {"id": 3649833, "name": "Acarigua", "country": "VE", "coord": {"lon": -69.195641, "lat": 9.55451}}, {"id": 3648559, "name": "Barcelona", "country": "VE", "coord": {"lon": -64.699997, "lat": 10.13333}}, {"id": 3648111, "name": "Municipio Bol\u00edvar", "country": "VE", "coord": {"lon": -63.132252, "lat": 10.04932}}, {"id": 3646534, "name": "Caripito", "country": "VE", "coord": {"lon": -63.096329, "lat": 10.11026}}, {"id": 3629705, "name": "Municipio Puerto Cabello", "country": "VE", "coord": {"lon": -68.166672, "lat": 10.41667}}, {"id": 3629706, "name": "Puerto Cabello", "country": "VE", "coord": {"lon": -68.012497, "lat": 10.47306}}, {"id": 3641351, "name": "El Tigre", "country": "VE", "coord": {"lon": -64.245438, "lat": 8.88752}}, {"id": 6301912, "name": "El Diario de Yaracuy", "country": "VE", "coord": {"lon": -68.732803, "lat": 10.34169}}, {"id": 3625210, "name": "Estado Yaracuy", "country": "VE", "coord": {"lon": -68.737343, "lat": 10.33974}}, {"id": 3647929, "name": "Municipio Bruzual", "country": "VE", "coord": {"lon": -68.883331, "lat": 10.16667}}, {"id": 3645671, "name": "Chivacoa", "country": "VE", "coord": {"lon": -68.894997, "lat": 10.16028}}, {"id": 8129203, "name": "Municipio Pe\u00f1a", "country": "VE", "coord": {"lon": -69.126106, "lat": 10.08}}, {"id": 3625207, "name": "Yaritagua", "country": "VE", "coord": {"lon": -69.126106, "lat": 10.08}}, {"id": 3648385, "name": "Municipio Bejuma", "country": "VE", "coord": {"lon": -68.199997, "lat": 10.25}}, {"id": 3648386, "name": "Bejuma", "country": "VE", "coord": {"lon": -68.258873, "lat": 10.17309}}, {"id": 3806295, "name": "La Ceiba", "country": "VE", "coord": {"lon": -67.345192, "lat": 10.23442}}, {"id": 3640226, "name": "Guanare", "country": "VE", "coord": {"lon": -69.742058, "lat": 9.04183}}, {"id": 3797895, "name": "Buenos Aires", "country": "VE", "coord": {"lon": -69.747414, "lat": 9.04602}}, {"id": 3626659, "name": "Municipio Sucre", "country": "VE", "coord": {"lon": -67.449997, "lat": 10.16667}}, {"id": 3647549, "name": "Cagua", "country": "VE", "coord": {"lon": -67.459351, "lat": 10.18634}}, {"id": 3628267, "name": "San Joaquin", "country": "VE", "coord": {"lon": -67.785797, "lat": 10.263}}, {"id": 3648544, "name": "Estado Barinas", "country": "VE", "coord": {"lon": -69.833328, "lat": 8.16667}}, {"id": 3648545, "name": "Municipio Barinas", "country": "VE", "coord": {"lon": -70.198517, "lat": 8.61497}}, {"id": 3648546, "name": "Barinas", "country": "VE", "coord": {"lon": -70.207489, "lat": 8.62261}}, {"id": 3629202, "name": "Resbal\u00f3n", "country": "VE", "coord": {"lon": -66.932701, "lat": 10.36336}}, {"id": 3647651, "name": "Cabimas", "country": "VE", "coord": {"lon": -71.439919, "lat": 10.38828}}, {"id": 3644938, "name": "Municipio Crist\u00f3bal Rojas", "country": "VE", "coord": {"lon": -66.833328, "lat": 10.25}}, {"id": 3645854, "name": "Charallave", "country": "VE", "coord": {"lon": -66.857231, "lat": 10.24247}}, {"id": 3648120, "name": "Boleita", "country": "VE", "coord": {"lon": -66.816673, "lat": 10.48333}}, {"id": 3625659, "name": "Municipio Urdaneta", "country": "VE", "coord": {"lon": -66.916672, "lat": 10.16667}}, {"id": 3644918, "name": "Cua", "country": "VE", "coord": {"lon": -66.88575, "lat": 10.15892}}, {"id": 8131443, "name": "Municipio Carrizal", "country": "VE", "coord": {"lon": -66.993599, "lat": 10.3514}}, {"id": 3646451, "name": "Carrizal", "country": "VE", "coord": {"lon": -66.98632, "lat": 10.34985}}, {"id": 3627047, "name": "Santa Teresa", "country": "VE", "coord": {"lon": -66.663078, "lat": 10.23409}}, {"id": 8129209, "name": "Municipio Lagunillas", "country": "VE", "coord": {"lon": -71.308182, "lat": 10.19635}}, {"id": 3645527, "name": "Ciudad Ojeda", "country": "VE", "coord": {"lon": -71.308182, "lat": 10.19635}}, {"id": 8131516, "name": "Municipio Santa Rita", "country": "VE", "coord": {"lon": -71.50692, "lat": 10.53473}}, {"id": 3627186, "name": "Santa Rita", "country": "VE", "coord": {"lon": -71.51104, "lat": 10.53642}}, {"id": 3806880, "name": "Turmerito", "country": "VE", "coord": {"lon": -67.47319, "lat": 10.23262}}, {"id": 3646514, "name": "Municipio Carlos Arvelo", "country": "VE", "coord": {"lon": -67.75, "lat": 9.95}}, {"id": 3639747, "name": "Guigue", "country": "VE", "coord": {"lon": -67.779167, "lat": 10.08528}}, {"id": 3645386, "name": "Estado Cojedes", "country": "VE", "coord": {"lon": -68.333328, "lat": 9.33333}}, {"id": 3641904, "name": "El Potrero", "country": "VE", "coord": {"lon": -68.610191, "lat": 9.67687}}, {"id": 8131430, "name": "Municipio San Diego", "country": "VE", "coord": {"lon": -67.954132, "lat": 10.25614}}, {"id": 3628462, "name": "San Diego", "country": "VE", "coord": {"lon": -67.9533, "lat": 10.25982}}, {"id": 3639197, "name": "Municipio Jim\u00e9nez", "country": "VE", "coord": {"lon": -69.583328, "lat": 9.8}}, {"id": 3629419, "name": "Quibor", "country": "VE", "coord": {"lon": -69.620102, "lat": 9.92866}}, {"id": 3625979, "name": "Trujillo", "country": "VE", "coord": {"lon": -70.434723, "lat": 9.37084}}, {"id": 3646190, "name": "Catia La Mar", "country": "VE", "coord": {"lon": -67.030342, "lat": 10.60383}}, {"id": 3646610, "name": "Municipio C\u00e1rdenas", "country": "VE", "coord": {"lon": -72.116669, "lat": 7.83333}}, {"id": 3626402, "name": "Tariba", "country": "VE", "coord": {"lon": -72.224274, "lat": 7.8188}}, {"id": 8129261, "name": "Municipio Pedro Zaraza", "country": "VE", "coord": {"lon": -65.324516, "lat": 9.35029}}, {"id": 3625066, "name": "Zaraza", "country": "VE", "coord": {"lon": -65.324516, "lat": 9.35029}}, {"id": 8129266, "name": "Municipio Pedro Mar\u00eda Freites", "country": "VE", "coord": {"lon": -64.358414, "lat": 9.30571}}, {"id": 3646869, "name": "Cantaura", "country": "VE", "coord": {"lon": -64.358414, "lat": 9.30571}}, {"id": 3648122, "name": "Bohordal", "country": "VE", "coord": {"lon": -62.92638, "lat": 10.59198}}, {"id": 8131389, "name": "Municipio San Jos\u00e9 de Guanipa", "country": "VE", "coord": {"lon": -64.161018, "lat": 8.87998}}, {"id": 3628142, "name": "San Jose de Guanipa", "country": "VE", "coord": {"lon": -64.165123, "lat": 8.88724}}, {"id": 3648884, "name": "Arismendi", "country": "VE", "coord": {"lon": -63.94569, "lat": 11.07242}}, {"id": 8129207, "name": "Municipio Ezequiel Zamora", "country": "VE", "coord": {"lon": -63.609211, "lat": 9.69131}}, {"id": 3629606, "name": "Punta de Mata", "country": "VE", "coord": {"lon": -63.609211, "lat": 9.69131}}, {"id": 3640872, "name": "Municipio Falc\u00f3n", "country": "VE", "coord": {"lon": -68.333328, "lat": 9.91667}}, {"id": 3626219, "name": "Tinaquillo", "country": "VE", "coord": {"lon": -68.304718, "lat": 9.91861}}, {"id": 8129241, "name": "Municipio Diego Ibarra", "country": "VE", "coord": {"lon": -67.718132, "lat": 10.29644}}, {"id": 3632929, "name": "Mariara", "country": "VE", "coord": {"lon": -67.718132, "lat": 10.29644}}, {"id": 3631972, "name": "Municipio Mor\u00e1n", "country": "VE", "coord": {"lon": -69.833328, "lat": 9.66667}}, {"id": 3641275, "name": "El Tocuyo", "country": "VE", "coord": {"lon": -69.793701, "lat": 9.78734}}, {"id": 8129185, "name": "Municipio Juan Germ\u00e1n Roscio", "country": "VE", "coord": {"lon": -67.353813, "lat": 9.91152}}, {"id": 3628053, "name": "San Juan de los Morros", "country": "VE", "coord": {"lon": -67.353813, "lat": 9.91152}}, {"id": 8131429, "name": "Municipio Naguanagua", "country": "VE", "coord": {"lon": -68.018929, "lat": 10.25648}}, {"id": 3631614, "name": "Naguanagua", "country": "VE", "coord": {"lon": -68.018608, "lat": 10.26}}, {"id": 8129269, "name": "Municipio Francisco de Miranda", "country": "VE", "coord": {"lon": -67.429291, "lat": 8.92416}}, {"id": 3647444, "name": "Calabozo", "country": "VE", "coord": {"lon": -67.429291, "lat": 8.92416}}, {"id": 3627039, "name": "Santiago de Trujillo", "country": "VE", "coord": {"lon": -70.528557, "lat": 9.24616}}, {"id": 3625845, "name": "Municipio Tur\u00e9n", "country": "VE", "coord": {"lon": -68.833328, "lat": 9.16667}}, {"id": 3625346, "name": "Villa Bruzual", "country": "VE", "coord": {"lon": -69.120827, "lat": 9.33278}}, {"id": 8129179, "name": "Municipio Leonardo Infante", "country": "VE", "coord": {"lon": -66.007339, "lat": 9.21554}}, {"id": 3625515, "name": "Valle de La Pascua", "country": "VE", "coord": {"lon": -66.007339, "lat": 9.21554}}, {"id": 8129206, "name": "Municipio Bol\u00edvar", "country": "VE", "coord": {"lon": -67.423653, "lat": 10.21302}}, {"id": 3627968, "name": "San Mateo", "country": "VE", "coord": {"lon": -67.423653, "lat": 10.21302}}, {"id": 3648113, "name": "Municipio Bol\u00edvar", "country": "VE", "coord": {"lon": -72.416672, "lat": 7.83333}}, {"id": 3628549, "name": "San Antonio del Tachira", "country": "VE", "coord": {"lon": -72.4431, "lat": 7.81454}}, {"id": 3637011, "name": "Municipio Lander", "country": "VE", "coord": {"lon": -66.75, "lat": 10.08333}}, {"id": 3631412, "name": "Ocumare del Tuy", "country": "VE", "coord": {"lon": -66.776093, "lat": 10.11649}}, {"id": 8129164, "name": "Municipio Pamp\u00e1n", "country": "VE", "coord": {"lon": -70.477592, "lat": 9.44475}}, {"id": 3630896, "name": "Pampan", "country": "VE", "coord": {"lon": -70.477592, "lat": 9.44475}}, {"id": 3480908, "name": "La Asuncion", "country": "VE", "coord": {"lon": -63.862782, "lat": 11.03333}}, {"id": 3639063, "name": "Municipio Jun\u00edn", "country": "VE", "coord": {"lon": -72.416672, "lat": 7.58333}}, {"id": 3628952, "name": "Rubio", "country": "VE", "coord": {"lon": -72.35569, "lat": 7.70131}}, {"id": 3804949, "name": "Guasdalito", "country": "VE", "coord": {"lon": -70.732361, "lat": 7.24241}}, {"id": 3629042, "name": "Municipio Rivas D\u00e1vila", "country": "VE", "coord": {"lon": -71.75, "lat": 8.16667}}, {"id": 3648685, "name": "Bailadores", "country": "VE", "coord": {"lon": -71.828049, "lat": 8.25264}}, {"id": 3642041, "name": "El Pilar", "country": "VE", "coord": {"lon": -63.83456, "lat": 10.99456}}, {"id": 3480942, "name": "El Genoves", "country": "VE", "coord": {"lon": -63.83601, "lat": 10.97536}}, {"id": 3649591, "name": "Agua Salada", "country": "VE", "coord": {"lon": -69.568947, "lat": 10.76809}}, {"id": 8129167, "name": "Municipio Francisco de Miranda", "country": "VE", "coord": {"lon": -64.710533, "lat": 8.84358}}, {"id": 3630687, "name": "Pariaguan", "country": "VE", "coord": {"lon": -64.710533, "lat": 8.84358}}, {"id": 3649370, "name": "Alto de Reyes", "country": "VE", "coord": {"lon": -68.287651, "lat": 10.15667}}, {"id": 3625967, "name": "Municipio Tubores", "country": "VE", "coord": {"lon": -64.083328, "lat": 10.95}}, {"id": 3629601, "name": "Punta de Piedras", "country": "VE", "coord": {"lon": -64.096962, "lat": 10.9013}}, {"id": 3632259, "name": "Municipio Michelena", "country": "VE", "coord": {"lon": -72.183327, "lat": 7.98333}}, {"id": 3632260, "name": "Michelena", "country": "VE", "coord": {"lon": -72.243217, "lat": 7.9549}}, {"id": 3803695, "name": "Urbanizaci\u00f3n La Florida", "country": "VE", "coord": {"lon": -65.988327, "lat": 10.31944}}, {"id": 3630455, "name": "Pedrogonz\u00e1lez", "country": "VE", "coord": {"lon": -63.950001, "lat": 11.1}}, {"id": 3644541, "name": "Territorio Federal Delta Amacuro", "country": "VE", "coord": {"lon": -61.5, "lat": 8.5}}, {"id": 3625927, "name": "Municipio Tucupita", "country": "VE", "coord": {"lon": -61.75, "lat": 9.25}}, {"id": 3625929, "name": "Tucupita", "country": "VE", "coord": {"lon": -62.051022, "lat": 9.06222}}, {"id": 8129226, "name": "Municipio Jos\u00e9 Angel Lamas", "country": "VE", "coord": {"lon": -67.511841, "lat": 10.18}}, {"id": 3627457, "name": "Santa Cruz", "country": "VE", "coord": {"lon": -67.511841, "lat": 10.18}}, {"id": 8129256, "name": "Municipio Libertador", "country": "VE", "coord": {"lon": -66.874718, "lat": 10.49017}}, {"id": 3481364, "name": "Caricuao", "country": "VE", "coord": {"lon": -66.983131, "lat": 10.43337}}, {"id": 8129253, "name": "Municipio Rafael Rangel", "country": "VE", "coord": {"lon": -70.731308, "lat": 9.37568}}, {"id": 3648290, "name": "Betijoque", "country": "VE", "coord": {"lon": -70.731308, "lat": 9.37568}}, {"id": 3635888, "name": "Las Hern\u00e1ndez", "country": "VE", "coord": {"lon": -64.053909, "lat": 10.93726}}, {"id": 3631207, "name": "Municipio Ospino", "country": "VE", "coord": {"lon": -69.416672, "lat": 9.33333}}, {"id": 3631208, "name": "Ospino", "country": "VE", "coord": {"lon": -69.45546, "lat": 9.29672}}, {"id": 3638269, "name": "La Cruz de Bel\u00e9n", "country": "VE", "coord": {"lon": -65.170959, "lat": 9.92847}}, {"id": 8129187, "name": "Municipio Juan Antonio Sotillo", "country": "VE", "coord": {"lon": -64.616669, "lat": 10.21667}}, {"id": 3629672, "name": "Puerto La Cruz", "country": "VE", "coord": {"lon": -64.616669, "lat": 10.21667}}, {"id": 3625660, "name": "Municipio Urdaneta", "country": "VE", "coord": {"lon": -66.800003, "lat": 9.71667}}, {"id": 3648580, "name": "Barbacoas", "country": "VE", "coord": {"lon": -66.974579, "lat": 9.47855}}, {"id": 3649066, "name": "Araira", "country": "VE", "coord": {"lon": -66.483948, "lat": 10.45205}}, {"id": 3632399, "name": "Mene Grande", "country": "VE", "coord": {"lon": -70.926559, "lat": 9.84639}}, {"id": 3631656, "name": "Municipio Mu\u00f1oz", "country": "VE", "coord": {"lon": -69.416672, "lat": 7.58333}}, {"id": 3647931, "name": "Bruzual", "country": "VE", "coord": {"lon": -69.332573, "lat": 8.05052}}, {"id": 3627012, "name": "Santo Domingo", "country": "VE", "coord": {"lon": -67.203468, "lat": 10.25192}}, {"id": 3806494, "name": "Barrio Leonardo Ru\u00edz Pineda", "country": "VE", "coord": {"lon": -67.165718, "lat": 10.25555}}, {"id": 3806256, "name": "Cata", "country": "VE", "coord": {"lon": -67.733803, "lat": 10.4626}}, {"id": 8129158, "name": "Municipio Monse\u00f1or Jos\u00e9 Vicente de Unda", "country": "VE", "coord": {"lon": -69.94754, "lat": 9.43365}}, {"id": 3630761, "name": "Paraiso de Chabasquen", "country": "VE", "coord": {"lon": -69.94754, "lat": 9.43365}}, {"id": 3629661, "name": "Puerto Miranda", "country": "VE", "coord": {"lon": -67.46981, "lat": 7.90232}}, {"id": 3626828, "name": "Municipio Silva", "country": "VE", "coord": {"lon": -68.350067, "lat": 10.75709}}, {"id": 3625965, "name": "Tucacas", "country": "VE", "coord": {"lon": -68.325768, "lat": 10.7906}}, {"id": 3765365, "name": "La Horqueta", "country": "VE", "coord": {"lon": -67.493332, "lat": 7.87139}}, {"id": 3626936, "name": "Satiare", "country": "VE", "coord": {"lon": -69.48333, "lat": 10.58333}}, {"id": 8129250, "name": "Municipio Camatagua", "country": "VE", "coord": {"lon": -66.906189, "lat": 9.78762}}, {"id": 3647382, "name": "Camatagua", "country": "VE", "coord": {"lon": -66.906189, "lat": 9.78762}}, {"id": 3649302, "name": "Estado Amazonas", "country": "VE", "coord": {"lon": -66, "lat": 3.5}}, {"id": 3648789, "name": "Municipio Aut\u00f3nomo Atures", "country": "VE", "coord": {"lon": -67.346191, "lat": 5.69252}}, {"id": 3629710, "name": "Puerto Ayacucho", "country": "VE", "coord": {"lon": -67.623611, "lat": 5.66389}}, {"id": 3630452, "name": "Municipio Pedro Mar\u00eda Ure\u00f1a", "country": "VE", "coord": {"lon": -72.400002, "lat": 7.93333}}, {"id": 3625655, "name": "Urena", "country": "VE", "coord": {"lon": -72.441879, "lat": 7.91689}}, {"id": 3647945, "name": "Municipio Bri\u00f3n", "country": "VE", "coord": {"lon": -66.166672, "lat": 10.41667}}, {"id": 3639526, "name": "Higuerote", "country": "VE", "coord": {"lon": -66.10083, "lat": 10.48106}}, {"id": 8129186, "name": "Municipio Sim\u00f3n Bol\u00edvar", "country": "VE", "coord": {"lon": -66.746483, "lat": 10.17793}}, {"id": 3628350, "name": "San Francisco de Yare", "country": "VE", "coord": {"lon": -66.746483, "lat": 10.17793}}, {"id": 8129198, "name": "Municipio Machiques de Perij\u00e1", "country": "VE", "coord": {"lon": -72.544998, "lat": 10.06444}}, {"id": 3633444, "name": "Machiques", "country": "VE", "coord": {"lon": -72.544998, "lat": 10.06444}}, {"id": 3636395, "name": "La Rosita", "country": "VE", "coord": {"lon": -71.726387, "lat": 10.96472}}, {"id": 3626660, "name": "Municipio Sucre", "country": "VE", "coord": {"lon": -70, "lat": 9.33333}}, {"id": 3648274, "name": "Biscucuy", "country": "VE", "coord": {"lon": -69.983902, "lat": 9.35944}}, {"id": 3649812, "name": "Municipio Acevedo", "country": "VE", "coord": {"lon": -66.333328, "lat": 10.25}}, {"id": 3646175, "name": "Caucagua", "country": "VE", "coord": {"lon": -66.375908, "lat": 10.2831}}, {"id": 3639226, "name": "Municipio J\u00e1uregui", "country": "VE", "coord": {"lon": -72, "lat": 8.1}}, {"id": 3795170, "name": "La Grita", "country": "VE", "coord": {"lon": -71.983368, "lat": 8.13219}}, {"id": 3626046, "name": "Tovar", "country": "VE", "coord": {"lon": -66.133331, "lat": 10.36667}}, {"id": 3767884, "name": "La Miel", "country": "VE", "coord": {"lon": -70.166298, "lat": 10.11881}}, {"id": 3631285, "name": "Orituco", "country": "VE", "coord": {"lon": -66.459084, "lat": 9.39486}}, {"id": 3777638, "name": "Bol\u00edvar", "country": "VE", "coord": {"lon": -63.561111, "lat": 10.18}}, {"id": 3482204, "name": "Pampanito", "country": "VE", "coord": {"lon": -70.26667, "lat": 9.38944}}, {"id": 3626234, "name": "Municipio Tinaco", "country": "VE", "coord": {"lon": -68.333328, "lat": 9.66667}}, {"id": 3626235, "name": "Tinaco", "country": "VE", "coord": {"lon": -68.433479, "lat": 9.69871}}, {"id": 3648130, "name": "Municipio Bocon\u00f3", "country": "VE", "coord": {"lon": -70.25, "lat": 9.25}}, {"id": 3648132, "name": "Bocono", "country": "VE", "coord": {"lon": -70.269379, "lat": 9.24426}}, {"id": 3644947, "name": "Municipio Crespo", "country": "VE", "coord": {"lon": -69.166672, "lat": 10.3}}, {"id": 3644440, "name": "Duaca", "country": "VE", "coord": {"lon": -69.16227, "lat": 10.28586}}, {"id": 3625648, "name": "Municipio Uribante", "country": "VE", "coord": {"lon": -71.916672, "lat": 7.66667}}, {"id": 3629844, "name": "Pregonero", "country": "VE", "coord": {"lon": -71.765953, "lat": 8.01909}}, {"id": 3649099, "name": "Aragua de Matur\u00edn", "country": "VE", "coord": {"lon": -63.48727, "lat": 9.97026}}, {"id": 8129231, "name": "Municipio Pueblo Llano", "country": "VE", "coord": {"lon": -70.659187, "lat": 8.91485}}, {"id": 3629800, "name": "Pueblo Llano", "country": "VE", "coord": {"lon": -70.659187, "lat": 8.91485}}, {"id": 8129228, "name": "Municipio Andr\u00e9s Eloy Blanco", "country": "VE", "coord": {"lon": -69.653183, "lat": 9.75145}}, {"id": 3628545, "name": "Sanare", "country": "VE", "coord": {"lon": -69.653183, "lat": 9.75145}}, {"id": 3635707, "name": "Las Mercedes", "country": "VE", "coord": {"lon": -66.783333, "lat": 10.05}}, {"id": 3632524, "name": "Municipio Mauroa", "country": "VE", "coord": {"lon": -71, "lat": 10.83333}}, {"id": 3632401, "name": "Mene de Mauroa", "country": "VE", "coord": {"lon": -71.036781, "lat": 10.68156}}, {"id": 8129174, "name": "Municipio Francisco de Miranda", "country": "VE", "coord": {"lon": -71.971939, "lat": 7.91139}}, {"id": 3739076, "name": "San Jose de Bolivar", "country": "VE", "coord": {"lon": -71.971939, "lat": 7.91139}}, {"id": 3626352, "name": "Temblador", "country": "VE", "coord": {"lon": -62.73333, "lat": 8.98333}}, {"id": 3628815, "name": "Sabanita", "country": "VE", "coord": {"lon": -68.094353, "lat": 9.97211}}, {"id": 3649111, "name": "Municipio Aragua", "country": "VE", "coord": {"lon": -64.900002, "lat": 9.31667}}, {"id": 3649100, "name": "Aragua de Barcelona", "country": "VE", "coord": {"lon": -64.829277, "lat": 9.45588}}, {"id": 3481991, "name": "San Luis", "country": "VE", "coord": {"lon": -70.599998, "lat": 9.33833}}, {"id": 3646191, "name": "Catia", "country": "VE", "coord": {"lon": -66.95237, "lat": 10.51169}}, {"id": 3626547, "name": "Tacuato", "country": "VE", "coord": {"lon": -69.83548, "lat": 11.70922}}, {"id": 8129170, "name": "Municipio San Jos\u00e9 de Guaribe", "country": "VE", "coord": {"lon": -65.813057, "lat": 9.86025}}, {"id": 3774127, "name": "San Jose de Guaribe", "country": "VE", "coord": {"lon": -65.813057, "lat": 9.86025}}, {"id": 3638108, "name": "La Encrucijada", "country": "VE", "coord": {"lon": -67.472359, "lat": 10.20365}}, {"id": 3645374, "name": "Municipio Colina", "country": "VE", "coord": {"lon": -69.416672, "lat": 11.28333}}, {"id": 3634965, "name": "La Vela de Coro", "country": "VE", "coord": {"lon": -69.56591, "lat": 11.46209}}, {"id": 3626658, "name": "Municipio Sucre", "country": "VE", "coord": {"lon": -68.833328, "lat": 10.3}}, {"id": 3640324, "name": "Guama", "country": "VE", "coord": {"lon": -68.821312, "lat": 10.27032}}, {"id": 3373565, "name": "Saint Lucy", "country": "BB", "coord": {"lon": -59.616669, "lat": 13.3}}, {"id": 3373452, "name": "Upper Salmonds", "country": "BB", "coord": {"lon": -59.583328, "lat": 13.3}}, {"id": 3373557, "name": "Saint Michael", "country": "BB", "coord": {"lon": -59.599998, "lat": 13.11667}}, {"id": 3374036, "name": "Bridgetown", "country": "BB", "coord": {"lon": -59.616669, "lat": 13.1}}, {"id": 3373932, "name": "Deacons", "country": "BB", "coord": {"lon": -59.616669, "lat": 13.1}}, {"id": 3373789, "name": "Hope", "country": "BB", "coord": {"lon": -59.599998, "lat": 13.31667}}, {"id": 3373754, "name": "Kendal Hill", "country": "BB", "coord": {"lon": -59.549999, "lat": 13.06667}}, {"id": 3373982, "name": "Clapham", "country": "BB", "coord": {"lon": -59.583328, "lat": 13.08333}}, {"id": 3373570, "name": "Saint James", "country": "BB", "coord": {"lon": -59.616669, "lat": 13.21667}}, {"id": 3373461, "name": "Trents", "country": "BB", "coord": {"lon": -59.633331, "lat": 13.2}}, {"id": 3373542, "name": "Sandy Lane", "country": "BB", "coord": {"lon": -59.633331, "lat": 13.16667}}, {"id": 3373617, "name": "Prospect", "country": "BB", "coord": {"lon": -59.633331, "lat": 13.13333}}, {"id": 3373553, "name": "Saint Philip", "country": "BB", "coord": {"lon": -59.466671, "lat": 13.11667}}, {"id": 3373544, "name": "Sandford", "country": "BB", "coord": {"lon": -59.450001, "lat": 13.13333}}, {"id": 3373438, "name": "Wanstead", "country": "BB", "coord": {"lon": -59.616669, "lat": 13.13333}}, {"id": 3373568, "name": "Saint Joseph", "country": "BB", "coord": {"lon": -59.533329, "lat": 13.2}}, {"id": 3373967, "name": "Coffee Gully", "country": "BB", "coord": {"lon": -59.549999, "lat": 13.18333}}, {"id": 3373572, "name": "Saint George", "country": "BB", "coord": {"lon": -59.533329, "lat": 13.13333}}, {"id": 3373433, "name": "Watts Village", "country": "BB", "coord": {"lon": -59.533329, "lat": 13.1}}, {"id": 3373768, "name": "Jackson", "country": "BB", "coord": {"lon": -59.599998, "lat": 13.15}}, {"id": 3373538, "name": "Sayes Court", "country": "BB", "coord": {"lon": -59.51667, "lat": 13.05}}, {"id": 3373551, "name": "Saint Thomas", "country": "BB", "coord": {"lon": -59.583328, "lat": 13.18333}}, {"id": 3374090, "name": "Bagatelle", "country": "BB", "coord": {"lon": -59.616669, "lat": 13.15}}, {"id": 3373573, "name": "Saint Elizabeths", "country": "BB", "coord": {"lon": -59.533329, "lat": 13.2}}, {"id": 3373626, "name": "Pine Housing Estate", "country": "BB", "coord": {"lon": -59.599998, "lat": 13.1}}, {"id": 3374087, "name": "Bank Hall", "country": "BB", "coord": {"lon": -59.599998, "lat": 13.1}}, {"id": 3373454, "name": "Upper Carlton", "country": "BB", "coord": {"lon": -59.616669, "lat": 13.21667}}, {"id": 3373627, "name": "Pilgrim Road", "country": "BB", "coord": {"lon": -59.5, "lat": 13.06667}}, {"id": 3373559, "name": "Saint Martins", "country": "BB", "coord": {"lon": -59.466671, "lat": 13.08333}}, {"id": 3373554, "name": "Saint Peter", "country": "BB", "coord": {"lon": -59.616669, "lat": 13.25}}, {"id": 3373592, "name": "Rock Hall", "country": "BB", "coord": {"lon": -59.599998, "lat": 13.25}}, {"id": 3373418, "name": "Wilcox", "country": "BB", "coord": {"lon": -59.5, "lat": 13.05}}, {"id": 3373569, "name": "Saint John", "country": "BB", "coord": {"lon": -59.48333, "lat": 13.16667}}, {"id": 3374095, "name": "Ashbury", "country": "BB", "coord": {"lon": -59.533329, "lat": 13.16667}}, {"id": 3373509, "name": "Small Town", "country": "BB", "coord": {"lon": -59.5, "lat": 13.16667}}, {"id": 3373550, "name": "Salmond", "country": "BB", "coord": {"lon": -59.633331, "lat": 13.31667}}, {"id": 3373615, "name": "Proutes", "country": "BB", "coord": {"lon": -59.566669, "lat": 13.15}}, {"id": 3373947, "name": "Cottage Vale", "country": "BB", "coord": {"lon": -59.48333, "lat": 13.13333}}, {"id": 3373791, "name": "Holders", "country": "BB", "coord": {"lon": -59.616669, "lat": 13.16667}}, {"id": 3373868, "name": "Friendship Terrace", "country": "BB", "coord": {"lon": -59.599998, "lat": 13.13333}}, {"id": 3373436, "name": "Warners", "country": "BB", "coord": {"lon": -59.566669, "lat": 13.06667}}, {"id": 3573891, "name": "City of Port of Spain", "country": "TT", "coord": {"lon": -61.51667, "lat": 10.65}}, {"id": 3574738, "name": "Corbeaux Town", "country": "TT", "coord": {"lon": -61.51667, "lat": 10.65}}, {"id": 3573773, "name": "Saint Joseph", "country": "TT", "coord": {"lon": -61.416672, "lat": 10.65}}, {"id": 3574211, "name": "Manahambre", "country": "TT", "coord": {"lon": -61.383331, "lat": 10.26667}}, {"id": 3574578, "name": "Exchange", "country": "TT", "coord": {"lon": -61.450001, "lat": 10.41667}}, {"id": 3574604, "name": "El Dorado", "country": "TT", "coord": {"lon": -61.383331, "lat": 10.63333}}, {"id": 3574794, "name": "Chase Village", "country": "TT", "coord": {"lon": -61.416672, "lat": 10.46667}}, {"id": 3573989, "name": "Paradise", "country": "TT", "coord": {"lon": -61.366669, "lat": 10.65}}, {"id": 3573643, "name": "Paradise", "country": "TT", "coord": {"lon": -61.366711, "lat": 10.63471}}, {"id": 3574081, "name": "Morvant", "country": "TT", "coord": {"lon": -61.466671, "lat": 10.65}}, {"id": 3573703, "name": "Scarborough", "country": "TT", "coord": {"lon": -60.73333, "lat": 11.18333}}, {"id": 3574524, "name": "Gasparillo", "country": "TT", "coord": {"lon": -61.416672, "lat": 10.31667}}, {"id": 7521945, "name": "Siparia", "country": "TT", "coord": {"lon": -61.501209, "lat": 10.13382}}, {"id": 3573681, "name": "Siparia", "country": "TT", "coord": {"lon": -61.5, "lat": 10.13333}}, {"id": 3573652, "name": "Success", "country": "TT", "coord": {"lon": -61.48333, "lat": 10.65}}, {"id": 7521939, "name": "Diego Martin", "country": "TT", "coord": {"lon": -61.534168, "lat": 10.7005}}, {"id": 3573935, "name": "Petit Valley", "country": "TT", "coord": {"lon": -61.533329, "lat": 10.7}}, {"id": 3574878, "name": "Cantaro", "country": "TT", "coord": {"lon": -61.466671, "lat": 10.7}}, {"id": 3574184, "name": "Maraval", "country": "TT", "coord": {"lon": -61.51667, "lat": 10.7}}, {"id": 3573957, "name": "Petit Bourg", "country": "TT", "coord": {"lon": -61.450001, "lat": 10.65}}, {"id": 7521941, "name": "Penal/Debe", "country": "TT", "coord": {"lon": -61.46524, "lat": 10.16778}}, {"id": 3573965, "name": "Penal", "country": "TT", "coord": {"lon": -61.466671, "lat": 10.16667}}, {"id": 3574536, "name": "Fyzabad", "country": "TT", "coord": {"lon": -61.549999, "lat": 10.18333}}, {"id": 3574773, "name": "Claxton Bay", "country": "TT", "coord": {"lon": -61.466671, "lat": 10.35}}, {"id": 3574671, "name": "Curepe", "country": "TT", "coord": {"lon": -61.400002, "lat": 10.63333}}, {"id": 3573854, "name": "Red Hill", "country": "TT", "coord": {"lon": -61.316669, "lat": 10.61667}}, {"id": 3574632, "name": "Dinsley", "country": "TT", "coord": {"lon": -61.349998, "lat": 10.63333}}, {"id": 3573781, "name": "Saint Helena", "country": "TT", "coord": {"lon": -61.333328, "lat": 10.58333}}, {"id": 3573764, "name": "Saint Marys", "country": "TT", "coord": {"lon": -61.416672, "lat": 10.45}}, {"id": 3574104, "name": "Moriah", "country": "TT", "coord": {"lon": -60.71365, "lat": 11.24606}}, {"id": 3574038, "name": "New Grant", "country": "TT", "coord": {"lon": -61.316669, "lat": 10.28333}}, {"id": 3573885, "name": "Preysal", "country": "TT", "coord": {"lon": -61.400002, "lat": 10.41667}}, {"id": 3573995, "name": "Palo Seco", "country": "TT", "coord": {"lon": -61.583328, "lat": 10.08333}}, {"id": 3574806, "name": "Chaguaramas", "country": "TT", "coord": {"lon": -61.633331, "lat": 10.68333}}, {"id": 3574957, "name": "Boissiere Village", "country": "TT", "coord": {"lon": -61.51667, "lat": 10.66667}}, {"id": 3574323, "name": "La Pastora", "country": "TT", "coord": {"lon": -61.466671, "lat": 10.71667}}, {"id": 3573541, "name": "Waterloo", "country": "TT", "coord": {"lon": -61.466671, "lat": 10.46667}}, {"id": 7521940, "name": "Eastern Tobago", "country": "TT", "coord": {"lon": -60.58419, "lat": 11.24988}}, {"id": 3573819, "name": "Roxborough", "country": "TT", "coord": {"lon": -60.583328, "lat": 11.25}}, {"id": 3573604, "name": "Toco", "country": "TT", "coord": {"lon": -60.950001, "lat": 10.83333}}, {"id": 3573972, "name": "Patience Hill", "country": "TT", "coord": {"lon": -60.763889, "lat": 11.18822}},