[{"id": 514285, "name": "Ostankino", "country": "RU", "coord": {"lon": 44.425556, "lat": 56.26889}}, {"id": 6418675, "name": "Pionerskoye", "country": "RU", "coord": {"lon": 44.4025, "lat": 56.281666}}, {"id": 6418644, "name": "Glazkovo", "country": "RU", "coord": {"lon": 44.338612, "lat": 56.279446}}, {"id": 500917, "name": "Rozhnovo", "country": "RU", "coord": {"lon": 44.326389, "lat": 56.275002}}, {"id": 6418654, "name": "Vernyagovo", "country": "RU", "coord": {"lon": 44.312222, "lat": 56.287777}}, {"id": 6418652, "name": "Yelesino", "country": "RU", "coord": {"lon": 44.277222, "lat": 56.298058}}, {"id": 6418650, "name": "Boyarskoye", "country": "RU", "coord": {"lon": 44.228611, "lat": 56.31028}}, {"id": 502267, "name": "Red\u2019kino", "country": "RU", "coord": {"lon": 44.206112, "lat": 56.318054}}, {"id": 875282, "name": "Klyukino", "country": "RU", "coord": {"lon": 44.173889, "lat": 56.318611}}, {"id": 875281, "name": "Kolobovo", "country": "RU", "coord": {"lon": 44.163891, "lat": 56.320278}}, {"id": 875280, "name": "Soshniki", "country": "RU", "coord": {"lon": 44.159168, "lat": 56.319721}}, {"id": 875330, "name": "Pichugino", "country": "RU", "coord": {"lon": 44.152779, "lat": 56.335278}}, {"id": 875279, "name": "Mokhovyye Gory", "country": "RU", "coord": {"lon": 44.133057, "lat": 56.328335}}, {"id": 572665, "name": "Bor", "country": "RU", "coord": {"lon": 44.066944, "lat": 56.356667}}, {"id": 875314, "name": "Steklozavod", "country": "RU", "coord": {"lon": 44.087223, "lat": 56.339722}}, {"id": 572474, "name": "Borisovka", "country": "RU", "coord": {"lon": 44.049999, "lat": 56.366669}}, {"id": 875308, "name": "Lesoperevalochnyy", "country": "RU", "coord": {"lon": 44.061111, "lat": 56.344444}}, {"id": 875307, "name": "Perevoz", "country": "RU", "coord": {"lon": 44.050835, "lat": 56.341667}}, {"id": 520555, "name": "Nizhniy Novgorod", "country": "RU", "coord": {"lon": 44.002048, "lat": 56.328674}}, {"id": 875297, "name": "Zaton Imeni Karla Marksa", "country": "RU", "coord": {"lon": 44.028332, "lat": 56.344166}}, {"id": 465286, "name": "Zalesnaya", "country": "RU", "coord": {"lon": 44.049999, "lat": 56.366669}}, {"id": 875310, "name": "Panovo", "country": "RU", "coord": {"lon": 44.048332, "lat": 56.375832}}, {"id": 875302, "name": "Botalovo", "country": "RU", "coord": {"lon": 44.031387, "lat": 56.387779}}, {"id": 875301, "name": "Khrushch\u00ebvo", "country": "RU", "coord": {"lon": 44.0275, "lat": 56.393055}}, {"id": 482372, "name": "Tolokontsevo", "country": "RU", "coord": {"lon": 44, "lat": 56.400002}}, {"id": 522871, "name": "Neklyudovo", "country": "RU", "coord": {"lon": 43.981388, "lat": 56.411388}}, {"id": 6607759, "name": "Taynovo", "country": "RU", "coord": {"lon": 43.970554, "lat": 56.41861}}, {"id": 6607812, "name": "Medvedkovo", "country": "RU", "coord": {"lon": 43.959999, "lat": 56.419998}}, {"id": 6607803, "name": "Ogolikhino", "country": "RU", "coord": {"lon": 43.919998, "lat": 56.43}}, {"id": 6607802, "name": "Petukhovo", "country": "RU", "coord": {"lon": 43.900002, "lat": 56.439999}}, {"id": 6607800, "name": "Shaposhnoye", "country": "RU", "coord": {"lon": 43.900002, "lat": 56.450001}}, {"id": 6607806, "name": "Markovo", "country": "RU", "coord": {"lon": 43.889999, "lat": 56.459999}}, {"id": 464473, "name": "Zarubino", "country": "RU", "coord": {"lon": 43.883331, "lat": 56.466667}}, {"id": 6607801, "name": "Filino", "country": "RU", "coord": {"lon": 43.880001, "lat": 56.48}}, {"id": 6607797, "name": "Kireyevo", "country": "RU", "coord": {"lon": 43.860001, "lat": 56.479168}}, {"id": 6607952, "name": "Polezhayki", "country": "RU", "coord": {"lon": 43.860001, "lat": 56.5}}, {"id": 6607944, "name": "Pudovo", "country": "RU", "coord": {"lon": 43.84, "lat": 56.5}}, {"id": 6607949, "name": "Maksimovskoye", "country": "RU", "coord": {"lon": 43.84, "lat": 56.52}}, {"id": 6607941, "name": "Yelevo", "country": "RU", "coord": {"lon": 43.834999, "lat": 56.531113}}, {"id": 6607930, "name": "Sidorovo", "country": "RU", "coord": {"lon": 43.799999, "lat": 56.529999}}, {"id": 548285, "name": "Kiryushino", "country": "RU", "coord": {"lon": 43.783333, "lat": 56.533333}}, {"id": 6607877, "name": "Sannikovo", "country": "RU", "coord": {"lon": 43.740002, "lat": 56.549999}}, {"id": 6607889, "name": "Kartashikha", "country": "RU", "coord": {"lon": 43.746944, "lat": 56.558334}}, {"id": 6608121, "name": "Red\u2019kino", "country": "RU", "coord": {"lon": 43.740002, "lat": 56.57}}, {"id": 6608095, "name": "Kozhukhova", "country": "RU", "coord": {"lon": 43.688889, "lat": 56.585556}}, {"id": 6608093, "name": "Nechaikha", "country": "RU", "coord": {"lon": 43.669998, "lat": 56.580002}}, {"id": 6608084, "name": "Lomki", "country": "RU", "coord": {"lon": 43.66, "lat": 56.59}}, {"id": 470782, "name": "Vyalovskaya", "country": "RU", "coord": {"lon": 43.650002, "lat": 56.599998}}, {"id": 6608071, "name": "Karaikha", "country": "RU", "coord": {"lon": 43.626945, "lat": 56.605556}}, {"id": 6608061, "name": "Arkhipikha", "country": "RU", "coord": {"lon": 43.610001, "lat": 56.611668}}, {"id": 6608053, "name": "Volovoye", "country": "RU", "coord": {"lon": 43.586945, "lat": 56.602779}}, {"id": 6608040, "name": "Gorbunovo", "country": "RU", "coord": {"lon": 43.557777, "lat": 56.614166}}, {"id": 6608029, "name": "Rozhkovo", "country": "RU", "coord": {"lon": 43.529999, "lat": 56.619999}}, {"id": 501566, "name": "Rogozhino", "country": "RU", "coord": {"lon": 43.516666, "lat": 56.650002}}, {"id": 6609463, "name": "Lavrushkino", "country": "RU", "coord": {"lon": 42.650002, "lat": 56.720001}}, {"id": 6609446, "name": "Pogorelka", "country": "RU", "coord": {"lon": 42.630001, "lat": 56.720001}}, {"id": 6609438, "name": "Timagino", "country": "RU", "coord": {"lon": 42.611111, "lat": 56.725555}}, {"id": 6609244, "name": "Mal\u2019yanovo", "country": "RU", "coord": {"lon": 42.59, "lat": 56.740002}}, {"id": 6609240, "name": "Zarubino", "country": "RU", "coord": {"lon": 42.562222, "lat": 56.735001}}, {"id": 6609241, "name": "Bolobino", "country": "RU", "coord": {"lon": 42.55389, "lat": 56.740555}}, {"id": 6609143, "name": "Parshukovo", "country": "RU", "coord": {"lon": 42.509998, "lat": 56.740002}}, {"id": 488973, "name": "Starilovo", "country": "RU", "coord": {"lon": 42.492779, "lat": 56.755554}}, {"id": 6609139, "name": "Sakharovo", "country": "RU", "coord": {"lon": 42.470001, "lat": 56.75}}, {"id": 547030, "name": "Kobelyata", "country": "RU", "coord": {"lon": 42.450001, "lat": 56.783333}}, {"id": 470128, "name": "Vysokovo", "country": "RU", "coord": {"lon": 42.400002, "lat": 56.766666}}, {"id": 6609039, "name": "Malakhovo", "country": "RU", "coord": {"lon": 42.380001, "lat": 56.77}}, {"id": 6609032, "name": "Khmelino", "country": "RU", "coord": {"lon": 42.358612, "lat": 56.771389}}, {"id": 496584, "name": "Serkovo", "country": "RU", "coord": {"lon": 42.333332, "lat": 56.783333}}, {"id": 6609009, "name": "Martynovo", "country": "RU", "coord": {"lon": 42.34, "lat": 56.799999}}, {"id": 523816, "name": "Myt", "country": "RU", "coord": {"lon": 42.312778, "lat": 56.814999}}, {"id": 6609011, "name": "Vanino", "country": "RU", "coord": {"lon": 42.283054, "lat": 56.849445}}, {"id": 6608950, "name": "Okul\u2019tsevo", "country": "RU", "coord": {"lon": 42.220001, "lat": 56.84}}, {"id": 479183, "name": "Ul\u2019yanikha", "country": "RU", "coord": {"lon": 42.150002, "lat": 56.833332}}, {"id": 538785, "name": "Kurilikha", "country": "RU", "coord": {"lon": 42.116669, "lat": 56.849998}}, {"id": 6608705, "name": "Zimnitsy Malyye", "country": "RU", "coord": {"lon": 42.099998, "lat": 56.854168}}, {"id": 512758, "name": "Panovo", "country": "RU", "coord": {"lon": 42.078335, "lat": 56.850277}}, {"id": 6608708, "name": "Bokari", "country": "RU", "coord": {"lon": 42.076111, "lat": 56.851112}}, {"id": 6608675, "name": "Kazakovo", "country": "RU", "coord": {"lon": 42.051666, "lat": 56.824165}}, {"id": 6423288, "name": "Meleshino", "country": "RU", "coord": {"lon": 41.989723, "lat": 56.824444}}, {"id": 6423285, "name": "Baryshki", "country": "RU", "coord": {"lon": 41.944168, "lat": 56.8125}}, {"id": 578053, "name": "Belikovo", "country": "RU", "coord": {"lon": 41.93, "lat": 56.810001}}, {"id": 6423283, "name": "Mukhino", "country": "RU", "coord": {"lon": 41.917778, "lat": 56.823612}}, {"id": 508115, "name": "Podolino", "country": "RU", "coord": {"lon": 41.907501, "lat": 56.825558}}, {"id": 513095, "name": "Palekh", "country": "RU", "coord": {"lon": 41.857224, "lat": 56.802776}}, {"id": 6423273, "name": "Kovshovo", "country": "RU", "coord": {"lon": 41.854168, "lat": 56.814999}}, {"id": 6423270, "name": "Dyagilevo", "country": "RU", "coord": {"lon": 41.821388, "lat": 56.818611}}, {"id": 542066, "name": "Krasnoye", "country": "RU", "coord": {"lon": 41.815556, "lat": 56.824165}}, {"id": 6423267, "name": "Luzhki", "country": "RU", "coord": {"lon": 41.779446, "lat": 56.824444}}, {"id": 6423174, "name": "Svergino", "country": "RU", "coord": {"lon": 41.824165, "lat": 56.78611}}, {"id": 6423177, "name": "Khrul\u00ebvo", "country": "RU", "coord": {"lon": 41.830555, "lat": 56.753613}}, {"id": 482960, "name": "Timenka", "country": "RU", "coord": {"lon": 41.810833, "lat": 56.748333}}, {"id": 6423176, "name": "Kostyukhino", "country": "RU", "coord": {"lon": 41.809444, "lat": 56.736111}}, {"id": 527901, "name": "Medvezh\u2019ye", "country": "RU", "coord": {"lon": 41.845833, "lat": 56.709999}}, {"id": 505494, "name": "Preobrazhenskoye", "country": "RU", "coord": {"lon": 41.834999, "lat": 56.648888}}, {"id": 523600, "name": "Nagornovo", "country": "RU", "coord": {"lon": 41.863056, "lat": 56.630833}}, {"id": 504605, "name": "Protas\u2019yevo", "country": "RU", "coord": {"lon": 41.933334, "lat": 56.616669}}, {"id": 6422865, "name": "Tarantayevo", "country": "RU", "coord": {"lon": 41.973331, "lat": 56.575279}}, {"id": 466084, "name": "Yuzha", "country": "RU", "coord": {"lon": 42.012222, "lat": 56.583057}}, {"id": 6610100, "name": "Nef\u00ebdovo", "country": "RU", "coord": {"lon": 42, "lat": 56.59}}, {"id": 6422862, "name": "Rebrovo", "country": "RU", "coord": {"lon": 41.964722, "lat": 56.575001}}, {"id": 543847, "name": "Kostyayevo", "country": "RU", "coord": {"lon": 41.944721, "lat": 56.580833}}, {"id": 6422852, "name": "Soino", "country": "RU", "coord": {"lon": 41.923889, "lat": 56.583889}}, {"id": 6422850, "name": "Rusino", "country": "RU", "coord": {"lon": 41.911667, "lat": 56.584999}}, {"id": 549645, "name": "Kholuy", "country": "RU", "coord": {"lon": 41.869167, "lat": 56.575001}}, {"id": 559188, "name": "Gavrishevo", "country": "RU", "coord": {"lon": 41.83889, "lat": 56.561668}}, {"id": 6422821, "name": "Snegir\u00ebvo", "country": "RU", "coord": {"lon": 41.799999, "lat": 56.545555}}, {"id": 6422819, "name": "Kosovka", "country": "RU", "coord": {"lon": 41.773888, "lat": 56.551109}}, {"id": 6422815, "name": "Mikheyevo", "country": "RU", "coord": {"lon": 41.720001, "lat": 56.553612}}, {"id": 554758, "name": "Izotino", "country": "RU", "coord": {"lon": 41.69611, "lat": 56.548889}}, {"id": 6422802, "name": "Man\u2019shino", "country": "RU", "coord": {"lon": 41.676666, "lat": 56.553612}}, {"id": 6422800, "name": "Churakovo", "country": "RU", "coord": {"lon": 41.666389, "lat": 56.551388}}, {"id": 533740, "name": "Luchkino", "country": "RU", "coord": {"lon": 41.639999, "lat": 56.540001}}, {"id": 495822, "name": "Shapkino", "country": "RU", "coord": {"lon": 41.595554, "lat": 56.52972}}, {"id": 6422675, "name": "Il\u2019inskaya", "country": "RU", "coord": {"lon": 41.578335, "lat": 56.538612}}, {"id": 559323, "name": "Goryach\u00ebvo", "country": "RU", "coord": {"lon": 41.562778, "lat": 56.543888}}, {"id": 6422790, "name": "Isakovo", "country": "RU", "coord": {"lon": 41.536667, "lat": 56.541668}}, {"id": 496721, "name": "Sergeyevo", "country": "RU", "coord": {"lon": 41.500832, "lat": 56.540279}}, {"id": 6422768, "name": "Pel\u2019khovo", "country": "RU", "coord": {"lon": 41.486942, "lat": 56.553612}}, {"id": 564833, "name": "Dubakino", "country": "RU", "coord": {"lon": 41.445557, "lat": 56.561111}}, {"id": 472026, "name": "Voronikha", "country": "RU", "coord": {"lon": 41.427776, "lat": 56.522499}}, {"id": 6422654, "name": "Dubrovka", "country": "RU", "coord": {"lon": 41.427502, "lat": 56.519722}}, {"id": 6422657, "name": "Lych\u00ebvo", "country": "RU", "coord": {"lon": 41.436668, "lat": 56.500832}}, {"id": 576992, "name": "Ber\u00ebzovka", "country": "RU", "coord": {"lon": 41.43, "lat": 56.48}}, {"id": 573202, "name": "Vysokovo", "country": "RU", "coord": {"lon": 41.416111, "lat": 56.482224}}, {"id": 483184, "name": "Tet\u00ebrino", "country": "RU", "coord": {"lon": 41.382221, "lat": 56.48}}, {"id": 553668, "name": "Kamenka", "country": "RU", "coord": {"lon": 45.579723, "lat": 56.184166}}, {"id": 6422510, "name": "Babikovka", "country": "RU", "coord": {"lon": 41.372223, "lat": 56.481388}}, {"id": 6422509, "name": "Rogozinikha", "country": "RU", "coord": {"lon": 41.365276, "lat": 56.479168}}, {"id": 493926, "name": "Shmel\u00ebvo", "country": "RU", "coord": {"lon": 41.35611, "lat": 56.474445}}, {"id": 6422508, "name": "Ivakino", "country": "RU", "coord": {"lon": 41.360279, "lat": 56.464443}}, {"id": 6422507, "name": "Malyye Vsegodichi", "country": "RU", "coord": {"lon": 41.349445, "lat": 56.447498}}, {"id": 573923, "name": "Bol\u2019shiye Vsegodichi", "country": "RU", "coord": {"lon": 41.326668, "lat": 56.445278}}, {"id": 561499, "name": "Gigant", "country": "RU", "coord": {"lon": 41.296112, "lat": 56.44389}}, {"id": 6422506, "name": "Kryachkovo", "country": "RU", "coord": {"lon": 41.274723, "lat": 56.44278}}, {"id": 6422392, "name": "Kuznechikha", "country": "RU", "coord": {"lon": 41.253056, "lat": 56.411667}}, {"id": 562970, "name": "Fedulovo", "country": "RU", "coord": {"lon": 41.25, "lat": 56.400002}}, {"id": 500818, "name": "Ruchey", "country": "RU", "coord": {"lon": 41.240833, "lat": 56.398609}}, {"id": 6422384, "name": "Bizimovo", "country": "RU", "coord": {"lon": 41.203335, "lat": 56.402222}}, {"id": 6422380, "name": "Kislyakovo", "country": "RU", "coord": {"lon": 41.178055, "lat": 56.416111}}, {"id": 6422379, "name": "Malygino", "country": "RU", "coord": {"lon": 41.156944, "lat": 56.410831}}, {"id": 6422374, "name": "Sosnovka", "country": "RU", "coord": {"lon": 41.134998, "lat": 56.406387}}, {"id": 6422367, "name": "Imeni Karla Marksa", "country": "RU", "coord": {"lon": 41.099445, "lat": 56.413334}}, {"id": 6422368, "name": "Dmitriyevskiy Pogost", "country": "RU", "coord": {"lon": 41.076389, "lat": 56.399445}}, {"id": 505407, "name": "Pridorozhnyy", "country": "RU", "coord": {"lon": 41.066113, "lat": 56.393055}}, {"id": 475782, "name": "Vereshchagino", "country": "RU", "coord": {"lon": 41.086388, "lat": 56.371666}}, {"id": 519168, "name": "Novki", "country": "RU", "coord": {"lon": 41.077499, "lat": 56.360832}}, {"id": 553389, "name": "Kameshkovo", "country": "RU", "coord": {"lon": 41.004723, "lat": 56.348057}}, {"id": 519410, "name": "Novaya Zarya", "country": "RU", "coord": {"lon": 41, "lat": 56.349998}}, {"id": 576781, "name": "Berkovo", "country": "RU", "coord": {"lon": 40.959999, "lat": 56.330002}}, {"id": 543496, "name": "Koverino", "country": "RU", "coord": {"lon": 40.883331, "lat": 56.366669}}, {"id": 548286, "name": "Kiryushino", "country": "RU", "coord": {"lon": 40.883331, "lat": 56.383331}}, {"id": 498394, "name": "Saulovo", "country": "RU", "coord": {"lon": 40.799999, "lat": 56.416668}}, {"id": 496795, "name": "Sergeikha", "country": "RU", "coord": {"lon": 40.766666, "lat": 56.416668}}, {"id": 519561, "name": "Novaya Pechuga", "country": "RU", "coord": {"lon": 40.75, "lat": 56.400002}}, {"id": 510444, "name": "Pesochnoye", "country": "RU", "coord": {"lon": 40.666668, "lat": 56.383331}}, {"id": 532928, "name": "Lyakhovitsy", "country": "RU", "coord": {"lon": 40.616669, "lat": 56.416668}}, {"id": 498952, "name": "Samoylovo", "country": "RU", "coord": {"lon": 40.599998, "lat": 56.450001}}, {"id": 548781, "name": "Kideksha", "country": "RU", "coord": {"lon": 40.516666, "lat": 56.416668}}, {"id": 542073, "name": "Krasnoye", "country": "RU", "coord": {"lon": 40.5, "lat": 56.433334}}, {"id": 485824, "name": "Suzdal", "country": "RU", "coord": {"lon": 40.441387, "lat": 56.428055}}, {"id": 497592, "name": "Sel\u2019tso", "country": "RU", "coord": {"lon": 40.416668, "lat": 56.433334}}, {"id": 501425, "name": "Romanovo", "country": "RU", "coord": {"lon": 40.400002, "lat": 56.483334}}, {"id": 527585, "name": "Menchakovo", "country": "RU", "coord": {"lon": 40.383331, "lat": 56.5}}, {"id": 555580, "name": "Ivan\u2019kovo", "country": "RU", "coord": {"lon": 40.316666, "lat": 56.516666}}, {"id": 508120, "name": "Podolets", "country": "RU", "coord": {"lon": 40.25, "lat": 56.516666}}, {"id": 495063, "name": "Shekshovo", "country": "RU", "coord": {"lon": 40.183334, "lat": 56.533333}}, {"id": 463575, "name": "Zhadinskoye", "country": "RU", "coord": {"lon": 40.183334, "lat": 56.549999}}, {"id": 462256, "name": "Zakomel\u2019ye", "country": "RU", "coord": {"lon": 40.150002, "lat": 56.566666}}, {"id": 561783, "name": "Gavrilov Posad", "country": "RU", "coord": {"lon": 40.1175, "lat": 56.559723}}, {"id": 559572, "name": "Gorodishchi", "country": "RU", "coord": {"lon": 40.066666, "lat": 56.566666}}, {"id": 514697, "name": "Osanovets", "country": "RU", "coord": {"lon": 39.983334, "lat": 56.566666}}, {"id": 494320, "name": "Shipilovo", "country": "RU", "coord": {"lon": 39.900002, "lat": 56.516666}}, {"id": 530675, "name": "Maloluchinskoye", "country": "RU", "coord": {"lon": 39.866669, "lat": 56.516666}}, {"id": 463912, "name": "Zel\u00ebnaya Polyana", "country": "RU", "coord": {"lon": 39.833332, "lat": 56.466667}}, {"id": 539276, "name": "Kumino", "country": "RU", "coord": {"lon": 39.75, "lat": 56.483334}}, {"id": 537873, "name": "Kuz\u2019madino", "country": "RU", "coord": {"lon": 39.683334, "lat": 56.483334}}, {"id": 466215, "name": "Yuryev-Polskiy", "country": "RU", "coord": {"lon": 39.683334, "lat": 56.5}}, {"id": 490177, "name": "Sosnovyy Bor", "country": "RU", "coord": {"lon": 39.666668, "lat": 56.5}}, {"id": 513104, "name": "Palazino", "country": "RU", "coord": {"lon": 39.616669, "lat": 56.466667}}, {"id": 581920, "name": "Andreyevskoye", "country": "RU", "coord": {"lon": 39.599998, "lat": 56.43}}, {"id": 578641, "name": "Bavleny", "country": "RU", "coord": {"lon": 39.560001, "lat": 56.400002}}, {"id": 560981, "name": "Glyadki", "country": "RU", "coord": {"lon": 39.549999, "lat": 56.366669}}, {"id": 532794, "name": "Lych\u00ebvo", "country": "RU", "coord": {"lon": 39.433334, "lat": 56.383331}}, {"id": 534754, "name": "Litvinovo", "country": "RU", "coord": {"lon": 39.400002, "lat": 56.316666}}, {"id": 546521, "name": "Kolchugino", "country": "RU", "coord": {"lon": 39.383331, "lat": 56.299999}}, {"id": 479184, "name": "Ul\u2019yanikha", "country": "RU", "coord": {"lon": 39.433334, "lat": 56.283333}}, {"id": 486444, "name": "Sukmanikha", "country": "RU", "coord": {"lon": 39.483334, "lat": 56.25}}, {"id": 492339, "name": "Skorodumka", "country": "RU", "coord": {"lon": 39.5, "lat": 56.216667}}, {"id": 464217, "name": "Zavalino", "country": "RU", "coord": {"lon": 39.450001, "lat": 56.200001}}, {"id": 472471, "name": "Volodino", "country": "RU", "coord": {"lon": 39.349998, "lat": 56.150002}}, {"id": 476359, "name": "Vaulovo", "country": "RU", "coord": {"lon": 39.283333, "lat": 56.133331}}, {"id": 524059, "name": "Myachikovo", "country": "RU", "coord": {"lon": 39.266666, "lat": 56.083332}}, {"id": 584354, "name": "Abrosovo", "country": "RU", "coord": {"lon": 39.25, "lat": 56.060001}}, {"id": 560645, "name": "Golovino", "country": "RU", "coord": {"lon": 39.183334, "lat": 56.016666}}, {"id": 491684, "name": "Smolenskaya Oblast\u2019", "country": "RU", "coord": {"lon": 33, "lat": 55}}, {"id": 505425, "name": "Pridneprov\u2019ye", "country": "RU", "coord": {"lon": 32.049999, "lat": 54.783333}}, {"id": 815250, "name": "Koval\u00ebvka", "country": "RU", "coord": {"lon": 32.035, "lat": 54.753613}}, {"id": 468799, "name": "Yasennaya", "country": "RU", "coord": {"lon": 31.966667, "lat": 54.766666}}, {"id": 526644, "name": "Mikhnovka", "country": "RU", "coord": {"lon": 31.964167, "lat": 54.756111}}, {"id": 494157, "name": "Shiryayevo", "country": "RU", "coord": {"lon": 31.933332, "lat": 54.733334}}, {"id": 533818, "name": "Lubnya", "country": "RU", "coord": {"lon": 31.884722, "lat": 54.718056}}, {"id": 549860, "name": "Khokhlovo", "country": "RU", "coord": {"lon": 31.84111, "lat": 54.698334}}, {"id": 475840, "name": "Verbilovo", "country": "RU", "coord": {"lon": 31.799999, "lat": 54.683334}}, {"id": 544360, "name": "Korytnya", "country": "RU", "coord": {"lon": 31.75, "lat": 54.683334}}, {"id": 508271, "name": "Podkletnya", "country": "RU", "coord": {"lon": 31.75, "lat": 54.666668}}, {"id": 525199, "name": "Morozovka", "country": "RU", "coord": {"lon": 31.700001, "lat": 54.683334}}, {"id": 533513, "name": "Lukinichi", "country": "RU", "coord": {"lon": 31.683332, "lat": 54.650002}}, {"id": 499728, "name": "Rzhavka Vtoraya", "country": "RU", "coord": {"lon": 31.666668, "lat": 54.650002}}, {"id": 462864, "name": "Zhornovka", "country": "RU", "coord": {"lon": 31.633333, "lat": 54.633331}}, {"id": 526834, "name": "Mikhaylovo", "country": "RU", "coord": {"lon": 31.566668, "lat": 54.633331}}, {"id": 527467, "name": "Merlino", "country": "RU", "coord": {"lon": 31.586111, "lat": 54.601665}}, {"id": 521428, "name": "Nikulino", "country": "RU", "coord": {"lon": 31.533333, "lat": 54.599998}}, {"id": 489601, "name": "Sredneye", "country": "RU", "coord": {"lon": 31.490557, "lat": 54.610279}}, {"id": 471573, "name": "Voskresen\u2019ye", "country": "RU", "coord": {"lon": 31.483334, "lat": 54.566666}}, {"id": 541867, "name": "Krasnyy", "country": "RU", "coord": {"lon": 31.433332, "lat": 54.56778}}, {"id": 574414, "name": "Bol\u2019she-Dobraya", "country": "RU", "coord": {"lon": 31.416668, "lat": 54.566666}}, {"id": 575147, "name": "Bol\u2019shaya Dobraya", "country": "RU", "coord": {"lon": 31.383333, "lat": 54.566666}}, {"id": 492747, "name": "Sinyaki", "country": "RU", "coord": {"lon": 31.325832, "lat": 54.580833}}, {"id": 571860, "name": "Boyarintsevo", "country": "RU", "coord": {"lon": 31.289722, "lat": 54.589722}}, {"id": 561132, "name": "Glubokoye", "country": "RU", "coord": {"lon": 31.250834, "lat": 54.612499}}, {"id": 532830, "name": "Lyashchi", "country": "RU", "coord": {"lon": 31.200001, "lat": 54.583332}}, {"id": 620134, "name": "Vitsyebskaya Voblasts\u2019", "country": "BY", "coord": {"lon": 29.5, "lat": 55}}, {"id": 625777, "name": "Lyady", "country": "BY", "coord": {"lon": 31.172222, "lat": 54.602779}}, {"id": 627445, "name": "Kholbnya", "country": "BY", "coord": {"lon": 31.1, "lat": 54.599998}}, {"id": 813620, "name": "Volevki", "country": "BY", "coord": {"lon": 31.079445, "lat": 54.622501}}, {"id": 813643, "name": "Kalinovka", "country": "BY", "coord": {"lon": 31.000278, "lat": 54.597221}}, {"id": 622688, "name": "Rostkovo", "country": "BY", "coord": {"lon": 30.950001, "lat": 54.599998}}, {"id": 626698, "name": "Koz\u2019yany", "country": "BY", "coord": {"lon": 30.916668, "lat": 54.599998}}, {"id": 626654, "name": "Krasnaya Sloboda", "country": "BY", "coord": {"lon": 30.836666, "lat": 54.587776}}, {"id": 629858, "name": "Bol\u2019shoye Savino", "country": "BY", "coord": {"lon": 30.783333, "lat": 54.583332}}, {"id": 619594, "name": "Yeremeyevshchina", "country": "BY", "coord": {"lon": 30.766666, "lat": 54.566666}}, {"id": 628758, "name": "Dubrowna", "country": "BY", "coord": {"lon": 30.690556, "lat": 54.573334}}, {"id": 621255, "name": "Strazhevo", "country": "BY", "coord": {"lon": 30.6, "lat": 54.566666}}, {"id": 626579, "name": "Krasnyy Pos\u00eblok", "country": "BY", "coord": {"lon": 30.583332, "lat": 54.533333}}, {"id": 629625, "name": "Brili", "country": "BY", "coord": {"lon": 30.561111, "lat": 54.523056}}, {"id": 626238, "name": "Larinovka", "country": "BY", "coord": {"lon": 30.483334, "lat": 54.516666}}, {"id": 624079, "name": "Orsha", "country": "BY", "coord": {"lon": 30.405277, "lat": 54.515278}}, {"id": 620955, "name": "Tatarsk", "country": "BY", "coord": {"lon": 30.333332, "lat": 54.5}}, {"id": 630431, "name": "Baran", "country": "BY", "coord": {"lon": 30.318056, "lat": 54.476391}}, {"id": 629272, "name": "Cherven\u2019", "country": "BY", "coord": {"lon": 30.316668, "lat": 54.466667}}, {"id": 625550, "name": "Malinovka", "country": "BY", "coord": {"lon": 30.35, "lat": 54.433334}}, {"id": 626050, "name": "Lipki", "country": "BY", "coord": {"lon": 30.299999, "lat": 54.400002}}, {"id": 625073, "name": "Mahilyowskaya Voblasts\u2019", "country": "BY", "coord": {"lon": 30.75, "lat": 54}}, {"id": 813247, "name": "Maloye Zamosh\u2019ye", "country": "BY", "coord": {"lon": 30.309999, "lat": 54.375278}}, {"id": 627490, "name": "Khimy", "country": "BY", "coord": {"lon": 30.266666, "lat": 54.366669}}, {"id": 630630, "name": "Aleksandriya", "country": "BY", "coord": {"lon": 30.283333, "lat": 54.333332}}, {"id": 625240, "name": "Mezhniki", "country": "BY", "coord": {"lon": 30.258333, "lat": 54.311668}}, {"id": 621769, "name": "Slobodka", "country": "BY", "coord": {"lon": 30.250834, "lat": 54.277222}}, {"id": 812490, "name": "Nizovtsy", "country": "BY", "coord": {"lon": 30.239721, "lat": 54.25111}}, {"id": 619095, "name": "Zarovtsy", "country": "BY", "coord": {"lon": 30.245832, "lat": 54.232498}}, {"id": 622034, "name": "Shklow", "country": "BY", "coord": {"lon": 30.291945, "lat": 54.210835}}, {"id": 622455, "name": "Ryzhkovichi", "country": "BY", "coord": {"lon": 30.316668, "lat": 54.183334}}, {"id": 812538, "name": "Dan\u2019kovichi", "country": "BY", "coord": {"lon": 30.327499, "lat": 54.173058}}, {"id": 626005, "name": "Litovsk", "country": "BY", "coord": {"lon": 30.316668, "lat": 54.147221}}, {"id": 625642, "name": "Makhovoye", "country": "BY", "coord": {"lon": 30.299999, "lat": 54.116669}}, {"id": 627664, "name": "Kamennyye Lavy", "country": "BY", "coord": {"lon": 30.301666, "lat": 54.091667}}, {"id": 630391, "name": "Barsuki", "country": "BY", "coord": {"lon": 30.320278, "lat": 54.055557}}, {"id": 626360, "name": "Kupely", "country": "BY", "coord": {"lon": 30.316668, "lat": 54.033333}}, {"id": 816218, "name": "Palykavichy Pyershyya", "country": "BY", "coord": {"lon": 30.349167, "lat": 53.993057}}, {"id": 618768, "name": "Zhukovo", "country": "BY", "coord": {"lon": 30.291389, "lat": 53.985832}}, {"id": 816214, "name": "Gay", "country": "BY", "coord": {"lon": 30.298332, "lat": 53.96389}}, {"id": 623255, "name": "Polykovichi", "country": "BY", "coord": {"lon": 30.335278, "lat": 53.965832}}, {"id": 627631, "name": "Karabanovka", "country": "BY", "coord": {"lon": 30.364721, "lat": 53.946388}}, {"id": 625665, "name": "Mahilyow", "country": "BY", "coord": {"lon": 30.33639, "lat": 53.913891}}, {"id": 700924, "name": "Mogil\u00ebv", "country": "UA", "coord": {"lon": 30.35, "lat": 53.900002}}, {"id": 620853, "name": "Tishovka", "country": "BY", "coord": {"lon": 30.283333, "lat": 53.883331}}, {"id": 629471, "name": "Buynichy", "country": "BY", "coord": {"lon": 30.263889, "lat": 53.850555}}, {"id": 622341, "name": "Selets", "country": "BY", "coord": {"lon": 30.241112, "lat": 53.826942}}, {"id": 626638, "name": "Krasnitsa", "country": "BY", "coord": {"lon": 30.184723, "lat": 53.789165}}, {"id": 626633, "name": "Krasnitsa Vtoraya", "country": "BY", "coord": {"lon": 30.183332, "lat": 53.783333}}, {"id": 625245, "name": "Myazhysyatki", "country": "BY", "coord": {"lon": 30.168056, "lat": 53.770557}}, {"id": 815261, "name": "Pushcha", "country": "BY", "coord": {"lon": 30.128056, "lat": 53.753056}}, {"id": 814948, "name": "Podbrod\u2019ye", "country": "BY", "coord": {"lon": 30.098333, "lat": 53.726112}}, {"id": 628776, "name": "Dubrovka", "country": "BY", "coord": {"lon": 30.083332, "lat": 53.700001}}, {"id": 623228, "name": "Poplavshchina", "country": "BY", "coord": {"lon": 30.045834, "lat": 53.691113}}, {"id": 814943, "name": "Rudki", "country": "BY", "coord": {"lon": 30.027222, "lat": 53.676388}}, {"id": 628402, "name": "Glukhaya Seliba", "country": "BY", "coord": {"lon": 30.021944, "lat": 53.659168}}, {"id": 621563, "name": "Stakhovshchina", "country": "BY", "coord": {"lon": 30.016666, "lat": 53.639721}}, {"id": 628549, "name": "Gal\u2019kovka", "country": "BY", "coord": {"lon": 30.010834, "lat": 53.621113}}, {"id": 618716, "name": "Zolotva", "country": "BY", "coord": {"lon": 29.983334, "lat": 53.599998}}, {"id": 619917, "name": "Vsenezh\u2019ye", "country": "BY", "coord": {"lon": 29.916668, "lat": 53.599998}}, {"id": 628756, "name": "Dubrovo", "country": "BY", "coord": {"lon": 29.9, "lat": 53.583332}}, {"id": 628559, "name": "Galeyevka", "country": "BY", "coord": {"lon": 29.866667, "lat": 53.533333}}, {"id": 629388, "name": "Chechevichi", "country": "BY", "coord": {"lon": 29.85, "lat": 53.516666}}, {"id": 618965, "name": "Zbyshin", "country": "BY", "coord": {"lon": 29.766666, "lat": 53.5}}, {"id": 629783, "name": "Borki", "country": "BY", "coord": {"lon": 29.700001, "lat": 53.466667}}, {"id": 623641, "name": "Perunovo", "country": "BY", "coord": {"lon": 29.700001, "lat": 53.400002}}, {"id": 624535, "name": "Novgorodok", "country": "BY", "coord": {"lon": 29.616667, "lat": 53.349998}}, {"id": 627643, "name": "Kaplanovka", "country": "BY", "coord": {"lon": 29.583332, "lat": 53.349998}}, {"id": 629736, "name": "Borovitsa", "country": "BY", "coord": {"lon": 29.566668, "lat": 53.333332}}, {"id": 619803, "name": "Vyzhary Vtoryye", "country": "BY", "coord": {"lon": 29.533333, "lat": 53.316666}}, {"id": 619805, "name": "Vyzhary Pervyye", "country": "BY", "coord": {"lon": 29.516666, "lat": 53.316666}}, {"id": 627414, "name": "Khomichi", "country": "BY", "coord": {"lon": 29.483334, "lat": 53.299999}}, {"id": 627272, "name": "Kirawsk", "country": "BY", "coord": {"lon": 29.473612, "lat": 53.268612}}, {"id": 629516, "name": "Bukino", "country": "BY", "coord": {"lon": 29.450001, "lat": 53.25}}, {"id": 620879, "name": "Teykovichi", "country": "BY", "coord": {"lon": 29.433332, "lat": 53.216667}}, {"id": 628149, "name": "Gorokhovka", "country": "BY", "coord": {"lon": 29.4, "lat": 53.183334}}, {"id": 619670, "name": "Yasnyy Les", "country": "BY", "coord": {"lon": 29.35, "lat": 53.166668}}, {"id": 620851, "name": "Titovka", "country": "BY", "coord": {"lon": 29.299999, "lat": 53.133331}}, {"id": 630468, "name": "Babruysk", "country": "BY", "coord": {"lon": 29.233334, "lat": 53.150002}}, {"id": 627265, "name": "Kiselevichi", "country": "BY", "coord": {"lon": 29.15, "lat": 53.150002}}, {"id": 621779, "name": "Slabodka", "country": "BY", "coord": {"lon": 29.116667, "lat": 53.116669}}, {"id": 623466, "name": "Pobokovichi", "country": "BY", "coord": {"lon": 29.016666, "lat": 53.133331}}, {"id": 630428, "name": "Baranovichi", "country": "BY", "coord": {"lon": 28.983334, "lat": 53.166668}}, {"id": 623986, "name": "Vosava", "country": "BY", "coord": {"lon": 28.916668, "lat": 53.166668}}, {"id": 621313, "name": "Stefanopol\u2019", "country": "BY", "coord": {"lon": 28.85, "lat": 53.150002}}, {"id": 620643, "name": "Ubolot\u2019ye", "country": "BY", "coord": {"lon": 28.816668, "lat": 53.166668}}, {"id": 626864, "name": "Karytnaye", "country": "BY", "coord": {"lon": 28.766666, "lat": 53.166668}}, {"id": 620970, "name": "-", "country": "BY", "coord": {"lon": 28.75, "lat": 53.166668}}, {"id": 621420, "name": "Staroye Selo", "country": "BY", "coord": {"lon": 28.716667, "lat": 53.183334}}, {"id": 629785, "name": "Borki", "country": "BY", "coord": {"lon": 28.683332, "lat": 53.233334}}, {"id": 626945, "name": "Karany", "country": "BY", "coord": {"lon": 28.683332, "lat": 53.25}}, {"id": 624034, "name": "Asipovichy", "country": "BY", "coord": {"lon": 28.642221, "lat": 53.293331}}, {"id": 623985, "name": "Osovo", "country": "BY", "coord": {"lon": 28.6, "lat": 53.283333}}, {"id": 623227, "name": "Poplavy", "country": "BY", "coord": {"lon": 28.533333, "lat": 53.266666}}, {"id": 623465, "name": "Pobokovichi", "country": "BY", "coord": {"lon": 28.5, "lat": 53.25}}, {"id": 625234, "name": "Myazovichy", "country": "BY", "coord": {"lon": 28.416668, "lat": 53.233334}}, {"id": 626986, "name": "Kontsy", "country": "BY", "coord": {"lon": 28.283333, "lat": 53.216667}}, {"id": 628897, "name": "Drychyn", "country": "BY", "coord": {"lon": 28.233334, "lat": 53.216667}}, {"id": 619536, "name": "Yurevichi", "country": "BY", "coord": {"lon": 28.216667, "lat": 53.233334}}, {"id": 618816, "name": "Zhitin", "country": "BY", "coord": {"lon": 28.183332, "lat": 53.25}}, {"id": 626095, "name": "Lyawki", "country": "BY", "coord": {"lon": 28.049999, "lat": 53.200001}}, {"id": 622125, "name": "Shchytkavichy", "country": "BY", "coord": {"lon": 27.983334, "lat": 53.216667}}, {"id": 626034, "name": "Lipovka", "country": "BY", "coord": {"lon": 27.950001, "lat": 53.233334}}, {"id": 625298, "name": "Medenoye", "country": "BY", "coord": {"lon": 27.866667, "lat": 53.233334}}, {"id": 630223, "name": "Berazinets", "country": "BY", "coord": {"lon": 27.75, "lat": 53.216667}}, {"id": 623306, "name": "Polikarovka", "country": "BY", "coord": {"lon": 27.733334, "lat": 53.216667}}, {"id": 623660, "name": "Perevoloka", "country": "BY", "coord": {"lon": 27.666668, "lat": 53.233334}}, {"id": 619204, "name": "Zamostsye", "country": "BY", "coord": {"lon": 27.583332, "lat": 53.200001}}, {"id": 622044, "name": "Shyshchytsy", "country": "BY", "coord": {"lon": 27.549999, "lat": 53.216667}}, {"id": 620570, "name": "Ul\u2019yanovka", "country": "BY", "coord": {"lon": 27.533333, "lat": 53.200001}}, {"id": 628079, "name": "Hresk", "country": "BY", "coord": {"lon": 27.483334, "lat": 53.166668}}, {"id": 628652, "name": "Dyudevo", "country": "BY", "coord": {"lon": 27.450001, "lat": 53.133331}}, {"id": 618781, "name": "Zhuki", "country": "BY", "coord": {"lon": 27.4, "lat": 53.150002}}, {"id": 626096, "name": "Levinova", "country": "BY", "coord": {"lon": 27.383333, "lat": 53.150002}}, {"id": 628021, "name": "Hrozava", "country": "BY", "coord": {"lon": 27.333332, "lat": 53.166668}}, {"id": 628213, "name": "Gornostaylovo", "country": "BY", "coord": {"lon": 27.299999, "lat": 53.150002}}, {"id": 623921, "name": "Ostrovok", "country": "BY", "coord": {"lon": 27.25, "lat": 53.150002}}, {"id": 624479, "name": "Novosady", "country": "BY", "coord": {"lon": 27.183332, "lat": 53.150002}}, {"id": 621903, "name": "Skabin", "country": "BY", "coord": {"lon": 27.15, "lat": 53.150002}}, {"id": 626956, "name": "Kapyl", "country": "BY", "coord": {"lon": 27.096666, "lat": 53.153057}}, {"id": 624457, "name": "Novos\u00eblki", "country": "BY", "coord": {"lon": 26.983334, "lat": 53.200001}}, {"id": 623155, "name": "Patsyeyki", "country": "BY", "coord": {"lon": 26.966667, "lat": 53.166668}}, {"id": 618890, "name": "Zhaulki", "country": "BY", "coord": {"lon": 26.916668, "lat": 53.166668}}, {"id": 626418, "name": "Kudinovichi", "country": "BY", "coord": {"lon": 26.883333, "lat": 53.183334}}, {"id": 621642, "name": "Saltanawshchyna", "country": "BY", "coord": {"lon": 26.816668, "lat": 53.200001}}, {"id": 627773, "name": "Kachanovichy", "country": "BY", "coord": {"lon": 26.75, "lat": 53.183334}}, {"id": 624399, "name": "Novoye Mesto", "country": "BY", "coord": {"lon": 26.700001, "lat": 53.216667}}, {"id": 624700, "name": "Nyasvizh", "country": "BY", "coord": {"lon": 26.672501, "lat": 53.218056}}, {"id": 622621, "name": "Rudawka", "country": "BY", "coord": {"lon": 26.65, "lat": 53.233334}}, {"id": 619015, "name": "Zavitaya", "country": "BY", "coord": {"lon": 26.633333, "lat": 53.266666}}, {"id": 620475, "name": "Uzhanka", "country": "BY", "coord": {"lon": 26.583332, "lat": 53.299999}}, {"id": 625614, "name": "Mala-Uzhanka", "country": "BY", "coord": {"lon": 26.566668, "lat": 53.299999}}, {"id": 628182, "name": "Haradzyeya", "country": "BY", "coord": {"lon": 26.533333, "lat": 53.316666}}, {"id": 624396, "name": "Novaya Vyoska", "country": "BY", "coord": {"lon": 26.533333, "lat": 53.349998}}, {"id": 623411, "name": "Podlese", "country": "BY", "coord": {"lon": 26.533333, "lat": 53.383331}}, {"id": 621949, "name": "Simakovo", "country": "BY", "coord": {"lon": 26.483334, "lat": 53.400002}}, {"id": 620335, "name": "Velikoye Selo", "country": "BY", "coord": {"lon": 26.5, "lat": 53.433334}}, {"id": 625128, "name": "Mir", "country": "BY", "coord": {"lon": 26.466667, "lat": 53.450001}}, {"id": 623596, "name": "Pesochnaya", "country": "BY", "coord": {"lon": 26.4, "lat": 53.483334}}, {"id": 620786, "name": "Troshchytsy", "country": "BY", "coord": {"lon": 26.383333, "lat": 53.483334}}, {"id": 623934, "name": "Ostrovki", "country": "BY", "coord": {"lon": 26.366667, "lat": 53.5}}, {"id": 619340, "name": "Zagor\u2019ye", "country": "BY", "coord": {"lon": 26.35, "lat": 53.5}}, {"id": 620692, "name": "Turets", "country": "BY", "coord": {"lon": 26.316668, "lat": 53.516666}}, {"id": 629960, "name": "Velikaya Sloboda", "country": "BY", "coord": {"lon": 26.25, "lat": 53.549999}}, {"id": 622816, "name": "Roviny", "country": "BY", "coord": {"lon": 26.133333, "lat": 53.549999}}, {"id": 628035, "name": "Hrodzyenskaya Voblasts\u2019", "country": "BY", "coord": {"lon": 24.5, "lat": 53.5}}, {"id": 626939, "name": "Karelichy", "country": "BY", "coord": {"lon": 26.137777, "lat": 53.565277}}, {"id": 620712, "name": "Tudorovo", "country": "BY", "coord": {"lon": 26.1, "lat": 53.583332}}, {"id": 627106, "name": "Kol\u2019chitsy Novyye", "country": "BY", "coord": {"lon": 26.1, "lat": 53.599998}}, {"id": 623296, "name": "Polonaya", "country": "BY", "coord": {"lon": 26.049999, "lat": 53.599998}}, {"id": 620079, "name": "Vawkavichy", "country": "BY", "coord": {"lon": 25.950001, "lat": 53.583332}}, {"id": 622606, "name": "Rutka Pervaya", "country": "BY", "coord": {"lon": 25.9, "lat": 53.566666}}, {"id": 624785, "name": "Navahrudak", "country": "BY", "coord": {"lon": 25.833332, "lat": 53.599998}}, {"id": 626884, "name": "Korostovo", "country": "BY", "coord": {"lon": 25.833332, "lat": 53.583332}}, {"id": 625259, "name": "Mitropol\u2019", "country": "BY", "coord": {"lon": 25.799999, "lat": 53.599998}}, {"id": 625066, "name": "Mogil\u2019nitsy", "country": "BY", "coord": {"lon": 25.716667, "lat": 53.549999}}, {"id": 626849, "name": "Kashalyova", "country": "BY", "coord": {"lon": 25.716667, "lat": 53.533333}}, {"id": 625742, "name": "Lykovichi", "country": "BY", "coord": {"lon": 26.283333, "lat": 53.516666}}, {"id": 627346, "name": "Khrol\u2019chitsy", "country": "BY", "coord": {"lon": 25.666668, "lat": 53.5}}, {"id": 624453, "name": "Novos\u00eblki", "country": "BY", "coord": {"lon": 25.65, "lat": 53.5}}, {"id": 629183, "name": "Danilavichy", "country": "BY", "coord": {"lon": 25.65, "lat": 53.450001}}, {"id": 624401, "name": "Navayel\u2019nya", "country": "BY", "coord": {"lon": 25.583332, "lat": 53.466667}}, {"id": 623289, "name": "Polonki", "country": "BY", "coord": {"lon": 25.549999, "lat": 53.416668}}, {"id": 628692, "name": "Dvarets", "country": "BY", "coord": {"lon": 25.566668, "lat": 53.400002}}, {"id": 629458, "name": "Belolozy", "country": "BY", "coord": {"lon": 25.6, "lat": 53.316666}}, {"id": 625281, "name": "Melyakhovichi", "country": "BY", "coord": {"lon": 25.6, "lat": 53.299999}}, {"id": 623649, "name": "Pyerkhavichy", "country": "BY", "coord": {"lon": 25.65, "lat": 53.25}}, {"id": 620154, "name": "Vishev", "country": "BY", "coord": {"lon": 25.533333, "lat": 53.233334}}, {"id": 629092, "name": "Dzyerawnaya", "country": "BY", "coord": {"lon": 25.483334, "lat": 53.200001}}, {"id": 619341, "name": "Zagritskovo", "country": "BY", "coord": {"lon": 25.450001, "lat": 53.150002}}, {"id": 623588, "name": "Petralevichi Pervyye", "country": "BY", "coord": {"lon": 25.366667, "lat": 53.116669}}, {"id": 621754, "name": "Slonim", "country": "BY", "coord": {"lon": 25.321943, "lat": 53.086666}}, {"id": 629644, "name": "Brakovo", "country": "BY", "coord": {"lon": 25.283333, "lat": 53.049999}}, {"id": 626826, "name": "Kastsyani", "country": "BY", "coord": {"lon": 25.200001, "lat": 53.066666}}, {"id": 624089, "name": "Novoorlovichi", "country": "BY", "coord": {"lon": 25.183332, "lat": 53.016666}}, {"id": 623848, "name": "Azhinavichy", "country": "BY", "coord": {"lon": 25.166668, "lat": 53.016666}}, {"id": 623762, "name": "Pasinichi", "country": "BY", "coord": {"lon": 25.1, "lat": 53.016666}}, {"id": 627470, "name": "Khmel\u2019nitsa", "country": "BY", "coord": {"lon": 25.133333, "lat": 52.983334}}, {"id": 625100, "name": "Mizhevichy", "country": "BY", "coord": {"lon": 25.083332, "lat": 52.983334}}, {"id": 623925, "name": "Vostrava", "country": "BY", "coord": {"lon": 25.033333, "lat": 52.950001}}, {"id": 626780, "name": "Kovali", "country": "BY", "coord": {"lon": 25.016666, "lat": 52.883331}}, {"id": 629631, "name": "Brestskaya Voblasts\u2019", "country": "BY", "coord": {"lon": 25.5, "lat": 52.5}}, {"id": 622500, "name": "Ruzhany", "country": "BY", "coord": {"lon": 24.891945, "lat": 52.864723}}, {"id": 620015, "name": "Volya", "country": "BY", "coord": {"lon": 24.866667, "lat": 52.849998}}, {"id": 625027, "name": "Molochki", "country": "BY", "coord": {"lon": 24.85, "lat": 52.833332}}, {"id": 627233, "name": "Klepachi", "country": "BY", "coord": {"lon": 24.85, "lat": 52.799999}}, {"id": 621719, "name": "Smolyanitsa", "country": "BY", "coord": {"lon": 24.633333, "lat": 52.700001}}, {"id": 627403, "name": "Kharava", "country": "BY", "coord": {"lon": 24.583332, "lat": 52.633331}}, {"id": 627057, "name": "Kolyadichi", "country": "BY", "coord": {"lon": 24.549999, "lat": 52.650002}}, {"id": 629009, "name": "Dabuchyn", "country": "BY", "coord": {"lon": 24.516666, "lat": 52.616669}}, {"id": 622997, "name": "Pruzhany", "country": "BY", "coord": {"lon": 24.464443, "lat": 52.556667}}, {"id": 622096, "name": "Shani", "country": "BY", "coord": {"lon": 24.4, "lat": 52.533333}}, {"id": 626799, "name": "Kot\u00eblki", "country": "BY", "coord": {"lon": 24.35, "lat": 52.516666}}, {"id": 622206, "name": "Shakuny", "country": "BY", "coord": {"lon": 24.35, "lat": 52.483334}}, {"id": 628204, "name": "Haradzyechna", "country": "BY", "coord": {"lon": 24.299999, "lat": 52.433334}}, {"id": 623440, "name": "Poddubno", "country": "BY", "coord": {"lon": 24.216667, "lat": 52.416668}}, {"id": 622131, "name": "Shcharchova", "country": "BY", "coord": {"lon": 24.15, "lat": 52.416668}}, {"id": 628654, "name": "Dymniki", "country": "BY", "coord": {"lon": 24.1, "lat": 52.383331}}, {"id": 625283, "name": "Mel\u2019niki", "country": "BY", "coord": {"lon": 24.016666, "lat": 52.400002}}, {"id": 623708, "name": "Pyelishcha", "country": "BY", "coord": {"lon": 23.916668, "lat": 52.316666}}, {"id": 623407, "name": "Podlese", "country": "BY", "coord": {"lon": 23.866667, "lat": 52.283333}}, {"id": 620681, "name": "Turna Vyalikaya", "country": "BY", "coord": {"lon": 23.783333, "lat": 52.283333}}, {"id": 619023, "name": "Zavershany", "country": "BY", "coord": {"lon": 23.766666, "lat": 52.25}}, {"id": 629338, "name": "Charnawchytsy", "country": "BY", "coord": {"lon": 23.733334, "lat": 52.216667}}, {"id": 620364, "name": "Velikaya Kurnitsa", "country": "BY", "coord": {"lon": 23.75, "lat": 52.183334}}, {"id": 620647, "name": "Tyukhinichi", "country": "BY", "coord": {"lon": 23.666668, "lat": 52.150002}}, {"id": 622805, "name": "Rechitsa", "country": "BY", "coord": {"lon": 23.65, "lat": 52.099998}}, {"id": 629634, "name": "Brest", "country": "BY", "coord": {"lon": 23.700001, "lat": 52.099998}}, {"id": 620013, "name": "Volynka", "country": "BY", "coord": {"lon": 23.683332, "lat": 52.066666}}, {"id": 545791, "name": "Kommunar", "country": "RU", "coord": {"lon": 40.433334, "lat": 56.116669}}, {"id": 542076, "name": "Krasnoye Selo", "country": "RU", "coord": {"lon": 40.450001, "lat": 56.166668}}, {"id": 475689, "name": "Verizino", "country": "RU", "coord": {"lon": 40.433334, "lat": 56.150002}}, {"id": 565799, "name": "Dobroye Selo", "country": "RU", "coord": {"lon": 40.483334, "lat": 56.166668}}, {"id": 575609, "name": "Bogolyubovo", "country": "RU", "coord": {"lon": 40.52972, "lat": 56.195557}}, {"id": 536264, "name": "Lemeshki", "country": "RU", "coord": {"lon": 40.583332, "lat": 56.200001}}, {"id": 517664, "name": "Novoye Selo", "country": "RU", "coord": {"lon": 40.516666, "lat": 56.216667}}, {"id": 486034, "name": "Suvorotskoye", "country": "RU", "coord": {"lon": 40.466667, "lat": 56.216667}}, {"id": 572389, "name": "Borisovskoye", "country": "RU", "coord": {"lon": 40.483334, "lat": 56.266666}}, {"id": 512008, "name": "Pavlovskoye", "country": "RU", "coord": {"lon": 40.466667, "lat": 56.316666}}, {"id": 579025, "name": "Barskoye Gorodishche", "country": "RU", "coord": {"lon": 40.509998, "lat": 56.349998}}, {"id": 568818, "name": "Chernizh", "country": "RU", "coord": {"lon": 40.433334, "lat": 56.366669}}, {"id": 465337, "name": "Zaklyaz\u2019minskiy", "country": "RU", "coord": {"lon": 40.416668, "lat": 56.416668}}, {"id": 6283179, "name": "Runy", "country": "RU", "coord": {"lon": 41.132778, "lat": 57.587776}}, {"id": 550801, "name": "Khalipino", "country": "RU", "coord": {"lon": 41.173332, "lat": 57.606388}}, {"id": 572144, "name": "Borovikovo", "country": "RU", "coord": {"lon": 41.139999, "lat": 57.643055}}, {"id": 6283160, "name": "Borovikovo", "country": "RU", "coord": {"lon": 41.126945, "lat": 57.656387}}, {"id": 573737, "name": "Bol\u2019shoye Andreykovo", "country": "RU", "coord": {"lon": 41.111111, "lat": 57.664722}}, {"id": 539452, "name": "Kulikovo", "country": "RU", "coord": {"lon": 41.095554, "lat": 57.682777}}, {"id": 6283170, "name": "Pos\u00eblok Kirpichnogo Zavoda", "country": "RU", "coord": {"lon": 41.06889, "lat": 57.700279}}, {"id": 523580, "name": "Nagorskoye", "country": "RU", "coord": {"lon": 41.066666, "lat": 57.700001}}, {"id": 522072, "name": "Nikola-Trostino", "country": "RU", "coord": {"lon": 41.066666, "lat": 57.716667}}, {"id": 6283105, "name": "Poddubnoye", "country": "RU", "coord": {"lon": 41.057499, "lat": 57.718056}}, {"id": 6283098, "name": "Oktyabrskiy", "country": "RU", "coord": {"lon": 41.005554, "lat": 57.743057}}, {"id": 543878, "name": "Kostroma", "country": "RU", "coord": {"lon": 40.934444, "lat": 57.770832}}, {"id": 502426, "name": "Razliv", "country": "RU", "coord": {"lon": 40.916668, "lat": 57.766666}}, {"id": 6642316, "name": "Skorbeshki", "country": "RU", "coord": {"lon": 40.982006, "lat": 57.810143}}, {"id": 6642314, "name": "Severnyy", "country": "RU", "coord": {"lon": 40.97073, "lat": 57.800797}}, {"id": 491299, "name": "Sokerkino", "country": "RU", "coord": {"lon": 41.033333, "lat": 57.799999}}, {"id": 525568, "name": "Molodeyevo", "country": "RU", "coord": {"lon": 41.071945, "lat": 57.834442}}, {"id": 6283027, "name": "Bashutino", "country": "RU", "coord": {"lon": 41.07, "lat": 57.84}}, {"id": 537773, "name": "Kuz\u2019mishchi", "country": "RU", "coord": {"lon": 41.130833, "lat": 57.875278}}, {"id": 6282951, "name": "Proshevo", "country": "RU", "coord": {"lon": 41.180557, "lat": 57.900276}}, {"id": 6282959, "name": "Novyy", "country": "RU", "coord": {"lon": 41.207779, "lat": 57.919998}}, {"id": 537675, "name": "Kuznetsovo", "country": "RU", "coord": {"lon": 41.248055, "lat": 57.944443}}, {"id": 6282963, "name": "Leonovo", "country": "RU", "coord": {"lon": 41.299999, "lat": 57.973888}}, {"id": 6282966, "name": "Demenevo", "country": "RU", "coord": {"lon": 41.309166, "lat": 57.975555}}, {"id": 6282969, "name": "Afanasovo", "country": "RU", "coord": {"lon": 41.330002, "lat": 57.98}}, {"id": 485173, "name": "Syrnevo", "country": "RU", "coord": {"lon": 41.37611, "lat": 58.00528}}, {"id": 6610665, "name": "Zaprudnya", "country": "RU", "coord": {"lon": 41.432777, "lat": 58.030556}}, {"id": 532568, "name": "Lyubimtsevo", "country": "RU", "coord": {"lon": 41.509998, "lat": 58.04361}}, {"id": 6610642, "name": "D\u2019yakovka", "country": "RU", "coord": {"lon": 41.510555, "lat": 58.056389}}, {"id": 6610647, "name": "Borodulino", "country": "RU", "coord": {"lon": 41.575558, "lat": 58.080833}}, {"id": 6610608, "name": "Khalezovo", "country": "RU", "coord": {"lon": 41.591946, "lat": 58.118332}}, {"id": 6610566, "name": "Selishche", "country": "RU", "coord": {"lon": 41.601391, "lat": 58.126667}}, {"id": 6610564, "name": "Zogzino", "country": "RU", "coord": {"lon": 41.593334, "lat": 58.128613}}, {"id": 6610563, "name": "Vasyukovo", "country": "RU", "coord": {"lon": 41.626945, "lat": 58.148888}}, {"id": 486015, "name": "Susanino", "country": "RU", "coord": {"lon": 41.587223, "lat": 58.146111}}, {"id": 494317, "name": "Shipilovo", "country": "RU", "coord": {"lon": 41.642223, "lat": 58.175556}}, {"id": 6610529, "name": "Panfilovo", "country": "RU", "coord": {"lon": 41.653332, "lat": 58.181946}}, {"id": 565387, "name": "Domnino", "country": "RU", "coord": {"lon": 41.689999, "lat": 58.165558}}, {"id": 6610530, "name": "Perevoz", "country": "RU", "coord": {"lon": 41.717777, "lat": 58.163055}}, {"id": 6610533, "name": "Vyrokino", "country": "RU", "coord": {"lon": 41.795277, "lat": 58.176388}}, {"id": 462052, "name": "Zubovo", "country": "RU", "coord": {"lon": 41.829723, "lat": 58.169998}}, {"id": 6610532, "name": "Fominskoye", "country": "RU", "coord": {"lon": 41.814167, "lat": 58.156944}}, {"id": 6610556, "name": "Shishkino", "country": "RU", "coord": {"lon": 41.830002, "lat": 58.147221}}, {"id": 6610551, "name": "Golovino", "country": "RU", "coord": {"lon": 41.851944, "lat": 58.136112}}, {"id": 556025, "name": "Isayevo", "country": "RU", "coord": {"lon": 41.862499, "lat": 58.129166}}, {"id": 6610617, "name": "Osinki", "country": "RU", "coord": {"lon": 41.888611, "lat": 58.097221}}, {"id": 6610621, "name": "Okhotino", "country": "RU", "coord": {"lon": 41.919998, "lat": 58.080276}}, {"id": 556126, "name": "Isady", "country": "RU", "coord": {"lon": 40.483334, "lat": 56.466667}}, {"id": 530803, "name": "Maloboriskovo", "country": "RU", "coord": {"lon": 40.483334, "lat": 56.483334}}, {"id": 549689, "name": "Pogibel\u2019tsevo", "country": "RU", "coord": {"lon": 40.516666, "lat": 56.5}}, {"id": 534158, "name": "Lopatnitsy", "country": "RU", "coord": {"lon": 40.533333, "lat": 56.549999}}, {"id": 525954, "name": "Mochal\u2019niki", "country": "RU", "coord": {"lon": 40.583332, "lat": 56.583332}}, {"id": 522170, "name": "Nikitino", "country": "RU", "coord": {"lon": 40.599998, "lat": 56.616669}}, {"id": 508251, "name": "Podlesikha", "country": "RU", "coord": {"lon": 40.583332, "lat": 56.666668}}, {"id": 462197, "name": "Zolotnikovskaya Pustyn\u2019", "country": "RU", "coord": {"lon": 40.616669, "lat": 56.700001}}, {"id": 477649, "name": "Uval\u2019yevo", "country": "RU", "coord": {"lon": 40.783333, "lat": 56.75}}, {"id": 469550, "name": "Yakovlevo", "country": "RU", "coord": {"lon": 40.866669, "lat": 56.799999}}, {"id": 581718, "name": "Anisimovo", "country": "RU", "coord": {"lon": 40.860001, "lat": 56.810001}}, {"id": 512834, "name": "Apanitsyno", "country": "RU", "coord": {"lon": 40.966667, "lat": 56.866669}}, {"id": 527122, "name": "Mikhal\u00ebvo", "country": "RU", "coord": {"lon": 40.916668, "lat": 56.883331}}, {"id": 462814, "name": "Zhukovo", "country": "RU", "coord": {"lon": 40.966667, "lat": 56.933334}}, {"id": 546022, "name": "Kolyanovo", "country": "RU", "coord": {"lon": 40.983334, "lat": 56.950001}}, {"id": 555312, "name": "Ivanovo", "country": "RU", "coord": {"lon": 40.985832, "lat": 56.994167}}, {"id": 506364, "name": "Popovskaya", "country": "RU", "coord": {"lon": 41.016666, "lat": 57.033333}}, {"id": 6283514, "name": "Sortirovochnyy", "country": "RU", "coord": {"lon": 41.020557, "lat": 57.020832}}, {"id": 517213, "name": "Dal\u2019niy", "country": "RU", "coord": {"lon": 40.959999, "lat": 57.056946}}, {"id": 489768, "name": "Spasskoye", "country": "RU", "coord": {"lon": 40.983334, "lat": 57.066666}}, {"id": 484769, "name": "Talitsy", "country": "RU", "coord": {"lon": 41, "lat": 57.066666}}, {"id": 6283448, "name": "Lesnoye", "country": "RU", "coord": {"lon": 41.009724, "lat": 57.104168}}, {"id": 576430, "name": "Bibir\u00ebvo", "country": "RU", "coord": {"lon": 41.040001, "lat": 57.137501}}, {"id": 560812, "name": "Golchanovo", "country": "RU", "coord": {"lon": 41.07, "lat": 57.161945}}, {"id": 6283447, "name": "Klimovo", "country": "RU", "coord": {"lon": 41.094723, "lat": 57.170555}}, {"id": 470566, "name": "Vyazovskoye", "country": "RU", "coord": {"lon": 41.086666, "lat": 57.180832}}, {"id": 494202, "name": "Shirokovo", "country": "RU", "coord": {"lon": 41.113056, "lat": 57.198612}}, {"id": 6283442, "name": "Kosogory", "country": "RU", "coord": {"lon": 41.095001, "lat": 57.237221}}, {"id": 562309, "name": "Furmanov", "country": "RU", "coord": {"lon": 41.105831, "lat": 57.250832}}, {"id": 495536, "name": "Shatrovo", "country": "RU", "coord": {"lon": 41.116669, "lat": 57.266666}}, {"id": 579564, "name": "Baksheyevo", "country": "RU", "coord": {"lon": 41.16, "lat": 57.279999}}, {"id": 555159, "name": "Ivanovskoye", "country": "RU", "coord": {"lon": 41.222221, "lat": 57.30389}}, {"id": 482364, "name": "Tolpygino", "country": "RU", "coord": {"lon": 41.236111, "lat": 57.330002}}, {"id": 6283377, "name": "Rusikha", "country": "RU", "coord": {"lon": 41.239723, "lat": 57.355278}}, {"id": 505060, "name": "Privolzhsk", "country": "RU", "coord": {"lon": 41.288612, "lat": 57.380833}}, {"id": 6283373, "name": "Ingar\u2019", "country": "RU", "coord": {"lon": 41.302502, "lat": 57.395832}}, {"id": 6283364, "name": "Gorki", "country": "RU", "coord": {"lon": 41.3675, "lat": 57.387222}}, {"id": 6283363, "name": "Ivashkovo", "country": "RU", "coord": {"lon": 41.394169, "lat": 57.403057}}, {"id": 6283389, "name": "Severtsevo", "country": "RU", "coord": {"lon": 41.490833, "lat": 57.451389}}, {"id": 509029, "name": "Ples", "country": "RU", "coord": {"lon": 41.515789, "lat": 57.458618}}, {"id": 496582, "name": "Serkovo", "country": "RU", "coord": {"lon": 41.515556, "lat": 57.467499}}, {"id": 6283209, "name": "Pos\u00eblok Kirpichnogo Zavoda", "country": "RU", "coord": {"lon": 41.486389, "lat": 57.479443}}, {"id": 6283208, "name": "Cheremiskino", "country": "RU", "coord": {"lon": 41.483055, "lat": 57.486111}}, {"id": 484448, "name": "Tarasovka", "country": "RU", "coord": {"lon": 41.466389, "lat": 57.509445}}, {"id": 6283216, "name": "Novopanovo", "country": "RU", "coord": {"lon": 41.457222, "lat": 57.519169}}, {"id": 505184, "name": "Priskokovo", "country": "RU", "coord": {"lon": 41.434444, "lat": 57.513611}}, {"id": 6283247, "name": "Vakorino", "country": "RU", "coord": {"lon": 41.36639, "lat": 57.500278}}, {"id": 6283246, "name": "Astaf\u2019yevskoye", "country": "RU", "coord": {"lon": 41.330002, "lat": 57.509998}}, {"id": 6283244, "name": "Zdemirovo", "country": "RU", "coord": {"lon": 41.28389, "lat": 57.515278}}, {"id": 542024, "name": "Krasnoye-na-Volge", "country": "RU", "coord": {"lon": 41.241943, "lat": 57.512501}}, {"id": 6283224, "name": "Zaytsevo", "country": "RU", "coord": {"lon": 41.228058, "lat": 57.538891}}, {"id": 493842, "name": "Sholokhovo", "country": "RU", "coord": {"lon": 41.207779, "lat": 57.550556}}, {"id": 534160, "name": "Lopatkino", "country": "RU", "coord": {"lon": 41.18528, "lat": 57.584999}}, {"id": 581043, "name": "Arkhangel\u2019skaya Oblast\u2019", "country": "RU", "coord": {"lon": 44, "lat": 64}}, {"id": 543704, "name": "Kotlas", "country": "RU", "coord": {"lon": 46.655556, "lat": 61.261112}}, {"id": 472210, "name": "Vondokur\u2019ye", "country": "RU", "coord": {"lon": 46.599998, "lat": 61.233334}}, {"id": 513763, "name": "Ovechkino", "country": "RU", "coord": {"lon": 46.633331, "lat": 61.216667}}, {"id": 494124, "name": "Shishina", "country": "RU", "coord": {"lon": 46.533333, "lat": 61.216667}}, {"id": 826716, "name": "Yadrikha", "country": "RU", "coord": {"lon": 46.522499, "lat": 61.202778}}, {"id": 479622, "name": "Udima", "country": "RU", "coord": {"lon": 46.549999, "lat": 61.183334}}, {"id": 536029, "name": "Kurtsevo", "country": "RU", "coord": {"lon": 46.546391, "lat": 61.156944}}, {"id": 510563, "name": "Pesegovo", "country": "RU", "coord": {"lon": 46.549999, "lat": 61.133331}}, {"id": 499319, "name": "Sakushevo", "country": "RU", "coord": {"lon": 46.533333, "lat": 61.116669}}, {"id": 505112, "name": "Privodino", "country": "RU", "coord": {"lon": 46.504444, "lat": 61.078056}}, {"id": 504675, "name": "Proshutino", "country": "RU", "coord": {"lon": 46.469166, "lat": 61.050835}}, {"id": 501408, "name": "Romanovo", "country": "RU", "coord": {"lon": 46.466667, "lat": 61.033333}}, {"id": 472454, "name": "Vologodskaya Oblast\u2019", "country": "RU", "coord": {"lon": 42, "lat": 60}}, {"id": 542908, "name": "Krasavino", "country": "RU", "coord": {"lon": 46.481388, "lat": 60.961388}}, {"id": 531159, "name": "Mal\u00ebtino", "country": "RU", "coord": {"lon": 46.466667, "lat": 60.916668}}, {"id": 467029, "name": "Bol\u2019shoye Yesiplevo", "country": "RU", "coord": {"lon": 46.462776, "lat": 60.900833}}, {"id": 570646, "name": "Bushkovo", "country": "RU", "coord": {"lon": 46.41861, "lat": 60.867222}}, {"id": 466740, "name": "Yudino", "country": "RU", "coord": {"lon": 46.351391, "lat": 60.778057}}, {"id": 476062, "name": "Velikiy Ustyug", "country": "RU", "coord": {"lon": 46.310555, "lat": 60.764442}}, {"id": 564872, "name": "Druzhkovo", "country": "RU", "coord": {"lon": 46.299999, "lat": 60.75}}, {"id": 827936, "name": "Novator", "country": "RU", "coord": {"lon": 46.205555, "lat": 60.739445}}, {"id": 525218, "name": "Morozovitsa", "country": "RU", "coord": {"lon": 46.266666, "lat": 60.716667}}, {"id": 507987, "name": "Podsosen\u2019ye", "country": "RU", "coord": {"lon": 46.183334, "lat": 60.716667}}, {"id": 495388, "name": "Shch\u00ebkino", "country": "RU", "coord": {"lon": 46.208611, "lat": 60.649445}}, {"id": 498974, "name": "Samotovino", "country": "RU", "coord": {"lon": 46.166668, "lat": 60.700001}}, {"id": 535967, "name": "Leonovo", "country": "RU", "coord": {"lon": 46.083332, "lat": 60.666668}}, {"id": 561343, "name": "Glazovata", "country": "RU", "coord": {"lon": 45.983334, "lat": 60.650002}}, {"id": 574631, "name": "Bol\u2019shaya Sloboda", "country": "RU", "coord": {"lon": 45.933334, "lat": 60.633331}}, {"id": 474346, "name": "Verkhovino", "country": "RU", "coord": {"lon": 45.700001, "lat": 60.566666}}, {"id": 524116, "name": "Mutovino", "country": "RU", "coord": {"lon": 45.594444, "lat": 60.616669}}, {"id": 475653, "name": "Verkhneye Anisimovo", "country": "RU", "coord": {"lon": 45.588055, "lat": 60.593613}}, {"id": 557849, "name": "Gusevo", "country": "RU", "coord": {"lon": 45.5, "lat": 60.583332}}, {"id": 507310, "name": "Poldarsa", "country": "RU", "coord": {"lon": 45.392776, "lat": 60.593613}}, {"id": 578211, "name": "Belaya", "country": "RU", "coord": {"lon": 45.369999, "lat": 60.59}}, {"id": 520209, "name": "Nizhnyaya Toz\u2019ma", "country": "RU", "coord": {"lon": 45.316666, "lat": 60.599998}}, {"id": 474468, "name": "Verkhnyaya Toz\u2019ma", "country": "RU", "coord": {"lon": 45.216667, "lat": 60.583332}}, {"id": 545038, "name": "Kopylovo", "country": "RU", "coord": {"lon": 45.07111, "lat": 60.582222}}, {"id": 487237, "name": "Strelka", "country": "RU", "coord": {"lon": 45.044445, "lat": 60.570557}}, {"id": 471461, "name": "Vostroye", "country": "RU", "coord": {"lon": 44.922779, "lat": 60.539444}}, {"id": 831329, "name": "Levash", "country": "RU", "coord": {"lon": 44.880554, "lat": 60.521667}}, {"id": 506570, "name": "Popel\u2019ye", "country": "RU", "coord": {"lon": 44.862778, "lat": 60.487778}}, {"id": 575876, "name": "Bobrovskoye", "country": "RU", "coord": {"lon": 44.768055, "lat": 60.481945}}, {"id": 831292, "name": "Matveyevo", "country": "RU", "coord": {"lon": 44.621113, "lat": 60.474998}}, {"id": 574687, "name": "Bol\u2019shaya Sel\u2019menga", "country": "RU", "coord": {"lon": 44.501945, "lat": 60.465279}}, {"id": 565962, "name": "Dmitriyevo", "country": "RU", "coord": {"lon": 44.438057, "lat": 60.463055}}, {"id": 477825, "name": "Ust\u2019ye-Gorodischenskoye", "country": "RU", "coord": {"lon": 44.299999, "lat": 60.416668}}, {"id": 515646, "name": "Oleshkovka", "country": "RU", "coord": {"lon": 44.25, "lat": 60.416668}}, {"id": 516539, "name": "Nyuksenitsa", "country": "RU", "coord": {"lon": 44.239723, "lat": 60.412777}}, {"id": 577147, "name": "Ber\u00ebzovaya Sloboda", "country": "RU", "coord": {"lon": 44.150002, "lat": 60.389999}}, {"id": 555555, "name": "Ivankovo", "country": "RU", "coord": {"lon": 44.083332, "lat": 60.283333}}, {"id": 571529, "name": "Brusenets", "country": "RU", "coord": {"lon": 43.952499, "lat": 60.245834}}, {"id": 470218, "name": "Vysokaya", "country": "RU", "coord": {"lon": 43.866943, "lat": 60.189999}}, {"id": 557557, "name": "Igmas", "country": "RU", "coord": {"lon": 43.772499, "lat": 60.168888}}, {"id": 538143, "name": "Kuvakinskaya", "country": "RU", "coord": {"lon": 43.650002, "lat": 60.166668}}, {"id": 546918, "name": "Kochenga", "country": "RU", "coord": {"lon": 43.551109, "lat": 60.157501}}, {"id": 563105, "name": "F\u00ebdorovskaya", "country": "RU", "coord": {"lon": 43.533333, "lat": 60.200001}}, {"id": 520273, "name": "Nizhnyaya Pel\u2019shma", "country": "RU", "coord": {"lon": 43.24778, "lat": 60.144169}}, {"id": 478001, "name": "Ust\u2019-Pel\u2019shma", "country": "RU", "coord": {"lon": 43.266666, "lat": 60.066666}}, {"id": 553816, "name": "Kamchuga", "country": "RU", "coord": {"lon": 43.167778, "lat": 60.04361}}, {"id": 464806, "name": "Zapol\u2019naya", "country": "RU", "coord": {"lon": 43.049168, "lat": 60.034168}}, {"id": 528044, "name": "Medvedevo", "country": "RU", "coord": {"lon": 43.03389, "lat": 60.025555}}, {"id": 483059, "name": "Tikhonikha", "country": "RU", "coord": {"lon": 43, "lat": 60}}, {"id": 497273, "name": "Sem\u00ebnovskoye", "country": "RU", "coord": {"lon": 42.849998, "lat": 60}}, {"id": 497342, "name": "Sem\u00ebnovskaya", "country": "RU", "coord": {"lon": 42.75, "lat": 60}}, {"id": 477012, "name": "Varnitsy", "country": "RU", "coord": {"lon": 42.745556, "lat": 59.9925}}, {"id": 481960, "name": "Totma", "country": "RU", "coord": {"lon": 42.764168, "lat": 59.974724}}, {"id": 472152, "name": "Vorlygino", "country": "RU", "coord": {"lon": 42.700001, "lat": 59.983334}}, {"id": 543127, "name": "Kozlovka", "country": "RU", "coord": {"lon": 42.533333, "lat": 59.933334}}, {"id": 536166, "name": "Lenino", "country": "RU", "coord": {"lon": 42.516666, "lat": 59.933334}}, {"id": 497631, "name": "Selo", "country": "RU", "coord": {"lon": 42.5, "lat": 59.916668}}, {"id": 533455, "name": "Lukinskaya", "country": "RU", "coord": {"lon": 42.483334, "lat": 59.916668}}, {"id": 549719, "name": "Kholmyashchevo", "country": "RU", "coord": {"lon": 42.466667, "lat": 59.900002}}, {"id": 554196, "name": "Pogost", "country": "RU", "coord": {"lon": 42.459999, "lat": 59.89389}}, {"id": 497699, "name": "Selivakino", "country": "RU", "coord": {"lon": 42.450001, "lat": 59.883331}}, {"id": 468119, "name": "Yekimikha", "country": "RU", "coord": {"lon": 42.433334, "lat": 59.883331}}, {"id": 492157, "name": "Slasnichikha", "country": "RU", "coord": {"lon": 42.416668, "lat": 59.866669}}, {"id": 535478, "name": "Levinskaya", "country": "RU", "coord": {"lon": 42.400002, "lat": 59.866669}}, {"id": 503274, "name": "Radchino", "country": "RU", "coord": {"lon": 42.366669, "lat": 59.849998}}, {"id": 491231, "name": "Sokolova", "country": "RU", "coord": {"lon": 42.333332, "lat": 59.833332}}, {"id": 483200, "name": "Teterevikha", "country": "RU", "coord": {"lon": 42.083332, "lat": 59.733334}}, {"id": 562476, "name": "Fominskoye", "country": "RU", "coord": {"lon": 42.073334, "lat": 59.714722}}, {"id": 507768, "name": "Pogorelovo", "country": "RU", "coord": {"lon": 42.037777, "lat": 59.706669}}, {"id": 485731, "name": "Svetitsa", "country": "RU", "coord": {"lon": 42.083332, "lat": 59.683334}}, {"id": 482170, "name": "Toporikha", "country": "RU", "coord": {"lon": 42.087223, "lat": 59.669998}}, {"id": 503590, "name": "P\u2019yankova Sloboda", "country": "RU", "coord": {"lon": 42.200001, "lat": 59.650002}}, {"id": 468682, "name": "Yasnaya Polyana", "country": "RU", "coord": {"lon": 42.216667, "lat": 59.666668}}, {"id": 569246, "name": "Cherepanikha", "country": "RU", "coord": {"lon": 42.25, "lat": 59.650002}}, {"id": 497626, "name": "Krasnoye", "country": "RU", "coord": {"lon": 42.237778, "lat": 59.642776}}, {"id": 554206, "name": "Kalinino", "country": "RU", "coord": {"lon": 42.25, "lat": 59.616669}}, {"id": 572629, "name": "Bor", "country": "RU", "coord": {"lon": 42.316666, "lat": 59.599998}}, {"id": 529452, "name": "Manylovo", "country": "RU", "coord": {"lon": 42.318611, "lat": 59.580276}}, {"id": 529451, "name": "Manylovskoye", "country": "RU", "coord": {"lon": 42.333332, "lat": 59.566666}}, {"id": 514914, "name": "Orlova", "country": "RU", "coord": {"lon": 42.433334, "lat": 59.549999}}, {"id": 471812, "name": "Vorotishna", "country": "RU", "coord": {"lon": 42.456944, "lat": 59.540833}}, {"id": 494251, "name": "Shirobokovo", "country": "RU", "coord": {"lon": 42.466667, "lat": 59.533333}}, {"id": 563291, "name": "Fat\u2019yanka", "country": "RU", "coord": {"lon": 42.483334, "lat": 59.516666}}, {"id": 521513, "name": "Nikol\u2019skoye", "country": "RU", "coord": {"lon": 42.524445, "lat": 59.493057}}, {"id": 503638, "name": "Puzovka", "country": "RU", "coord": {"lon": 42.549999, "lat": 59.483334}}, {"id": 481121, "name": "Tryznovo", "country": "RU", "coord": {"lon": 42.549999, "lat": 59.466667}}, {"id": 492795, "name": "Sinitsyno", "country": "RU", "coord": {"lon": 42.583332, "lat": 59.450001}}, {"id": 581756, "name": "Anikin Pochinok", "country": "RU", "coord": {"lon": 42.59, "lat": 59.439999}}, {"id": 495080, "name": "Shein-Pochinok", "country": "RU", "coord": {"lon": 42.616669, "lat": 59.433334}}, {"id": 534378, "name": "Lom", "country": "RU", "coord": {"lon": 42.683334, "lat": 59.433334}}, {"id": 505548, "name": "Predtecha", "country": "RU", "coord": {"lon": 42.708332, "lat": 59.42889}}, {"id": 568589, "name": "Chernyakovo", "country": "RU", "coord": {"lon": 42.733334, "lat": 59.400002}}, {"id": 467218, "name": "Yermolitsa", "country": "RU", "coord": {"lon": 42.783333, "lat": 59.400002}}, {"id": 562175, "name": "Galebatovo", "country": "RU", "coord": {"lon": 42.783333, "lat": 59.400002}}, {"id": 519180, "name": "Novinskiye", "country": "RU", "coord": {"lon": 42.766666, "lat": 59.333332}}, {"id": 825110, "name": "Gremyachiy", "country": "RU", "coord": {"lon": 42.544998, "lat": 59.325832}}, {"id": 561945, "name": "Gari", "country": "RU", "coord": {"lon": 42.548332, "lat": 59.291943}}, {"id": 481648, "name": "Trofimovo", "country": "RU", "coord": {"lon": 42.518612, "lat": 59.264442}}, {"id": 572384, "name": "Borisovskoye", "country": "RU", "coord": {"lon": 42.349998, "lat": 59.116669}}, {"id": 491025, "name": "Soligalich", "country": "RU", "coord": {"lon": 42.286388, "lat": 59.077778}}, {"id": 502721, "name": "Rassvet", "country": "RU", "coord": {"lon": 42.283333, "lat": 59.066666}}, {"id": 465490, "name": "Zakhar\u2019ino", "country": "RU", "coord": {"lon": 42.299999, "lat": 59.049999}}, {"id": 468102, "name": "Yekimtsevo", "country": "RU", "coord": {"lon": 42.333332, "lat": 59}}, {"id": 544493, "name": "Korovnovo", "country": "RU", "coord": {"lon": 42.362778, "lat": 58.977501}}, {"id": 508872, "name": "Ploskovo", "country": "RU", "coord": {"lon": 42.383331, "lat": 58.983334}}, {"id": 517427, "name": "Novoye Samylovo", "country": "RU", "coord": {"lon": 42.400002, "lat": 58.916668}}, {"id": 565181, "name": "Dorok", "country": "RU", "coord": {"lon": 42.450001, "lat": 58.900002}}, {"id": 584154, "name": "Afanas\u2019yevo", "country": "RU", "coord": {"lon": 42.459999, "lat": 58.860001}}, {"id": 495137, "name": "Shchukino", "country": "RU", "coord": {"lon": 42.516666, "lat": 58.849998}}, {"id": 563058, "name": "F\u00ebdorovskoye", "country": "RU", "coord": {"lon": 42.538891, "lat": 58.822224}}, {"id": 558609, "name": "Grigor\u2019yevskoye", "country": "RU", "coord": {"lon": 42.599998, "lat": 58.833332}}, {"id": 516774, "name": "Nozhkino", "country": "RU", "coord": {"lon": 42.609165, "lat": 58.818054}}, {"id": 534468, "name": "Logunovo", "country": "RU", "coord": {"lon": 42.700001, "lat": 58.799999}}, {"id": 535738, "name": "Lesnoy", "country": "RU", "coord": {"lon": 42.683334, "lat": 58.75}}, {"id": 567695, "name": "Chukhloma", "country": "RU", "coord": {"lon": 42.682499, "lat": 58.752499}}, {"id": 525148, "name": "Morozovskoye", "country": "RU", "coord": {"lon": 42.583332, "lat": 58.483334}}, {"id": 465279, "name": "Zalesnaya", "country": "RU", "coord": {"lon": 42.349998, "lat": 58.366669}}, {"id": 562161, "name": "Galich", "country": "RU", "coord": {"lon": 42.3475, "lat": 58.379723}}, {"id": 526709, "name": "Mikhaylovskoye", "country": "RU", "coord": {"lon": 42.400002, "lat": 58.383331}}, {"id": 565968, "name": "Dmitriyevskoye", "country": "RU", "coord": {"lon": 42.357777, "lat": 58.336388}}, {"id": 557255, "name": "Il\u2019ina", "country": "RU", "coord": {"lon": 42.283333, "lat": 58.266666}}, {"id": 490100, "name": "Sotsevino", "country": "RU", "coord": {"lon": 42.25, "lat": 58.25}}, {"id": 467716, "name": "Yelovka", "country": "RU", "coord": {"lon": 42.283333, "lat": 58.216667}}, {"id": 504737, "name": "Pronino", "country": "RU", "coord": {"lon": 42.186111, "lat": 58.196945}}, {"id": 526139, "name": "Mitino", "country": "RU", "coord": {"lon": 42.161667, "lat": 58.146667}}, {"id": 470151, "name": "Vysokova", "country": "RU", "coord": {"lon": 42.166668, "lat": 58.116669}}, {"id": 563833, "name": "D\u2019yakovo", "country": "RU", "coord": {"lon": 42.133331, "lat": 58.049999}}, {"id": 547433, "name": "Klokachi", "country": "RU", "coord": {"lon": 42.066666, "lat": 58.049999}}, {"id": 471855, "name": "Voron\u2019y\u00eb", "country": "RU", "coord": {"lon": 42.004166, "lat": 58.00222}}, {"id": 510712, "name": "Pervushino", "country": "RU", "coord": {"lon": 41.951111, "lat": 58.041389}}, {"id": 6610622, "name": "Konyukhovo", "country": "RU", "coord": {"lon": 41.915279, "lat": 58.054169}}, {"id": 497988, "name": "Svozovo", "country": "RU", "coord": {"lon": 41.945831, "lat": 58.071667}}, {"id": 578676, "name": "Baturino", "country": "RU", "coord": {"lon": 42.529999, "lat": 59.25}}, {"id": 537962, "name": "Kuzemino", "country": "RU", "coord": {"lon": 42.502777, "lat": 59.226391}}, {"id": 527900, "name": "Medvezh\u2019ye", "country": "RU", "coord": {"lon": 42.483334, "lat": 59.216667}}, {"id": 492920, "name": "Simanovo", "country": "RU", "coord": {"lon": 42.466667, "lat": 59.200001}}, {"id": 564181, "name": "Dunay", "country": "RU", "coord": {"lon": 42.433334, "lat": 59.200001}}, {"id": 465014, "name": "Zanevka", "country": "RU", "coord": {"lon": 30.516666, "lat": 59.941387}}, {"id": 531017, "name": "Malinovka", "country": "RU", "coord": {"lon": 30.471666, "lat": 59.951668}}, {"id": 546213, "name": "Yanino Pervoye", "country": "RU", "coord": {"lon": 30.555834, "lat": 59.946667}}, {"id": 543549, "name": "Koval\u00ebvo", "country": "RU", "coord": {"lon": 30.564722, "lat": 59.981388}}, {"id": 517513, "name": "Novoye Koval\u00ebvo", "country": "RU", "coord": {"lon": 30.549999, "lat": 59.974445}}, {"id": 488408, "name": "Staroye Koval\u00ebvo", "country": "RU", "coord": {"lon": 30.541945, "lat": 59.995277}}, {"id": 499709, "name": "Rzh\u00ebvka", "country": "RU", "coord": {"lon": 30.518612, "lat": 59.980831}}, {"id": 500024, "name": "Rybatskaya", "country": "RU", "coord": {"lon": 30.5, "lat": 60}}, {"id": 500776, "name": "Ruch\u2019i", "country": "RU", "coord": {"lon": 30.445, "lat": 60.005001}}, {"id": 527933, "name": "Medvezhiy Stan", "country": "RU", "coord": {"lon": 30.466667, "lat": 60.033333}}, {"id": 506257, "name": "Porokhovyye", "country": "RU", "coord": {"lon": 30.486389, "lat": 59.958889}}, {"id": 463145, "name": "Zh\u00ebrnovka", "country": "RU", "coord": {"lon": 30.466667, "lat": 59.950001}}, {"id": 469856, "name": "Yablonovka", "country": "RU", "coord": {"lon": 30.454445, "lat": 59.93222}}, {"id": 574820, "name": "Bol\u2019shaya Okhta", "country": "RU", "coord": {"lon": 30.417221, "lat": 59.947498}}, {"id": 563319, "name": "Farforovaya", "country": "RU", "coord": {"lon": 30.419167, "lat": 59.879723}}, {"id": 873900, "name": "Smolenskoye", "country": "RU", "coord": {"lon": 30.394722, "lat": 59.906387}}, {"id": 563522, "name": "Elektrougli", "country": "RU", "coord": {"lon": 38.207779, "lat": 55.71722}}, {"id": 559865, "name": "Gorki", "country": "RU", "coord": {"lon": 38.200001, "lat": 55.716667}}, {"id": 875319, "name": "Vishnyakovo", "country": "RU", "coord": {"lon": 38.191666, "lat": 55.732498}}, {"id": 476595, "name": "Vasil\u2019yevo", "country": "RU", "coord": {"lon": 38.183334, "lat": 55.733334}}, {"id": 539069, "name": "Kupavna", "country": "RU", "coord": {"lon": 38.13361, "lat": 55.74778}}, {"id": 556086, "name": "Isakovo", "country": "RU", "coord": {"lon": 38.202221, "lat": 55.710556}}, {"id": 6642221, "name": "Samkovo", "country": "RU", "coord": {"lon": 40.846687, "lat": 57.735512}}, {"id": 6268329, "name": "Novosergiyevka", "country": "RU", "coord": {"lon": 30.561666, "lat": 59.90361}}, {"id": 489264, "name": "Staraya", "country": "RU", "coord": {"lon": 30.620556, "lat": 59.928055}}, {"id": 539839, "name": "Kudrovo", "country": "RU", "coord": {"lon": 30.505833, "lat": 59.907223}}, {"id": 474013, "name": "Ves\u00eblyy Pos\u00eblok", "country": "RU", "coord": {"lon": 30.476389, "lat": 59.906666}}, {"id": 500545, "name": "Rusanovka", "country": "RU", "coord": {"lon": 30.433332, "lat": 59.916668}}, {"id": 532217, "name": "Makarovka", "country": "RU", "coord": {"lon": 37.863438, "lat": 54.83749}}, {"id": 557530, "name": "Ignatovka", "country": "RU", "coord": {"lon": 40.466667, "lat": 54.849998}}, {"id": 709112, "name": "Foros", "country": "UA", "coord": {"lon": 33.783333, "lat": 44.400002}}, {"id": 698466, "name": "Opolzneve", "country": "UA", "coord": {"lon": 33.933334, "lat": 44.400002}}, {"id": 693372, "name": "Snitovskoye", "country": "UA", "coord": {"lon": 33.866669, "lat": 44.416668}}, {"id": 700997, "name": "Miskhor", "country": "UA", "coord": {"lon": 34.083332, "lat": 44.433334}}, {"id": 706452, "name": "Tylove", "country": "UA", "coord": {"lon": 33.733334, "lat": 44.433334}}, {"id": 703586, "name": "Kurpaty", "country": "UA", "coord": {"lon": 34.116669, "lat": 44.433334}}, {"id": 696961, "name": "Pidhirne", "country": "UA", "coord": {"lon": 33.816666, "lat": 44.450001}}, {"id": 695572, "name": "Rodnykivs\u2019ke", "country": "UA", "coord": {"lon": 33.849998, "lat": 44.466667}}, {"id": 705440, "name": "Kolkhozne", "country": "UA", "coord": {"lon": 33.883331, "lat": 44.466667}}, {"id": 702907, "name": "Livadiya", "country": "UA", "coord": {"lon": 34.150002, "lat": 44.466667}}, {"id": 708408, "name": "Gornaya Zdravnitsa", "country": "UA", "coord": {"lon": 34.133331, "lat": 44.466667}}, {"id": 707552, "name": "Isar", "country": "UA", "coord": {"lon": 34.099998, "lat": 44.5}}, {"id": 696310, "name": "Prigorodnoye", "country": "UA", "coord": {"lon": 33.599998, "lat": 44.516666}}, {"id": 712930, "name": "Balaklava", "country": "UA", "coord": {"lon": 33.599998, "lat": 44.5}}, {"id": 698159, "name": "Otradnoye", "country": "UA", "coord": {"lon": 34.233334, "lat": 44.5}}, {"id": 713520, "name": "Alsu", "country": "UA", "coord": {"lon": 33.716667, "lat": 44.516666}}, {"id": 688952, "name": "Voskhod", "country": "UA", "coord": {"lon": 34.216667, "lat": 44.516666}}, {"id": 690647, "name": "Ushchel\u2019noye", "country": "UA", "coord": {"lon": 34.166668, "lat": 44.516666}}, {"id": 711527, "name": "Nikita", "country": "UA", "coord": {"lon": 34.233334, "lat": 44.533333}}, {"id": 700182, "name": "Mykolayivka", "country": "UA", "coord": {"lon": 33.533333, "lat": 44.549999}}, {"id": 693056, "name": "Sovetskoye", "country": "UA", "coord": {"lon": 34.166668, "lat": 44.549999}}, {"id": 709761, "name": "Dolossy", "country": "UA", "coord": {"lon": 34.200001, "lat": 44.533333}}, {"id": 699992, "name": "Nizhniy Chorgun\u2019", "country": "UA", "coord": {"lon": 33.683334, "lat": 44.533333}}, {"id": 706372, "name": "Khmel\u2019nyts\u2019ke", "country": "UA", "coord": {"lon": 33.650002, "lat": 44.549999}}, {"id": 713191, "name": "Artek", "country": "UA", "coord": {"lon": 34.299999, "lat": 44.566666}}, {"id": 704377, "name": "Krasnokamenka", "country": "UA", "coord": {"lon": 34.283333, "lat": 44.566666}}, {"id": 694393, "name": "Shablykina", "country": "UA", "coord": {"lon": 33.433334, "lat": 44.583332}}, {"id": 694728, "name": "Schastlivoye", "country": "UA", "coord": {"lon": 34.066666, "lat": 44.566666}}, {"id": 712576, "name": "Inkerman", "country": "UA", "coord": {"lon": 33.599998, "lat": 44.599998}}, {"id": 691634, "name": "Ternivka", "country": "UA", "coord": {"lon": 33.75, "lat": 44.583332}}, {"id": 694422, "name": "Misto Sevastopol\u2019", "country": "UA", "coord": {"lon": 33.533333, "lat": 44.599998}}, {"id": 694423, "name": "Sevastopol", "country": "UA", "coord": {"lon": 33.533333, "lat": 44.599998}}, {"id": 707526, "name": "Istoki", "country": "UA", "coord": {"lon": 33.833332, "lat": 44.583332}}, {"id": 704116, "name": "Urochyshche Kripke", "country": "UA", "coord": {"lon": 33.733334, "lat": 44.616669}}, {"id": 712223, "name": "Beshuyskiye Kopi", "country": "UA", "coord": {"lon": 34.183334, "lat": 44.650002}}, {"id": 701419, "name": "Mekenziyevy Gory", "country": "UA", "coord": {"lon": 33.583332, "lat": 44.616669}}, {"id": 712796, "name": "Bartenivka", "country": "UA", "coord": {"lon": 33.549999, "lat": 44.633331}}, {"id": 690847, "name": "Uchkuyeva", "country": "UA", "coord": {"lon": 33.533333, "lat": 44.633331}}, {"id": 701947, "name": "Malyy Mayak", "country": "UA", "coord": {"lon": 34.366669, "lat": 44.616669}}, {"id": 695947, "name": "Rabochiy Ugolok", "country": "UA", "coord": {"lon": 34.400002, "lat": 44.650002}}, {"id": 687670, "name": "Zaprudnoye", "country": "UA", "coord": {"lon": 34.316666, "lat": 44.599998}}, {"id": 702463, "name": "Lyubymivka", "country": "UA", "coord": {"lon": 33.566666, "lat": 44.666668}}, {"id": 713513, "name": "Alushta", "country": "UA", "coord": {"lon": 34.416668, "lat": 44.666668}}, {"id": 703518, "name": "Verkhnya Kutuzovka", "country": "UA", "coord": {"lon": 34.366669, "lat": 44.733334}}, {"id": 694574, "name": "Semydvir\u201dya", "country": "UA", "coord": {"lon": 34.466667, "lat": 44.716667}}, {"id": 693070, "name": "Sotera", "country": "UA", "coord": {"lon": 34.5, "lat": 44.733334}}, {"id": 702705, "name": "Luchyste", "country": "UA", "coord": {"lon": 34.400002, "lat": 44.75}}, {"id": 708879, "name": "Heneral\u2019s\u2019ke", "country": "UA", "coord": {"lon": 34.483334, "lat": 44.799999}}, {"id": 693698, "name": "Skalyste", "country": "UA", "coord": {"lon": 33.966667, "lat": 44.816666}}, {"id": 701611, "name": "Matiasa", "country": "UA", "coord": {"lon": 35.016666, "lat": 44.833332}}, {"id": 698866, "name": "Novyi Svit", "country": "UA", "coord": {"lon": 34.900002, "lat": 44.816666}}, {"id": 697653, "name": "Perevalnoe", "country": "UA", "coord": {"lon": 34.333332, "lat": 44.833332}}, {"id": 690557, "name": "Uyutnaya", "country": "UA", "coord": {"lon": 34.950001, "lat": 44.833332}}, {"id": 692315, "name": "Sudak", "country": "UA", "coord": {"lon": 34.966667, "lat": 44.849998}}, {"id": 693219, "name": "Sonyachna Dolyna", "country": "UA", "coord": {"lon": 35.099998, "lat": 44.866669}}, {"id": 703423, "name": "Lagernoye", "country": "UA", "coord": {"lon": 35.099998, "lat": 44.883331}}, {"id": 710334, "name": "Dachne", "country": "UA", "coord": {"lon": 34.983334, "lat": 44.883331}}, {"id": 709151, "name": "Fersmanove", "country": "UA", "coord": {"lon": 34.166668, "lat": 44.900002}}, {"id": 694115, "name": "Shevekova", "country": "UA", "coord": {"lon": 35.200001, "lat": 44.916668}}, {"id": 702741, "name": "Lozove", "country": "UA", "coord": {"lon": 34.166668, "lat": 44.916668}}, {"id": 697124, "name": "Koktebel", "country": "UA", "coord": {"lon": 35.25, "lat": 44.950001}}, {"id": 687746, "name": "Zamost\u2019ye", "country": "UA", "coord": {"lon": 34.099998, "lat": 44.950001}}, {"id": 696309, "name": "Prigorodnoye", "country": "UA", "coord": {"lon": 34.150002, "lat": 44.950001}}, {"id": 687150, "name": "Zhigulina Roshcha", "country": "UA", "coord": {"lon": 34.133331, "lat": 44.966667}}, {"id": 703168, "name": "Lesnaya", "country": "UA", "coord": {"lon": 34.349998, "lat": 44.966667}}, {"id": 687995, "name": "Yuzhne", "country": "UA", "coord": {"lon": 35.283333, "lat": 44.983334}}, {"id": 688074, "name": "Yunga", "country": "UA", "coord": {"lon": 35.266666, "lat": 44.966667}}, {"id": 708507, "name": "Goncharova", "country": "UA", "coord": {"lon": 35.266666, "lat": 44.983334}}, {"id": 704259, "name": "Krasnoye Selo", "country": "UA", "coord": {"lon": 35.083332, "lat": 45.016666}}, {"id": 690652, "name": "Urus-Khodzha", "country": "UA", "coord": {"lon": 34.799999, "lat": 45.016666}}, {"id": 712228, "name": "Besh Terek", "country": "UA", "coord": {"lon": 34.233334, "lat": 45.016666}}, {"id": 709161, "name": "Feodosiya", "country": "UA", "coord": {"lon": 35.383331, "lat": 45.033333}}, {"id": 796898, "name": "Novyy Koyash", "country": "UA", "coord": {"lon": 36.228611, "lat": 45.045555}}, {"id": 712654, "name": "Bila Skelya", "country": "UA", "coord": {"lon": 34.616669, "lat": 45.099998}}, {"id": 694910, "name": "Saky", "country": "UA", "coord": {"lon": 33.603058, "lat": 45.135555}}, {"id": 688817, "name": "Vulkanivka", "country": "UA", "coord": {"lon": 35.950001, "lat": 45.150002}}, {"id": 690556, "name": "Uyutne", "country": "UA", "coord": {"lon": 33.301388, "lat": 45.199444}}, {"id": 706524, "name": "Kerch", "country": "UA", "coord": {"lon": 36.475834, "lat": 45.358334}}, {"id": 826049, "name": "Tsementna Slobidka", "country": "UA", "coord": {"lon": 36.468056, "lat": 45.3325}}, {"id": 688146, "name": "Yenikale", "country": "UA", "coord": {"lon": 36.599998, "lat": 45.349998}}, {"id": 687032, "name": "Zhukivka", "country": "UA", "coord": {"lon": 36.628334, "lat": 45.370834}}, {"id": 697114, "name": "Plavni", "country": "UA", "coord": {"lon": 35.900002, "lat": 45.383331}}, {"id": 697958, "name": "Adzhymushkay", "country": "UA", "coord": {"lon": 36.523609, "lat": 45.387222}}, {"id": 694627, "name": "Semenivka", "country": "UA", "coord": {"lon": 35.766666, "lat": 45.383331}}, {"id": 826042, "name": "Yehorove", "country": "UA", "coord": {"lon": 36.482777, "lat": 45.385834}}, {"id": 700550, "name": "Mysove", "country": "UA", "coord": {"lon": 35.849998, "lat": 45.450001}}, {"id": 710687, "name": "Chornomorske", "country": "UA", "coord": {"lon": 32.699722, "lat": 45.503887}}, {"id": 695322, "name": "Urochyshche Rozhkova", "country": "UA", "coord": {"lon": 35.166668, "lat": 45.533333}}, {"id": 696471, "name": "Portove", "country": "UA", "coord": {"lon": 33.483334, "lat": 45.849998}}, {"id": 712105, "name": "Biyuk-Nayman", "country": "UA", "coord": {"lon": 34.349998, "lat": 46.016666}}, {"id": 708877, "name": "Heniches\u2019ka Hirka", "country": "UA", "coord": {"lon": 34.833332, "lat": 46.083332}}, {"id": 694308, "name": "Shchemilovka", "country": "UA", "coord": {"lon": 33.700001, "lat": 46.150002}}, {"id": 542415, "name": "Krasnodarskiy Kray", "country": "RU", "coord": {"lon": 40, "lat": 45}}, {"id": 874636, "name": "Ves\u00ebloye", "country": "RU", "coord": {"lon": 40.003056, "lat": 43.411388}}, {"id": 823689, "name": "Kazachiy Brod", "country": "RU", "coord": {"lon": 39.985832, "lat": 43.518333}}, {"id": 583815, "name": "Akhshtyr\u2019", "country": "RU", "coord": {"lon": 40, "lat": 43.509998}}, {"id": 803587, "name": "Dmitreyevka", "country": "RU", "coord": {"lon": 39.857224, "lat": 43.537224}}, {"id": 803572, "name": "Krasnovol'sk", "country": "RU", "coord": {"lon": 39.887222, "lat": 43.5425}}, {"id": 803558, "name": "Verkhnenikolayevka", "country": "RU", "coord": {"lon": 39.93861, "lat": 43.52639}}, {"id": 823681, "name": "Malyy Akhun", "country": "RU", "coord": {"lon": 39.831112, "lat": 43.537224}}, {"id": 803569, "name": "Shirokiy Pokos", "country": "RU", "coord": {"lon": 39.922779, "lat": 43.555557}}, {"id": 823684, "name": "Khleborob", "country": "RU", "coord": {"lon": 39.884445, "lat": 43.56139}}, {"id": 823712, "name": "Verkhnaya Matsesta", "country": "RU", "coord": {"lon": 39.802502, "lat": 43.558613}}, {"id": 528559, "name": "Staraya Matsesta", "country": "RU", "coord": {"lon": 39.802776, "lat": 43.568611}}, {"id": 803597, "name": "Razdol\u2019noye", "country": "RU", "coord": {"lon": 39.764999, "lat": 43.573612}}, {"id": 614540, "name": "Georgia", "country": "GE", "coord": {"lon": 43.5, "lat": 42}}, {"id": 6643410, "name": "Abkhazia", "country": "GE", "coord": {"lon": 41.159939, "lat": 42.790833}}, {"id": 573071, "name": "Bol\u2019shoy Kichmay", "country": "RU", "coord": {"lon": 39.5, "lat": 43.833057}}, {"id": 823600, "name": "Volkonka", "country": "RU", "coord": {"lon": 39.390278, "lat": 43.873611}}, {"id": 805539, "name": "Soloniki", "country": "RU", "coord": {"lon": 39.375, "lat": 43.886391}}, {"id": 536625, "name": "Lazarevskoye", "country": "RU", "coord": {"lon": 39.333057, "lat": 43.906113}}, {"id": 582783, "name": "Alekseyevskoye", "country": "RU", "coord": {"lon": 39.380001, "lat": 43.93}}, {"id": 805516, "name": "Mamedova Shchel\u2019", "country": "RU", "coord": {"lon": 39.31139, "lat": 43.953609}}, {"id": 579879, "name": "Babuk-Aul", "country": "RU", "coord": {"lon": 39.810001, "lat": 43.880001}}, {"id": 823570, "name": "Desyatyy Kilometr", "country": "RU", "coord": {"lon": 39.389442, "lat": 43.94389}}, {"id": 548407, "name": "Kirova", "country": "RU", "coord": {"lon": 39.445557, "lat": 43.969723}}, {"id": 805506, "name": "Mukhortova Polyana", "country": "RU", "coord": {"lon": 39.272499, "lat": 43.974445}}, {"id": 805438, "name": "Chortov Most", "country": "RU", "coord": {"lon": 39.413334, "lat": 44.009445}}, {"id": 584222, "name": "Respublika Adygeya", "country": "RU", "coord": {"lon": 40, "lat": 45}}, {"id": 799311, "name": "Guzeripl\u2019", "country": "RU", "coord": {"lon": 40.136391, "lat": 43.988609}}, {"id": 868740, "name": "Lygotkh", "country": "RU", "coord": {"lon": 39.358612, "lat": 44.006111}}, {"id": 550757, "name": "Khamyshki", "country": "RU", "coord": {"lon": 40.133888, "lat": 44.094723}}, {"id": 839858, "name": "Kamyshanov", "country": "RU", "coord": {"lon": 40.048611, "lat": 44.169445}}, {"id": 523644, "name": "Nadzhigo", "country": "RU", "coord": {"lon": 39.263889, "lat": 44.048889}}, {"id": 804391, "name": "Lobazana", "country": "RU", "coord": {"lon": 40.229443, "lat": 44.066944}}, {"id": 527223, "name": "Mezmay", "country": "RU", "coord": {"lon": 39.961109, "lat": 44.199722}}, {"id": 839750, "name": "Dederkoy", "country": "RU", "coord": {"lon": 39.130554, "lat": 44.055}}, {"id": 512433, "name": "Paseka", "country": "RU", "coord": {"lon": 39.167221, "lat": 44.090832}}, {"id": 839723, "name": "Grozneft\u2019", "country": "RU", "coord": {"lon": 39.106667, "lat": 44.096668}}, {"id": 839718, "name": "Yablonskiy", "country": "RU", "coord": {"lon": 39.656387, "lat": 44.148609}}, {"id": 540004, "name": "Kubysh", "country": "RU", "coord": {"lon": 39.397778, "lat": 44.086388}}, {"id": 805416, "name": "Dolmen", "country": "RU", "coord": {"lon": 39.13139, "lat": 44.120834}}, {"id": 839711, "name": "Prigorodnyy", "country": "RU", "coord": {"lon": 39.122501, "lat": 44.121944}}, {"id": 839725, "name": "Kholodnyy Rodnik", "country": "RU", "coord": {"lon": 39.150002, "lat": 44.120556}}, {"id": 527382, "name": "Messazhay", "country": "RU", "coord": {"lon": 39.122501, "lat": 44.140278}}, {"id": 839859, "name": "Nikel\u2019", "country": "RU", "coord": {"lon": 40.155834, "lat": 44.177502}}, {"id": 523048, "name": "Nebug", "country": "RU", "coord": {"lon": 39.003613, "lat": 44.171391}}, {"id": 518276, "name": "Novoprokhladnoye", "country": "RU", "coord": {"lon": 40.287498, "lat": 44.138611}}, {"id": 582165, "name": "Anastasiyevka", "country": "RU", "coord": {"lon": 39.279999, "lat": 44.16}}, {"id": 582962, "name": "Alekseyevka", "country": "RU", "coord": {"lon": 39.23, "lat": 44.189999}}, {"id": 540966, "name": "Krivenkovskoye", "country": "RU", "coord": {"lon": 39.238056, "lat": 44.184723}}, {"id": 804780, "name": "Popovskiy", "country": "RU", "coord": {"lon": 40.544167, "lat": 44.226944}}, {"id": 556373, "name": "Indyuk", "country": "RU", "coord": {"lon": 39.240833, "lat": 44.235558}}, {"id": 489648, "name": "Spornyy", "country": "RU", "coord": {"lon": 39.216667, "lat": 44.216667}}, {"id": 839688, "name": "Guamka", "country": "RU", "coord": {"lon": 39.90472, "lat": 44.231667}}, {"id": 567282, "name": "Dakhovskaya", "country": "RU", "coord": {"lon": 40.203056, "lat": 44.23}}, {"id": 514063, "name": "Ostrovskaya Shchel\u2019", "country": "RU", "coord": {"lon": 39.293056, "lat": 44.275002}}, {"id": 568144, "name": "Chilipsi", "country": "RU", "coord": {"lon": 39.224998, "lat": 44.284168}}, {"id": 545774, "name": "Kommuna Vladilen", "country": "RU", "coord": {"lon": 40.316944, "lat": 44.279446}}, {"id": 553514, "name": "Kamennomostskiy", "country": "RU", "coord": {"lon": 40.185555, "lat": 44.298332}}, {"id": 866267, "name": "Lermontovo", "country": "RU", "coord": {"lon": 38.75528, "lat": 44.301666}}, {"id": 483232, "name": "Teshebs", "country": "RU", "coord": {"lon": 38.585278, "lat": 44.371113}}, {"id": 570800, "name": "Burkhany", "country": "RU", "coord": {"lon": 38.811668, "lat": 44.388058}}, {"id": 507163, "name": "Polkovnichiy", "country": "RU", "coord": {"lon": 38.721111, "lat": 44.415558}}, {"id": 804463, "name": "Makhoshepolyana", "country": "RU", "coord": {"lon": 40.299442, "lat": 44.455555}}, {"id": 565743, "name": "Doguab", "country": "RU", "coord": {"lon": 38.328335, "lat": 44.473057}}, {"id": 563661, "name": "Dzhankhot", "country": "RU", "coord": {"lon": 38.157501, "lat": 44.463333}}, {"id": 533882, "name": "Lozinskogo", "country": "RU", "coord": {"lon": 38.933334, "lat": 44.466667}}, {"id": 485820, "name": "Suzdal'skiy", "country": "RU", "coord": {"lon": 39.944443, "lat": 44.490002}}, {"id": 566157, "name": "Divnomorskoye", "country": "RU", "coord": {"lon": 38.135277, "lat": 44.50111}}, {"id": 526757, "name": "Mikhaylovskiy Pereval", "country": "RU", "coord": {"lon": 38.318054, "lat": 44.513332}}, {"id": 516465, "name": "Oblego", "country": "RU", "coord": {"lon": 38.455002, "lat": 44.523335}}, {"id": 803692, "name": "Dolmel", "country": "RU", "coord": {"lon": 38.220833, "lat": 44.546665}}, {"id": 866301, "name": "Vozrozhdeniye", "country": "RU", "coord": {"lon": 38.213612, "lat": 44.550278}}, {"id": 561667, "name": "Gelendzhik", "country": "RU", "coord": {"lon": 38.074722, "lat": 44.573055}}, {"id": 866300, "name": "Svetlyy", "country": "RU", "coord": {"lon": 38.145279, "lat": 44.551945}}, {"id": 525627, "name": "Moldavanka", "country": "RU", "coord": {"lon": 38.368057, "lat": 44.550556}}, {"id": 490983, "name": "Solntsedar", "country": "RU", "coord": {"lon": 38.02639, "lat": 44.572498}}, {"id": 584257, "name": "Aderbiyevka", "country": "RU", "coord": {"lon": 38.099998, "lat": 44.599998}}, {"id": 866302, "name": "Novosadovyy", "country": "RU", "coord": {"lon": 38.406387, "lat": 44.584442}}, {"id": 869143, "name": "Mirnyy", "country": "RU", "coord": {"lon": 39.011665, "lat": 44.605831}}, {"id": 559317, "name": "Goryachiy Klyuch", "country": "RU", "coord": {"lon": 39.130001, "lat": 44.630833}}, {"id": 549692, "name": "Kholodnyy Rodnik", "country": "RU", "coord": {"lon": 38.470833, "lat": 44.56778}}, {"id": 839598, "name": "Zarech\u2019ye", "country": "RU", "coord": {"lon": 39.106667, "lat": 44.641109}}, {"id": 568501, "name": "Ch\u00ebrnyy Aul", "country": "RU", "coord": {"lon": 38.366669, "lat": 44.633331}}, {"id": 523842, "name": "Myskhako", "country": "RU", "coord": {"lon": 37.766109, "lat": 44.659168}}, {"id": 866231, "name": "Grush\u00ebvyy", "country": "RU", "coord": {"lon": 37.862221, "lat": 44.753613}}, {"id": 494750, "name": "Sheskharis", "country": "RU", "coord": {"lon": 37.839443, "lat": 44.718056}}, {"id": 823493, "name": "Aleksino", "country": "RU", "coord": {"lon": 37.790001, "lat": 44.669998}}, {"id": 584365, "name": "Abrau-Dyurso", "country": "RU", "coord": {"lon": 37.59, "lat": 44.689999}}, {"id": 866243, "name": "Abrau-Dyurso", "country": "RU", "coord": {"lon": 37.59, "lat": 44.709999}}, {"id": 518256, "name": "Novorossiyka", "country": "RU", "coord": {"lon": 37.783333, "lat": 44.716667}}, {"id": 866224, "name": "Bol\u2019shoy Utrish", "country": "RU", "coord": {"lon": 37.384998, "lat": 44.758888}}, {"id": 486456, "name": "Sukko", "country": "RU", "coord": {"lon": 37.428055, "lat": 44.799168}}, {"id": 512193, "name": "Pavlovka", "country": "RU", "coord": {"lon": 37.391109, "lat": 44.837776}}, {"id": 866987, "name": "Varvarovka", "country": "RU", "coord": {"lon": 37.386391, "lat": 44.840832}}, {"id": 866221, "name": "Gornyy", "country": "RU", "coord": {"lon": 37.7425, "lat": 44.8675}}, {"id": 582181, "name": "Anapskaya", "country": "RU", "coord": {"lon": 37.380001, "lat": 44.889999}}, {"id": 866218, "name": "Saukdere", "country": "RU", "coord": {"lon": 37.887779, "lat": 44.902779}}, {"id": 523270, "name": "Natukhayevskaya", "country": "RU", "coord": {"lon": 37.564999, "lat": 44.907223}}, {"id": 473295, "name": "Vityazevo", "country": "RU", "coord": {"lon": 37.271942, "lat": 44.993057}}, {"id": 473546, "name": "Vinogradnyy", "country": "RU", "coord": {"lon": 37.31889, "lat": 45.051666}}, {"id": 797062, "name": "Bugaz", "country": "RU", "coord": {"lon": 36.74361, "lat": 45.122501}}, {"id": 538911, "name": "Kurchanskaya", "country": "RU", "coord": {"lon": 37.585278, "lat": 45.221943}}, {"id": 797138, "name": "Oktyabr\u2019skiy", "country": "RU", "coord": {"lon": 37.319443, "lat": 45.248611}}, {"id": 581974, "name": "Andreyevskaya", "country": "RU", "coord": {"lon": 38.66, "lat": 45.310001}}, {"id": 483661, "name": "Temryuk", "country": "RU", "coord": {"lon": 37.381111, "lat": 45.272221}}, {"id": 497260, "name": "Semenyuk", "country": "RU", "coord": {"lon": 36.987499, "lat": 45.283611}}, {"id": 560513, "name": "Golubitskaya", "country": "RU", "coord": {"lon": 37.282223, "lat": 45.322224}}, {"id": 583811, "name": "Akhtanizovskaya", "country": "RU", "coord": {"lon": 37.099998, "lat": 45.32}}, {"id": 464730, "name": "Zaporozhskaya", "country": "RU", "coord": {"lon": 36.866669, "lat": 45.378887}}, {"id": 488713, "name": "Staronizhestebliyevskaya", "country": "RU", "coord": {"lon": 38.451668, "lat": 45.376667}}, {"id": 865376, "name": "Tkhubun", "country": "GE", "coord": {"lon": 41.073891, "lat": 42.965557}}, {"id": 613270, "name": "Lech\u2019k\u2019op\u2019i", "country": "GE", "coord": {"lon": 40.955002, "lat": 43.008331}}, {"id": 611128, "name": "Volodarskoye", "country": "GE", "coord": {"lon": 41.053333, "lat": 43.004166}}, {"id": 611847, "name": "Sokhumi", "country": "GE", "coord": {"lon": 41.015278, "lat": 43.003334}}, {"id": 823912, "name": "Adzigezhi", "country": "GE", "coord": {"lon": 40.973888, "lat": 43.057777}}, {"id": 615912, "name": "Stantsiya Novyy Afon", "country": "GE", "coord": {"lon": 40.838333, "lat": 43.080555}}, {"id": 823895, "name": "Nizhneye Armyanskoye Ushchel\u2019ye", "country": "GE", "coord": {"lon": 40.791943, "lat": 43.084167}}, {"id": 874552, "name": "-", "country": "GE", "coord": {"lon": 40.801666, "lat": 43.099445}}, {"id": 823894, "name": "Adzghap\u2019sha", "country": "GE", "coord": {"lon": 40.75222, "lat": 43.090279}}, {"id": 874469, "name": "Akui", "country": "GE", "coord": {"lon": 40.829166, "lat": 43.100834}}, {"id": 823893, "name": "Tsvkvara", "country": "GE", "coord": {"lon": 40.760277, "lat": 43.09639}}, {"id": 615564, "name": "Bombora", "country": "GE", "coord": {"lon": 40.599998, "lat": 43.100555}}, {"id": 613159, "name": "Likhni", "country": "GE", "coord": {"lon": 40.614723, "lat": 43.145557}}, {"id": 615460, "name": "Bichvinta", "country": "GE", "coord": {"lon": 40.337776, "lat": 43.159168}}, {"id": 613195, "name": "Lidzava", "country": "GE", "coord": {"lon": 40.3675, "lat": 43.178055}}, {"id": 615448, "name": "Blaburkhva", "country": "GE", "coord": {"lon": 40.4575, "lat": 43.227501}}, {"id": 615321, "name": "Bzip\u2019i", "country": "GE", "coord": {"lon": 40.376667, "lat": 43.232224}}, {"id": 874575, "name": "Zemo Khevi", "country": "GE", "coord": {"lon": 40.320278, "lat": 43.241669}}, {"id": 823850, "name": "Bzyb\u2019", "country": "GE", "coord": {"lon": 40.394444, "lat": 43.267776}}, {"id": 823851, "name": "Dzikhch\u2019a", "country": "GE", "coord": {"lon": 40.360001, "lat": 43.252777}}, {"id": 824135, "name": "Otradnoe", "country": "GE", "coord": {"lon": 40.273609, "lat": 43.272499}}, {"id": 615782, "name": "Alpiiskoe", "country": "GE", "coord": {"lon": 40.279999, "lat": 43.283611}}, {"id": 799968, "name": "Bzyb\u2019", "country": "GE", "coord": {"lon": 40.398888, "lat": 43.28611}}, {"id": 615910, "name": "Akhali-Gagra", "country": "GE", "coord": {"lon": 40.268612, "lat": 43.287777}}, {"id": 823853, "name": "Gagrap\u2019sta", "country": "GE", "coord": {"lon": 40.299168, "lat": 43.272778}}, {"id": 874627, "name": "Gruzinskoye Ushchel\u2019ye", "country": "GE", "coord": {"lon": 40.276943, "lat": 43.290558}}, {"id": 614622, "name": "Gagra", "country": "GE", "coord": {"lon": 40.223888, "lat": 43.328335}}, {"id": 531791, "name": "Malakhovskiye Vyselki", "country": "RU", "coord": {"lon": 40.299999, "lat": 54.950001}}, {"id": 503315, "name": "Rabochaya Sloboda", "country": "RU", "coord": {"lon": 40.299999, "lat": 55.033333}}, {"id": 493584, "name": "Shugarovo", "country": "RU", "coord": {"lon": 37.988335, "lat": 55.075558}}, {"id": 508179, "name": "Podluzh\u2019ye", "country": "RU", "coord": {"lon": 38.741943, "lat": 55.178055}}, {"id": 811383, "name": "Sazonova", "country": "RU", "coord": {"lon": 35.945831, "lat": 55.200832}}, {"id": 501977, "name": "Revyakino", "country": "RU", "coord": {"lon": 36.284721, "lat": 55.210278}}, {"id": 470299, "name": "Vyshegorod", "country": "RU", "coord": {"lon": 36.181389, "lat": 55.238056}}, {"id": 816033, "name": "Novo-Borisovo", "country": "RU", "coord": {"lon": 36.166389, "lat": 55.243889}}, {"id": 482864, "name": "Timonovo", "country": "RU", "coord": {"lon": 39.416668, "lat": 55.316666}}, {"id": 480378, "name": "Tupitsino", "country": "RU", "coord": {"lon": 39.533333, "lat": 55.366669}}, {"id": 538933, "name": "Kurbatikha", "country": "RU", "coord": {"lon": 39.383331, "lat": 55.383331}}, {"id": 563280, "name": "Faustovo", "country": "RU", "coord": {"lon": 38.482777, "lat": 55.436111}}, {"id": 563015, "name": "Fedotikha", "country": "RU", "coord": {"lon": 39.266666, "lat": 55.466667}}, {"id": 484192, "name": "Tasino", "country": "RU", "coord": {"lon": 40.200001, "lat": 55.516666}}, {"id": 483039, "name": "Tikhonovo", "country": "RU", "coord": {"lon": 40.266666, "lat": 55.549999}}, {"id": 509861, "name": "Petrovskoye", "country": "RU", "coord": {"lon": 39.466667, "lat": 55.566666}}, {"id": 543953, "name": "Kostino", "country": "RU", "coord": {"lon": 36.18528, "lat": 55.621387}}, {"id": 488721, "name": "Staronikolayevo", "country": "RU", "coord": {"lon": 36.255001, "lat": 55.618332}}, {"id": 514963, "name": "Arinino", "country": "RU", "coord": {"lon": 39.433334, "lat": 55.650002}}, {"id": 497097, "name": "Sen\u2019ga-Ozero", "country": "RU", "coord": {"lon": 39.383331, "lat": 55.816666}}, {"id": 820177, "name": "Rakovo", "country": "RU", "coord": {"lon": 36.573612, "lat": 55.829723}}, {"id": 512039, "name": "Pavlovskaya Sloboda", "country": "RU", "coord": {"lon": 37.082779, "lat": 55.815556}}, {"id": 557045, "name": "Ilkodino", "country": "RU", "coord": {"lon": 39.799999, "lat": 55.799999}}, {"id": 572447, "name": "Borisovo", "country": "RU", "coord": {"lon": 39.716667, "lat": 55.799999}}, {"id": 572233, "name": "Borok", "country": "RU", "coord": {"lon": 39.366669, "lat": 55.849998}}, {"id": 533097, "name": "Luzhki", "country": "RU", "coord": {"lon": 36.964443, "lat": 55.852222}}, {"id": 523476, "name": "Naputnovo", "country": "RU", "coord": {"lon": 39.700001, "lat": 55.900002}}, {"id": 548957, "name": "Khvolovo", "country": "RU", "coord": {"lon": 36.637779, "lat": 55.872501}}, {"id": 518953, "name": "Novodar\u2019ino", "country": "RU", "coord": {"lon": 36.668888, "lat": 55.892776}},