[{"id": 3848989, "name": "Largu\u00eda", "country": "AR", "coord": {"lon": -61.218151, "lat": -32.551479}}, {"id": 3860204, "name": "Coronel Charlone", "country": "AR", "coord": {"lon": -63.370312, "lat": -34.674789}}, {"id": 3853643, "name": "Isla Verde", "country": "AR", "coord": {"lon": -62.402969, "lat": -33.241039}}, {"id": 3843830, "name": "Monte Maiz", "country": "AR", "coord": {"lon": -62.600849, "lat": -33.20462}}, {"id": 3836944, "name": "San Mauricio", "country": "AR", "coord": {"lon": -63.187801, "lat": -35.510719}}, {"id": 3861568, "name": "Chepes Viejo", "country": "AR", "coord": {"lon": -66.58519, "lat": -31.26075}}, {"id": 3855368, "name": "Fray Luis Beltran", "country": "AR", "coord": {"lon": -65.76667, "lat": -39.316669}}, {"id": 3833871, "name": "Tres Algarrobos", "country": "AR", "coord": {"lon": -62.77396, "lat": -35.19471}}, {"id": 3430940, "name": "Malabrigo", "country": "AR", "coord": {"lon": -59.96957, "lat": -29.346359}}, {"id": 3839441, "name": "Partido de Ramallo", "country": "AR", "coord": {"lon": -60.083328, "lat": -33.5}}, {"id": 3839444, "name": "Ramallo", "country": "AR", "coord": {"lon": -60.007069, "lat": -33.484821}}, {"id": 3427388, "name": "Villa Ocampo", "country": "AR", "coord": {"lon": -59.355148, "lat": -28.48752}}, {"id": 3861001, "name": "Clodomiro D\u00edaz", "country": "AR", "coord": {"lon": -60.799999, "lat": -27.616671}}, {"id": 3855365, "name": "Fredriksson", "country": "AR", "coord": {"lon": -61.4771, "lat": -33.446838}}, {"id": 3837008, "name": "San Marcos Sierra", "country": "AR", "coord": {"lon": -64.693237, "lat": -30.79298}}, {"id": 3430106, "name": "Paso de la Laguna", "country": "AR", "coord": {"lon": -59.166672, "lat": -31.799999}}, {"id": 3427399, "name": "Villa Maria Grande", "country": "AR", "coord": {"lon": -59.901821, "lat": -31.665649}}, {"id": 3855124, "name": "General Cabrera", "country": "AR", "coord": {"lon": -63.872429, "lat": -32.813129}}, {"id": 3427908, "name": "Sosa", "country": "AR", "coord": {"lon": -59.910809, "lat": -31.73657}}, {"id": 3842414, "name": "Padilla", "country": "AR", "coord": {"lon": -65.392159, "lat": -27.022659}}, {"id": 3431002, "name": "Lucas Sur", "country": "AR", "coord": {"lon": -59.036709, "lat": -31.6551}}, {"id": 3854987, "name": "Gobernador Crespo", "country": "AR", "coord": {"lon": -60.401619, "lat": -30.3627}}, {"id": 3845682, "name": "Los Puestos", "country": "AR", "coord": {"lon": -64.973221, "lat": -27.267191}}, {"id": 3861678, "name": "Charata", "country": "AR", "coord": {"lon": -61.18795, "lat": -27.21438}}, {"id": 3858677, "name": "El Calafate", "country": "AR", "coord": {"lon": -72.276817, "lat": -50.340752}}, {"id": 3840104, "name": "Puerto Deseado", "country": "AR", "coord": {"lon": -65.893822, "lat": -47.75034}}, {"id": 3858909, "name": "El Aranado", "country": "AR", "coord": {"lon": -62.893219, "lat": -31.741199}}, {"id": 3852428, "name": "La Buena Parada", "country": "AR", "coord": {"lon": -63.606361, "lat": -31.171129}}, {"id": 3431266, "name": "Loma Verde", "country": "AR", "coord": {"lon": -58.403782, "lat": -35.273682}}, {"id": 3834182, "name": "Partido de Tornquist", "country": "AR", "coord": {"lon": -62.25, "lat": -38.25}}, {"id": 3834184, "name": "Tornquist", "country": "AR", "coord": {"lon": -62.222672, "lat": -38.101219}}, {"id": 3860721, "name": "Colonia San Pedro", "country": "AR", "coord": {"lon": -62.342129, "lat": -37.953541}}, {"id": 3860174, "name": "Coronel Pringles", "country": "AR", "coord": {"lon": -61.356152, "lat": -37.982948}}, {"id": 3837455, "name": "San Jer\u00f3nimo Sur", "country": "AR", "coord": {"lon": -61.025082, "lat": -32.87991}}, {"id": 3436249, "name": "Arturo Segu\u00ed", "country": "AR", "coord": {"lon": -58.12579, "lat": -34.889519}}, {"id": 3862584, "name": "Carmen del Sauce", "country": "AR", "coord": {"lon": -60.811161, "lat": -33.236}}, {"id": 3427362, "name": "Villa Zagala", "country": "AR", "coord": {"lon": -58.537682, "lat": -34.551262}}, {"id": 3843881, "name": "Monte Buey", "country": "AR", "coord": {"lon": -62.45668, "lat": -32.91642}}, {"id": 3863314, "name": "Camilo Aldao", "country": "AR", "coord": {"lon": -62.094528, "lat": -33.127449}}, {"id": 3435713, "name": "Ca\u00f1uelas", "country": "AR", "coord": {"lon": -58.760609, "lat": -35.051842}}, {"id": 3859538, "name": "Daireaux", "country": "AR", "coord": {"lon": -61.75, "lat": -36.599998}}, {"id": 3845260, "name": "Maguire", "country": "AR", "coord": {"lon": -60.299999, "lat": -33.950001}}, {"id": 3863419, "name": "Calchaqui", "country": "AR", "coord": {"lon": -60.286961, "lat": -29.887671}}, {"id": 3429745, "name": "Puerto Paulito", "country": "AR", "coord": {"lon": -54.59853, "lat": -25.80266}}, {"id": 3837611, "name": "San Gabriel", "country": "AR", "coord": {"lon": -65.449692, "lat": -27.104561}}, {"id": 3429247, "name": "Partido de San Antonio de Areco", "country": "AR", "coord": {"lon": -59.5, "lat": -34.25}}, {"id": 3429248, "name": "San Antonio de Areco", "country": "AR", "coord": {"lon": -59.469452, "lat": -34.24968}}, {"id": 3857431, "name": "Elortondo", "country": "AR", "coord": {"lon": -61.616928, "lat": -33.700291}}, {"id": 3862537, "name": "Carreras", "country": "AR", "coord": {"lon": -61.309818, "lat": -33.597038}}, {"id": 3864251, "name": "Bigand", "country": "AR", "coord": {"lon": -61.184681, "lat": -33.372799}}, {"id": 3848653, "name": "Las Ca\u00f1as", "country": "AR", "coord": {"lon": -60.274849, "lat": -31.01363}}, {"id": 3838411, "name": "Saladero M. Cabal", "country": "AR", "coord": {"lon": -60.036758, "lat": -30.880751}}, {"id": 3430946, "name": "Maip\u00fa", "country": "AR", "coord": {"lon": -57.880939, "lat": -36.86274}}, {"id": 3860168, "name": "Coronel Rodr\u00edguez", "country": "AR", "coord": {"lon": -61.245762, "lat": -31.700781}}, {"id": 3844046, "name": "Moj\u00f3n", "country": "AR", "coord": {"lon": -64.916283, "lat": -27.22823}}, {"id": 3855244, "name": "Galvez", "country": "AR", "coord": {"lon": -61.221031, "lat": -32.02927}}, {"id": 3429308, "name": "Partido de San Andr\u00e9s de Giles", "country": "AR", "coord": {"lon": -59.5, "lat": -34.5}}, {"id": 3429309, "name": "San Andr\u00e9s de Giles", "country": "AR", "coord": {"lon": -59.443329, "lat": -34.449718}}, {"id": 3835793, "name": "Santo Tome", "country": "AR", "coord": {"lon": -60.765301, "lat": -31.662741}}, {"id": 3427447, "name": "Villa Dom\u00ednico", "country": "AR", "coord": {"lon": -58.31963, "lat": -34.689529}}, {"id": 3435073, "name": "Diamante", "country": "AR", "coord": {"lon": -58.416672, "lat": -34.666672}}, {"id": 3429861, "name": "Presidente Rivadavia", "country": "AR", "coord": {"lon": -58.433331, "lat": -34.650002}}, {"id": 3861704, "name": "Chapelco", "country": "AR", "coord": {"lon": -71.21769, "lat": -40.126621}}, {"id": 3847617, "name": "Las Varas", "country": "AR", "coord": {"lon": -62.61655, "lat": -31.802601}}, {"id": 3847907, "name": "Las Petacas", "country": "AR", "coord": {"lon": -62.108761, "lat": -31.82292}}, {"id": 3838823, "name": "R\u00edo Primero", "country": "AR", "coord": {"lon": -63.616669, "lat": -31.33333}}, {"id": 3429902, "name": "Pontevedra", "country": "AR", "coord": {"lon": -58.686958, "lat": -34.749741}}, {"id": 3433762, "name": "Glew", "country": "AR", "coord": {"lon": -58.37764, "lat": -34.89151}}, {"id": 3435029, "name": "Domselaar", "country": "AR", "coord": {"lon": -58.285542, "lat": -35.072231}}, {"id": 3429814, "name": "Puente Cascallares", "country": "AR", "coord": {"lon": -58.819618, "lat": -34.686218}}, {"id": 3842591, "name": "Ordoqui", "country": "AR", "coord": {"lon": -61.16153, "lat": -35.881329}}, {"id": 3841678, "name": "Partido de Pehuaj\u00f3", "country": "AR", "coord": {"lon": -61.75, "lat": -35.916672}}, {"id": 3841679, "name": "Pehuaj\u00f3", "country": "AR", "coord": {"lon": -61.896801, "lat": -35.810768}}, {"id": 3839516, "name": "Quiroga", "country": "AR", "coord": {"lon": -61.406719, "lat": -35.292919}}, {"id": 3842871, "name": "Partido de Nueve de Julio", "country": "AR", "coord": {"lon": -61, "lat": -35.5}}, {"id": 3842881, "name": "Nueve de Julio", "country": "AR", "coord": {"lon": -60.883129, "lat": -35.44437}}, {"id": 3430705, "name": "Partido de Mercedes", "country": "AR", "coord": {"lon": -59.416672, "lat": -34.666672}}, {"id": 3430708, "name": "Mercedes", "country": "AR", "coord": {"lon": -59.430679, "lat": -34.651459}}, {"id": 3854323, "name": "Herrera Vegas", "country": "AR", "coord": {"lon": -61.416672, "lat": -36.083328}}, {"id": 3858765, "name": "El Bolson", "country": "AR", "coord": {"lon": -71.51667, "lat": -41.966671}}, {"id": 3834397, "name": "Tilisarao", "country": "AR", "coord": {"lon": -65.291092, "lat": -32.732922}}, {"id": 3841309, "name": "Pico Truncado", "country": "AR", "coord": {"lon": -67.957314, "lat": -46.794899}}, {"id": 3864285, "name": "Bernardo Larroude", "country": "AR", "coord": {"lon": -63.582531, "lat": -35.02449}}, {"id": 3860407, "name": "Condarco", "country": "AR", "coord": {"lon": -63.066669, "lat": -35.26667}}, {"id": 3862634, "name": "Carhu\u00e9", "country": "AR", "coord": {"lon": -62.757919, "lat": -37.176682}}, {"id": 3428533, "name": "Partido de San Pedro", "country": "AR", "coord": {"lon": -59.75, "lat": -33.75}}, {"id": 3428576, "name": "San Pedro", "country": "AR", "coord": {"lon": -59.666641, "lat": -33.679131}}, {"id": 3427208, "name": "Zelaya", "country": "AR", "coord": {"lon": -58.86977, "lat": -34.370789}}, {"id": 3851734, "name": "La Donosa", "country": "AR", "coord": {"lon": -64.971291, "lat": -27.427191}}, {"id": 3866496, "name": "Aguilares", "country": "AR", "coord": {"lon": -65.614273, "lat": -27.4338}}, {"id": 3844104, "name": "Mixta", "country": "AR", "coord": {"lon": -65.134956, "lat": -27.228991}}, {"id": 3856575, "name": "El Suncho", "country": "AR", "coord": {"lon": -64.948463, "lat": -27.212299}}, {"id": 3860217, "name": "Coronda", "country": "AR", "coord": {"lon": -60.919819, "lat": -31.97263}}, {"id": 3836376, "name": "Santa Clara de Buena Vista", "country": "AR", "coord": {"lon": -61.31982, "lat": -31.763901}}, {"id": 3861016, "name": "Clason", "country": "AR", "coord": {"lon": -61.291061, "lat": -32.461418}}, {"id": 3435364, "name": "Clorinda", "country": "AR", "coord": {"lon": -57.71851, "lat": -25.284809}}, {"id": 3863692, "name": "Bustinza", "country": "AR", "coord": {"lon": -61.290291, "lat": -32.73909}}, {"id": 3862981, "name": "Canada de Gomez", "country": "AR", "coord": {"lon": -61.394932, "lat": -32.81636}}, {"id": 3865485, "name": "Arequito", "country": "AR", "coord": {"lon": -61.471561, "lat": -33.145519}}, {"id": 3435055, "name": "Dique Luj\u00e1n", "country": "AR", "coord": {"lon": -58.68792, "lat": -34.357189}}, {"id": 3867002, "name": "Abra Rica", "country": "AR", "coord": {"lon": -64.883331, "lat": -27.133329}}, {"id": 3844012, "name": "Molinari", "country": "AR", "coord": {"lon": -64.48333, "lat": -31.200001}}, {"id": 3436237, "name": "Atucha", "country": "AR", "coord": {"lon": -59.285011, "lat": -33.979969}}, {"id": 3435551, "name": "Centinela del Mar", "country": "AR", "coord": {"lon": -58.221748, "lat": -38.433159}}, {"id": 3835807, "name": "Santo Tom\u00e1s", "country": "AR", "coord": {"lon": -61.50631, "lat": -35.672588}}, {"id": 3849403, "name": "Laplacette", "country": "AR", "coord": {"lon": -61.155811, "lat": -34.72187}}, {"id": 3436101, "name": "Partido de Arrecifes", "country": "AR", "coord": {"lon": -60, "lat": -34}}, {"id": 3865436, "name": "Arrecifes", "country": "AR", "coord": {"lon": -60.103569, "lat": -34.0639}}, {"id": 3855003, "name": "Girondo", "country": "AR", "coord": {"lon": -61.616669, "lat": -36}}, {"id": 3832625, "name": "Villa San Jos\u00e9", "country": "AR", "coord": {"lon": -60.413589, "lat": -34.091259}}, {"id": 3844811, "name": "Mari Lauquen", "country": "AR", "coord": {"lon": -62.976662, "lat": -36.130291}}, {"id": 3854594, "name": "Guanaco", "country": "AR", "coord": {"lon": -61.6479, "lat": -35.71352}}, {"id": 3850702, "name": "La Invencible", "country": "AR", "coord": {"lon": -60.387081, "lat": -34.27034}}, {"id": 3849736, "name": "La Ni\u00f1a", "country": "AR", "coord": {"lon": -61.206959, "lat": -35.40715}}, {"id": 3433723, "name": "Gonz\u00e1lez Cat\u00e1n", "country": "AR", "coord": {"lon": -58.647141, "lat": -34.768951}}, {"id": 3845330, "name": "Machagai", "country": "AR", "coord": {"lon": -60.049561, "lat": -26.92614}}, {"id": 3854494, "name": "Guatimozin", "country": "AR", "coord": {"lon": -62.438438, "lat": -33.461498}}, {"id": 3843619, "name": "Morteros", "country": "AR", "coord": {"lon": -61.998619, "lat": -30.711639}}, {"id": 3866029, "name": "Alto San Pedro", "country": "AR", "coord": {"lon": -64.478333, "lat": -31.047331}}, {"id": 3864286, "name": "Bernardo de Irigoyen", "country": "AR", "coord": {"lon": -61.157051, "lat": -32.168129}}, {"id": 3859435, "name": "Desmochado Afuera", "country": "AR", "coord": {"lon": -61.26667, "lat": -33}}, {"id": 3853760, "name": "Ingenio Nueva Baviera", "country": "AR", "coord": {"lon": -65.395561, "lat": -27.070881}}, {"id": 3840314, "name": "Pozuelos", "country": "AR", "coord": {"lon": -64.755722, "lat": -27.30801}}, {"id": 3427386, "name": "Villa Paranacito", "country": "AR", "coord": {"lon": -58.657982, "lat": -33.72208}}, {"id": 3846697, "name": "Loma del Medio", "country": "AR", "coord": {"lon": -64.739677, "lat": -27.37627}}, {"id": 3833478, "name": "Tusquitas", "country": "AR", "coord": {"lon": -64.924789, "lat": -27.101101}}, {"id": 3436048, "name": "Benav\u00eddez", "country": "AR", "coord": {"lon": -58.701389, "lat": -34.411301}}, {"id": 3435874, "name": "Caballito", "country": "AR", "coord": {"lon": -58.44104, "lat": -34.622639}}, {"id": 3855570, "name": "Fighiera", "country": "AR", "coord": {"lon": -60.4687, "lat": -33.194939}}, {"id": 3427511, "name": "Ver\u00f3nica", "country": "AR", "coord": {"lon": -57.33691, "lat": -35.387959}}, {"id": 3838294, "name": "Saldan", "country": "AR", "coord": {"lon": -64.306999, "lat": -31.30262}}, {"id": 3856659, "name": "El Sauce", "country": "AR", "coord": {"lon": -64.313744, "lat": -31.09746}}, {"id": 3860825, "name": "Departamento de Col\u00f3n", "country": "AR", "coord": {"lon": -64.166672, "lat": -31.16667}}, {"id": 3845679, "name": "Los Quebrachitos", "country": "AR", "coord": {"lon": -64.377022, "lat": -31.197861}}, {"id": 3427662, "name": "Tres Bocas", "country": "AR", "coord": {"lon": -59.766441, "lat": -32.739891}}, {"id": 3430239, "name": "Palavecino", "country": "AR", "coord": {"lon": -58.640598, "lat": -32.946079}}, {"id": 3848656, "name": "Las Ca\u00f1as", "country": "AR", "coord": {"lon": -65.215118, "lat": -28.203899}}, {"id": 3834601, "name": "Tartagal", "country": "AR", "coord": {"lon": -63.801311, "lat": -22.516359}}, {"id": 3833405, "name": "Uranga", "country": "AR", "coord": {"lon": -60.70406, "lat": -33.269161}}, {"id": 3429160, "name": "San Clemente del Tuyu", "country": "AR", "coord": {"lon": -56.723511, "lat": -36.356941}}, {"id": 3858918, "name": "El Amparo", "country": "AR", "coord": {"lon": -66.150002, "lat": -33.183331}}, {"id": 3832131, "name": "Departamento de Zapala", "country": "AR", "coord": {"lon": -69.833328, "lat": -39}}, {"id": 3832132, "name": "Zapala", "country": "AR", "coord": {"lon": -70.05442, "lat": -38.899158}}, {"id": 3855563, "name": "Filo-hua-hum", "country": "AR", "coord": {"lon": -71.349998, "lat": -40.48333}}, {"id": 3863596, "name": "Cabildo", "country": "AR", "coord": {"lon": -61.89542, "lat": -38.484211}}, {"id": 3429418, "name": "S\u00e1enz Pe\u00f1a", "country": "AR", "coord": {"lon": -58.530079, "lat": -34.600521}}, {"id": 3832811, "name": "Villa Angela", "country": "AR", "coord": {"lon": -60.71526, "lat": -27.57383}}, {"id": 3844609, "name": "Mechita", "country": "AR", "coord": {"lon": -60.408428, "lat": -35.07016}}, {"id": 3855558, "name": "Finca Elisa", "country": "AR", "coord": {"lon": -65.1688, "lat": -26.958839}}, {"id": 3834867, "name": "Tacanas", "country": "AR", "coord": {"lon": -64.809288, "lat": -27.13752}}, {"id": 3853756, "name": "Ingenio San Pablo", "country": "AR", "coord": {"lon": -65.316673, "lat": -26.9}}, {"id": 3433319, "name": "Jos\u00e9 Santos Ar\u00e9valo", "country": "AR", "coord": {"lon": -59.223129, "lat": -35.17421}}, {"id": 3860059, "name": "Correa", "country": "AR", "coord": {"lon": -61.254742, "lat": -32.849159}}, {"id": 3860847, "name": "Coll\u00fan-C\u00f3", "country": "AR", "coord": {"lon": -71.20137, "lat": -39.969551}}, {"id": 3864830, "name": "Banderal\u00f3", "country": "AR", "coord": {"lon": -63.375561, "lat": -35.013069}}, {"id": 3862222, "name": "Cavanagh", "country": "AR", "coord": {"lon": -62.338879, "lat": -33.476059}}, {"id": 3836540, "name": "Sansinena", "country": "AR", "coord": {"lon": -63.21381, "lat": -35.276531}}, {"id": 3832797, "name": "Villa Berthet", "country": "AR", "coord": {"lon": -60.412628, "lat": -27.29174}}, {"id": 3431775, "name": "Las Garzas", "country": "AR", "coord": {"lon": -59.51667, "lat": -28.83333}}, {"id": 3866389, "name": "Aldea Jacobi", "country": "AR", "coord": {"lon": -60.294189, "lat": -32.061619}}, {"id": 3430968, "name": "Macia", "country": "AR", "coord": {"lon": -59.399471, "lat": -32.172199}}, {"id": 3832765, "name": "Villa del Rosario", "country": "AR", "coord": {"lon": -63.534519, "lat": -31.556601}}, {"id": 3845075, "name": "Malvinas", "country": "AR", "coord": {"lon": -65.283333, "lat": -26.91667}}, {"id": 3860766, "name": "Colonia La Brava", "country": "AR", "coord": {"lon": -60.142841, "lat": -30.453699}}, {"id": 3427528, "name": "V\u00e9lez Sarsfield", "country": "AR", "coord": {"lon": -58.48333, "lat": -34.633331}}, {"id": 3838468, "name": "Partido de Saavedra", "country": "AR", "coord": {"lon": -62.5, "lat": -37.75}}, {"id": 3838469, "name": "Saavedra", "country": "AR", "coord": {"lon": -62.349918, "lat": -37.76273}}, {"id": 3848676, "name": "Las Calles", "country": "AR", "coord": {"lon": -64.971413, "lat": -31.82386}}, {"id": 3855377, "name": "Franck", "country": "AR", "coord": {"lon": -60.939041, "lat": -31.58642}}, {"id": 3430114, "name": "Parque Patricios", "country": "AR", "coord": {"lon": -58.410488, "lat": -34.640518}}, {"id": 3862575, "name": "Carnerillo", "country": "AR", "coord": {"lon": -64.021751, "lat": -32.9137}}, {"id": 3433579, "name": "Heavy", "country": "AR", "coord": {"lon": -59.65694, "lat": -34.43066}}, {"id": 3433340, "name": "Jeppener", "country": "AR", "coord": {"lon": -58.19902, "lat": -35.278431}}, {"id": 3860755, "name": "Colonia Margarita", "country": "AR", "coord": {"lon": -61.64592, "lat": -31.685801}}, {"id": 3848896, "name": "Larrea", "country": "AR", "coord": {"lon": -60.366798, "lat": -35.051472}}, {"id": 3838131, "name": "San Ambrosio", "country": "AR", "coord": {"lon": -65.890221, "lat": -33.037319}}, {"id": 3834514, "name": "Teniente Origone", "country": "AR", "coord": {"lon": -62.569408, "lat": -39.058689}}, {"id": 3862101, "name": "Cereales", "country": "AR", "coord": {"lon": -63.85535, "lat": -36.813412}}, {"id": 3844962, "name": "Manuel Garc\u00eda Fern\u00e1ndez", "country": "AR", "coord": {"lon": -65.283333, "lat": -26.966669}}, {"id": 3860209, "name": "Coronel Arnold", "country": "AR", "coord": {"lon": -60.965881, "lat": -33.105042}}, {"id": 3428287, "name": "Santa Lucia", "country": "AR", "coord": {"lon": -59.102871, "lat": -28.987459}}, {"id": 3843897, "name": "Monteagudo", "country": "AR", "coord": {"lon": -65.276558, "lat": -27.51162}}, {"id": 3431239, "name": "Los Acantilados", "country": "AR", "coord": {"lon": -57.600189, "lat": -38.116051}}, {"id": 3430862, "name": "Mar del Sur", "country": "AR", "coord": {"lon": -57.990799, "lat": -38.34288}}, {"id": 3854427, "name": "Guido Spano", "country": "AR", "coord": {"lon": -60.6511, "lat": -34.22612}}, {"id": 3855083, "name": "General O\u2019Brien", "country": "AR", "coord": {"lon": -60.754608, "lat": -34.903141}}, {"id": 3856511, "name": "El Tejar", "country": "AR", "coord": {"lon": -61.045658, "lat": -35.220951}}, {"id": 3430838, "name": "Mariano Acosta", "country": "AR", "coord": {"lon": -58.793091, "lat": -34.719872}}, {"id": 3430116, "name": "Parque Chacabuco", "country": "AR", "coord": {"lon": -58.443218, "lat": -34.634129}}, {"id": 3835126, "name": "Soldini", "country": "AR", "coord": {"lon": -60.755291, "lat": -33.027599}}, {"id": 3429713, "name": "Puerto Vilelas", "country": "AR", "coord": {"lon": -58.93906, "lat": -27.514139}}, {"id": 3834623, "name": "Taquello", "country": "AR", "coord": {"lon": -64.782227, "lat": -27.43741}}, {"id": 3837707, "name": "San Fernando", "country": "AR", "coord": {"lon": -64.380493, "lat": -31.26935}}, {"id": 3842802, "name": "Obanta", "country": "AR", "coord": {"lon": -65.300003, "lat": -26.866671}}, {"id": 3852490, "name": "La Bolsa", "country": "AR", "coord": {"lon": -65.300003, "lat": -26.950001}}, {"id": 3865991, "name": "\u00c1lvarez", "country": "AR", "coord": {"lon": -60.803928, "lat": -33.130322}}, {"id": 3433893, "name": "Fort\u00edn Aguilar", "country": "AR", "coord": {"lon": -59.633331, "lat": -27.066669}}, {"id": 3861217, "name": "Chumbicha", "country": "AR", "coord": {"lon": -66.235001, "lat": -28.8543}}, {"id": 3845228, "name": "Maizales", "country": "AR", "coord": {"lon": -60.963322, "lat": -33.317322}}, {"id": 3845052, "name": "Manantial", "country": "AR", "coord": {"lon": -65.282959, "lat": -26.847481}}, {"id": 3834813, "name": "Tafi Viejo", "country": "AR", "coord": {"lon": -65.259209, "lat": -26.73201}}, {"id": 3853689, "name": "Isca Yac\u00fa", "country": "AR", "coord": {"lon": -64.609917, "lat": -27.028891}}, {"id": 3435021, "name": "Don Crist\u00f3bal", "country": "AR", "coord": {"lon": -59.993778, "lat": -32.071201}}, {"id": 3832637, "name": "Villa R\u00edo Hondo", "country": "AR", "coord": {"lon": -64.915024, "lat": -27.59341}}, {"id": 3843854, "name": "Monte Flores", "country": "AR", "coord": {"lon": -60.68272, "lat": -33.1073}}, {"id": 3432990, "name": "Labard\u00e9n", "country": "AR", "coord": {"lon": -58.103779, "lat": -36.947491}}, {"id": 3855152, "name": "Gaviotas", "country": "AR", "coord": {"lon": -63.638309, "lat": -38.943661}}, {"id": 3853773, "name": "Ingeniero White", "country": "AR", "coord": {"lon": -62.266369, "lat": -38.780182}}, {"id": 3848470, "name": "Las Delicias", "country": "AR", "coord": {"lon": -60.4263, "lat": -31.93499}}, {"id": 3855069, "name": "General Racedo", "country": "AR", "coord": {"lon": -60.408619, "lat": -31.98283}}, {"id": 3436004, "name": "Boca", "country": "AR", "coord": {"lon": -58.36298, "lat": -34.634129}}, {"id": 3853994, "name": "Hughes", "country": "AR", "coord": {"lon": -61.334671, "lat": -33.801121}}, {"id": 3855066, "name": "General Roca", "country": "AR", "coord": {"lon": -61.915989, "lat": -32.73196}}, {"id": 3435910, "name": "Buenos Aires", "country": "AR", "coord": {"lon": -58.377232, "lat": -34.613152}}, {"id": 3435506, "name": "Chacarita", "country": "AR", "coord": {"lon": -58.452499, "lat": -34.587009}}, {"id": 3841979, "name": "Paraje El Cerro", "country": "AR", "coord": {"lon": -61.283329, "lat": -32.51667}}, {"id": 3832798, "name": "Villa Benegas", "country": "AR", "coord": {"lon": -64.95591, "lat": -31.640579}}, {"id": 3435103, "name": "Curuzu Cuatia", "country": "AR", "coord": {"lon": -58.0546, "lat": -29.79171}}, {"id": 3840029, "name": "Pujato", "country": "AR", "coord": {"lon": -61.043228, "lat": -33.017658}}, {"id": 3866356, "name": "Alejandro Roca", "country": "AR", "coord": {"lon": -63.718491, "lat": -33.353691}}, {"id": 3862338, "name": "Caspi Corral", "country": "AR", "coord": {"lon": -63.529419, "lat": -27.38242}}, {"id": 3845365, "name": "Luque", "country": "AR", "coord": {"lon": -63.343231, "lat": -31.647511}}, {"id": 3847613, "name": "Las Varillas", "country": "AR", "coord": {"lon": -62.71946, "lat": -31.87208}}, {"id": 3846296, "name": "Los Cha\u00f1aritos", "country": "AR", "coord": {"lon": -63.332329, "lat": -31.40238}}, {"id": 3833995, "name": "Totoras", "country": "AR", "coord": {"lon": -61.168522, "lat": -32.5844}}, {"id": 3855113, "name": "General Fotheringham", "country": "AR", "coord": {"lon": -63.869499, "lat": -32.322929}}, {"id": 3861828, "name": "Challac\u00f3", "country": "AR", "coord": {"lon": -68.96489, "lat": -38.96859}}, {"id": 3427382, "name": "Villa Recondo", "country": "AR", "coord": {"lon": -58.476101, "lat": -34.705761}}, {"id": 3430990, "name": "Luis J. Garc\u00eda", "country": "AR", "coord": {"lon": -58.466671, "lat": -34.683331}}, {"id": 3431606, "name": "Las Toscas", "country": "AR", "coord": {"lon": -59.25795, "lat": -28.3529}}, {"id": 3841500, "name": "Perez", "country": "AR", "coord": {"lon": -60.76791, "lat": -32.998348}}, {"id": 3843059, "name": "Ninte", "country": "AR", "coord": {"lon": -63.817059, "lat": -30.93609}}, {"id": 3838240, "name": "Partido de Salliquel\u00f3", "country": "AR", "coord": {"lon": -63.083328, "lat": -36.666672}}, {"id": 3838241, "name": "Salliquel\u00f3", "country": "AR", "coord": {"lon": -62.960529, "lat": -36.752159}}, {"id": 3432598, "name": "La Estafeta", "country": "AR", "coord": {"lon": -57.640072, "lat": -38.162361}}, {"id": 3429024, "name": "San Gustavo", "country": "AR", "coord": {"lon": -59.398399, "lat": -30.68961}}, {"id": 3860198, "name": "Partido de Coronel Dorrego", "country": "AR", "coord": {"lon": -61.166672, "lat": -38.666672}}, {"id": 3860199, "name": "Coronel Dorrego", "country": "AR", "coord": {"lon": -61.287319, "lat": -38.71867}}, {"id": 3429933, "name": "Pl\u00e1tanos", "country": "AR", "coord": {"lon": -58.161049, "lat": -34.784012}}, {"id": 3859749, "name": "Cuchi Corral", "country": "AR", "coord": {"lon": -64.57518, "lat": -30.974819}}, {"id": 3846719, "name": "Loma Alta", "country": "AR", "coord": {"lon": -61.178028, "lat": -31.960569}}, {"id": 3832799, "name": "Villa Belgrano", "country": "AR", "coord": {"lon": -64.252907, "lat": -31.35722}}, {"id": 3862395, "name": "Casalegno", "country": "AR", "coord": {"lon": -61.126209, "lat": -32.262329}}, {"id": 3844585, "name": "M\u00e9dano de Oro", "country": "AR", "coord": {"lon": -68.449997, "lat": -31.6}}, {"id": 3864185, "name": "Blanca Grande", "country": "AR", "coord": {"lon": -60.883331, "lat": -36.533329}}, {"id": 3854970, "name": "Gobernador Ugarte", "country": "AR", "coord": {"lon": -60.08007, "lat": -35.164711}}, {"id": 3854996, "name": "Gnecco", "country": "AR", "coord": {"lon": -62.00058, "lat": -35.682549}}, {"id": 3841517, "name": "Peralta", "country": "AR", "coord": {"lon": -61.667568, "lat": -38.057919}}, {"id": 3434161, "name": "Emiliano Reynoso", "country": "AR", "coord": {"lon": -59.876339, "lat": -35.54821}}, {"id": 3860179, "name": "Coronel Moldes", "country": "AR", "coord": {"lon": -65.479027, "lat": -25.27994}}, {"id": 3838059, "name": "San Antonio", "country": "AR", "coord": {"lon": -65.014122, "lat": -27.15378}}, {"id": 3861956, "name": "Chab\u00e1s", "country": "AR", "coord": {"lon": -61.357559, "lat": -33.244579}}, {"id": 3832800, "name": "Villa Belgrano", "country": "AR", "coord": {"lon": -65.614723, "lat": -27.52655}}, {"id": 3854008, "name": "Huerta Grande", "country": "AR", "coord": {"lon": -64.490631, "lat": -31.075239}}, {"id": 3859833, "name": "Cruz Chica", "country": "AR", "coord": {"lon": -64.483788, "lat": -30.96497}}, {"id": 3840081, "name": "Puerto San Lorenzo", "country": "AR", "coord": {"lon": -60.734631, "lat": -32.727482}}, {"id": 3427215, "name": "Zapiola", "country": "AR", "coord": {"lon": -59.040981, "lat": -35.059021}}, {"id": 3862320, "name": "Castelli", "country": "AR", "coord": {"lon": -60.619469, "lat": -25.946791}}, {"id": 3832647, "name": "Villa Regina", "country": "AR", "coord": {"lon": -67.066673, "lat": -39.099998}}, {"id": 3848354, "name": "Las Heras", "country": "AR", "coord": {"lon": -68.828369, "lat": -32.85273}}, {"id": 3843798, "name": "Montes de Oca", "country": "AR", "coord": {"lon": -61.76881, "lat": -32.566662}}, {"id": 3428708, "name": "San Luis del Palmar", "country": "AR", "coord": {"lon": -58.554539, "lat": -27.5079}}, {"id": 3436134, "name": "Barracas", "country": "AR", "coord": {"lon": -58.383411, "lat": -34.649658}}, {"id": 3433836, "name": "Garupa", "country": "AR", "coord": {"lon": -55.829208, "lat": -27.48171}}, {"id": 3430103, "name": "Departamento de Paso de los Libres", "country": "AR", "coord": {"lon": -57.25, "lat": -29.66667}}, {"id": 3430104, "name": "Paso de los Libres", "country": "AR", "coord": {"lon": -57.089909, "lat": -29.71311}}, {"id": 3832923, "name": "Victorica", "country": "AR", "coord": {"lon": -65.43586, "lat": -36.21505}}, {"id": 3843871, "name": "Monte Cristo", "country": "AR", "coord": {"lon": -63.94437, "lat": -31.343121}}, {"id": 3855098, "name": "General Levalle", "country": "AR", "coord": {"lon": -63.924129, "lat": -34.014721}}, {"id": 3832756, "name": "Villa Dolores", "country": "AR", "coord": {"lon": -65.189583, "lat": -31.94585}}, {"id": 3860417, "name": "Conchas", "country": "AR", "coord": {"lon": -64.964111, "lat": -25.477409}}, {"id": 3862760, "name": "Capilla de los Remedios", "country": "AR", "coord": {"lon": -63.831779, "lat": -31.430309}}, {"id": 3836647, "name": "San Ram\u00f3n", "country": "AR", "coord": {"lon": -65.527351, "lat": -25.01833}}, {"id": 3845666, "name": "Los Quirquinchos", "country": "AR", "coord": {"lon": -61.709862, "lat": -33.375431}}, {"id": 3428050, "name": "Sarand\u00ed", "country": "AR", "coord": {"lon": -58.351181, "lat": -34.683239}}, {"id": 3427455, "name": "Villa del Parque", "country": "AR", "coord": {"lon": -58.48872, "lat": -34.600571}}, {"id": 3838638, "name": "Roldan", "country": "AR", "coord": {"lon": -60.906811, "lat": -32.89846}}, {"id": 3862525, "name": "Carreta Quebrada", "country": "AR", "coord": {"lon": -64.180779, "lat": -31.157721}}, {"id": 3838154, "name": "Departamento de San Alberto", "country": "AR", "coord": {"lon": -65.25, "lat": -31.75}}, {"id": 3837098, "name": "San Lorenzo", "country": "AR", "coord": {"lon": -65.0187, "lat": -31.6789}}, {"id": 3860455, "name": "Comedero", "country": "AR", "coord": {"lon": -65.584969, "lat": -28.9175}}, {"id": 3849516, "name": "La Paz", "country": "AR", "coord": {"lon": -67.549561, "lat": -33.460911}}, {"id": 3855132, "name": "Partido de General Arenales", "country": "AR", "coord": {"lon": -61.25, "lat": -34.25}}, {"id": 3855133, "name": "General Arenales", "country": "AR", "coord": {"lon": -61.305222, "lat": -34.302639}}, {"id": 3833140, "name": "Vedia", "country": "AR", "coord": {"lon": -61.541382, "lat": -34.495579}}, {"id": 3834080, "name": "Tortugas", "country": "AR", "coord": {"lon": -61.820091, "lat": -32.747799}}, {"id": 3838684, "name": "Rodeo del Medio", "country": "AR", "coord": {"lon": -68.683319, "lat": -32.99353}}, {"id": 3833675, "name": "Trevelin", "country": "AR", "coord": {"lon": -71.46386, "lat": -43.0858}}, {"id": 3429576, "name": "Retiro", "country": "AR", "coord": {"lon": -58.383331, "lat": -34.583328}}, {"id": 3860816, "name": "Colonia Alpina", "country": "AR", "coord": {"lon": -62.103779, "lat": -30.05954}}, {"id": 3859827, "name": "Departamento de Cruz del Eje", "country": "AR", "coord": {"lon": -65, "lat": -30.75}}, {"id": 3859828, "name": "Cruz del Eje", "country": "AR", "coord": {"lon": -64.803871, "lat": -30.72644}}, {"id": 3429014, "name": "Departamento de San Ignacio", "country": "AR", "coord": {"lon": -55.333328, "lat": -27.25}}, {"id": 3429016, "name": "San Ignacio", "country": "AR", "coord": {"lon": -55.533901, "lat": -27.255859}}, {"id": 3841163, "name": "Piedritas", "country": "AR", "coord": {"lon": -62.983662, "lat": -34.768318}}, {"id": 3862138, "name": "Centeno", "country": "AR", "coord": {"lon": -61.411221, "lat": -32.296879}}, {"id": 3834780, "name": "Tala Ca\u00f1ada", "country": "AR", "coord": {"lon": -64.969879, "lat": -31.357389}}, {"id": 3852629, "name": "La Banda", "country": "AR", "coord": {"lon": -64.242783, "lat": -27.73348}}, {"id": 3832630, "name": "Villa Saboya", "country": "AR", "coord": {"lon": -62.646729, "lat": -34.460339}}, {"id": 3833794, "name": "Tres Isletas", "country": "AR", "coord": {"lon": -60.432072, "lat": -26.34066}}, {"id": 3855067, "name": "General Ramirez", "country": "AR", "coord": {"lon": -60.20079, "lat": -32.17601}}, {"id": 3429439, "name": "Rosario del Tala", "country": "AR", "coord": {"lon": -59.145451, "lat": -32.30286}}, {"id": 3832959, "name": "Viale", "country": "AR", "coord": {"lon": -60.007221, "lat": -31.867821}}, {"id": 3835940, "name": "Santa Rosa de Leales", "country": "AR", "coord": {"lon": -65.260513, "lat": -27.136881}}, {"id": 3861595, "name": "Chazon", "country": "AR", "coord": {"lon": -63.276569, "lat": -33.07872}}, {"id": 3844908, "name": "Marcelino Escalada", "country": "AR", "coord": {"lon": -60.468689, "lat": -30.57918}}, {"id": 3835297, "name": "Sierra Grande", "country": "AR", "coord": {"lon": -65.355743, "lat": -41.606022}}, {"id": 3840885, "name": "Plottier", "country": "AR", "coord": {"lon": -68.23333, "lat": -38.966671}}, {"id": 3853748, "name": "Inriville", "country": "AR", "coord": {"lon": -62.230282, "lat": -32.944241}}, {"id": 3855639, "name": "Fatral\u00f3", "country": "AR", "coord": {"lon": -62.83503, "lat": -36.963959}}, {"id": 3832669, "name": "Villa Mugueta", "country": "AR", "coord": {"lon": -61.055149, "lat": -33.311291}}, {"id": 3428973, "name": "Departamento de San Javier", "country": "AR", "coord": {"lon": -59.916672, "lat": -30.33333}}, {"id": 3428975, "name": "San Javier", "country": "AR", "coord": {"lon": -59.931702, "lat": -30.57781}}, {"id": 3852279, "name": "La Carlota", "country": "AR", "coord": {"lon": -63.297691, "lat": -33.41993}}, {"id": 3842217, "name": "Palomitas", "country": "AR", "coord": {"lon": -65.226982, "lat": -27.46703}}, {"id": 3427387, "name": "Villa Ort\u00fazar", "country": "AR", "coord": {"lon": -58.48333, "lat": -34.583328}}, {"id": 3427561, "name": "Valeria del Mar", "country": "AR", "coord": {"lon": -56.890461, "lat": -37.146042}}, {"id": 3848611, "name": "Las Catitas", "country": "AR", "coord": {"lon": -68.033333, "lat": -33.299999}}, {"id": 3835943, "name": "Santa Rosa de Calamuchita", "country": "AR", "coord": {"lon": -64.536308, "lat": -32.06905}}, {"id": 3435257, "name": "Constituci\u00f3n", "country": "AR", "coord": {"lon": -58.38633, "lat": -34.625931}}, {"id": 3435643, "name": "Partido de Carmen de Areco", "country": "AR", "coord": {"lon": -59.833328, "lat": -34.333328}}, {"id": 3435644, "name": "Carmen de Areco", "country": "AR", "coord": {"lon": -59.822788, "lat": -34.375332}}, {"id": 3430780, "name": "M\u00e1ximo Paz", "country": "AR", "coord": {"lon": -58.617882, "lat": -34.938782}}, {"id": 3436227, "name": "Partido de Avellaneda", "country": "AR", "coord": {"lon": -58.333328, "lat": -34.666672}}, {"id": 7535637, "name": "Avellaneda", "country": "AR", "coord": {"lon": -58.367439, "lat": -34.660179}}, {"id": 3429389, "name": "Partido de Saladillo", "country": "AR", "coord": {"lon": -59.666672, "lat": -35.75}}, {"id": 3429399, "name": "Saladillo", "country": "AR", "coord": {"lon": -59.777882, "lat": -35.637081}}, {"id": 3435689, "name": "Partido de Capit\u00e1n Sarmiento", "country": "AR", "coord": {"lon": -59.833328, "lat": -34.166672}}, {"id": 3435690, "name": "Capit\u00e1n Sarmiento", "country": "AR", "coord": {"lon": -59.789871, "lat": -34.172691}}, {"id": 3855042, "name": "Partido de General Viamonte", "country": "AR", "coord": {"lon": -61, "lat": -35}}, {"id": 3855043, "name": "General Viamonte", "country": "AR", "coord": {"lon": -61.03508, "lat": -35.000141}}, {"id": 3862736, "name": "Capit\u00e1n Castro", "country": "AR", "coord": {"lon": -62.2243, "lat": -35.9119}}, {"id": 3843844, "name": "Monte Hermoso", "country": "AR", "coord": {"lon": -61.299999, "lat": -38.650002}}, {"id": 3844267, "name": "Miguel Riglos", "country": "AR", "coord": {"lon": -63.688419, "lat": -36.853981}}, {"id": 3859036, "name": "Eduardo Castex", "country": "AR", "coord": {"lon": -64.294479, "lat": -35.915009}}, {"id": 3436149, "name": "Partido de Baradero", "country": "AR", "coord": {"lon": -59.5, "lat": -33.833328}}, {"id": 3436150, "name": "Baradero", "country": "AR", "coord": {"lon": -59.508072, "lat": -33.81105}}, {"id": 3430782, "name": "Matheu", "country": "AR", "coord": {"lon": -58.83292, "lat": -34.385448}}, {"id": 3845391, "name": "Lules", "country": "AR", "coord": {"lon": -65.338692, "lat": -26.9277}}, {"id": 3843802, "name": "Departamento de Monteros", "country": "AR", "coord": {"lon": -65.583328, "lat": -27.16667}}, {"id": 3843803, "name": "Monteros", "country": "AR", "coord": {"lon": -65.498322, "lat": -27.167419}}, {"id": 3865289, "name": "Atahona", "country": "AR", "coord": {"lon": -65.287163, "lat": -27.41737}}, {"id": 3430857, "name": "Margarita Belen", "country": "AR", "coord": {"lon": -58.972191, "lat": -27.2616}}, {"id": 3834652, "name": "Tanti", "country": "AR", "coord": {"lon": -64.592018, "lat": -31.35601}}, {"id": 3838297, "name": "Salazar", "country": "AR", "coord": {"lon": -62.200001, "lat": -36.299999}}, {"id": 3433712, "name": "Goyeneche", "country": "AR", "coord": {"lon": -58.72353, "lat": -35.342949}}, {"id": 3433798, "name": "Partido de General Las Heras", "country": "AR", "coord": {"lon": -59, "lat": -34.833328}}, {"id": 3433799, "name": "General Las Heras", "country": "AR", "coord": {"lon": -58.946209, "lat": -34.927261}}, {"id": 3844818, "name": "Mar\u00eda Teresa", "country": "AR", "coord": {"lon": -61.914951, "lat": -34.011871}}, {"id": 3842432, "name": "Pacar\u00e1", "country": "AR", "coord": {"lon": -65.133331, "lat": -26.9}}, {"id": 3429703, "name": "Pueyrred\u00f3n", "country": "AR", "coord": {"lon": -58.5, "lat": -34.583328}}, {"id": 3433959, "name": "Federacion", "country": "AR", "coord": {"lon": -57.89962, "lat": -31.00621}}, {"id": 3866985, "name": "Acebal", "country": "AR", "coord": {"lon": -60.836441, "lat": -33.243092}}, {"id": 3849181, "name": "La Puntilla", "country": "AR", "coord": {"lon": -68.849052, "lat": -32.96225}}, {"id": 3859278, "name": "Dolavon", "country": "AR", "coord": {"lon": -65.699997, "lat": -43.299999}}, {"id": 3436058, "name": "Departamento de Bella Vista", "country": "AR", "coord": {"lon": -58.833328, "lat": -28.5}}, {"id": 3436062, "name": "Bella Vista", "country": "AR", "coord": {"lon": -59.040089, "lat": -28.50918}}, {"id": 3834339, "name": "Tio Pujio", "country": "AR", "coord": {"lon": -63.35598, "lat": -32.287899}}, {"id": 3834822, "name": "Tacural", "country": "AR", "coord": {"lon": -61.591919, "lat": -30.846319}}, {"id": 3853350, "name": "Junin de los Andes", "country": "AR", "coord": {"lon": -71.069359, "lat": -39.950432}}, {"id": 3832608, "name": "Villa Trinidad", "country": "AR", "coord": {"lon": -61.875969, "lat": -30.213289}}, {"id": 3433964, "name": "F\u00e1tima", "country": "AR", "coord": {"lon": -58.986549, "lat": -34.43903}}, {"id": 3832599, "name": "Villa Vieja", "country": "AR", "coord": {"lon": -62.700001, "lat": -31.26667}}, {"id": 3832741, "name": "Villa Fontana", "country": "AR", "coord": {"lon": -63.115341, "lat": -30.893761}}, {"id": 3845251, "name": "Mainque", "country": "AR", "coord": {"lon": -67.300003, "lat": -39.066669}}, {"id": 3429808, "name": "Puerto Algarrobo", "country": "AR", "coord": {"lon": -59.57972, "lat": -30.642139}}, {"id": 3430272, "name": "Ostende", "country": "AR", "coord": {"lon": -56.883518, "lat": -37.125221}}, {"id": 3832397, "name": "Wheelwright", "country": "AR", "coord": {"lon": -61.208881, "lat": -33.79039}}, {"id": 3435446, "name": "Partido de Chascom\u00fas", "country": "AR", "coord": {"lon": -57.833328, "lat": -35.75}}, {"id": 3435448, "name": "Chascom\u00fas", "country": "AR", "coord": {"lon": -58.008091, "lat": -35.572971}}, {"id": 3833100, "name": "Partido de Veinticinco de Mayo", "country": "AR", "coord": {"lon": -60.25, "lat": -35.5}}, {"id": 3833112, "name": "Veinticinco de Mayo", "country": "AR", "coord": {"lon": -60.17271, "lat": -35.432301}}, {"id": 3854947, "name": "Gonz\u00e1lez", "country": "AR", "coord": {"lon": -64.612602, "lat": -24.895941}}, {"id": 3866465, "name": "Aimogasta", "country": "AR", "coord": {"lon": -66.805878, "lat": -28.5609}}, {"id": 3428481, "name": "San Salvador", "country": "AR", "coord": {"lon": -58.505241, "lat": -31.62487}}, {"id": 3851331, "name": "La Falda", "country": "AR", "coord": {"lon": -64.489868, "lat": -31.088409}}, {"id": 3436397, "name": "Almagro", "country": "AR", "coord": {"lon": -58.416672, "lat": -34.599998}}, {"id": 3427500, "name": "Victoria", "country": "AR", "coord": {"lon": -58.546139, "lat": -34.455051}}, {"id": 3856210, "name": "Empalme Villa Constituci\u00f3n", "country": "AR", "coord": {"lon": -60.379391, "lat": -33.26038}}, {"id": 3832729, "name": "Villa Giardino", "country": "AR", "coord": {"lon": -64.48333, "lat": -31.033331}}, {"id": 3841486, "name": "Perico", "country": "AR", "coord": {"lon": -65.114906, "lat": -24.382931}}, {"id": 3842190, "name": "Palpala", "country": "AR", "coord": {"lon": -65.211632, "lat": -24.256479}}, {"id": 3430597, "name": "Departamento de Monte Caseros", "country": "AR", "coord": {"lon": -57.833328, "lat": -30.25}}, {"id": 3430598, "name": "Monte Caseros", "country": "AR", "coord": {"lon": -57.636261, "lat": -30.25359}}, {"id": 3832376, "name": "Yacimiento Rio Turbio", "country": "AR", "coord": {"lon": -72.3508, "lat": -51.573212}}, {"id": 3845181, "name": "Malarg\u00fce", "country": "AR", "coord": {"lon": -69.584267, "lat": -35.47546}}, {"id": 3427377, "name": "Villa Rosa", "country": "AR", "coord": {"lon": -58.871159, "lat": -34.416569}}, {"id": 3855712, "name": "Eusebia", "country": "AR", "coord": {"lon": -61.85704, "lat": -30.946239}}, {"id": 3430568, "name": "Moquehu\u00e1", "country": "AR", "coord": {"lon": -59.775051, "lat": -35.091801}}, {"id": 3862100, "name": "Ceres", "country": "AR", "coord": {"lon": -61.945042, "lat": -29.881001}}, {"id": 3839262, "name": "Recreo", "country": "AR", "coord": {"lon": -60.73299, "lat": -31.490761}}, {"id": 3861869, "name": "Chacras de Coria", "country": "AR", "coord": {"lon": -68.866669, "lat": -33}}, {"id": 3866237, "name": "Almafuerte", "country": "AR", "coord": {"lon": -64.255592, "lat": -32.192959}}, {"id": 3844424, "name": "Mendiolaza", "country": "AR", "coord": {"lon": -64.300873, "lat": -31.26738}}, {"id": 3833111, "name": "Veinticinco de Mayo", "country": "AR", "coord": {"lon": -67.716377, "lat": -37.774101}}, {"id": 3832763, "name": "Villa del Totoral", "country": "AR", "coord": {"lon": -63.716671, "lat": -30.816669}}, {"id": 3429458, "name": "Romang", "country": "AR", "coord": {"lon": -59.748058, "lat": -29.501619}}, {"id": 3427340, "name": "Vivorat\u00e1", "country": "AR", "coord": {"lon": -57.666328, "lat": -37.663872}}, {"id": 3845293, "name": "Madariaga", "country": "AR", "coord": {"lon": -64.666672, "lat": -25.91667}}, {"id": 3856140, "name": "Epuy\u00e9n", "country": "AR", "coord": {"lon": -71.387337, "lat": -42.221859}}, {"id": 3846915, "name": "Libertador General San Martin", "country": "AR", "coord": {"lon": -64.787567, "lat": -23.80644}}, {"id": 3832631, "name": "Villa Rumipal", "country": "AR", "coord": {"lon": -64.48027, "lat": -32.187901}}, {"id": 3834048, "name": "Tostado", "country": "AR", "coord": {"lon": -61.769169, "lat": -29.232019}}, {"id": 3859409, "name": "Devoto", "country": "AR", "coord": {"lon": -62.306339, "lat": -31.40431}}, {"id": 3861958, "name": "Cevil Redondo", "country": "AR", "coord": {"lon": -65.283333, "lat": -26.783331}}, {"id": 3861415, "name": "Departamento de Chimbas", "country": "AR", "coord": {"lon": -68.533333, "lat": -31.466669}}, {"id": 3861416, "name": "Chimbas", "country": "AR", "coord": {"lon": -68.533333, "lat": -31.48333}}, {"id": 3832411, "name": "Warnes", "country": "AR", "coord": {"lon": -60.535229, "lat": -34.91066}}, {"id": 3835300, "name": "Sierra de la Ventana", "country": "AR", "coord": {"lon": -61.795181, "lat": -38.138069}}, {"id": 3860365, "name": "Conesa", "country": "AR", "coord": {"lon": -60.354279, "lat": -33.594341}}, {"id": 3853509, "name": "Jes\u00fas Mar\u00eda", "country": "AR", "coord": {"lon": -60.79298, "lat": -32.667198}}, {"id": 3847783, "name": "Las Talas", "country": "AR", "coord": {"lon": -64.215881, "lat": -30.75589}}, {"id": 3832793, "name": "Villa Canas", "country": "AR", "coord": {"lon": -61.607571, "lat": -34.00565}}, {"id": 3865999, "name": "Departamento de Alumin\u00e9", "country": "AR", "coord": {"lon": -71, "lat": -39.166672}}, {"id": 3866000, "name": "Alumine", "country": "AR", "coord": {"lon": -70.919701, "lat": -39.236858}}, {"id": 3833936, "name": "Tr\u00e1nsito", "country": "AR", "coord": {"lon": -63.196011, "lat": -31.4252}}, {"id": 3839288, "name": "Real del Padre", "country": "AR", "coord": {"lon": -67.764992, "lat": -34.841419}}, {"id": 3855131, "name": "General Baldissera", "country": "AR", "coord": {"lon": -62.306301, "lat": -33.122459}}, {"id": 3430454, "name": "Partido de Navarro", "country": "AR", "coord": {"lon": -59.5, "lat": -35}}, {"id": 3430457, "name": "Navarro", "country": "AR", "coord": {"lon": -59.276989, "lat": -35.005589}}, {"id": 3834665, "name": "Tancacha", "country": "AR", "coord": {"lon": -63.980701, "lat": -32.243092}}, {"id": 3833182, "name": "Vaqueros", "country": "AR", "coord": {"lon": -65.397911, "lat": -24.705851}}, {"id": 3839263, "name": "Recreo", "country": "AR", "coord": {"lon": -65.060959, "lat": -29.281839}}, {"id": 3833412, "name": "Unquillo", "country": "AR", "coord": {"lon": -64.316147, "lat": -31.23073}}, {"id": 3834647, "name": "Tapalqu\u00e9", "country": "AR", "coord": {"lon": -60.026402, "lat": -36.354931}}, {"id": 3427456, "name": "Villa de los Patricios", "country": "AR", "coord": {"lon": -58.537331, "lat": -34.61969}}, {"id": 3835617, "name": "Sauce Viejo", "country": "AR", "coord": {"lon": -60.836658, "lat": -31.77125}}, {"id": 3859034, "name": "Egusquiza", "country": "AR", "coord": {"lon": -61.62759, "lat": -31.09565}}, {"id": 3839667, "name": "Departamento de Quem\u00fa Quem\u00fa", "country": "AR", "coord": {"lon": -63.75, "lat": -36.25}}, {"id": 3839668, "name": "Quemu Quemu", "country": "AR", "coord": {"lon": -63.564281, "lat": -36.05463}}, {"id": 3833358, "name": "Uspallata", "country": "AR", "coord": {"lon": -69.348717, "lat": -32.591702}}, {"id": 3855394, "name": "Fraile Pintado", "country": "AR", "coord": {"lon": -64.799431, "lat": -23.94079}}, {"id": 3866268, "name": "Alicia", "country": "AR", "coord": {"lon": -62.464951, "lat": -31.94006}}, {"id": 3835695, "name": "Sastre", "country": "AR", "coord": {"lon": -61.828861, "lat": -31.76762}}, {"id": 3853745, "name": "Intendente Alvear", "country": "AR", "coord": {"lon": -63.592049, "lat": -35.233829}}, {"id": 3838741, "name": "Rivera", "country": "AR", "coord": {"lon": -63.24464, "lat": -37.158951}}, {"id": 3838563, "name": "Departamento de Rosario de la Frontera", "country": "AR", "coord": {"lon": -64.833328, "lat": -25.91667}}, {"id": 3838564, "name": "Rosario de la Frontera", "country": "AR", "coord": {"lon": -64.97094, "lat": -25.79693}}, {"id": 3833027, "name": "Vera", "country": "AR", "coord": {"lon": -60.212608, "lat": -29.459299}}, {"id": 3432790, "name": "La Constancia", "country": "AR", "coord": {"lon": -58.760052, "lat": -37.226219}}, {"id": 3948969, "name": "Los Rosas", "country": "AR", "coord": {"lon": -61.586109, "lat": -32.47694}}, {"id": 3866214, "name": "Alpachiri", "country": "AR", "coord": {"lon": -63.774448, "lat": -37.377041}}, {"id": 3862883, "name": "Canals", "country": "AR", "coord": {"lon": -62.889271, "lat": -33.565418}}, {"id": 3430287, "name": "Open Door", "country": "AR", "coord": {"lon": -59.07719, "lat": -34.492359}}, {"id": 3855107, "name": "General Guti\u00e9rrez", "country": "AR", "coord": {"lon": -68.783493, "lat": -32.958309}}, {"id": 3836188, "name": "Departamento de Santa Luc\u00eda", "country": "AR", "coord": {"lon": -68.466667, "lat": -31.533331}}, {"id": 3836194, "name": "Santa Lucia", "country": "AR", "coord": {"lon": -68.495033, "lat": -31.539869}}, {"id": 3853562, "name": "James Craik", "country": "AR", "coord": {"lon": -63.466881, "lat": -32.161201}}, {"id": 3860280, "name": "Coquimbito", "country": "AR", "coord": {"lon": -68.75, "lat": -32.966671}}, {"id": 3862761, "name": "Capilla del Monte", "country": "AR", "coord": {"lon": -64.525146, "lat": -30.86088}}, {"id": 3842559, "name": "Oro Verde", "country": "AR", "coord": {"lon": -60.51749, "lat": -31.825081}}, {"id": 3861002, "name": "Clodomira", "country": "AR", "coord": {"lon": -64.131081, "lat": -27.5744}}, {"id": 3853786, "name": "Ingeniero Jacobacci", "country": "AR", "coord": {"lon": -69.544792, "lat": -41.34269}}, {"id": 3865375, "name": "Arrufo", "country": "AR", "coord": {"lon": -61.728619, "lat": -30.232809}}, {"id": 3837238, "name": "San Jos\u00e9 de la Esquina", "country": "AR", "coord": {"lon": -61.703159, "lat": -33.114441}}, {"id": 3427422, "name": "Villa Guillermina", "country": "AR", "coord": {"lon": -59.454441, "lat": -28.24258}}, {"id": 3863050, "name": "Campo Quijano", "country": "AR", "coord": {"lon": -65.636559, "lat": -24.909821}}, {"id": 3851913, "name": "La Consulta", "country": "AR", "coord": {"lon": -69.121819, "lat": -33.73579}}, {"id": 3832654, "name": "Villa Parque", "country": "AR", "coord": {"lon": -60.733459, "lat": -32.87521}}, {"id": 3845266, "name": "Magdalena", "country": "AR", "coord": {"lon": -63.105701, "lat": -27.546949}}, {"id": 3846991, "name": "Leones", "country": "AR", "coord": {"lon": -62.29678, "lat": -32.661739}}, {"id": 3864632, "name": "Barrio La Fortuna", "country": "AR", "coord": {"lon": -62.30323, "lat": -32.649391}}, {"id": 3860811, "name": "Colonia Baron", "country": "AR", "coord": {"lon": -63.854038, "lat": -36.15152}}, {"id": 3429786, "name": "Puerto Esperanza", "country": "AR", "coord": {"lon": -54.673061, "lat": -26.015169}}, {"id": 3834309, "name": "Departamento de Toay", "country": "AR", "coord": {"lon": -64.800003, "lat": -36.583328}}, {"id": 3834310, "name": "Toay", "country": "AR", "coord": {"lon": -64.378601, "lat": -36.673382}}, {"id": 3844644, "name": "Mayor Buratovich", "country": "AR", "coord": {"lon": -62.616619, "lat": -39.258961}}, {"id": 3430409, "name": "Norberto de la Riestra", "country": "AR", "coord": {"lon": -59.77169, "lat": -35.273281}}, {"id": 3861966, "name": "Cervantes", "country": "AR", "coord": {"lon": -67.383331, "lat": -39.049999}}, {"id": 3864888, "name": "Balnearia", "country": "AR", "coord": {"lon": -62.667332, "lat": -31.008801}}, {"id": 3844229, "name": "Mina Clavero", "country": "AR", "coord": {"lon": -65.006187, "lat": -31.721001}}, {"id": 3433881, "name": "Francisco \u00c1lvarez", "country": "AR", "coord": {"lon": -58.858341, "lat": -34.633869}}, {"id": 3841937, "name": "Parera", "country": "AR", "coord": {"lon": -64.500893, "lat": -35.146}}, {"id": 3862945, "name": "Ca\u00f1ada Rosqu\u00edn", "country": "AR", "coord": {"lon": -61.6007, "lat": -32.053669}}, {"id": 3429738, "name": "Puerto Piray", "country": "AR", "coord": {"lon": -54.71476, "lat": -26.467791}}, {"id": 3837854, "name": "San Carlos Norte", "country": "AR", "coord": {"lon": -61.074001, "lat": -31.67333}}, {"id": 3853330, "name": "Justo Daract", "country": "AR", "coord": {"lon": -65.18277, "lat": -33.859402}}, {"id": 3851100, "name": "Lago Puelo", "country": "AR", "coord": {"lon": -71.614052, "lat": -42.080952}}, {"id": 3845350, "name": "Luzuriaga", "country": "AR", "coord": {"lon": -68.816673, "lat": -32.950001}}, {"id": 3835238, "name": "Simoca", "country": "AR", "coord": {"lon": -65.356468, "lat": -27.26272}}, {"id": 3855626, "name": "Felicia", "country": "AR", "coord": {"lon": -61.212349, "lat": -31.244579}}, {"id": 3832806, "name": "Villa Ascasubi", "country": "AR", "coord": {"lon": -63.891571, "lat": -32.163509}}, {"id": 3839402, "name": "Ranchillos", "country": "AR", "coord": {"lon": -65.045532, "lat": -26.954241}}, {"id": 3433347, "name": "J\u00e1uregui", "country": "AR", "coord": {"lon": -59.17778, "lat": -34.597431}}, {"id": 3856436, "name": "El Trebol", "country": "AR", "coord": {"lon": -61.701401, "lat": -32.200802}}, {"id": 3832712, "name": "Villa Krause", "country": "AR", "coord": {"lon": -68.533333, "lat": -31.566669}}, {"id": 3837232, "name": "San Jos\u00e9 del Rinc\u00f3n", "country": "AR", "coord": {"lon": -60.567612, "lat": -31.604259}}, {"id": 3860466, "name": "Comandante Luis Piedra Buena", "country": "AR", "coord": {"lon": -68.914673, "lat": -49.98513}}, {"id": 3854092, "name": "Huanguel\u00e9n", "country": "AR", "coord": {"lon": -61.950001, "lat": -37.033329}}, {"id": 3853974, "name": "Huinca Renanco", "country": "AR", "coord": {"lon": -64.375801, "lat": -34.840382}}, {"id": 3838796, "name": "Departamento de R\u00edo Segundo", "country": "AR", "coord": {"lon": -63.5, "lat": -31.75}}, {"id": 3838797, "name": "Rio Segundo", "country": "AR", "coord": {"lon": -63.909901, "lat": -31.652599}}, {"id": 3857012, "name": "El Quebrachal", "country": "AR", "coord": {"lon": -64.066673, "lat": -25.283331}}, {"id": 3833773, "name": "Tres Lomas", "country": "AR", "coord": {"lon": -62.86047, "lat": -36.457218}}, {"id": 3865430, "name": "Arribe\u00f1os", "country": "AR", "coord": {"lon": -61.35466, "lat": -34.207741}}, {"id": 3844759, "name": "Marull", "country": "AR", "coord": {"lon": -62.82576, "lat": -30.994711}}, {"id": 3836239, "name": "Santa Isabel", "country": "AR", "coord": {"lon": -61.692848, "lat": -33.887051}}, {"id": 3862251, "name": "Catrilo", "country": "AR", "coord": {"lon": -63.42168, "lat": -36.405979}}, {"id": 3852468, "name": "Laboulaye", "country": "AR", "coord": {"lon": -63.39119, "lat": -34.126621}}, {"id": 3839996, "name": "Departamento de Punilla", "country": "AR", "coord": {"lon": -64.666672, "lat": -31.16667}}, {"id": 3836137, "name": "Santa Mar\u00eda", "country": "AR", "coord": {"lon": -64.466667, "lat": -31.26667}}, {"id": 3436109, "name": "Barrio Norte", "country": "AR", "coord": {"lon": -58.400002, "lat": -34.583328}}, {"id": 3857851, "name": "Elisa", "country": "AR", "coord": {"lon": -61.048439, "lat": -30.69512}}, {"id": 3434132, "name": "Escalada", "country": "AR", "coord": {"lon": -59.11396, "lat": -34.159199}}, {"id": 3856036, "name": "Espartillar", "country": "AR", "coord": {"lon": -62.434391, "lat": -37.360859}}, {"id": 3862373, "name": "Casbas", "country": "AR", "coord": {"lon": -62.504082, "lat": -36.759399}}, {"id": 3430234, "name": "Palermo", "country": "AR", "coord": {"lon": -58.430531, "lat": -34.588558}}, {"id": 3835351, "name": "Serrano", "country": "AR", "coord": {"lon": -63.538422, "lat": -34.469711}}, {"id": 3435966, "name": "Bovril", "country": "AR", "coord": {"lon": -59.445122, "lat": -31.343109}}, {"id": 3855143, "name": "General Acha", "country": "AR", "coord": {"lon": -64.604309, "lat": -37.37698}}, {"id": 3948970, "name": "San Lorenzo", "country": "AR", "coord": {"lon": -60.744999, "lat": -32.74139}}, {"id": 3844687, "name": "Matorrales", "country": "AR", "coord": {"lon": -63.511181, "lat": -31.71509}}, {"id": 3862144, "name": "Centenario", "country": "AR", "coord": {"lon": -68.139977, "lat": -38.804329}}, {"id": 3861443, "name": "Departamento de Chilecito", "country": "AR", "coord": {"lon": -67.5, "lat": -29.41667}}, {"id": 3861445, "name": "Chilecito", "country": "AR", "coord": {"lon": -67.497398, "lat": -29.161949}}, {"id": 3859574, "name": "Curtiembre", "country": "AR", "coord": {"lon": -60.16777, "lat": -31.46221}}, {"id": 3849140, "name": "La Quiaca", "country": "AR", "coord": {"lon": -65.592987, "lat": -22.10236}}, {"id": 3844819, "name": "Mar\u00eda Susana", "country": "AR", "coord": {"lon": -61.90292, "lat": -32.26561}}, {"id": 3862084, "name": "Departamento de Cerrillos", "country": "AR", "coord": {"lon": -65.416672, "lat": -25}}, {"id": 3862086, "name": "Cerrillos", "country": "AR", "coord": {"lon": -65.487061, "lat": -24.898331}}, {"id": 3433282, "name": "Jubileo", "country": "AR", "coord": {"lon": -58.63385, "lat": -31.73358}}, {"id": 3436099, "name": "Basavilbaso", "country": "AR", "coord": {"lon": -58.878578, "lat": -32.372131}}, {"id": 3837456, "name": "San Jer\u00f3nimo Norte", "country": "AR", "coord": {"lon": -61.077339, "lat": -31.55097}}, {"id": 3850005, "name": "Lamarque", "country": "AR", "coord": {"lon": -65.70208, "lat": -39.423038}}, {"id": 3837590, "name": "San Gregorio", "country": "AR", "coord": {"lon": -62.035782, "lat": -34.3237}}, {"id": 3838201, "name": "Sampacho", "country": "AR", "coord": {"lon": -64.722107, "lat": -33.3839}}, {"id": 3844473, "name": "Medrano", "country": "AR", "coord": {"lon": -68.6138, "lat": -33.179619}}, {"id": 3849298, "name": "Partido de Laprida", "country": "AR", "coord": {"lon": -60.75, "lat": -37.5}}, {"id": 3849300, "name": "Laprida", "country": "AR", "coord": {"lon": -60.79969, "lat": -37.544151}}, {"id": 3433564, "name": "Herrera", "country": "AR", "coord": {"lon": -58.624619, "lat": -32.435162}}, {"id": 3835710, "name": "Sarmiento", "country": "AR", "coord": {"lon": -69.069962, "lat": -45.58815}}, {"id": 3427505, "name": "Vicente L\u00f3pez", "country": "AR", "coord": {"lon": -58.473701, "lat": -34.529469}}, {"id": 3436077, "name": "Belgrano", "country": "AR", "coord": {"lon": -58.45829, "lat": -34.562698}}, {"id": 3832662, "name": "Villa Nueva", "country": "AR", "coord": {"lon": -63.247631, "lat": -32.43293}}, {"id": 3842796, "name": "Obispo Trejo", "country": "AR", "coord": {"lon": -63.413479, "lat": -30.781281}}, {"id": 3431318, "name": "Partido de Lober\u00eda", "country": "AR", "coord": {"lon": -58.75, "lat": -38.083328}}, {"id": 3431321, "name": "Lober\u00eda", "country": "AR", "coord": {"lon": -58.791302, "lat": -38.155739}}, {"id": 3832098, "name": "Zavalla", "country": "AR", "coord": {"lon": -60.879551, "lat": -33.01968}}, {"id": 3866905, "name": "Agrelo", "country": "AR", "coord": {"lon": -68.88694, "lat": -33.118519}}, {"id": 3865281, "name": "Ataliva", "country": "AR", "coord": {"lon": -61.430141, "lat": -30.996759}}, {"id": 3854454, "name": "G\u00fcemes", "country": "AR", "coord": {"lon": -65.293381, "lat": -27.30838}}, {"id": 3865424, "name": "Arroyito", "country": "AR", "coord": {"lon": -63.050018, "lat": -31.420219}}, {"id": 3848353, "name": "Las Heras", "country": "AR", "coord": {"lon": -68.935928, "lat": -46.541859}}, {"id": 3855118, "name": "General Deheza", "country": "AR", "coord": {"lon": -63.78611, "lat": -32.756599}}, {"id": 3864261, "name": "Bialet Mass\u00e9", "country": "AR", "coord": {"lon": -64.460152, "lat": -31.313129}}, {"id": 3845596, "name": "Los Sauces", "country": "AR", "coord": {"lon": -64.682137, "lat": -30.736629}}, {"id": 3835021, "name": "Suardi", "country": "AR", "coord": {"lon": -61.961189, "lat": -30.535721}}, {"id": 3832661, "name": "Villa Nueva", "country": "AR", "coord": {"lon": -68.78038, "lat": -32.897221}}, {"id": 3833878, "name": "Departamento de Trenel", "country": "AR", "coord": {"lon": -64.25, "lat": -35.666672}}, {"id": 3833880, "name": "Trenel", "country": "AR", "coord": {"lon": -64.132179, "lat": -35.698372}}, {"id": 3864274, "name": "Berrotaran", "country": "AR", "coord": {"lon": -64.388672, "lat": -32.451}}, {"id": 3838211, "name": "Salto Grande", "country": "AR", "coord": {"lon": -61.08741, "lat": -32.668011}}, {"id": 3864328, "name": "Beltran", "country": "AR", "coord": {"lon": -64.060982, "lat": -27.82913}}, {"id": 3834502, "name": "Termas de Rio Hondo", "country": "AR", "coord": {"lon": -64.86042, "lat": -27.49983}}, {"id": 3852815, "name": "La Angelita", "country": "AR", "coord": {"lon": -60.9692, "lat": -34.262718}}, {"id": 3865223, "name": "Ausonia", "country": "AR", "coord": {"lon": -63.24398, "lat": -32.661671}}, {"id": 3861666, "name": "Charras", "country": "AR", "coord": {"lon": -64.047188, "lat": -33.023998}}, {"id": 3853323, "name": "Kaiken", "country": "AR", "coord": {"lon": -67.199997, "lat": -54.533329}}, {"id": 3864847, "name": "Bandera", "country": "AR", "coord": {"lon": -62.265999, "lat": -28.888399}}, {"id": 3846267, "name": "Los Cisnes", "country": "AR", "coord": {"lon": -63.471981, "lat": -33.399929}}, {"id": 3429712, "name": "Puerto Wanda", "country": "AR", "coord": {"lon": -54.599411, "lat": -25.963739}}, {"id": 3427877, "name": "Tacuarend\u00ed", "country": "AR", "coord": {"lon": -59.30212, "lat": -28.417789}}, {"id": 3854723, "name": "Departamento de Graneros", "country": "AR", "coord": {"lon": -65.333328, "lat": -27.75}}, {"id": 3854724, "name": "Graneros", "country": "AR", "coord": {"lon": -65.438301, "lat": -27.64934}}, {"id": 3848164, "name": "Las Lomitas", "country": "AR", "coord": {"lon": -60.593029, "lat": -24.709551}}, {"id": 3835921, "name": "Santa Sylvina", "country": "AR", "coord": {"lon": -61.13747, "lat": -27.832609}}, {"id": 3865762, "name": "Ang\u00e9lica", "country": "AR", "coord": {"lon": -61.54599, "lat": -31.55127}}, {"id": 3836143, "name": "Santa Mar\u00eda", "country": "AR", "coord": {"lon": -63.260319, "lat": -26.21797}}, {"id": 3436003, "name": "Boedo", "country": "AR", "coord": {"lon": -58.416672, "lat": -34.633331}}, {"id": 3862240, "name": "Caucete", "country": "AR", "coord": {"lon": -68.281052, "lat": -31.651791}}, {"id": 3859179, "name": "Dorila", "country": "AR", "coord": {"lon": -63.715611, "lat": -35.775681}}, {"id": 3428056, "name": "Partido de San Vicente", "country": "AR", "coord": {"lon": -58.5, "lat": -35.083328}}, {"id": 3436414, "name": "Alejandro Korn", "country": "AR", "coord": {"lon": -58.3825, "lat": -34.98278}}, {"id": 3837816, "name": "Sancti Sp\u00edritu", "country": "AR", "coord": {"lon": -62.238789, "lat": -34.014019}}, {"id": 3857756, "name": "El Maiten", "country": "AR", "coord": {"lon": -71.166931, "lat": -42.04924}}, {"id": 3433349, "name": "Jardin America", "country": "AR", "coord": {"lon": -55.226978, "lat": -27.043461}}, {"id": 3853444, "name": "Juan Bernab\u00e9 Molina", "country": "AR", "coord": {"lon": -60.512981, "lat": -33.492828}}, {"id": 3837960, "name": "San Basilio", "country": "AR", "coord": {"lon": -64.314949, "lat": -33.497631}}, {"id": 3433362, "name": "Departamento de Itat\u00ed", "country": "AR", "coord": {"lon": -58, "lat": -27.33333}}, {"id": 3433363, "name": "Itati", "country": "AR", "coord": {"lon": -58.244579, "lat": -27.27043}}, {"id": 3435266, "name": "Concepcion de la Sierra", "country": "AR", "coord": {"lon": -55.520309, "lat": -27.98311}}, {"id": 3838634, "name": "Rol\u00f3n", "country": "AR", "coord": {"lon": -63.414982, "lat": -37.167801}}, {"id": 3854331, "name": "Hernando", "country": "AR", "coord": {"lon": -63.73333, "lat": -32.426571}}, {"id": 3855120, "name": "General Daniel Cerri", "country": "AR", "coord": {"lon": -62.39806, "lat": -38.70612}}, {"id": 3862583, "name": "Carmen de Patagones", "country": "AR", "coord": {"lon": -62.980968, "lat": -40.798279}}, {"id": 3430648, "name": "Mocoreta", "country": "AR", "coord": {"lon": -57.96344, "lat": -30.61891}}, {"id": 3856122, "name": "Escalante", "country": "AR", "coord": {"lon": -67.78981, "lat": -45.75016}}, {"id": 3429664, "name": "Quequ\u00e9n", "country": "AR", "coord": {"lon": -58.7155, "lat": -38.53532}}, {"id": 3836952, "name": "San Mart\u00edn de las Escobas", "country": "AR", "coord": {"lon": -61.569851, "lat": -31.8578}}, {"id": 3844933, "name": "Maquinchao", "country": "AR", "coord": {"lon": -68.73333, "lat": -41.25}}, {"id": 3857387, "name": "El Palomar", "country": "AR", "coord": {"lon": -64.596878, "lat": -26.88315}}, {"id": 3850920, "name": "Laguna Paiva", "country": "AR", "coord": {"lon": -60.658939, "lat": -31.303909}}, {"id": 3854937, "name": "Partido de Adolfo Gonz\u00e1lez Chaves", "country": "AR", "coord": {"lon": -60.25, "lat": -38}}, {"id": 3866923, "name": "Adolfo Gonz\u00e1les Chaves", "country": "AR", "coord": {"lon": -60.099998, "lat": -38.033329}}, {"id": 3430709, "name": "Mercedes", "country": "AR", "coord": {"lon": -58.078949, "lat": -29.18186}}, {"id": 3430951, "name": "Partido de Magdalena", "country": "AR", "coord": {"lon": -57.5, "lat": -35.25}}, {"id": 3430957, "name": "Magdalena", "country": "AR", "coord": {"lon": -57.513008, "lat": -35.08065}}, {"id": 3853783, "name": "Ingeniero Luiggi", "country": "AR", "coord": {"lon": -64.465187, "lat": -35.385849}}, {"id": 3837989, "name": "San Antonio de Arredondo", "country": "AR", "coord": {"lon": -64.530418, "lat": -31.47949}}, {"id": 3835388, "name": "Selva", "country": "AR", "coord": {"lon": -62.047699, "lat": -29.767759}}, {"id": 3429688, "name": "Punta Lara", "country": "AR", "coord": {"lon": -57.98455, "lat": -34.80954}}, {"id": 3855288, "name": "Gaboto", "country": "AR", "coord": {"lon": -60.814159, "lat": -32.43549}}, {"id": 3836375, "name": "Santa Clara de Saguier", "country": "AR", "coord": {"lon": -61.818371, "lat": -31.33774}}, {"id": 3855072, "name": "General Pinto", "country": "AR", "coord": {"lon": -61.89093, "lat": -34.764591}}, {"id": 3435813, "name": "Camet", "country": "AR", "coord": {"lon": -57.605019, "lat": -37.88903}}, {"id": 3841908, "name": "Pasco", "country": "AR", "coord": {"lon": -63.342319, "lat": -32.74733}}, {"id": 3855322, "name": "Fuentes", "country": "AR", "coord": {"lon": -61.074329, "lat": -33.17252}}, {"id": 3844270, "name": "Miguel Can\u00e9", "country": "AR", "coord": {"lon": -63.510872, "lat": -36.157009}}, {"id": 3430067, "name": "Pedernales", "country": "AR", "coord": {"lon": -59.648998, "lat": -35.227711}}, {"id": 3436030, "name": "Bernardo de Irigoyen", "country": "AR", "coord": {"lon": -53.645809, "lat": -26.255199}}, {"id": 3865888, "name": "Florentino Ameghino", "country": "AR", "coord": {"lon": -62.46701, "lat": -34.844051}}, {"id": 3832699, "name": "Villa Luj\u00e1n", "country": "AR", "coord": {"lon": -65.25, "lat": -26.816669}}, {"id": 3845202, "name": "Malagueno", "country": "AR", "coord": {"lon": -64.358398, "lat": -31.46467}}, {"id": 3844459, "name": "Melincu\u00e9", "country": "AR", "coord": {"lon": -61.454578, "lat": -33.65847}}, {"id": 3832790, "name": "Villa Carmela", "country": "AR", "coord": {"lon": -65.283333, "lat": -26.75}}, {"id": 3847188, "name": "La Violeta", "country": "AR", "coord": {"lon": -60.170341, "lat": -33.73251}}, {"id": 3861493, "name": "Departamento de Chicoana", "country": "AR", "coord": {"lon": -65.583328, "lat": -25.16667}}, {"id": 3861494, "name": "Chicoana", "country": "AR", "coord": {"lon": -65.533096, "lat": -25.10088}}, {"id": 3839063, "name": "Ricardo Gavi\u00f1a", "country": "AR", "coord": {"lon": -60.039082, "lat": -37.444752}}, {"id": 3851619, "name": "La Emilia", "country": "AR", "coord": {"lon": -60.31646, "lat": -33.34827}}, {"id": 3845263, "name": "Maggiolo", "country": "AR", "coord": {"lon": -62.245258, "lat": -33.721661}}, {"id": 3435234, "name": "Coronel Vidal", "country": "AR", "coord": {"lon": -57.728649, "lat": -37.446041}}, {"id": 3429601, "name": "Partido de Rauch", "country": "AR", "coord": {"lon": -58.833328, "lat": -36.583328}}, {"id": 3429602, "name": "Rauch", "country": "AR", "coord": {"lon": -59.089729, "lat": -36.774502}}, {"id": 3866367, "name": "Alderetes", "country": "AR", "coord": {"lon": -65.133331, "lat": -26.816669}}, {"id": 3428068, "name": "San Vicente", "country": "AR", "coord": {"lon": -54.133331, "lat": -26.616671}}, {"id": 3849980, "name": "La Maruja", "country": "AR", "coord": {"lon": -64.939972, "lat": -35.673599}}, {"id": 3841413, "name": "Piamonte", "country": "AR", "coord": {"lon": -61.98217, "lat": -32.143009}}, {"id": 3855074, "name": "General Pinedo", "country": "AR", "coord": {"lon": -61.283329, "lat": -27.316669}}, {"id": 3849924, "name": "La Mendieta", "country": "AR", "coord": {"lon": -64.963768, "lat": -24.311871}}, {"id": 3844668, "name": "M\u00e1ximo Paz", "country": "AR", "coord": {"lon": -60.958302, "lat": -33.484589}}, {"id": 3863377, "name": "Caleufu", "country": "AR", "coord": {"lon": -64.557777, "lat": -35.595589}}, {"id": 3832512, "name": "Vista Flores", "country": "AR", "coord": {"lon": -69.154442, "lat": -33.650589}}, {"id": 3859535, "name": "Dalmacio Velez Sarsfield", "country": "AR", "coord": {"lon": -63.580379, "lat": -32.610722}}, {"id": 3855719, "name": "Etruria", "country": "AR", "coord": {"lon": -63.246601, "lat": -32.940079}}, {"id": 3853412, "name": "Ju\u00e1rez Celman", "country": "AR", "coord": {"lon": -64.166107, "lat": -31.258089}}, {"id": 3855284, "name": "Gaiman", "country": "AR", "coord": {"lon": -65.492897, "lat": -43.2897}}, {"id": 3853824, "name": "In\u00e9s Indart", "country": "AR", "coord": {"lon": -60.539322, "lat": -34.39624}}, {"id": 3844848, "name": "Mar\u00eda Juana", "country": "AR", "coord": {"lon": -61.751869, "lat": -31.676809}}, {"id": 3832772, "name": "Villada", "country": "AR", "coord": {"lon": -61.444401, "lat": -33.34856}}, {"id": 3838840, "name": "R\u00edo Mayo", "country": "AR", "coord": {"lon": -70.257973, "lat": -45.68573}}, {"id": 3841475, "name": "Perito Moreno", "country": "AR", "coord": {"lon": -70.929749, "lat": -46.589939}}, {"id": 3847557, "name": "La Tablada", "country": "AR", "coord": {"lon": -65.305542, "lat": -31.455669}}, {"id": 3832609, "name": "Villa Traful", "country": "AR", "coord": {"lon": -71.40583, "lat": -40.657551}}, {"id": 3434731, "name": "El Colorado", "country": "AR", "coord": {"lon": -59.37291, "lat": -26.308081}}, {"id": 3428858, "name": "San Jose de Feliciano", "country": "AR", "coord": {"lon": -58.751671, "lat": -30.38452}}, {"id": 3843026, "name": "Noetinger", "country": "AR", "coord": {"lon": -62.31126, "lat": -32.365971}}, {"id": 3835372, "name": "Senillosa", "country": "AR", "coord": {"lon": -68.416672, "lat": -39}}, {"id": 3853923, "name": "Idiazabal", "country": "AR", "coord": {"lon": -63.03252, "lat": -32.81411}}, {"id": 3429865, "name": "Partido de Presidencia de la Plaza", "country": "AR", "coord": {"lon": -59.75, "lat": -27}}, {"id": 3429866, "name": "Presidencia de la Plaza", "country": "AR", "coord": {"lon": -59.84243, "lat": -27.001471}}, {"id": 3855102, "name": "Partido de General La Madrid", "country": "AR", "coord": {"lon": -61.25, "lat": -37.5}}, {"id": 3855104, "name": "General La Madrid", "country": "AR", "coord": {"lon": -61.26273, "lat": -37.247559}}, {"id": 3847599, "name": "Las Vertientes", "country": "AR", "coord": {"lon": -64.579079, "lat": -33.283371}}, {"id": 3840080, "name": "Puerto San Mart\u00edn", "country": "AR", "coord": {"lon": -60.736198, "lat": -32.715321}}, {"id": 3435750, "name": "Campo Viera", "country": "AR", "coord": {"lon": -55.033329, "lat": -27.383329}}, {"id": 3429496, "name": "Ringuelet", "country": "AR", "coord": {"lon": -57.988049, "lat": -34.889359}}, {"id": 3434094, "name": "Departamento de Esquina", "country": "AR", "coord": {"lon": -59.333328, "lat": -30}}, {"id": 3434095, "name": "Esquina", "country": "AR", "coord": {"lon": -59.527191, "lat": -30.014441}}, {"id": 3852480, "name": "Laborde", "country": "AR", "coord": {"lon": -62.856609, "lat": -33.153191}}, {"id": 3845344, "name": "Macachin", "country": "AR", "coord": {"lon": -63.6665, "lat": -37.135979}}, {"id": 3861257, "name": "Chovet", "country": "AR", "coord": {"lon": -61.605808, "lat": -33.598759}}, {"id": 3430180, "name": "Pampa del Indio", "country": "AR", "coord": {"lon": -59.91898, "lat": -26.06468}}, {"id": 3846374, "name": "Los Cardos", "country": "AR", "coord": {"lon": -61.63102, "lat": -32.32206}}, {"id": 3853592, "name": "Jacinto Arauz", "country": "AR", "coord": {"lon": -63.43169, "lat": -38.08606}}, {"id": 3832719, "name": "Villa Huidobro", "country": "AR", "coord": {"lon": -64.586861, "lat": -34.838261}}, {"id": 3853644, "name": "Isla Verde", "country": "AR", "coord": {"lon": -64.150002, "lat": -28.65}}, {"id": 3431005, "name": "Lucas Gonzalez", "country": "AR", "coord": {"lon": -59.530128, "lat": -32.3843}}, {"id": 3855715, "name": "Eugenio Bustos", "country": "AR", "coord": {"lon": -69.070442, "lat": -33.77734}}, {"id": 3429449, "name": "Partido de Roque P\u00e9rez", "country": "AR", "coord": {"lon": -59.416672, "lat": -35.5}}, {"id": 3429450, "name": "Roque P\u00e9rez", "country": "AR", "coord": {"lon": -59.33271, "lat": -35.397942}}, {"id": 3836170, "name": "Santa Magdalena", "country": "AR", "coord": {"lon": -63.944092, "lat": -34.517761}}, {"id": 3435539, "name": "Cerrito", "country": "AR", "coord": {"lon": -57.912769, "lat": -27.84218}}, {"id": 3853477, "name": "Josefina", "country": "AR", "coord": {"lon": -61.991829, "lat": -31.406219}}, {"id": 3429721, "name": "Puerto Tirol", "country": "AR", "coord": {"lon": -59.082062, "lat": -27.372181}}, {"id": 3863833, "name": "Brinkmann", "country": "AR", "coord": {"lon": -62.037418, "lat": -30.8659}}, {"id": 3434966, "name": "Durazno", "country": "AR", "coord": {"lon": -59.277802, "lat": -31.98564}}, {"id": 3862215, "name": "Cayast\u00e1", "country": "AR", "coord": {"lon": -60.160549, "lat": -31.20089}}, {"id": 3836983, "name": "Departamento de San Mart\u00edn", "country": "AR", "coord": {"lon": -65.666672, "lat": -32.666672}}, {"id": 3848588, "name": "Las Chacras", "country": "AR", "coord": {"lon": -65.776459, "lat": -32.56237}}, {"id": 3839489, "name": "Partido de Quitilipi", "country": "AR", "coord": {"lon": -60.166672, "lat": -26.66667}}, {"id": 3839490, "name": "Quitilipi", "country": "AR", "coord": {"lon": -60.216831, "lat": -26.869129}}, {"id": 3853958, "name": "Humboldt", "country": "AR", "coord": {"lon": -61.082401, "lat": -31.40099}}, {"id": 3835998, "name": "Santa Rosa", "country": "AR", "coord": {"lon": -60.33342, "lat": -31.419689}}, {"id": 3832676, "name": "Villa Minetti", "country": "AR", "coord": {"lon": -61.62775, "lat": -28.62133}}, {"id": 3854916, "name": "Goudge", "country": "AR", "coord": {"lon": -68.131531, "lat": -34.679272}}, {"id": 3853938, "name": "Ibarlucea", "country": "AR", "coord": {"lon": -60.792721, "lat": -32.848202}}, {"id": 3865474, "name": "Arias", "country": "AR", "coord": {"lon": -62.402721, "lat": -33.644112}}, {"id": 3841426, "name": "Peyrano", "country": "AR", "coord": {"lon": -60.801491, "lat": -33.537331}}, {"id": 3434291, "name": "El Soberbio", "country": "AR", "coord": {"lon": -54.198769, "lat": -27.29846}}, {"id": 3839456, "name": "Rama Ca\u00edda", "country": "AR", "coord": {"lon": -68.381989, "lat": -34.67749}}, {"id": 3855690, "name": "Facundo", "country": "AR", "coord": {"lon": -69.973732, "lat": -45.309422}}, {"id": 3833211, "name": "Valle Hermoso", "country": "AR", "coord": {"lon": -64.480843, "lat": -31.117319}}, {"id": 3855369, "name": "Fray Luis Beltr\u00e1n", "country": "AR", "coord": {"lon": -68.65062, "lat": -33.00724}}, {"id": 3840858, "name": "Departamento de Pocito", "country": "AR", "coord": {"lon": -68.699997, "lat": -31.799999}}, {"id": 3840860, "name": "Pocito", "country": "AR", "coord": {"lon": -68.583328, "lat": -31.683331}}, {"id": 3433648, "name": "Guarani", "country": "AR", "coord": {"lon": -55.166672, "lat": -27.51667}}, {"id": 3836752, "name": "Departamento de San Pedro", "country": "AR", "coord": {"lon": -64.833328, "lat": -24.33333}}, {"id": 3836772, "name": "San Pedro", "country": "AR", "coord": {"lon": -64.866142, "lat": -24.23127}}, {"id": 3435732, "name": "Departamento de Candelaria", "country": "AR", "coord": {"lon": -55.5, "lat": -27.5}}, {"id": 3435734, "name": "Candelaria", "country": "AR", "coord": {"lon": -55.745361, "lat": -27.459499}}, {"id": 3866667, "name": "Agua de Oro", "country": "AR", "coord": {"lon": -64.300171, "lat": -31.06661}}, {"id": 3853616, "name": "Italo", "country": "AR", "coord": {"lon": -63.78199, "lat": -34.79237}}, {"id": 3848863, "name": "Las Acequias", "country": "AR", "coord": {"lon": -63.976101, "lat": -33.281551}}, {"id": 3837987, "name": "San Antonio de Litin", "country": "AR", "coord": {"lon": -62.63237, "lat": -32.213772}}, {"id": 3861846, "name": "Chaj\u00e1n", "country": "AR", "coord": {"lon": -65.004784, "lat": -33.556358}}, {"id": 3851244, "name": "La Florida", "country": "AR", "coord": {"lon": -65.554497, "lat": -27.226839}}, {"id": 3863262, "name": "Campanas", "country": "AR", "coord": {"lon": -67.617264, "lat": -28.553949}}, {"id": 3839565, "name": "Quimili", "country": "AR", "coord": {"lon": -62.416672, "lat": -27.633329}}, {"id": 3435340, "name": "Colonia Benitez", "country": "AR", "coord": {"lon": -58.94622, "lat": -27.33099}}, {"id": 3859102, "name": "Dudignac", "country": "AR", "coord": {"lon": -60.705219, "lat": -35.649059}}, {"id": 3435532, "name": "Cerro Azul", "country": "AR", "coord": {"lon": -55.496201, "lat": -27.633101}}, {"id": 3832388, "name": "Winifreda", "country": "AR", "coord": {"lon": -64.233879, "lat": -36.226429}}, {"id": 3850355, "name": "La Limpia", "country": "AR", "coord": {"lon": -60.591019, "lat": -35.076679}}, {"id": 3859103, "name": "Duc\u00f3s", "country": "AR", "coord": {"lon": -62.416672, "lat": -37.466671}}, {"id": 3865448, "name": "Arocena", "country": "AR", "coord": {"lon": -60.976158, "lat": -32.07859}}, {"id": 3860733, "name": "Colonia R\u00edo Chico", "country": "AR", "coord": {"lon": -64.016762, "lat": -31.27132}}, {"id": 3862820, "name": "Candonga", "country": "AR", "coord": {"lon": -64.3619, "lat": -31.099279}}, {"id": 3433580, "name": "Hasenkamp", "country": "AR", "coord": {"lon": -59.835449, "lat": -31.51226}}, {"id": 3856231, "name": "Embarcacion", "country": "AR", "coord": {"lon": -64.096046, "lat": -23.208981}}, {"id": 3859951, "name": "Costa Sacate", "country": "AR", "coord": {"lon": -63.75935, "lat": -31.647699}}, {"id": 3842899, "name": "Nueva Lehmann", "country": "AR", "coord": {"lon": -61.515652, "lat": -31.11702}}, {"id": 3859956, "name": "Costa de Araujo", "country": "AR", "coord": {"lon": -68.3974, "lat": -32.757809}}, {"id": 3428123, "name": "Santa Teresita", "country": "AR", "coord": {"lon": -56.70105, "lat": -36.541309}}, {"id": 3429778, "name": "Puerto Ibicuy", "country": "AR", "coord": {"lon": -59.183331, "lat": -33.73333}}, {"id": 3859498, "name": "Delf\u00edn Gallo", "country": "AR", "coord": {"lon": -65.09137, "lat": -26.853331}}, {"id": 3427916, "name": "Sol\u00eds", "country": "AR", "coord": {"lon": -59.324879, "lat": -34.297569}}, {"id": 3854492, "name": "Departamento de Guatrach\u00e9", "country": "AR", "coord": {"lon": -63.75, "lat": -37.5}}, {"id": 3854493, "name": "Guatrache", "country": "AR", "coord": {"lon": -63.53022, "lat": -37.667759}}, {"id": 3427375, "name": "Villars", "country": "AR", "coord": {"lon": -58.940842, "lat": -34.826351}}, {"id": 3429493, "name": "R\u00edo Luj\u00e1n", "country": "AR", "coord": {"lon": -58.92028, "lat": -34.285561}}, {"id": 3845016, "name": "Manantiales Chicos", "country": "AR", "coord": {"lon": -60.3032, "lat": -33.865021}}, {"id": 3855140, "name": "General Alvear", "country": "AR", "coord": {"lon": -60.669029, "lat": -31.94594}}, {"id": 3863502, "name": "Departamento de Cafayate", "country": "AR", "coord": {"lon": -65.833328, "lat": -26.08333}}, {"id": 3863503, "name": "Cafayate", "country": "AR", "coord": {"lon": -65.976143, "lat": -26.07295}}, {"id": 3860427, "name": "Concepci\u00f3n", "country": "AR", "coord": {"lon": -65.59726, "lat": -27.342779}}, {"id": 3854993, "name": "Gobernador Benegas", "country": "AR", "coord": {"lon": -68.849998, "lat": -32.950001}}, {"id": 3436203, "name": "Azcu\u00e9naga", "country": "AR", "coord": {"lon": -59.374409, "lat": -34.364609}}, {"id": 3842680, "name": "Olaeta", "country": "AR", "coord": {"lon": -63.907349, "lat": -33.045261}}, {"id": 3846236, "name": "Los Condores", "country": "AR", "coord": {"lon": -64.277519, "lat": -32.319839}}, {"id": 3859502, "name": "De la Garma", "country": "AR", "coord": {"lon": -60.415001, "lat": -37.96336}}, {"id": 3854604, "name": "Guamin\u00ed", "country": "AR", "coord": {"lon": -62.416672, "lat": -37.033329}}, {"id": 3852374, "name": "La Calera", "country": "AR", "coord": {"lon": -64.335289, "lat": -31.343769}}, {"id": 3848890, "name": "Lartigau", "country": "AR", "coord": {"lon": -61.565498, "lat": -38.447201}}, {"id": 3865413, "name": "Arroyo Cabral", "country": "AR", "coord": {"lon": -63.40126, "lat": -32.491192}}, {"id": 3854981, "name": "Gobernador Gregores", "country": "AR", "coord": {"lon": -70.247414, "lat": -48.750568}}, {"id": 3836065, "name": "Santa Regina", "country": "AR", "coord": {"lon": -63.172531, "lat": -34.549278}}, {"id": 3865974, "name": "Amadores", "country": "AR", "coord": {"lon": -65.637901, "lat": -28.26284}}, {"id": 3854438, "name": "Guerrico", "country": "AR", "coord": {"lon": -60.40062, "lat": -33.673439}}, {"id": 3837852, "name": "San Carlos Sur", "country": "AR", "coord": {"lon": -61.101189, "lat": -31.75692}}, {"id": 3866082, "name": "Alto de la Piedra", "country": "AR", "coord": {"lon": -64.350647, "lat": -31.591431}}, {"id": 3860881, "name": "Colastin\u00e9 Sur", "country": "AR", "coord": {"lon": -60.600899, "lat": -31.66086}}, {"id": 3429730, "name": "Puerto Ruiz", "country": "AR", "coord": {"lon": -59.36404, "lat": -33.221218}}, {"id": 3857061, "name": "El Pueblito", "country": "AR", "coord": {"lon": -64.298599, "lat": -31.11578}}, {"id": 3838981, "name": "Rinc\u00f3n del Doll", "country": "AR", "coord": {"lon": -60.392479, "lat": -32.436352}}, {"id": 3841708, "name": "Pedregal", "country": "AR", "coord": {"lon": -68.683327, "lat": -32.966671}}, {"id": 3832079, "name": "Departamento de Zonda", "country": "AR", "coord": {"lon": -68.583527, "lat": -31.68494}}, {"id": 3832080, "name": "Zonda", "country": "AR", "coord": {"lon": -68.73333, "lat": -31.549999}}, {"id": 3832715, "name": "Villa Iris", "country": "AR", "coord": {"lon": -63.234539, "lat": -38.17215}}, {"id": 3841298, "name": "Departamento de Pic\u00fan Leuf\u00fa", "country": "AR", "coord": {"lon": -69.5, "lat": -39.5}}, {"id": 3841301, "name": "Picun Leufu", "country": "AR", "coord": {"lon": -69.279663, "lat": -39.52351}}, {"id": 3864891, "name": "Ballesteros", "country": "AR", "coord": {"lon": -62.983021, "lat": -32.545341}}, {"id": 3839801, "name": "Quebracho Herrado", "country": "AR", "coord": {"lon": -62.2262, "lat": -31.54891}}, {"id": 3865840, "name": "Anatuya", "country": "AR", "coord": {"lon": -62.834721, "lat": -28.46064}}, {"id": 3834513, "name": "Teodelina", "country": "AR", "coord": {"lon": -61.528809, "lat": -34.186878}}, {"id": 3835402, "name": "Segui", "country": "AR", "coord": {"lon": -60.124882, "lat": -31.956421}}, {"id": 3863362, "name": "Calingasta", "country": "AR", "coord": {"lon": -69.407829, "lat": -31.330839}}, {"id": 3846869, "name": "Lin Calel", "country": "AR", "coord": {"lon": -60.245029, "lat": -38.7062}}, {"id": 3427949, "name": "Siete Palmas", "country": "AR", "coord": {"lon": -58.332191, "lat": -25.20228}}, {"id": 3841748, "name": "Pav\u00f3n", "country": "AR", "coord": {"lon": -60.40517, "lat": -33.241718}}, {"id": 3430156, "name": "Parada Leis", "country": "AR", "coord": {"lon": -55.840698, "lat": -27.601021}}, {"id": 3433456, "name": "Ingeniero Otamendi", "country": "AR", "coord": {"lon": -58.86417, "lat": -34.234169}}, {"id": 3835354, "name": "Serodino", "country": "AR", "coord": {"lon": -60.94817, "lat": -32.605881}}, {"id": 3840258, "name": "Progresso", "country": "AR", "coord": {"lon": -60.989521, "lat": -31.13773}}, {"id": 3849075, "name": "La Reducci\u00f3n", "country": "AR", "coord": {"lon": -65.350533, "lat": -26.95529}}, {"id": 3864430, "name": "Bel\u00e9n", "country": "AR", "coord": {"lon": -67.028702, "lat": -27.65103}}, {"id": 3848343, "name": "Las Higueras", "country": "AR", "coord": {"lon": -64.289001, "lat": -33.092312}}, {"id": 3855056, "name": "General San Martin", "country": "AR", "coord": {"lon": -63.604488, "lat": -37.979038}}, {"id": 3862719, "name": "Carabelas", "country": "AR", "coord": {"lon": -60.867111, "lat": -34.035851}}, {"id": 3856220, "name": "Emilio V. Bunge", "country": "AR", "coord": {"lon": -63.195572, "lat": -34.779819}}, {"id": 3844679, "name": "Mattaldi", "country": "AR", "coord": {"lon": -64.172546, "lat": -34.481941}}, {"id": 3860208, "name": "Coronel Baigorria", "country": "AR", "coord": {"lon": -64.361069, "lat": -32.847698}}, {"id": 3860705, "name": "Colonia Tirolesa", "country": "AR", "coord": {"lon": -64.086411, "lat": -31.237289}}, {"id": 3866375, "name": "Aldea San Francisco", "country": "AR", "coord": {"lon": -60.63517, "lat": -31.961241}}, {"id": 3436395, "name": "Almirante Brown", "country": "AR", "coord": {"lon": -58.450001, "lat": -34.666672}}, {"id": 3856547, "name": "El Tala", "country": "AR", "coord": {"lon": -64.48333, "lat": -31.799999}}, {"id": 3853706, "name": "Iriondo", "country": "AR", "coord": {"lon": -60.756271, "lat": -31.31448}}, {"id": 3429331, "name": "San Alberto", "country": "AR", "coord": {"lon": -54.98333, "lat": -26.799999}}, {"id": 3845366, "name": "Lunlunta", "country": "AR", "coord": {"lon": -68.822617, "lat": -33.041229}}, {"id": 3841763, "name": "Patricios", "country": "AR", "coord": {"lon": -60.715931, "lat": -35.439548}}, {"id": 3865491, "name": "Arenaza", "country": "AR", "coord": {"lon": -61.773651, "lat": -34.98597}}, {"id": 3855917, "name": "Estaci\u00f3n Ramallo", "country": "AR", "coord": {"lon": -60.066669, "lat": -33.5}}, {"id": 3866308, "name": "Algarrobo", "country": "AR", "coord": {"lon": -63.13792, "lat": -38.894459}}, {"id": 3865775, "name": "Departamento de A\u00f1elo", "country": "AR", "coord": {"lon": -69, "lat": -38.166672}}, {"id": 3865776, "name": "Anelo", "country": "AR", "coord": {"lon": -68.788399, "lat": -38.354408}}, {"id": 3832509, "name": "Vistalba", "country": "AR", "coord": {"lon": -68.883331, "lat": -33.01667}}, {"id": 3847102, "name": "Departamento de Leales", "country": "AR", "coord": {"lon": -65.083328, "lat": -27.200001}}, {"id": 3847103, "name": "Leales", "country": "AR", "coord": {"lon": -65.308891, "lat": -27.195169}}, {"id": 3862889, "name": "Ca\u00f1ad\u00f3n Seco", "country": "AR", "coord": {"lon": -67.583328, "lat": -46.549999}}, {"id": 3427369, "name": "Villa San Marcial", "country": "AR", "coord": {"lon": -58.933331, "lat": -32.166672}}, {"id": 3427958, "name": "Sierra de los Padres", "country": "AR", "coord": {"lon": -57.77161, "lat": -37.95269}}, {"id": 3866396, "name": "Aldea Brasilera", "country": "AR", "coord": {"lon": -60.589981, "lat": -31.8901}}, {"id": 3854089, "name": "Huanqueros", "country": "AR", "coord": {"lon": -61.217709, "lat": -30.011511}}, {"id": 3832607, "name": "Villa Tulumba", "country": "AR", "coord": {"lon": -64.122398, "lat": -30.395519}}, {"id": 3428003, "name": "Departamento de Sauce", "country": "AR", "coord": {"lon": -58.666672, "lat": -30}}, {"id": 3428023, "name": "Sauce", "country": "AR", "coord": {"lon": -58.787769, "lat": -30.08671}}, {"id": 3432355, "name": "La Leonesa", "country": "AR", "coord": {"lon": -58.703468, "lat": -27.037861}}, {"id": 3832818, "name": "Villa Albertina", "country": "AR", "coord": {"lon": -64.333328, "lat": -30.683331}}, {"id": 3832903, "name": "Videla", "country": "AR", "coord": {"lon": -60.65453, "lat": -30.94458}}, {"id": 3856548, "name": "El Tala", "country": "AR", "coord": {"lon": -65.276428, "lat": -26.111759}}, {"id": 3835230, "name": "Sindicato Dodero", "country": "AR", "coord": {"lon": -67.631432, "lat": -46.061771}}, {"id": 3832786, "name": "Villa Castelar", "country": "AR", "coord": {"lon": -62.806969, "lat": -37.38575}}, {"id": 3841744, "name": "Pav\u00f3n Arriba", "country": "AR", "coord": {"lon": -60.823681, "lat": -33.311211}}, {"id": 3856839, "name": "El Retiro", "country": "AR", "coord": {"lon": -64.481903, "lat": -31.18046}}, {"id": 3865742, "name": "Anguil", "country": "AR", "coord": {"lon": -64.010246, "lat": -36.525669}}, {"id": 3835289, "name": "Sierras Bayas", "country": "AR", "coord": {"lon": -60.159229, "lat": -36.933399}}, {"id": 3854334, "name": "Hernandez", "country": "AR", "coord": {"lon": -60.021599, "lat": -32.337299}}, {"id": 3860197, "name": "Coronel Du Graty", "country": "AR", "coord": {"lon": -60.914619, "lat": -27.68038}}, {"id": 3855603, "name": "Ferr\u00e9", "country": "AR", "coord": {"lon": -61.138779, "lat": -34.127281}}, {"id": 3842672, "name": "Olascoaga", "country": "AR", "coord": {"lon": -60.611671, "lat": -35.236881}}, {"id": 3853963, "name": "Humait\u00e1", "country": "AR", "coord": {"lon": -64.467598, "lat": -27.103519}}, {"id": 3834897, "name": "Susana", "country": "AR", "coord": {"lon": -61.51577, "lat": -31.355961}}, {"id": 3843788, "name": "Monte Vera", "country": "AR", "coord": {"lon": -60.676769, "lat": -31.516701}}, {"id": 3435107, "name": "Curuz\u00fa", "country": "AR", "coord": {"lon": -55.824799, "lat": -27.914869}}, {"id": 3847858, "name": "Las Pulgas", "country": "AR", "coord": {"lon": -69.618858, "lat": -45.460979}}, {"id": 3435974, "name": "Bosques", "country": "AR", "coord": {"lon": -58.234428, "lat": -34.819271}}, {"id": 3859946, "name": "Cotagaita", "country": "AR", "coord": {"lon": -62.07402, "lat": -30.913071}}, {"id": 3865786, "name": "Andino", "country": "AR", "coord": {"lon": -60.87722, "lat": -32.66832}}, {"id": 3834459, "name": "Ticino", "country": "AR", "coord": {"lon": -63.436062, "lat": -32.693501}}, {"id": 3832742, "name": "Villa Florida", "country": "AR", "coord": {"lon": -65.366669, "lat": -23.549999}}, {"id": 3861713, "name": "Chapanay", "country": "AR", "coord": {"lon": -68.433327, "lat": -32.98333}}, {"id": 3864731, "name": "Barrancas", "country": "AR", "coord": {"lon": -60.980011, "lat": -32.234219}}, {"id": 3846080, "name": "Los Juries", "country": "AR", "coord": {"lon": -62.10862, "lat": -28.465389}}, {"id": 3853447, "name": "Juan Bautista Alberdi", "country": "AR", "coord": {"lon": -61.809818, "lat": -34.440102}}, {"id": 3842840, "name": "Nuevo Torino", "country": "AR", "coord": {"lon": -61.235401, "lat": -31.346451}}, {"id": 3854459, "name": "Departamento de Guaymall\u00e9n", "country": "AR", "coord": {"lon": -68.699997, "lat": -32.883331}}, {"id": 3864299, "name": "Bermejo", "country": "AR", "coord": {"lon": -68.800003, "lat": -32.883331}}, {"id": 3434958, "name": "Echag\u00fce", "country": "AR", "coord": {"lon": -59.282001, "lat": -32.39185}}, {"id": 3430943, "name": "Makalle", "country": "AR", "coord": {"lon": -59.286961, "lat": -27.206869}}, {"id": 3430679, "name": "Ministro Rivadavia", "country": "AR", "coord": {"lon": -58.366192, "lat": -34.841042}}, {"id": 3835938, "name": "Santa Rosa de Rio Primero", "country": "AR", "coord": {"lon": -63.401909, "lat": -31.152309}}, {"id": 3832803, "name": "Villa Atuel", "country": "AR", "coord": {"lon": -67.861771, "lat": -34.831322}}, {"id": 3839588, "name": "Quilino", "country": "AR", "coord": {"lon": -64.500633, "lat": -30.21397}}, {"id": 3840031, "name": "Puiggari", "country": "AR", "coord": {"lon": -60.447289, "lat": -32.05452}}, {"id": 3840987, "name": "Pirovano", "country": "AR", "coord": {"lon": -61.566669, "lat": -36.5}}, {"id": 3859500, "name": "Del Campillo", "country": "AR", "coord": {"lon": -64.495041, "lat": -34.376591}}, {"id": 3860818, "name": "Colonia Almada", "country": "AR", "coord": {"lon": -63.864029, "lat": -32.03503}}, {"id": 3864574, "name": "Bauer y Sigel", "country": "AR", "coord": {"lon": -61.945309, "lat": -31.27182}}, {"id": 3832759, "name": "Villa de Soto", "country": "AR", "coord": {"lon": -64.999474, "lat": -30.85523}}, {"id": 3427444, "name": "Villa El Cacique", "country": "AR", "coord": {"lon": -59.395691, "lat": -37.676159}}, {"id": 3839061, "name": "Ricardone", "country": "AR", "coord": {"lon": -60.782398, "lat": -32.76923}}, {"id": 3846135, "name": "Los Guti\u00e9rrez", "country": "AR", "coord": {"lon": -65.133331, "lat": -26.799999}}, {"id": 3861059, "name": "Cintra", "country": "AR", "coord": {"lon": -62.652142, "lat": -32.306728}}, {"id": 3832783, "name": "Villa Cha\u00f1ar Ladeado", "country": "AR", "coord": {"lon": -62.038311, "lat": -33.325241}}, {"id": 3432144, "name": "Lanteri", "country": "AR", "coord": {"lon": -59.63681, "lat": -28.84141}}, {"id": 3429733, "name": "Puerto Reconquista", "country": "AR", "coord": {"lon": -59.586418, "lat": -29.235241}}, {"id": 3837797, "name": "San Eduardo", "country": "AR", "coord": {"lon": -62.09137, "lat": -33.87001}}, {"id": 3833947, "name": "Trancas", "country": "AR", "coord": {"lon": -65.280251, "lat": -26.23135}}, {"id": 3851181, "name": "La Francia", "country": "AR", "coord": {"lon": -62.633961, "lat": -31.40675}}, {"id": 3430015, "name": "Picada Gobernador Lopez", "country": "AR", "coord": {"lon": -55.24585, "lat": -27.670691}}, {"id": 3855201, "name": "Garr\u00e9", "country": "AR", "coord": {"lon": -62.602169, "lat": -36.560371}}, {"id": 3832805, "name": "Villa Atamisqui", "country": "AR", "coord": {"lon": -63.81609, "lat": -28.49609}}, {"id": 3429156, "name": "Departamento de San Cosme", "country": "AR", "coord": {"lon": -58.5, "lat": -27.33333}}, {"id": 3429157, "name": "San Cosme", "country": "AR", "coord": {"lon": -58.512138, "lat": -27.371229}}, {"id": 3833463, "name": "Ucacha", "country": "AR", "coord": {"lon": -63.50666, "lat": -33.032028}}, {"id": 3866959, "name": "Achiras", "country": "AR", "coord": {"lon": -64.993309, "lat": -33.175381}}, {"id": 3860709, "name": "Colonia Ser\u00e9", "country": "AR", "coord": {"lon": -62.725422, "lat": -35.436878}}, {"id": 3861677, "name": "Charbonier", "country": "AR", "coord": {"lon": -64.543747, "lat": -30.77302}}, {"id": 3433775, "name": "Villa Urquiza", "country": "AR", "coord": {"lon": -58.48333, "lat": -34.566669}}, {"id": 3575625, "name": "Saint Joseph", "country": "DM", "coord": {"lon": -61.433331, "lat": 15.43333}}, {"id": 3575612, "name": "Salisbury", "country": "DM", "coord": {"lon": -61.450001, "lat": 15.43333}}, {"id": 3575630, "name": "Saint David", "country": "DM", "coord": {"lon": -61.283329, "lat": 15.46667}}, {"id": 3575870, "name": "Castle Bruce", "country": "DM", "coord": {"lon": -61.26667, "lat": 15.43333}}, {"id": 3575761, "name": "Lagon", "country": "DM", "coord": {"lon": -61.466671, "lat": 15.58333}}, {"id": 3575639, "name": "Rosalie", "country": "DM", "coord": {"lon": -61.26667, "lat": 15.36667}}, {"id": 3575632, "name": "Saint Andrew", "country": "DM", "coord": {"lon": -61.366669, "lat": 15.56667}}, {"id": 3575565, "name": "Woodford Hill", "country": "DM", "coord": {"lon": -61.333328, "lat": 15.56667}}, {"id": 3575628, "name": "Saint George", "country": "DM", "coord": {"lon": -61.366669, "lat": 15.3}}, {"id": 3575737, "name": "Loubiere", "country": "DM", "coord": {"lon": -61.383331, "lat": 15.26667}}, {"id": 3575578, "name": "Trafalgar", "country": "DM", "coord": {"lon": -61.349998, "lat": 15.31667}}, {"id": 1880252, "name": "Singapore", "country": "SG", "coord": {"lon": 103.850067, "lat": 1.28967}}, {"id": 1882316, "name": "Woodlands New Town", "country": "SG", "coord": {"lon": 103.776672, "lat": 1.44444}}, {"id": 1880574, "name": "Kampong Pasir Ris", "country": "SG", "coord": {"lon": 103.931938, "lat": 1.37833}}, {"id": 1880216, "name": "Tampines Estate", "country": "SG", "coord": {"lon": 103.940277, "lat": 1.35806}}, {"id": 8010237, "name": "Banachaur", "country": "NP", "coord": {"lon": 85.415756, "lat": 27.666161}}, {"id": 1283582, "name": "Biratnagar", "country": "NP", "coord": {"lon": 87.283371, "lat": 26.483101}}, {"id": 1283316, "name": "Janakpur Zone", "country": "NP", "coord": {"lon": 86, "lat": 27.33333}}, {"id": 7648379, "name": "Dhanusa", "country": "NP", "coord": {"lon": 86.010002, "lat": 26.83}}, {"id": 7800051, "name": "Basahiya", "country": "NP", "coord": {"lon": 85.911797, "lat": 26.6961}}, {"id": 7943571, "name": "Basahiya", "country": "NP", "coord": {"lon": 85.913887, "lat": 26.69743}}, {"id": 7800283, "name": "Darling", "country": "NP", "coord": {"lon": 83.589157, "lat": 28.27663}}, {"id": 7953967, "name": "Ramrekha", "country": "NP", "coord": {"lon": 83.605827, "lat": 28.26368}}, {"id": 7289706, "name": "Madhya Pashchimanchal", "country": "NP", "coord": {"lon": 82.313347, "lat": 29.059771}}, {"id": 1283606, "name": "Bher\u012b Zone", "country": "NP", "coord": {"lon": 81.666672, "lat": 28.58333}}, {"id": 6941099, "name": "Nepalgunj", "country": "NP", "coord": {"lon": 81.616669, "lat": 28.049999}}, {"id": 7521311, "name": "National Capital Region", "country": "PH", "coord": {"lon": 120.971748, "lat": 14.59455}}, {"id": 1701668, "name": "Manila", "country": "PH", "coord": {"lon": 120.982201, "lat": 14.6042}}, {"id": 7521310, "name": "Bicol", "country": "PH", "coord": {"lon": 123.563889, "lat": 13.31389}}, {"id": 1706889, "name": "Legaspi", "country": "PH", "coord": {"lon": 123.734444, "lat": 13.13722}}, {"id": 1711003, "name": "Iloilo City", "country": "PH", "coord": {"lon": 122.550003, "lat": 10.75}}, {"id": 1711005, "name": "Iloilo", "country": "PH", "coord": {"lon": 122.564438, "lat": 10.69694}}, {"id": 7521301, "name": "Ilocos", "country": "PH", "coord": {"lon": 120.520828, "lat": 16.97917}}, {"id": 1695357, "name": "Province of Pangasinan", "country": "PH", "coord": {"lon": 120.333328, "lat": 15.91667}}, {"id": 1716197, "name": "Dagupan", "country": "PH", "coord": {"lon": 120.51667, "lat": 16.1}}, {"id": 7521309, "name": "Davao", "country": "PH", "coord": {"lon": 125.708481, "lat": 6.81304}}, {"id": 1715348, "name": "Davao", "country": "PH", "coord": {"lon": 125.612778, "lat": 7.07306}}, {"id": 1711032, "name": "Province of Ilocos Sur", "country": "PH", "coord": {"lon": 120.583328, "lat": 17.33333}}, {"id": 1717455, "name": "Cervantes", "country": "PH", "coord": {"lon": 120.716667, "lat": 16.98333}}, {"id": 1717452, "name": "Cervantes", "country": "PH", "coord": {"lon": 120.735901, "lat": 16.9909}}, {"id": 7521307, "name": "Eastern Visayas", "country": "PH", "coord": {"lon": 124.98333, "lat": 11.41667}}, {"id": 1697549, "name": "Province of Northern Samar", "country": "PH", "coord": {"lon": 124.666672, "lat": 12.33333}}, {"id": 1687725, "name": "Santo Domingo", "country": "PH", "coord": {"lon": 120.744003, "lat": 14.9917}}, {"id": 1726279, "name": "Province of Batangas", "country": "PH", "coord": {"lon": 121.083328, "lat": 13.91667}}, {"id": 1689359, "name": "San Juan", "country": "PH", "coord": {"lon": 121.366669, "lat": 13.75}}, {"id": 1689303, "name": "San Juan", "country": "PH", "coord": {"lon": 121.400833, "lat": 13.83028}}, {"id": 1691440, "name": "Roxas City", "country": "PH", "coord": {"lon": 122.751106, "lat": 11.58528}}, {"id": 1691444, "name": "Roxas City", "country": "PH", "coord": {"lon": 122.751106, "lat": 11.58528}}, {"id": 7521297, "name": "Cagayan Valley", "country": "PH", "coord": {"lon": 121.73333, "lat": 17.65667}}, {"id": 1710515, "name": "Province of Isabela", "country": "PH", "coord": {"lon": 122, "lat": 17}}, {"id": 1687836, "name": "Santiago", "country": "PH", "coord": {"lon": 121.5, "lat": 16.73333}}, {"id": 1687801, "name": "Santiago", "country": "PH", "coord": {"lon": 121.548698, "lat": 16.68808}}, {"id": 1684309, "name": "Taguig", "country": "PH", "coord": {"lon": 121.066673, "lat": 14.53333}}, {"id": 1684308, "name": "Taguig", "country": "PH", "coord": {"lon": 121.079201, "lat": 14.5243}}, {"id": 1723064, "name": "Province of Bulacan", "country": "PH", "coord": {"lon": 121.083328, "lat": 15}}, {"id": 1688954, "name": "San Miguel", "country": "PH", "coord": {"lon": 120.978897, "lat": 15.1454}}, {"id": 1726277, "name": "Batangas City", "country": "PH", "coord": {"lon": 121.050003, "lat": 13.75}}, {"id": 1726280, "name": "Batangas", "country": "PH", "coord": {"lon": 121.059998, "lat": 13.75944}}, {"id": 1697473, "name": "Province of Nueva Ecija", "country": "PH", "coord": {"lon": 121, "lat": 15.58333}}, {"id": 1688482, "name": "San Roque", "country": "PH", "coord": {"lon": 120.849998, "lat": 15.25}}, {"id": 1708026, "name": "Province of Laguna", "country": "PH", "coord": {"lon": 121.333328, "lat": 14.16667}}, {"id": 1688505, "name": "San Roque", "country": "PH", "coord": {"lon": 121.059402, "lat": 14.36523}}, {"id": 1681598, "name": "Toledo City", "country": "PH", "coord": {"lon": 123.633331, "lat": 10.38333}}, {"id": 1681602, "name": "Toledo", "country": "PH", "coord": {"lon": 123.641937, "lat": 10.37917}}, {"id": 1687915, "name": "Santa Rosa", "country": "PH", "coord": {"lon": 121.099998, "lat": 14.28333}}, {"id": 1687894, "name": "Santa Rosa", "country": "PH", "coord": {"lon": 121.111389, "lat": 14.31222}}, {"id": 1692241, "name": "Quebiauan", "country": "PH", "coord": {"lon": 120.683327, "lat": 15.03333}}, {"id": 1682811, "name": "Province of Tarlac", "country": "PH", "coord": {"lon": 120.5, "lat": 15.5}}, {"id": 1682812, "name": "Tarlac", "country": "PH", "coord": {"lon": 120.59861, "lat": 15.48889}},