[{"id": 727479, "name": "Sadovo", "country": "BG", "coord": {"lon": 24.933331, "lat": 42.133331}}, {"id": 1543539, "name": "Sadovod", "country": "RU", "coord": {"lon": 67.255562, "lat": 55.178612}}, {"id": 499539, "name": "Sadovoy", "country": "RU", "coord": {"lon": 38.01556, "lat": 45.024719}}, {"id": 499528, "name": "Sadovoye", "country": "RU", "coord": {"lon": 40.501942, "lat": 51.531109}}, {"id": 499535, "name": "Sadovoye", "country": "RU", "coord": {"lon": 44.508888, "lat": 47.77639}}, {"id": 499493, "name": "Sadovyy", "country": "RU", "coord": {"lon": 34.333328, "lat": 53.299999}}, {"id": 7076382, "name": "Sadovyy", "country": "RU", "coord": {"lon": 73.295021, "lat": 54.97411}}, {"id": 759680, "name": "Sadowie", "country": "PL", "coord": {"lon": 21.368839, "lat": 50.852612}}, {"id": 759678, "name": "Sadowne", "country": "PL", "coord": {"lon": 21.845631, "lat": 52.641239}}, {"id": 1257865, "name": "Sadri", "country": "IN", "coord": {"lon": 73.433327, "lat": 25.183331}}, {"id": 6428404, "name": "Sadroc", "country": "FR", "coord": {"lon": 1.55, "lat": 45.283329}}, {"id": 2982027, "name": "Sadroc", "country": "FR", "coord": {"lon": 1.54907, "lat": 45.283192}}, {"id": 1691194, "name": "Sadsadan", "country": "PH", "coord": {"lon": 120.866699, "lat": 16.9333}}, {"id": 1691193, "name": "Sadsalan", "country": "PH", "coord": {"lon": 124.622223, "lat": 6.82306}}, {"id": 3066446, "name": "Sadska", "country": "CZ", "coord": {"lon": 14.98633, "lat": 50.13596}}, {"id": 668278, "name": "Sadu", "country": "RO", "coord": {"lon": 24.183331, "lat": 45.666672}}, {"id": 3111152, "name": "Sadurn\u00edn", "country": "ES", "coord": {"lon": -8.08536, "lat": 42.327801}}, {"id": 694934, "name": "Sadzhavka", "country": "UA", "coord": {"lon": 24.7882, "lat": 48.566029}}, {"id": 2614172, "name": "Saeby", "country": "DK", "coord": {"lon": 10.52251, "lat": 57.331879}}, {"id": 2680764, "name": "Saeffle", "country": "SE", "coord": {"lon": 12.92888, "lat": 59.13229}}, {"id": 6357518, "name": "Saelices", "country": "ES", "coord": {"lon": -2.81285, "lat": 39.89624}}, {"id": 2511623, "name": "Saelices", "country": "ES", "coord": {"lon": -2.80502, "lat": 39.920609}}, {"id": 6362263, "name": "Saelices de Mayorga", "country": "ES", "coord": {"lon": -5.20924, "lat": 42.21368}}, {"id": 3111148, "name": "Saelices de Mayorga", "country": "ES", "coord": {"lon": -5.20534, "lat": 42.212059}}, {"id": 6358014, "name": "Saelices de la Sal", "country": "ES", "coord": {"lon": -2.34041, "lat": 40.905102}}, {"id": 3111151, "name": "Saelices de la Sal", "country": "ES", "coord": {"lon": -2.32325, "lat": 40.90723}}, {"id": 6360511, "name": "Saelices el Chico", "country": "ES", "coord": {"lon": -6.6172, "lat": 40.654861}}, {"id": 3111146, "name": "Saelices el Chico", "country": "ES", "coord": {"lon": -6.63271, "lat": 40.669979}}, {"id": 6553111, "name": "Saerbeck", "country": "DE", "coord": {"lon": 7.63333, "lat": 52.1833}}, {"id": 2842441, "name": "Saerbeck", "country": "DE", "coord": {"lon": 7.63395, "lat": 52.173721}}, {"id": 2679855, "name": "Saeter", "country": "SE", "coord": {"lon": 15.75051, "lat": 60.347778}}, {"id": 3140636, "name": "Saetre", "country": "NO", "coord": {"lon": 10.52472, "lat": 59.681671}}, {"id": 6693318, "name": "Saeul", "country": "LU", "coord": {"lon": 5.98639, "lat": 49.727219}}, {"id": 2960120, "name": "Saeul", "country": "LU", "coord": {"lon": 5.98639, "lat": 49.727219}}, {"id": 603037, "name": "Saevar", "country": "SE", "coord": {"lon": 20.55014, "lat": 63.903831}}, {"id": 603448, "name": "Saevast", "country": "SE", "coord": {"lon": 21.731131, "lat": 65.77002}}, {"id": 2679721, "name": "Saevja", "country": "SE", "coord": {"lon": 17.69899, "lat": 59.820831}}, {"id": 2679698, "name": "Saevsjoe", "country": "SE", "coord": {"lon": 14.66244, "lat": 57.403271}}, {"id": 637247, "name": "Saeynaetsalo", "country": "FI", "coord": {"lon": 25.76667, "lat": 62.133331}}, {"id": 1493268, "name": "Safakulevo", "country": "RU", "coord": {"lon": 62.544201, "lat": 54.990101}}, {"id": 8030386, "name": "Safende", "country": "CV", "coord": {"lon": -25.83984, "lat": 15.36895}}, {"id": 7287011, "name": "Safenwil", "country": "CH", "coord": {"lon": 7.9869, "lat": 47.31966}}, {"id": 2658892, "name": "Safenwil", "country": "CH", "coord": {"lon": 7.98122, "lat": 47.3214}}, {"id": 2062057, "name": "Safety Bay", "country": "AU", "coord": {"lon": 115.699997, "lat": -32.299999}}, {"id": 4170797, "name": "Safety Harbor", "country": "US", "coord": {"lon": -82.693161, "lat": 27.99085}}, {"id": 282069, "name": "Saffa", "country": "PS", "coord": {"lon": 35.06094, "lat": 31.90563}}, {"id": 6553781, "name": "Saffig", "country": "DE", "coord": {"lon": 7.41667, "lat": 50.383301}}, {"id": 2842438, "name": "Saffig", "country": "DE", "coord": {"lon": 7.41667, "lat": 50.383331}}, {"id": 6433733, "name": "Saffloz", "country": "FR", "coord": {"lon": 5.85, "lat": 46.666672}}, {"id": 2982024, "name": "Saffloz", "country": "FR", "coord": {"lon": 5.84979, "lat": 46.66964}}, {"id": 5312476, "name": "Safford", "country": "US", "coord": {"lon": -109.707581, "lat": 32.83395}}, {"id": 2982023, "name": "Saffre", "country": "FR", "coord": {"lon": -1.57856, "lat": 47.501431}}, {"id": 2638878, "name": "Saffron Walden", "country": "GB", "coord": {"lon": 0.24234, "lat": 52.023369}}, {"id": 6434507, "name": "Saffr\u00e9", "country": "FR", "coord": {"lon": -1.56667, "lat": 47.5}}, {"id": 2537878, "name": "Safi", "country": "MA", "coord": {"lon": -8.83333, "lat": 32.166672}}, {"id": 6546086, "name": "Safi", "country": "MA", "coord": {"lon": -9.23478, "lat": 32.269241}}, {"id": 2537881, "name": "Safi", "country": "MA", "coord": {"lon": -9.23718, "lat": 32.299389}}, {"id": 2562598, "name": "Safi", "country": "MT", "coord": {"lon": 14.48472, "lat": 35.833061}}, {"id": 1257855, "name": "Safidon", "country": "IN", "coord": {"lon": 76.666672, "lat": 29.41667}}, {"id": 7287012, "name": "Safien", "country": "CH", "coord": {"lon": 9.29434, "lat": 46.6576}}, {"id": 2658891, "name": "Safien Platz", "country": "CH", "coord": {"lon": 9.31567, "lat": 46.68259}}, {"id": 1257854, "name": "Safipur", "country": "IN", "coord": {"lon": 80.349998, "lat": 26.73333}}, {"id": 172503, "name": "Safirah", "country": "SY", "coord": {"lon": 37.372509, "lat": 36.076962}}, {"id": 499452, "name": "Safonovo", "country": "RU", "coord": {"lon": 33.216671, "lat": 55.150002}}, {"id": 499439, "name": "Safonovo", "country": "RU", "coord": {"lon": 33.295231, "lat": 69.060432}}, {"id": 499447, "name": "Safonovo", "country": "RU", "coord": {"lon": 48.633331, "lat": 55.866669}}, {"id": 499438, "name": "Safonovo", "country": "RU", "coord": {"lon": 38.216667, "lat": 55.716667}}, {"id": 499456, "name": "Safonovo", "country": "RU", "coord": {"lon": 36.416672, "lat": 52.866669}}, {"id": 499453, "name": "Safonovo", "country": "RU", "coord": {"lon": 33.232922, "lat": 55.11087}}, {"id": 499421, "name": "Safonovskaya", "country": "RU", "coord": {"lon": 41.046059, "lat": 60.439911}}, {"id": 4035118, "name": "Safotu", "country": "WS", "coord": {"lon": -172.401764, "lat": -13.45132}}, {"id": 740430, "name": "Safranbolu", "country": "TR", "coord": {"lon": 32.694172, "lat": 41.250832}}, {"id": 172497, "name": "Safsafah", "country": "SY", "coord": {"lon": 36.05283, "lat": 34.735191}}, {"id": 102585, "name": "Safwa", "country": "SA", "coord": {"lon": 49.952229, "lat": 26.64986}}, {"id": 668269, "name": "Sag", "country": "RO", "coord": {"lon": 21.17556, "lat": 45.648609}}, {"id": 5134800, "name": "Sag Harbor", "country": "US", "coord": {"lon": -72.29258, "lat": 40.997879}}, {"id": 7536143, "name": "Saga", "country": "CN", "coord": {"lon": 85.226013, "lat": 29.323669}}, {"id": 7337882, "name": "Saga", "country": "ID", "coord": {"lon": 121.734901, "lat": -8.7694}}, {"id": 2569011, "name": "Saga-Aviation", "country": "NE", "coord": {"lon": 2.1837, "lat": 13.4697}}, {"id": 1853299, "name": "Saga-ken", "country": "JP", "coord": {"lon": 130.114914, "lat": 33.28904}}, {"id": 1853303, "name": "Saga-shi", "country": "JP", "coord": {"lon": 130.298798, "lat": 33.249321}}, {"id": 1958415, "name": "Sagacad", "country": "PH", "coord": {"lon": 123.340561, "lat": 7.68611}}, {"id": 1691184, "name": "Sagada", "country": "PH", "coord": {"lon": 120.899597, "lat": 17.084}}, {"id": 2111248, "name": "Sagae", "country": "JP", "coord": {"lon": 140.272507, "lat": 38.372501}}, {"id": 1298482, "name": "Sagaing", "country": "MM", "coord": {"lon": 95.979652, "lat": 21.8787}}, {"id": 1298480, "name": "Sagaing Division", "country": "MM", "coord": {"lon": 95.5, "lat": 23.5}}, {"id": 8054307, "name": "Sagalaherang", "country": "ID", "coord": {"lon": 108.394203, "lat": -7.1202}}, {"id": 3168724, "name": "Sagama", "country": "IT", "coord": {"lon": 8.57752, "lat": 40.261551}}, {"id": 1853295, "name": "Sagamihara", "country": "JP", "coord": {"lon": 139.354446, "lat": 35.553059}}, {"id": 4949344, "name": "Sagamore", "country": "US", "coord": {"lon": -70.528358, "lat": 41.770111}}, {"id": 180868, "name": "Sagana", "country": "KE", "coord": {"lon": 37.200001, "lat": -0.66667}}, {"id": 1691174, "name": "Sagana", "country": "PH", "coord": {"lon": 121.486717, "lat": 12.72252}}, {"id": 1691172, "name": "Sagang", "country": "PH", "coord": {"lon": 123.072197, "lat": 10.3612}}, {"id": 1257851, "name": "Sagar", "country": "IN", "coord": {"lon": 75.033333, "lat": 14.16667}}, {"id": 1257845, "name": "Sagar", "country": "IN", "coord": {"lon": 78.716667, "lat": 23.83333}}, {"id": 1853280, "name": "Sagara", "country": "JP", "coord": {"lon": 138.199997, "lat": 34.683331}}, {"id": 8073888, "name": "Sagara", "country": "ID", "coord": {"lon": 108.6399, "lat": -7.1115}}, {"id": 1629261, "name": "Sagaranten", "country": "ID", "coord": {"lon": 106.885101, "lat": -7.2184}}, {"id": 6548431, "name": "Sagard", "country": "DE", "coord": {"lon": 13.55, "lat": 54.533298}}, {"id": 2842434, "name": "Sagard", "country": "DE", "coord": {"lon": 13.55387, "lat": 54.525558}}, {"id": 612230, "name": "Sagarejo", "country": "GE", "coord": {"lon": 45.331478, "lat": 41.733971}}, {"id": 1282836, "name": "Sagarm\u0101th\u0101 Zone", "country": "NP", "coord": {"lon": 86.666664, "lat": 27.333332}}, {"id": 3111144, "name": "Sagar\u00f3", "country": "ES", "coord": {"lon": 2.747, "lat": 42.240971}}, {"id": 3111143, "name": "Sagas", "country": "ES", "coord": {"lon": 1.96667, "lat": 42.049999}}, {"id": 1691166, "name": "Sagasa", "country": "PH", "coord": {"lon": 122.895279, "lat": 10.46917}}, {"id": 1691168, "name": "Sagasa", "country": "PH", "coord": {"lon": 124.574722, "lat": 6.77389}}, {"id": 1257830, "name": "Sagauli", "country": "IN", "coord": {"lon": 84.73333, "lat": 26.783331}}, {"id": 1691153, "name": "Sagay", "country": "PH", "coord": {"lon": 123.383331, "lat": 10.86667}}, {"id": 1691150, "name": "Sagay", "country": "PH", "coord": {"lon": 123.424171, "lat": 10.94472}}, {"id": 1691152, "name": "Sagay", "country": "PH", "coord": {"lon": 124.724297, "lat": 9.1059}}, {"id": 1691137, "name": "Sagbayan", "country": "PH", "coord": {"lon": 124.091904, "lat": 9.9144}}, {"id": 668266, "name": "Sageata", "country": "RO", "coord": {"lon": 26.98333, "lat": 45.099998}}, {"id": 7669890, "name": "Sagen", "country": "CH", "coord": {"lon": 7.89398, "lat": 47.233669}}, {"id": 5134820, "name": "Sages Crossing", "country": "US", "coord": {"lon": -75.334892, "lat": 42.58535}}, {"id": 2961636, "name": "Saggart", "country": "IE", "coord": {"lon": -6.44444, "lat": 53.280281}}, {"id": 2425791, "name": "Sagh", "country": "TD", "coord": {"lon": 18.3923, "lat": 9.1429}}, {"id": 3111140, "name": "Sagides", "country": "ES", "coord": {"lon": -2.27748, "lat": 41.149681}}, {"id": 7335632, "name": "Sagikmateng", "country": "ID", "coord": {"lon": 116.407898, "lat": -8.8279}}, {"id": 4724642, "name": "Saginaw", "country": "US", "coord": {"lon": -97.363907, "lat": 32.86013}}, {"id": 5007989, "name": "Saginaw", "country": "US", "coord": {"lon": -83.950813, "lat": 43.419472}}, {"id": 5007996, "name": "Saginaw County", "country": "US", "coord": {"lon": -84.03331, "lat": 43.333359}}, {"id": 2842396, "name": "Sagisdorf", "country": "DE", "coord": {"lon": 12.03333, "lat": 51.48333}}, {"id": 6535338, "name": "Sagliano Micca", "country": "IT", "coord": {"lon": 8.04332, "lat": 45.625759}}, {"id": 2658885, "name": "Sagliaz", "country": "CH", "coord": {"lon": 9.75, "lat": 46.616669}}, {"id": 668263, "name": "Sagna", "country": "RO", "coord": {"lon": 27.01667, "lat": 46.98333}}, {"id": 1691123, "name": "Sagnay", "country": "PH", "coord": {"lon": 123.522499, "lat": 13.6029}}, {"id": 8022579, "name": "Sagobog", "country": "ID", "coord": {"lon": 108.149803, "lat": -7.392}}, {"id": 499404, "name": "Sagopshi", "country": "RU", "coord": {"lon": 44.587502, "lat": 43.481392}}, {"id": 1691107, "name": "Sagpon", "country": "PH", "coord": {"lon": 123.73333, "lat": 13.15}}, {"id": 6355489, "name": "Sagra", "country": "ES", "coord": {"lon": -0.05977, "lat": 38.816391}}, {"id": 2511621, "name": "Sagra", "country": "ES", "coord": {"lon": -0.06559, "lat": 38.81102}}, {"id": 1691106, "name": "Sagrada", "country": "PH", "coord": {"lon": 123.452698, "lat": 13.5301}}, {"id": 3622015, "name": "Sagrada Familia", "country": "CR", "coord": {"lon": -84.083328, "lat": 9.91667}}, {"id": 1691103, "name": "Sagrada Familia", "country": "PH", "coord": {"lon": 123.397697, "lat": 13.269}}, {"id": 3168721, "name": "Sagrado", "country": "IT", "coord": {"lon": 13.48417, "lat": 45.874439}}, {"id": 3450745, "name": "Sagres", "country": "BR", "coord": {"lon": -50.956108, "lat": -21.88361}}, {"id": 2263650, "name": "Sagres", "country": "PT", "coord": {"lon": -8.94311, "lat": 37.00864}}, {"id": 6542636, "name": "Sagron Mis", "country": "IT", "coord": {"lon": 11.9432, "lat": 46.19471}}, {"id": 6534587, "name": "Sagron Mis", "country": "IT", "coord": {"lon": 11.9432, "lat": 46.19471}}, {"id": 668261, "name": "Sagu", "country": "RO", "coord": {"lon": 21.283331, "lat": 46.049999}}, {"id": 3541446, "name": "Sagua de Tanamo", "country": "CU", "coord": {"lon": -75.241386, "lat": 20.58194}}, {"id": 3541440, "name": "Sagua la Grande", "country": "CU", "coord": {"lon": -80.075562, "lat": 22.806669}}, {"id": 5437349, "name": "Saguache", "country": "US", "coord": {"lon": -106.141968, "lat": 38.087502}}, {"id": 5437350, "name": "Saguache County", "country": "US", "coord": {"lon": -106.251137, "lat": 38.083328}}, {"id": 1691090, "name": "Sagud Baley", "country": "PH", "coord": {"lon": 120.390999, "lat": 16.1166}}, {"id": 1691091, "name": "Saguday", "country": "PH", "coord": {"lon": 121.563797, "lat": 16.542801}}, {"id": 6137270, "name": "Saguenay", "country": "CA", "coord": {"lon": -71.065727, "lat": 48.416752}}, {"id": 6137271, "name": "Saguenay/Lac-Saint-Jean", "country": "CA", "coord": {"lon": -71.749008, "lat": 49.86681}}, {"id": 1691086, "name": "Saguiaran", "country": "PH", "coord": {"lon": 124.269997, "lat": 8.03306}}, {"id": 1691084, "name": "Saguing", "country": "PH", "coord": {"lon": 125.078056, "lat": 6.98028}}, {"id": 2511619, "name": "Sagunto", "country": "ES", "coord": {"lon": -0.26667, "lat": 39.683331}}, {"id": 1691061, "name": "Sagunto", "country": "PH", "coord": {"lon": 120.5149, "lat": 16.200701}}, {"id": 6362085, "name": "Sagunto/Sagunt", "country": "ES", "coord": {"lon": -0.27102, "lat": 39.709721}}, {"id": 1691060, "name": "Sagurong", "country": "PH", "coord": {"lon": 122.959396, "lat": 13.7805}}, {"id": 3140573, "name": "Sagvag", "country": "NO", "coord": {"lon": 5.39611, "lat": 59.77861}}, {"id": 6446325, "name": "Sagy", "country": "FR", "coord": {"lon": 1.95, "lat": 49.049999}}, {"id": 2982000, "name": "Sagy", "country": "FR", "coord": {"lon": 1.95216, "lat": 49.049881}}, {"id": 6442382, "name": "Sagy", "country": "FR", "coord": {"lon": 5.31667, "lat": 46.599998}}, {"id": 2982001, "name": "Sagy", "country": "FR", "coord": {"lon": 5.31045, "lat": 46.601292}}, {"id": 6356212, "name": "Sag\u00e0s", "country": "ES", "coord": {"lon": 1.94831, "lat": 42.035809}}, {"id": 3111134, "name": "Sag\u00fc\u00e9s", "country": "ES", "coord": {"lon": -1.72316, "lat": 42.785301}}, {"id": 71282, "name": "Sah", "country": "YE", "coord": {"lon": 48.850559, "lat": 15.57722}}, {"id": 247105, "name": "Sahab", "country": "JO", "coord": {"lon": 36.005009, "lat": 31.87207}}, {"id": 3111131, "name": "Sahagun", "country": "ES", "coord": {"lon": -5.02942, "lat": 42.37085}}, {"id": 3670419, "name": "Sahagun", "country": "CO", "coord": {"lon": -75.442749, "lat": 8.94616}}, {"id": 6358676, "name": "Sahag\u00fan", "country": "ES", "coord": {"lon": -5.01898, "lat": 42.36483}}, {"id": 638210, "name": "Sahalahti", "country": "FI", "coord": {"lon": 24.316669, "lat": 61.466671}}, {"id": 286647, "name": "Saham", "country": "OM", "coord": {"lon": 56.888611, "lat": 24.17222}}, {"id": 247103, "name": "Saham", "country": "JO", "coord": {"lon": 35.776112, "lat": 32.69833}}, {"id": 6137276, "name": "Sahanatien", "country": "CA", "coord": {"lon": -79.749649, "lat": 44.983398}}, {"id": 1348788, "name": "Sahapur", "country": "IN", "coord": {"lon": 88.166939, "lat": 22.524441}}, {"id": 71273, "name": "Sahar", "country": "YE", "coord": {"lon": 44.308578, "lat": 15.31586}}, {"id": 5780908, "name": "Sahara Village", "country": "US", "coord": {"lon": -111.973282, "lat": 41.100498}}, {"id": 1257806, "name": "Saharanpur", "country": "IN", "coord": {"lon": 77.550003, "lat": 29.966669}}, {"id": 617471, "name": "Saharna", "country": "MD", "coord": {"lon": 28.97028, "lat": 47.693611}}, {"id": 1257804, "name": "Saharsa", "country": "IN", "coord": {"lon": 86.599998, "lat": 25.883329}}, {"id": 1257802, "name": "Sahaspur", "country": "IN", "coord": {"lon": 78.616669, "lat": 29.133329}}, {"id": 1257800, "name": "Sahaswan", "country": "IN", "coord": {"lon": 78.75, "lat": 28.083332}}, {"id": 668257, "name": "Sahateni", "country": "RO", "coord": {"lon": 26.51667, "lat": 45.033329}}, {"id": 1606913, "name": "Sahatsakhan", "country": "TH", "coord": {"lon": 103.520203, "lat": 16.71236}}, {"id": 1257799, "name": "Sahawar", "country": "IN", "coord": {"lon": 78.849998, "lat": 27.799999}}, {"id": 147278, "name": "Sahbuz", "country": "AZ", "coord": {"lon": 45.573891, "lat": 39.407219}}, {"id": 3111130, "name": "Sahechores", "country": "ES", "coord": {"lon": -5.2055, "lat": 42.62849}}, {"id": 6930713, "name": "Sahel", "country": "BF", "coord": {"lon": -0.04575, "lat": 14.03351}}, {"id": 2482605, "name": "Sahela Foukania", "country": "DZ", "coord": {"lon": 2.53806, "lat": 27.27202}}, {"id": 1257794, "name": "Sahibganj", "country": "IN", "coord": {"lon": 87.650002, "lat": 25.25}}, {"id": 7619146, "name": "Sahinbey", "country": "TR", "coord": {"lon": 37.343712, "lat": 37.048359}}, {"id": 1166547, "name": "Sahiwal", "country": "PK", "coord": {"lon": 72.330872, "lat": 31.974461}}, {"id": 2842382, "name": "Sahlassan", "country": "DE", "coord": {"lon": 13.18333, "lat": 51.366669}}, {"id": 2473190, "name": "Sahline", "country": "TN", "coord": {"lon": 10.71109, "lat": 35.751659}}, {"id": 6551493, "name": "Sahms", "country": "DE", "coord": {"lon": 10.5333, "lat": 53.533298}}, {"id": 2842372, "name": "Sahms", "country": "DE", "coord": {"lon": 10.53333, "lat": 53.533329}}, {"id": 2842368, "name": "Sahrendorf", "country": "DE", "coord": {"lon": 10.0278, "lat": 53.202259}}, {"id": 3988265, "name": "Sahuaripa", "country": "MX", "coord": {"lon": -109.23333, "lat": 29.049999}}, {"id": 5312544, "name": "Sahuarita", "country": "US", "coord": {"lon": -110.95565, "lat": 31.957581}}, {"id": 3988258, "name": "Sahuayo de Morelos", "country": "MX", "coord": {"lon": -102.716667, "lat": 20.066669}}, {"id": 6941013, "name": "Sahun", "country": "ES", "coord": {"lon": 0.46546, "lat": 42.575901}}, {"id": 6443420, "name": "Sahurs", "country": "FR", "coord": {"lon": 0.93333, "lat": 49.349998}}, {"id": 2981996, "name": "Sahurs", "country": "FR", "coord": {"lon": 0.94256, "lat": 49.358631}}, {"id": 3057772, "name": "Sahy", "country": "SK", "coord": {"lon": 18.949459, "lat": 48.074081}}, {"id": 6358402, "name": "Sah\u00fan", "country": "ES", "coord": {"lon": 0.46856, "lat": 42.605301}}, {"id": 1257810, "name": "Sah\u0101r", "country": "IN", "coord": {"lon": 77.48333, "lat": 27.633333}}, {"id": 1606851, "name": "Sai Buri", "country": "TH", "coord": {"lon": 101.616753, "lat": 6.70131}}, {"id": 7026886, "name": "Sai Mai", "country": "TH", "coord": {"lon": 100.645523, "lat": 13.92068}}, {"id": 1606842, "name": "Sai Mun", "country": "TH", "coord": {"lon": 104.208122, "lat": 15.94495}}, {"id": 1150854, "name": "Sai Ngam", "country": "TH", "coord": {"lon": 99.888428, "lat": 16.46862}}, {"id": 1606837, "name": "Sai Noi", "country": "TH", "coord": {"lon": 100.312088, "lat": 13.97915}}, {"id": 1150844, "name": "Sai Yok", "country": "TH", "coord": {"lon": 99.142059, "lat": 14.1194}}, {"id": 7287016, "name": "Saicourt", "country": "CH", "coord": {"lon": 7.17473, "lat": 47.252258}}, {"id": 77862, "name": "Said", "country": "YE", "coord": {"lon": 46.872921, "lat": 14.33011}}, {"id": 2482572, "name": "Saida", "country": "DZ", "coord": {"lon": 0.15171, "lat": 34.830341}}, {"id": 3104368, "name": "Saidi / Zaidin", "country": "ES", "coord": {"lon": 0.26429, "lat": 41.604019}}, {"id": 1257776, "name": "Saidpur", "country": "IN", "coord": {"lon": 83.183327, "lat": 25.549999}}, {"id": 6545349, "name": "Saidpur", "country": "BD", "coord": {"lon": 88.891693, "lat": 25.777691}}, {"id": 1257775, "name": "Saidpur", "country": "IN", "coord": {"lon": 77.916672, "lat": 28.616671}}, {"id": 1166475, "name": "Saidu Sharif", "country": "PK", "coord": {"lon": 72.354599, "lat": 34.744701}}, {"id": 1257773, "name": "Saifull\u0101hganj", "country": "IN", "coord": {"lon": 78.76667, "lat": 28.083332}}, {"id": 2658882, "name": "Saignelegier", "country": "CH", "coord": {"lon": 6.99648, "lat": 47.256191}}, {"id": 7287017, "name": "Saignel\u00e9gier", "country": "CH", "coord": {"lon": 6.99153, "lat": 47.26302}}, {"id": 6613432, "name": "Saignes", "country": "FR", "coord": {"lon": 2.48333, "lat": 45.333328}}, {"id": 2981993, "name": "Saignes", "country": "FR", "coord": {"lon": 2.48333, "lat": 45.333328}}, {"id": 6445090, "name": "Saignon", "country": "FR", "coord": {"lon": 5.43333, "lat": 43.866669}}, {"id": 2981990, "name": "Saignon", "country": "FR", "coord": {"lon": 5.42782, "lat": 43.86182}}, {"id": 1257771, "name": "Saiha", "country": "IN", "coord": {"lon": 92.966667, "lat": 22.48333}}, {"id": 2035202, "name": "Saihan Tal", "country": "CN", "coord": {"lon": 112.65139, "lat": 42.735828}}, {"id": 1926054, "name": "Saijo", "country": "JP", "coord": {"lon": 133.183334, "lat": 33.916672}}, {"id": 1853237, "name": "Saiki", "country": "JP", "coord": {"lon": 131.899994, "lat": 32.950001}}, {"id": 6434238, "name": "Sail-sous-Couzan", "country": "FR", "coord": {"lon": 3.95, "lat": 45.73333}}, {"id": 2981954, "name": "Sail-sous-Couzan", "country": "FR", "coord": {"lon": 3.96898, "lat": 45.734821}}, {"id": 1257765, "name": "Sailana", "country": "IN", "coord": {"lon": 74.916672, "lat": 23.466669}}, {"id": 6556957, "name": "Sailauf", "country": "DE", "coord": {"lon": 9.25, "lat": 50.016701}}, {"id": 3208010, "name": "Sailauf", "country": "DE", "coord": {"lon": 9.25, "lat": 50.01667}}, {"id": 6442383, "name": "Saillenard", "country": "FR", "coord": {"lon": 5.36667, "lat": 46.683331}}, {"id": 2981975, "name": "Saillenard", "country": "FR", "coord": {"lon": 5.37129, "lat": 46.69112}}, {"id": 7287018, "name": "Saillon", "country": "CH", "coord": {"lon": 7.15877, "lat": 46.177502}}, {"id": 2658881, "name": "Saillon", "country": "CH", "coord": {"lon": 7.18488, "lat": 46.172081}}, {"id": 6444721, "name": "Sailly-Flibeaucourt", "country": "FR", "coord": {"lon": 1.76667, "lat": 50.183331}}, {"id": 2981963, "name": "Sailly-Flibeaucourt", "country": "FR", "coord": {"lon": 1.7718, "lat": 50.184189}}, {"id": 6439849, "name": "Sailly-Labourse", "country": "FR", "coord": {"lon": 2.7, "lat": 50.5}}, {"id": 2981962, "name": "Sailly-Labourse", "country": "FR", "coord": {"lon": 2.69708, "lat": 50.501202}}, {"id": 6617203, "name": "Sailly-lez-Lannoy", "country": "FR", "coord": {"lon": 3.2246, "lat": 50.646599}}, {"id": 2981959, "name": "Sailly-lez-Lannoy", "country": "FR", "coord": {"lon": 3.21667, "lat": 50.650002}}, {"id": 6618327, "name": "Sailly-sur-la-Lys", "country": "FR", "coord": {"lon": 2.771, "lat": 50.657398}}, {"id": 2981956, "name": "Sailly-sur-la-Lys", "country": "FR", "coord": {"lon": 2.76872, "lat": 50.658199}}, {"id": 2150724, "name": "Sailors Falls", "country": "AU", "coord": {"lon": 144.133331, "lat": -37.400002}}, {"id": 1257762, "name": "Sailu", "country": "IN", "coord": {"lon": 76.466667, "lat": 19.466669}}, {"id": 302150, "name": "Saimbeyli", "country": "TR", "coord": {"lon": 36.090561, "lat": 37.98632}}, {"id": 3988251, "name": "Sain Alto", "country": "MX", "coord": {"lon": -103.25, "lat": 23.58333}}, {"id": 6441739, "name": "Sain-Bel", "country": "FR", "coord": {"lon": 4.6, "lat": 45.816669}}, {"id": 2981953, "name": "Sain-Bel", "country": "FR", "coord": {"lon": 4.59815, "lat": 45.810699}}, {"id": 2842341, "name": "Sainbach", "country": "DE", "coord": {"lon": 11.1, "lat": 48.51667}}, {"id": 2842340, "name": "Sainerholz", "country": "DE", "coord": {"lon": 7.85, "lat": 50.51667}}, {"id": 2981950, "name": "Sainghin-en-Melantois", "country": "FR", "coord": {"lon": 3.16619, "lat": 50.58836}}, {"id": 6438461, "name": "Sainghin-en-M\u00e9lantois", "country": "FR", "coord": {"lon": 3.16667, "lat": 50.583328}}, {"id": 6438462, "name": "Sainghin-en-Weppes", "country": "FR", "coord": {"lon": 2.9015, "lat": 50.562901}}, {"id": 2981949, "name": "Sainghin-en-Weppes", "country": "FR", "coord": {"lon": 2.89804, "lat": 50.564072}}, {"id": 6438463, "name": "Sains-du-Nord", "country": "FR", "coord": {"lon": 4, "lat": 50.099998}}, {"id": 2981943, "name": "Sains-du-Nord", "country": "FR", "coord": {"lon": 4.00898, "lat": 50.093769}}, {"id": 2981942, "name": "Sains-en-Amienois", "country": "FR", "coord": {"lon": 2.31862, "lat": 49.817162}}, {"id": 6444725, "name": "Sains-en-Ami\u00e9nois", "country": "FR", "coord": {"lon": 2.31667, "lat": 49.816669}}, {"id": 6439851, "name": "Sains-en-Gohelle", "country": "FR", "coord": {"lon": 2.68333, "lat": 50.450001}}, {"id": 2981941, "name": "Sains-en-Gohelle", "country": "FR", "coord": {"lon": 2.68301, "lat": 50.445122}}, {"id": 2638870, "name": "Saint Agnes", "country": "GB", "coord": {"lon": -5.20452, "lat": 50.313629}}, {"id": 2638867, "name": "Saint Albans", "country": "GB", "coord": {"lon": -0.33333, "lat": 51.75}}, {"id": 4820938, "name": "Saint Albans", "country": "US", "coord": {"lon": -81.836243, "lat": 38.385651}}, {"id": 4977288, "name": "Saint Albans", "country": "US", "coord": {"lon": -69.410049, "lat": 44.910061}}, {"id": 5240569, "name": "Saint Albans", "country": "US", "coord": {"lon": -73.083191, "lat": 44.810879}}, {"id": 3579938, "name": "Saint Andrew", "country": "GD", "coord": {"lon": -61.650002, "lat": 12.11667}}, {"id": 3573804, "name": "Saint Andrew", "country": "TT", "coord": {"lon": -61.466671, "lat": 10.41667}}, {"id": 3575632, "name": "Saint Andrew", "country": "DM", "coord": {"lon": -61.366669, "lat": 15.56667}}, {"id": 4593724, "name": "Saint Andrews", "country": "US", "coord": {"lon": -81.129257, "lat": 34.045429}}, {"id": 4597499, "name": "Saint Andrews", "country": "US", "coord": {"lon": -81.103149, "lat": 34.048759}}, {"id": 2638864, "name": "Saint Andrews", "country": "GB", "coord": {"lon": -2.79902, "lat": 56.338711}}, {"id": 6137411, "name": "Saint Andrews", "country": "CA", "coord": {"lon": -67.061691, "lat": 45.084541}}, {"id": 4406783, "name": "Saint Ann", "country": "US", "coord": {"lon": -90.383171, "lat": 38.727268}}, {"id": 3042289, "name": "Saint Anne", "country": "GG", "coord": {"lon": -2.20417, "lat": 49.715}}, {"id": 4908543, "name": "Saint Anne", "country": "US", "coord": {"lon": -87.713921, "lat": 41.025028}}, {"id": 3488713, "name": "Saint Anns Bay", "country": "JM", "coord": {"lon": -77.200981, "lat": 18.43581}}, {"id": 4874045, "name": "Saint Ansgar", "country": "US", "coord": {"lon": -92.918808, "lat": 43.3783}}, {"id": 5044290, "name": "Saint Anthony", "country": "US", "coord": {"lon": -93.218002, "lat": 45.020519}}, {"id": 5606187, "name": "Saint Anthony", "country": "US", "coord": {"lon": -111.682182, "lat": 43.966301}}, {"id": 2638855, "name": "Saint Asaph", "country": "GB", "coord": {"lon": -3.45, "lat": 53.26667}}, {"id": 934056, "name": "Saint Aubin", "country": "MU", "coord": {"lon": 57.541389, "lat": -20.491671}}, {"id": 5044315, "name": "Saint Augusta", "country": "US", "coord": {"lon": -94.154152, "lat": 45.47858}}, {"id": 5048493, "name": "Saint Augusta", "country": "US", "coord": {"lon": -94.198036, "lat": 45.458302}}, {"id": 4170894, "name": "Saint Augustine", "country": "US", "coord": {"lon": -81.314522, "lat": 29.89469}}, {"id": 4170896, "name": "Saint Augustine Beach", "country": "US", "coord": {"lon": -81.26535, "lat": 29.850531}}, {"id": 4170908, "name": "Saint Augustine Shores", "country": "US", "coord": {"lon": -81.310349, "lat": 29.810801}}, {"id": 7223060, "name": "Saint Augustine South", "country": "US", "coord": {"lon": -81.314484, "lat": 29.842489}}, {"id": 2638853, "name": "Saint Austell", "country": "GB", "coord": {"lon": -4.76583, "lat": 50.338329}}, {"id": 1691045, "name": "Saint Bernard", "country": "PH", "coord": {"lon": 125.183327, "lat": 10.28333}}, {"id": 4523190, "name": "Saint Bernard", "country": "US", "coord": {"lon": -84.49855, "lat": 39.167}}, {"id": 4339526, "name": "Saint Bernard Parish", "country": "US", "coord": {"lon": -89.650063, "lat": 29.85021}}, {"id": 5139399, "name": "Saint Bonaventure", "country": "US", "coord": {"lon": -78.475021, "lat": 42.080341}}, {"id": 5044347, "name": "Saint Bonifacius", "country": "US", "coord": {"lon": -93.747459, "lat": 44.905521}}, {"id": 2638848, "name": "Saint Boswells", "country": "GB", "coord": {"lon": -2.6441, "lat": 55.573009}}, {"id": 4367734, "name": "Saint Charles", "country": "US", "coord": {"lon": -76.938583, "lat": 38.603168}}, {"id": 4406831, "name": "Saint Charles", "country": "US", "coord": {"lon": -90.481232, "lat": 38.783939}}, {"id": 4908737, "name": "Saint Charles", "country": "US", "coord": {"lon": -88.308693, "lat": 41.914188}}, {"id": 5008102, "name": "Saint Charles", "country": "US", "coord": {"lon": -84.140533, "lat": 43.29697}}, {"id": 5044374, "name": "Saint Charles", "country": "US", "coord": {"lon": -92.064331, "lat": 43.96941}}, {"id": 4406835, "name": "Saint Charles County", "country": "US", "coord": {"lon": -90.733459, "lat": 38.76672}}, {"id": 4406840, "name": "Saint Clair", "country": "US", "coord": {"lon": -90.980972, "lat": 38.345329}}, {"id": 5010977, "name": "Saint Clair", "country": "US", "coord": {"lon": -82.486023, "lat": 42.820869}}, {"id": 5209621, "name": "Saint Clair", "country": "US", "coord": {"lon": -76.191048, "lat": 40.72065}}, {"id": 3573794, "name": "Saint Clair", "country": "TT", "coord": {"lon": -61.521679, "lat": 10.67039}}, {"id": 5008112, "name": "Saint Clair County", "country": "US", "coord": {"lon": -82.666588, "lat": 42.833359}}, {"id": 4248751, "name": "Saint Clair County", "country": "US", "coord": {"lon": -89.916771, "lat": 38.550049}}, {"id": 4087481, "name": "Saint Clair County", "country": "US", "coord": {"lon": -86.31665, "lat": 33.750381}}, {"id": 5010978, "name": "Saint Clair Shores", "country": "US", "coord": {"lon": -82.888809, "lat": 42.496979}}, {"id": 5169130, "name": "Saint Clairsville", "country": "US", "coord": {"lon": -80.900093, "lat": 40.080631}}, {"id": 2638833, "name": "Saint Clears", "country": "GB", "coord": {"lon": -4.49783, "lat": 51.819889}}, {"id": 2638831, "name": "Saint Clement", "country": "GB", "coord": {"lon": -5.01667, "lat": 50.25}}, {"id": 4406845, "name": "Saint Clement", "country": "US", "coord": {"lon": -91.209312, "lat": 39.283379}}, {"id": 4170965, "name": "Saint Cloud", "country": "US", "coord": {"lon": -81.281181, "lat": 28.248899}}, {"id": 5044407, "name": "Saint Cloud", "country": "US", "coord": {"lon": -94.162491, "lat": 45.560799}}, {"id": 2638828, "name": "Saint Columb Major", "country": "GB", "coord": {"lon": -4.93333, "lat": 50.433331}}, {"id": 4796512, "name": "Saint Croix", "country": "VI", "coord": {"lon": -64.738762, "lat": 17.7397}}, {"id": 5270199, "name": "Saint Croix County", "country": "US", "coord": {"lon": -92.433533, "lat": 45.049969}}, {"id": 5270204, "name": "Saint Croix Falls", "country": "US", "coord": {"lon": -92.639648, "lat": 45.409962}}, {"id": 7267902, "name": "Saint Croix Island", "country": "VI", "coord": {"lon": -64.747948, "lat": 17.73563}}, {"id": 3376190, "name": "Saint Cuthberts Mission", "country": "GY", "coord": {"lon": -58.086658, "lat": 6.36873}}, {"id": 5312572, "name": "Saint David", "country": "US", "coord": {"lon": -110.214241, "lat": 31.904249}}, {"id": 3579932, "name": "Saint David", "country": "GD", "coord": {"lon": -61.666672, "lat": 12.05}}, {"id": 3575630, "name": "Saint David", "country": "DM", "coord": {"lon": -61.283329, "lat": 15.46667}}, {"id": 2638821, "name": "Saint Davids", "country": "GB", "coord": {"lon": -3.35, "lat": 56.033329}}, {"id": 2638822, "name": "Saint Davids", "country": "GB", "coord": {"lon": -5.26667, "lat": 51.883331}}, {"id": 3579931, "name": "Saint Davids", "country": "GD", "coord": {"lon": -61.666672, "lat": 12.03333}}, {"id": 2638817, "name": "Saint Dennis", "country": "GB", "coord": {"lon": -4.88333, "lat": 50.383331}}, {"id": 4309414, "name": "Saint Dennis", "country": "US", "coord": {"lon": -85.845802, "lat": 38.1884}}, {"id": 3373573, "name": "Saint Elizabeths", "country": "BB", "coord": {"lon": -59.533329, "lat": 13.2}}, {"id": 4248788, "name": "Saint Elmo", "country": "US", "coord": {"lon": -88.848106, "lat": 39.027271}}, {"id": 6943613, "name": "Saint Fintan's", "country": "CA", "coord": {"lon": -58.840031, "lat": 48.183491}}, {"id": 5270249, "name": "Saint Francis", "country": "US", "coord": {"lon": -87.877579, "lat": 42.967522}}, {"id": 5044485, "name": "Saint Francis", "country": "US", "coord": {"lon": -93.359398, "lat": 45.386909}}, {"id": 5446345, "name": "Saint Francis", "country": "US", "coord": {"lon": -101.799896, "lat": 39.772221}}, {"id": 4129533, "name": "Saint Francis County", "country": "US", "coord": {"lon": -90.766777, "lat": 35.016762}}, {"id": 4339684, "name": "Saint Francisville", "country": "US", "coord": {"lon": -91.376503, "lat": 30.7799}}, {"id": 4406884, "name": "Saint Francois County", "country": "US", "coord": {"lon": -90.500397, "lat": 37.800049}}, {"id": 4339690, "name": "Saint Gabriel", "country": "US", "coord": {"lon": -91.099274, "lat": 30.2577}}, {"id": 3579926, "name": "Saint George", "country": "GD", "coord": {"lon": -61.73333, "lat": 12.05}}, {"id": 5546220, "name": "Saint George", "country": "US", "coord": {"lon": -113.584122, "lat": 37.104149}}, {"id": 3575628, "name": "Saint George", "country": "DM", "coord": {"lon": -61.366669, "lat": 15.3}}, {"id": 3373572, "name": "Saint George", "country": "BB", "coord": {"lon": -59.533329, "lat": 13.13333}}, {"id": 3573062, "name": "Saint George", "country": "BM", "coord": {"lon": -64.676392, "lat": 32.384171}}, {"id": 3573061, "name": "Saint George", "country": "BM", "coord": {"lon": -64.678062, "lat": 32.381672}}, {"id": 4171010, "name": "Saint George", "country": "US", "coord": {"lon": -82.727882, "lat": 28.05641}}, {"id": 4406895, "name": "Saint George", "country": "US", "coord": {"lon": -90.314842, "lat": 38.53672}}, {"id": 4593797, "name": "Saint George", "country": "US", "coord": {"lon": -80.575653, "lat": 33.186001}}, {"id": 4977372, "name": "Saint George", "country": "US", "coord": {"lon": -69.198929, "lat": 44.016472}}, {"id": 3575180, "name": "Saint George Basseterre", "country": "KN", "coord": {"lon": -62.683331, "lat": 17.26667}}, {"id": 3579925, "name": "Saint Georges", "country": "GD", "coord": {"lon": -61.748489, "lat": 12.05644}}, {"id": 4724892, "name": "Saint Hedwig", "country": "US", "coord": {"lon": -98.200012, "lat": 29.4144}}, {"id": 5008207, "name": "Saint Helen", "country": "US", "coord": {"lon": -84.410294, "lat": 44.363628}}, {"id": 6930057, "name": "Saint Helena", "country": "SH", "coord": {"lon": -5.71817, "lat": -15.93183}}, {"id": 3573781, "name": "Saint Helena", "country": "TT", "coord": {"lon": -61.333328, "lat": 10.58333}}, {"id": 5390267, "name": "Saint Helena", "country": "US", "coord": {"lon": -122.470261, "lat": 38.505192}}, {"id": 2638785, "name": "Saint Helens", "country": "GB", "coord": {"lon": -2.73333, "lat": 53.450001}}, {"id": 5750041, "name": "Saint Helens", "country": "US", "coord": {"lon": -122.806488, "lat": 45.863998}}, {"id": 3042091, "name": "Saint Helier", "country": "JE", "coord": {"lon": -2.10491, "lat": 49.188042}}, {"id": 5169242, "name": "Saint Henry", "country": "US", "coord": {"lon": -84.639679, "lat": 40.417549}}, {"id": 934047, "name": "Saint Hubert", "country": "MU", "coord": {"lon": 57.638329, "lat": -20.36417}}, {"id": 5008224, "name": "Saint Ignace", "country": "US", "coord": {"lon": -84.727829, "lat": 45.868622}}, {"id": 4248819, "name": "Saint Jacob", "country": "US", "coord": {"lon": -89.76815, "lat": 38.71394}}, {"id": 3373570, "name": "Saint James", "country": "BB", "coord": {"lon": -59.616669, "lat": 13.21667}}, {"id": 4367872, "name": "Saint James", "country": "US", "coord": {"lon": -77.758049, "lat": 39.562599}}, {"id": 4406909, "name": "Saint James", "country": "US", "coord": {"lon": -91.614319, "lat": 37.997261}}, {"id": 4489504, "name": "Saint James", "country": "US", "coord": {"lon": -78.116379, "lat": 33.92934}}, {"id": 5044563, "name": "Saint James", "country": "US", "coord": {"lon": -94.626923, "lat": 43.98246}}, {"id": 5135192, "name": "Saint James", "country": "US", "coord": {"lon": -73.156776, "lat": 40.87899}}, {"id": 4171061, "name": "Saint James City", "country": "US", "coord": {"lon": -82.07843, "lat": 26.49758}}, {"id": 3575177, "name": "Saint James Windward", "country": "KN", "coord": {"lon": -62.566669, "lat": 17.16667}}, {"id": 4724966, "name": "Saint Jo", "country": "US", "coord": {"lon": -97.522522, "lat": 33.694832}}, {"id": 6138517, "name": "Saint John", "country": "CA", "coord": {"lon": -66.067657, "lat": 45.272709}}, {"id": 3575626, "name": "Saint John", "country": "DM", "coord": {"lon": -61.450001, "lat": 15.58333}}, {"id": 3373569, "name": "Saint John", "country": "BB", "coord": {"lon": -59.48333, "lat": 13.16667}}, {"id": 2567539, "name": "Saint John", "country": "MT", "coord": {"lon": 14.47611, "lat": 35.90556}}, {"id": 4278621, "name": "Saint John", "country": "US", "coord": {"lon": -98.760094, "lat": 38.002239}}, {"id": 4406941, "name": "Saint John", "country": "US", "coord": {"lon": -92.379623, "lat": 37.88921}}, {"id": 4925793, "name": "Saint John", "country": "US", "coord": {"lon": -87.470039, "lat": 41.450039}}, {"id": 3575175, "name": "Saint John Figtree", "country": "KN", "coord": {"lon": -62.599998, "lat": 17.116671}}, {"id": 4339881, "name": "Saint John the Baptist Parish", "country": "US", "coord": {"lon": -90.550087, "lat": 30.0502}}, {"id": 3576022, "name": "Saint Johns", "country": "AG", "coord": {"lon": -61.849998, "lat": 17.116671}}, {"id": 4406951, "name": "Saint Johns", "country": "US", "coord": {"lon": -90.34317, "lat": 38.713379}}, {"id": 5008278, "name": "Saint Johns", "country": "US", "coord": {"lon": -84.559151, "lat": 43.001141}}, {"id": 5312595, "name": "Saint Johns", "country": "US", "coord": {"lon": -109.360931, "lat": 34.505871}}, {"id": 4171153, "name": "Saint Johns County", "country": "US", "coord": {"lon": -81.416473, "lat": 29.89608}}, {"id": 7308276, "name": "Saint Johns Mobile Home Village", "country": "US", "coord": {"lon": -84.566673, "lat": 43.0075}}, {"id": 5240656, "name": "Saint Johnsbury", "country": "US", "coord": {"lon": -72.015091, "lat": 44.41922}}, {"id": 5135356, "name": "Saint Johnsville", "country": "US", "coord": {"lon": -74.682922, "lat": 42.998131}}, {"id": 4407010, "name": "Saint Joseph", "country": "US", "coord": {"lon": -94.846626, "lat": 39.768608}}, {"id": 3575624, "name": "Saint Joseph", "country": "DM", "coord": {"lon": -61.433331, "lat": 15.4}}, {"id": 3575625, "name": "Saint Joseph", "country": "DM", "coord": {"lon": -61.433331, "lat": 15.43333}}, {"id": 3373568, "name": "Saint Joseph", "country": "BB", "coord": {"lon": -59.533329, "lat": 13.2}}, {"id": 3573773, "name": "Saint Joseph", "country": "TT", "coord": {"lon": -61.416672, "lat": 10.65}}, {"id": 4339934, "name": "Saint Joseph", "country": "US", "coord": {"lon": -91.233452, "lat": 31.918489}}, {"id": 4909268, "name": "Saint Joseph", "country": "US", "coord": {"lon": -88.041702, "lat": 40.111698}}, {"id": 5008327, "name": "Saint Joseph", "country": "US", "coord": {"lon": -86.480019, "lat": 42.10976}}, {"id": 5044896, "name": "Saint Joseph", "country": "US", "coord": {"lon": -94.318329, "lat": 45.56496}}, {"id": 5008347, "name": "Saint Joseph County", "country": "US", "coord": {"lon": -85.500542, "lat": 41.75061}}, {"id": 4925848, "name": "Saint Joseph County", "country": "US", "coord": {"lon": -86.235008, "lat": 41.673939}}, {"id": 934043, "name": "Saint Julien", "country": "MU", "coord": {"lon": 57.636391, "lat": -20.226391}}, {"id": 2638767, "name": "Saint Just", "country": "GB", "coord": {"lon": -5.7, "lat": 50.116669}}, {"id": 2150660, "name": "Saint Kilda", "country": "AU", "coord": {"lon": 144.980988, "lat": -37.867599}}, {"id": 4340045, "name": "Saint Landry Parish", "country": "US", "coord": {"lon": -92.000389, "lat": 30.63353}}, {"id": 5210029, "name": "Saint Lawrence", "country": "US", "coord": {"lon": -75.871872, "lat": 40.327042}}, {"id": 4171250, "name": "Saint Leo", "country": "US", "coord": {"lon": -82.258423, "lat": 28.337231}}, {"id": 7731836, "name": "Saint Leonard", "country": "CA", "coord": {"lon": -67.92469, "lat": 47.173031}}, {"id": 2638757, "name": "Saint Leonards", "country": "GB", "coord": {"lon": -1.85, "lat": 50.833328}}, {"id": 4407066, "name": "Saint Louis", "country": "US", "coord": {"lon": -90.197891, "lat": 38.62727}}, {"id": 5008414, "name": "Saint Louis", "country": "US", "coord": {"lon": -84.606667, "lat": 43.40836}}, {"id": 5045020, "name": "Saint Louis County", "country": "US", "coord": {"lon": -92.50074, "lat": 47.58326}}, {"id": 4407074, "name": "Saint Louis County", "country": "US", "coord": {"lon": -90.400124, "lat": 38.633389}}, {"id": 5045021, "name": "Saint Louis Park", "country": "US", "coord": {"lon": -93.348007, "lat": 44.948299}}, {"id": 2150650, "name": "Saint Lucia", "country": "AU", "coord": {"lon": 153, "lat": -27.5}}, {"id": 3576468, "name": "Saint Lucia", "country": "LC", "coord": {"lon": -60.966671, "lat": 13.88333}}, {"id": 4171260, "name": "Saint Lucie County", "country": "US", "coord": {"lon": -80.458107, "lat": 27.37587}}, {"id": 3373565, "name": "Saint Lucy", "country": "BB", "coord": {"lon": -59.616669, "lat": 13.3}}, {"id": 3575622, "name": "Saint Luke", "country": "DM", "coord": {"lon": -61.383331, "lat": 15.26667}}, {"id": 3573768, "name": "Saint Margaret", "country": "TT", "coord": {"lon": -61.450001, "lat": 10.33333}}, {"id": 7302876, "name": "Saint Margarets", "country": "CA", "coord": {"lon": -65.209007, "lat": 46.90947}}, {"id": 3316316, "name": "Saint Margaret\u2019s", "country": "IE", "coord": {"lon": -6.30028, "lat": 53.431671}}, {"id": 5606232, "name": "Saint Maries", "country": "US", "coord": {"lon": -116.562668, "lat": 47.31435}}, {"id": 3575621, "name": "Saint Mark", "country": "DM", "coord": {"lon": -61.366669, "lat": 15.21667}}, {"id": 3042185, "name": "Saint Marks", "country": "IM", "coord": {"lon": -4.6, "lat": 54.133331}}, {"id": 4447069, "name": "Saint Martin", "country": "US", "coord": {"lon": -88.868088, "lat": 30.437981}}, {"id": 3373559, "name": "Saint Martins", "country": "BB", "coord": {"lon": -59.466671, "lat": 13.08333}}, {"id": 2638742, "name": "Saint Martins", "country": "GB", "coord": {"lon": -3.38333, "lat": 56.450001}}, {"id": 4407106, "name": "Saint Martins", "country": "US", "coord": {"lon": -92.337128, "lat": 38.5942}}, {"id": 2638741, "name": "Saint Martins Green", "country": "GB", "coord": {"lon": -5.16667, "lat": 50.066669}}, {"id": 4340196, "name": "Saint Martinville", "country": "US", "coord": {"lon": -91.83345, "lat": 30.1252}}, {"id": 2638740, "name": "Saint Mary Bourne", "country": "GB", "coord": {"lon": -1.3965, "lat": 51.251099}}, {"id": 4368320, "name": "Saint Mary's County", "country": "US", "coord": {"lon": -76.616348, "lat": 38.300129}}, {"id": 4220629, "name": "Saint Marys", "country": "US", "coord": {"lon": -81.546494, "lat": 30.730511}}, {"id": 3573764, "name": "Saint Marys", "country": "TT", "coord": {"lon": -61.416672, "lat": 10.45}}, {"id": 4278741, "name": "Saint Marys", "country": "US", "coord": {"lon": -96.071098, "lat": 39.19416}}, {"id": 4278742, "name": "Saint Marys", "country": "US", "coord": {"lon": -97.640053, "lat": 37.70668}}, {"id": 4821087, "name": "Saint Marys", "country": "US", "coord": {"lon": -81.205109, "lat": 39.391739}}, {"id": 5169796, "name": "Saint Marys", "country": "US", "coord": {"lon": -84.389397, "lat": 40.542271}}, {"id": 5210117, "name": "Saint Marys", "country": "US", "coord": {"lon": -78.56086, "lat": 41.427841}}, {"id": 4307238, "name": "Saint Matthews", "country": "US", "coord": {"lon": -85.655792, "lat": 38.25285}}, {"id": 4594258, "name": "Saint Matthews", "country": "US", "coord": {"lon": -80.77787, "lat": 33.664879}}, {"id": 2638727, "name": "Saint Mawgan", "country": "GB", "coord": {"lon": -4.98333, "lat": 50.450001}}, {"id": 3373557, "name": "Saint Michael", "country": "BB", "coord": {"lon": -59.599998, "lat": 13.11667}}, {"id": 5045258, "name": "Saint Michael", "country": "US", "coord": {"lon": -93.664963, "lat": 45.209961}}, {"id": 4368380, "name": "Saint Michaels", "country": "US", "coord": {"lon": -76.224388, "lat": 38.785118}}, {"id": 5312634, "name": "Saint Michaels", "country": "US", "coord": {"lon": -109.09565, "lat": 35.644741}}, {"id": 2638719, "name": "Saint Monance", "country": "GB", "coord": {"lon": -2.76821, "lat": 56.206509}}, {"id": 2658813, "name": "Saint Moritz", "country": "CH", "coord": {"lon": 9.83909, "lat": 46.498402}}, {"id": 2961619, "name": "Saint Mullins", "country": "IE", "coord": {"lon": -6.92306, "lat": 52.492779}}, {"id": 2638717, "name": "Saint Neots", "country": "GB", "coord": {"lon": -0.26667, "lat": 52.216671}}, {"id": 2638708, "name": "Saint Osyth", "country": "GB", "coord": {"lon": 1.08333, "lat": 51.799999}}, {"id": 5170013, "name": "Saint Paris", "country": "US", "coord": {"lon": -83.959663, "lat": 40.128391}}, {"id": 3579907, "name": "Saint Patrick", "country": "GD", "coord": {"lon": -61.633331, "lat": 12.2}}, {"id": 3575620, "name": "Saint Patrick", "country": "DM", "coord": {"lon": -61.299999, "lat": 15.28333}}, {"id": 3575619, "name": "Saint Paul", "country": "DM", "coord": {"lon": -61.383331, "lat": 15.35}}, {"id": 5045360, "name": "Saint Paul", "country": "US", "coord": {"lon": -93.093269, "lat": 44.944408}}, {"id": 4264243, "name": "Saint Paul", "country": "US", "coord": {"lon": -85.628311, "lat": 39.428101}}, {"id": 4407186, "name": "Saint Paul", "country": "US", "coord": {"lon": -90.741791, "lat": 38.861439}}, {"id": 4725484, "name": "Saint Paul", "country": "US", "coord": {"lon": -96.55027, "lat": 33.041229}}, {"id": 5077237, "name": "Saint Paul", "country": "US", "coord": {"lon": -98.458122, "lat": 41.214729}}, {"id": 5045403, "name": "Saint Paul Park", "country": "US", "coord": {"lon": -92.991318, "lat": 44.84219}}, {"id": 4489790, "name": "Saint Pauls", "country": "US", "coord": {"lon": -78.971138, "lat": 34.806549}}, {"id": 4171522, "name": "Saint Pete Beach", "country": "US", "coord": {"lon": -82.741211, "lat": 27.725309}}, {"id": 3373554, "name": "Saint Peter", "country": "BB", "coord": {"lon": -59.616669, "lat": 13.25}}, {"id": 5045517, "name": "Saint Peter", "country": "US", "coord": {"lon": -93.958008, "lat": 44.323582}}, {"id": 5271704, "name": "Saint Peter", "country": "US", "coord": {"lon": -88.341492, "lat": 43.83638}}, {"id": 3575168, "name": "Saint Peter Basseterre", "country": "KN", "coord": {"lon": -62.716671, "lat": 17.316669}}, {"id": 3042287, "name": "Saint Peter Port", "country": "GG", "coord": {"lon": -2.53527, "lat": 49.459808}}, {"id": 4407237, "name": "Saint Peters", "country": "US", "coord": {"lon": -90.626511, "lat": 38.800331}}, {"id": 498817, "name": "Saint Petersburg", "country": "RU", "coord": {"lon": 30.264168, "lat": 59.894444}}, {"id": 4171563, "name": "Saint Petersburg", "country": "US", "coord": {"lon": -82.679268, "lat": 27.770861}}, {"id": 3575167, "name": "Saint Peter\u2019s", "country": "KN", "coord": {"lon": -62.716671, "lat": 17.299999}}, {"id": 3042086, "name": "Saint Peter\u2019s Church", "country": "JE", "coord": {"lon": -2.18361, "lat": 49.212219}}, {"id": 3373553, "name": "Saint Philip", "country": "BB", "coord": {"lon": -59.466671, "lat": 13.11667}}, {"id": 934032, "name": "Saint Pierre", "country": "MU", "coord": {"lon": 57.520828, "lat": -20.217501}}, {"id": 4307275, "name": "Saint Regis Park", "country": "US", "coord": {"lon": -85.616631, "lat": 38.226742}}, {"id": 4407259, "name": "Saint Robert", "country": "US", "coord": {"lon": -92.177673, "lat": 37.828098}}, {"id": 4340551, "name": "Saint Rose", "country": "US", "coord": {"lon": -90.323128, "lat": 29.946871}}, {"id": 4220861, "name": "Saint Simon Mills", "country": "US", "coord": {"lon": -81.407318, "lat": 31.17079}}, {"id": 4220862, "name": "Saint Simons", "country": "US", "coord": {"lon": -81.390099, "lat": 31.135229}}, {"id": 2638698, "name": "Saint Stephen", "country": "GB", "coord": {"lon": -4.9, "lat": 50.333328}}, {"id": 4594546, "name": "Saint Stephen", "country": "US", "coord": {"lon": -79.921738, "lat": 33.404331}}, {"id": 4493146, "name": "Saint Stephens", "country": "US", "coord": {"lon": -81.27314, "lat": 35.76458}}, {"id": 4340579, "name": "Saint Tammany Parish", "country": "US", "coord": {"lon": -89.966743, "lat": 30.433531}}, {"id": 3373551, "name": "Saint Thomas", "country": "BB", "coord": {"lon": -59.583328, "lat": 13.18333}}, {"id": 7267904, "name": "Saint Thomas Island", "country": "VI", "coord": {"lon": -64.969414, "lat": 18.327129}}, {"id": 3575165, "name": "Saint Thomas Lowland", "country": "KN", "coord": {"lon": -62.599998, "lat": 17.16667}}, {"id": 3575164, "name": "Saint Thomas Middle Island", "country": "KN", "coord": {"lon": -62.799999, "lat": 17.35}}, {"id": 1257749, "name": "Saint Thomas Mount", "country": "IN", "coord": {"lon": 80.203056, "lat": 12.99639}}, {"id": 3577815, "name": "Saint Vincent and the Grenadines", "country": "VC", "coord": {"lon": -61.200001, "lat": 13.08333}}, {"id": 7302469, "name": "Saint Wilfred", "country": "CA", "coord": {"lon": -65.213989, "lat": 47.254181}}, {"id": 6440581, "name": "Saint-Abit", "country": "FR", "coord": {"lon": -0.3, "lat": 43.200001}}, {"id": 2981934, "name": "Saint-Abit", "country": "FR", "coord": {"lon": -0.3, "lat": 43.200001}}, {"id": 6614490, "name": "Saint-Affrique", "country": "FR", "coord": {"lon": 2.88872, "lat": 43.95575}}, {"id": 2981925, "name": "Saint-Affrique", "country": "FR", "coord": {"lon": 2.88915, "lat": 43.95575}}, {"id": 6429114, "name": "Saint-Agathon", "country": "FR", "coord": {"lon": -3.1, "lat": 48.566669}}, {"id": 2981923, "name": "Saint-Agathon", "country": "FR", "coord": {"lon": -3.10525, "lat": 48.55867}}, {"id": 6427412, "name": "Saint-Agnan-le-Malherbe", "country": "FR", "coord": {"lon": -0.58333, "lat": 49.049999}}, {"id": 2981912, "name": "Saint-Agnan-le-Malherbe", "country": "FR", "coord": {"lon": -0.57905, "lat": 49.043461}}, {"id": 6439221, "name": "Saint-Agnan-sur-Erre", "country": "FR", "coord": {"lon": 0.73333, "lat": 48.316669}}, {"id": 2981911, "name": "Saint-Agnan-sur-Erre", "country": "FR", "coord": {"lon": 0.72666, "lat": 48.319279}}, {"id": 6428049, "name": "Saint-Agnant", "country": "FR", "coord": {"lon": -0.96667, "lat": 45.866669}}, {"id": 2981908, "name": "Saint-Agnant", "country": "FR", "coord": {"lon": -0.96119, "lat": 45.873539}}, {"id": 6429258, "name": "Saint-Agnant-de-Versillat", "country": "FR", "coord": {"lon": 1.51667, "lat": 46.283329}}, {"id": 2981907, "name": "Saint-Agnant-de-Versillat", "country": "FR", "coord": {"lon": 1.50962, "lat": 46.278}}, {"id": 6612528, "name": "Saint-Agnet", "country": "FR", "coord": {"lon": -0.26667, "lat": 43.616669}}, {"id": 2981904, "name": "Saint-Agnet", "country": "FR", "coord": {"lon": -0.27133, "lat": 43.613831}}, {"id": 6440152, "name": "Saint-Agoulin", "country": "FR", "coord": {"lon": 3.13333, "lat": 46.033329}}, {"id": 2981902, "name": "Saint-Agoulin", "country": "FR", "coord": {"lon": 3.13591, "lat": 46.040279}}, {"id": 2981901, "name": "Saint-Agreve", "country": "FR", "coord": {"lon": 4.39375, "lat": 45.00993}}, {"id": 6425777, "name": "Saint-Agr\u00e8ve", "country": "FR", "coord": {"lon": 4.4, "lat": 45.01667}}, {"id": 6454131, "name": "Saint-Aignan", "country": "FR", "coord": {"lon": 1.38333, "lat": 47.26667}}, {"id": 2981898, "name": "Saint-Aignan", "country": "FR", "coord": {"lon": 1.37614, "lat": 47.268921}}, {"id": 6427413, "name": "Saint-Aignan-de-Cramesnil", "country": "FR", "coord": {"lon": -0.26667, "lat": 49.083328}}, {"id": 2981891, "name": "Saint-Aignan-de-Cramesnil", "country": "FR", "coord": {"lon": -0.27801, "lat": 49.07933}}, {"id": 6612311, "name": "Saint-Aigulin", "country": "FR", "coord": {"lon": -0.01667, "lat": 45.150002}}, {"id": 2981882, "name": "Saint-Aigulin", "country": "FR", "coord": {"lon": -0.01667, "lat": 45.150002}}, {"id": 6137345, "name": "Saint-Alban", "country": "CA", "coord": {"lon": -72.082397, "lat": 46.716751}}, {"id": 6429115, "name": "Saint-Alban", "country": "FR", "coord": {"lon": -2.55, "lat": 48.566669}}, {"id": 2981876, "name": "Saint-Alban", "country": "FR", "coord": {"lon": -2.54013, "lat": 48.556301}}, {"id": 6431793, "name": "Saint-Alban", "country": "FR", "coord": {"lon": 1.41667, "lat": 43.700001}}, {"id": 2981879, "name": "Saint-Alban", "country": "FR", "coord": {"lon": 1.4102, "lat": 43.692699}}, {"id": 6617585, "name": "Saint-Alban-Leysse", "country": "FR", "coord": {"lon": 5.9588, "lat": 45.580502}}, {"id": 2981878, "name": "Saint-Alban-Leysse", "country": "FR", "coord": {"lon": 5.95, "lat": 45.583328}}, {"id": 6433316, "name": "Saint-Alban-de-Roche", "country": "FR", "coord": {"lon": 5.23333, "lat": 45.599998}}, {"id": 2981873, "name": "Saint-Alban-de-Roche", "country": "FR", "coord": {"lon": 5.22304, "lat": 45.595261}}, {"id": 6435139, "name": "Saint-Alban-sur-Limagnole", "country": "FR", "coord": {"lon": 3.38333, "lat": 44.783329}}, {"id": 2981865, "name": "Saint-Alban-sur-Limagnole", "country": "FR", "coord": {"lon": 3.38793, "lat": 44.780998}}, {"id": 6431379, "name": "Saint-Alexandre", "country": "FR", "coord": {"lon": 4.6214, "lat": 44.227798}}, {"id": 2981863, "name": "Saint-Alexandre", "country": "FR", "coord": {"lon": 4.62081, "lat": 44.227409}}, {"id": 6137361, "name": "Saint-Alexis-des-Monts", "country": "CA", "coord": {"lon": -73.132439, "lat": 46.466759}}, {"id": 6440153, "name": "Saint-Alyre-d'Arlanc", "country": "FR", "coord": {"lon": 3.63333, "lat": 45.366669}}, {"id": 2981856, "name": "Saint-Alyre-d'Arlanc", "country": "FR", "coord": {"lon": 3.63845, "lat": 45.369801}}, {"id": 6435562, "name": "Saint-Amand", "country": "FR", "coord": {"lon": -0.96667, "lat": 49.049999}}, {"id": 2981851, "name": "Saint-Amand", "country": "FR", "coord": {"lon": -0.96491, "lat": 49.043381}}, {"id": 2981845, "name": "Saint-Amand-Longpre", "country": "FR", "coord": {"lon": 1.01667, "lat": 47.683331}}, {"id": 6616749, "name": "Saint-Amand-Longpr\u00e9", "country": "FR", "coord": {"lon": 1.0169, "lat": 47.690102}}, {"id": 6614431, "name": "Saint-Amand-Montrond", "country": "FR", "coord": {"lon": 2.5055, "lat": 46.722599}}, {"id": 2981837, "name": "Saint-Amand-Montrond", "country": "FR", "coord": {"lon": 2.51667, "lat": 46.716671}}, {"id": 6429506, "name": "Saint-Amand-de-Vergt", "country": "FR", "coord": {"lon": 0.7, "lat": 44.98333}}, {"id": 2981844, "name": "Saint-Amand-de-Vergt", "country": "FR", "coord": {"lon": 0.69755, "lat": 44.988152}}, {"id": 6438061, "name": "Saint-Amand-en-Puisaye", "country": "FR", "coord": {"lon": 3.0752, "lat": 47.528999}}, {"id": 2981843, "name": "Saint-Amand-en-Puisaye", "country": "FR", "coord": {"lon": 3.074, "lat": 47.52914}}, {"id": 2981839, "name": "Saint-Amand-les-Eaux", "country": "FR", "coord": {"lon": 3.43076, "lat": 50.447182}}, {"id": 6438464, "name": "Saint-Amand-les-Eaux", "country": "FR", "coord": {"lon": 3.428, "lat": 50.447701}}, {"id": 2981833, "name": "Saint-Amand-sur-Sevre", "country": "FR", "coord": {"lon": -0.79441, "lat": 46.869049}}, {"id": 6615116, "name": "Saint-Amand-sur-S\u00e8vre", "country": "FR", "coord": {"lon": -0.8, "lat": 46.866669}}, {"id": 6444932, "name": "Saint-Amans-Soult", "country": "FR", "coord": {"lon": 2.5, "lat": 43.48333}}, {"id": 2981825, "name": "Saint-Amans-Soult", "country": "FR", "coord": {"lon": 2.49076, "lat": 43.476971}}, {"id": 6444933, "name": "Saint-Amans-Valtoret", "country": "FR", "coord": {"lon": 2.48333, "lat": 43.48333}}, {"id": 2981824, "name": "Saint-Amans-Valtoret", "country": "FR", "coord": {"lon": 2.49095, "lat": 43.480709}}, {"id": 6440155, "name": "Saint-Amant-Roche-Savine", "country": "FR", "coord": {"lon": 3.63333, "lat": 45.566669}}, {"id": 2981817, "name": "Saint-Amant-Roche-Savine", "country": "FR", "coord": {"lon": 3.63193, "lat": 45.573971}}, {"id": 6440156, "name": "Saint-Amant-Tallende", "country": "FR", "coord": {"lon": 3.11667, "lat": 45.666672}}, {"id": 2981816, "name": "Saint-Amant-Tallende", "country": "FR", "coord": {"lon": 3.1101, "lat": 45.668388}}, {"id": 6427819, "name": "Saint-Amant-de-Boixe", "country": "FR", "coord": {"lon": 0.13333, "lat": 45.799999}}, {"id": 2981822, "name": "Saint-Amant-de-Boixe", "country": "FR", "coord": {"lon": 0.13524, "lat": 45.797901}}, {"id": 6441601, "name": "Saint-Amarin", "country": "FR", "coord": {"lon": 7.0316, "lat": 47.871899}}, {"id": 2981815, "name": "Saint-Amarin", "country": "FR", "coord": {"lon": 7.03193, "lat": 47.873348}}, {"id": 6137384, "name": "Saint-Ambroise", "country": "CA", "coord": {"lon": -71.315781, "lat": 48.550091}}, {"id": 6137381, "name": "Saint-Ambroise", "country": "CA", "coord": {"lon": -71.332382, "lat": 48.550091}}, {"id": 6431380, "name": "Saint-Ambroix", "country": "FR", "coord": {"lon": 4.1984, "lat": 44.260201}}, {"id": 2981810, "name": "Saint-Ambroix", "country": "FR", "coord": {"lon": 4.19833, "lat": 44.25893}}, {"id": 2981808, "name": "Saint-Ame", "country": "FR", "coord": {"lon": 6.66416, "lat": 48.02388}}, {"id": 6454110, "name": "Saint-Amour", "country": "FR", "coord": {"lon": 5.35, "lat": 46.433331}}, {"id": 2981805, "name": "Saint-Amour", "country": "FR", "coord": {"lon": 5.34416, "lat": 46.436378}}, {"id": 6445722, "name": "Saint-Am\u00e9", "country": "FR", "coord": {"lon": 6.66667, "lat": 48.033329}}, {"id": 2981793, "name": "Saint-Andeol-le-Chateau", "country": "FR", "coord": {"lon": 4.69495, "lat": 45.587029}}, {"id": 6447164, "name": "Saint-Andiol", "country": "FR", "coord": {"lon": 4.95, "lat": 43.833328}}, {"id": 2981791, "name": "Saint-Andiol", "country": "FR", "coord": {"lon": 4.94453, "lat": 43.834839}}, {"id": 935268, "name": "Saint-Andre", "country": "RE", "coord": {"lon": 55.650311, "lat": -20.963329}}, {"id": 6137404, "name": "Saint-Andre-Avellin", "country": "CA", "coord": {"lon": -75.065987, "lat": 45.716801}}, {"id": 2981711, "name": "Saint-Andre-Treize-Voies", "country": "FR", "coord": {"lon": -1.41274, "lat": 46.933689}}, {"id": 2981762, "name": "Saint-Andre-de-Corcy", "country": "FR", "coord": {"lon": 4.95166, "lat": 45.9259}}, {"id": 2981746, "name": "Saint-Andre-de-Sangonis", "country": "FR", "coord": {"lon": 3.50209, "lat": 43.64753}}, {"id": 2981743, "name": "Saint-Andre-de-Seignanx", "country": "FR", "coord": {"lon": -1.35183, "lat": 43.557999}}, {"id": 2981758, "name": "Saint-Andre-de-la-Marche", "country": "FR", "coord": {"lon": -0.99441, "lat": 47.099522}}, {"id": 2981783, "name": "Saint-Andre-de-la-Roche", "country": "FR", "coord": {"lon": 7.28333, "lat": 43.73333}}, {"id": 2981745, "name": "Saint-Andre-des-Eaux", "country": "FR", "coord": {"lon": -2.31105, "lat": 47.31461}}, {"id": 2981719, "name": "Saint-Andre-le-Gaz", "country": "FR", "coord": {"lon": 5.53503, "lat": 45.549431}}, {"id": 2981718, "name": "Saint-Andre-le-Puy", "country": "FR", "coord": {"lon": 4.25744, "lat": 45.644581}}, {"id": 2981716, "name": "Saint-Andre-les-Vergers", "country": "FR", "coord": {"lon": 4.0521, "lat": 48.285271}}, {"id": 2981779, "name": "Saint-Andre-lez-Lille", "country": "FR", "coord": {"lon": 3.05, "lat": 50.666672}}, {"id": 2981714, "name": "Saint-Andre-sur-Orne", "country": "FR", "coord": {"lon": -0.38227, "lat": 49.117409}}, {"id": 2981712, "name": "Saint-Andre-sur-Vieux-Jonc", "country": "FR", "coord": {"lon": 5.06667, "lat": 46.150002}}, {"id": 6690293, "name": "Saint-Andr\u00e9", "country": "RE", "coord": {"lon": 55.650002, "lat": -20.950001}}, {"id": 6354900, "name": "Saint-Andr\u00e9", "country": "CA", "coord": {"lon": -69.72229, "lat": 47.678329}}, {"id": 6618450, "name": "Saint-Andr\u00e9", "country": "FR", "coord": {"lon": 2.97187, "lat": 42.5494}}, {"id": 6445175, "name": "Saint-Andr\u00e9-Treize-Voies", "country": "FR", "coord": {"lon": -1.41667, "lat": 46.933331}}, {"id": 6429507, "name": "Saint-Andr\u00e9-d'Allas", "country": "FR", "coord": {"lon": 1.18333, "lat": 44.883331}}, {"id": 2981770, "name": "Saint-Andr\u00e9-d'Allas", "country": "FR", "coord": {"lon": 1.18333, "lat": 44.883331}}, {"id": 6427414, "name": "Saint-Andr\u00e9-d'H\u00e9bertot", "country": "FR", "coord": {"lon": 0.28333, "lat": 49.316669}}, {"id": 2981739, "name": "Saint-Andr\u00e9-d'H\u00e9bertot", "country": "FR", "coord": {"lon": 0.27473, "lat": 49.312302}}, {"id": 6435563, "name": "Saint-Andr\u00e9-de-Bohon", "country": "FR", "coord": {"lon": -1.25, "lat": 49.23333}}, {"id": 2981766, "name": "Saint-Andr\u00e9-de-Bohon", "country": "FR", "coord": {"lon": -1.25226, "lat": 49.235001}}, {"id": 6439223, "name": "Saint-Andr\u00e9-de-Briouze", "country": "FR", "coord": {"lon": -0.3, "lat": 48.73333}}, {"id": 2981765, "name": "Saint-Andr\u00e9-de-Briouze", "country": "FR", "coord": {"lon": -0.32772, "lat": 48.728802}}, {"id": 6424649, "name": "Saint-Andr\u00e9-de-Corcy", "country": "FR", "coord": {"lon": 4.95, "lat": 45.916672}}, {"id": 6429508, "name": "Saint-Andr\u00e9-de-Double", "country": "FR", "coord": {"lon": 0.31667, "lat": 45.150002}}, {"id": 2981759, "name": "Saint-Andr\u00e9-de-Double", "country": "FR", "coord": {"lon": 0.31667, "lat": 45.150002}}, {"id": 6439224, "name": "Saint-Andr\u00e9-de-Messei", "country": "FR", "coord": {"lon": -0.52333, "lat": 48.694759}}, {"id": 2981751, "name": "Saint-Andr\u00e9-de-Messei", "country": "FR", "coord": {"lon": -0.52333, "lat": 48.694759}}, {"id": 6432614, "name": "Saint-Andr\u00e9-de-Sangonis", "country": "FR", "coord": {"lon": 3.5, "lat": 43.650002}}, {"id": 6616737, "name": "Saint-Andr\u00e9-de-Seignanx", "country": "FR", "coord": {"lon": -1.351, "lat": 43.557301}}, {"id": 6435564, "name": "Saint-Andr\u00e9-de-l'\u00c9pine", "country": "FR", "coord": {"lon": -1, "lat": 49.133331}}, {"id": 2981756, "name": "Saint-Andr\u00e9-de-l'\u00c9pine", "country": "FR", "coord": {"lon": -1.01261, "lat": 49.138802}}, {"id": 6435274, "name": "Saint-Andr\u00e9-de-la-Marche", "country": "FR", "coord": {"lon": -1, "lat": 47.099998}}, {"id": 6618146, "name": "Saint-Andr\u00e9-de-la-Roche", "country": "FR", "coord": {"lon": 7.2881, "lat": 43.740002}}, {"id": 6434508, "name": "Saint-Andr\u00e9-des-Eaux", "country": "FR", "coord": {"lon": -2.31667, "lat": 47.316669}}, {"id": 6432364, "name": "Saint-Andr\u00e9-du-Bois", "country": "FR", "coord": {"lon": -0.2, "lat": 44.599998}}, {"id": 2981735, "name": "Saint-Andr\u00e9-du-Bois", "country": "FR", "coord": {"lon": -0.18234, "lat": 44.604198}}, {"id": 6440157, "name": "Saint-Andr\u00e9-le-Coq", "country": "FR", "coord": {"lon": 3.31667, "lat": 45.966671}}, {"id": 2981721, "name": "Saint-Andr\u00e9-le-Coq", "country": "FR", "coord": {"lon": 3.3099, "lat": 45.964378}}, {"id": 6433320, "name": "Saint-Andr\u00e9-le-Gaz", "country": "FR", "coord": {"lon": 5.53333, "lat": 45.549999}}, {"id": 6434243, "name": "Saint-Andr\u00e9-le-Puy", "country": "FR", "coord": {"lon": 4.26667, "lat": 45.650002}}, {"id": 6426546, "name": "Saint-Andr\u00e9-les-Vergers", "country": "FR", "coord": {"lon": 4.05, "lat": 48.283329}}, {"id": 6617204, "name": "Saint-Andr\u00e9-lez-Lille", "country": "FR", "coord": {"lon": 3.0446, "lat": 50.660099}}, {"id": 6427415, "name": "Saint-Andr\u00e9-sur-Orne", "country": "FR", "coord": {"lon": -0.38333, "lat": 49.116669}}, {"id": 6424652, "name": "Saint-Andr\u00e9-sur-Vieux-Jonc", "country": "FR", "coord": {"lon": 5.06667, "lat": 46.150002}}, {"id": 6441744, "name": "Saint-And\u00e9ol-le-Ch\u00e2teau", "country": "FR", "coord": {"lon": 4.7, "lat": 45.583328}}, {"id": 6617330, "name": "Saint-Angel", "country": "FR", "coord": {"lon": 2.9348, "lat": 45.9963}}, {"id": 2981697, "name": "Saint-Angel", "country": "FR", "coord": {"lon": 2.93479, "lat": 45.99485}}, {"id": 6137417, "name": "Saint-Anicet", "country": "CA", "coord": {"lon": -74.349251, "lat": 45.133389}}, {"id": 6945984, "name": "Saint-Anselme", "country": "CA", "coord": {"lon": -70.973396, "lat": 46.629219}}, {"id": 6137422, "name": "Saint-Antoine", "country": "CA", "coord": {"lon": -64.749847, "lat": 46.362942}}, {"id": 6429509, "name": "Saint-Antoine-Cumond", "country": "FR", "coord": {"lon": 0.1988, "lat": 45.2565}}, {"id": 2981675, "name": "Saint-Antoine-Cumond", "country": "FR", "coord": {"lon": 0.2, "lat": 45.26667}}, {"id": 6429510, "name": "Saint-Antoine-d'Auberoche", "country": "FR", "coord": {"lon": 0.95, "lat": 45.150002}}, {"id": 2981674, "name": "Saint-Antoine-d'Auberoche", "country": "FR", "coord": {"lon": 0.94399, "lat": 45.141899}}, {"id": 6612369, "name": "Saint-Antoine-de-Breuilh", "country": "FR", "coord": {"lon": 0.1556, "lat": 44.844299}}, {"id": 2981673, "name": "Saint-Antoine-de-Breuilh", "country": "FR", "coord": {"lon": 0.16667, "lat": 44.833328}}, {"id": 6435048, "name": "Saint-Antoine-de-Ficalba", "country": "FR", "coord": {"lon": 0.71667, "lat": 44.333328}}, {"id": 2981672, "name": "Saint-Antoine-de-Ficalba", "country": "FR", "coord": {"lon": 0.71821, "lat": 44.332142}}, {"id": 8224455, "name": "Saint-Antoine-de-Tilly", "country": "CA", "coord": {"lon": -71.573349, "lat": 46.66346}}, {"id": 6137440, "name": "Saint-Antoine-des-Laurentides", "country": "CA", "coord": {"lon": -73.988602, "lat": 45.76038}}, {"id": 6432367, "name": "Saint-Antoine-du-Queyret", "country": "FR", "coord": {"lon": 0.01667, "lat": 44.76667}}, {"id": 2981670, "name": "Saint-Antoine-du-Queyret", "country": "FR", "coord": {"lon": 0.00996, "lat": 44.763699}}, {"id": 6433098, "name": "Saint-Antoine-du-Rocher", "country": "FR", "coord": {"lon": 0.63333, "lat": 47.5}}, {"id": 2981669, "name": "Saint-Antoine-du-Rocher", "country": "FR", "coord": {"lon": 0.62997, "lat": 47.496769}}, {"id": 6616669, "name": "Saint-Antoine-l'Abbaye", "country": "FR", "coord": {"lon": 5.2172, "lat": 45.174599}}, {"id": 2981685, "name": "Saint-Antoine-lAbbaye", "country": "FR", "coord": {"lon": 5.21667, "lat": 45.166672}}, {"id": 6612485, "name": "Saint-Antoine-sur-l'Isle", "country": "FR", "coord": {"lon": 0.05, "lat": 45.033329}}, {"id": 2981666, "name": "Saint-Antoine-sur-l'Isle", "country": "FR", "coord": {"lon": 0.05, "lat": 45.033329}}, {"id": 6428845, "name": "Saint-Apollinaire", "country": "FR", "coord": {"lon": 5.08333, "lat": 47.333328}}, {"id": 2981655, "name": "Saint-Apollinaire", "country": "FR", "coord": {"lon": 5.08333, "lat": 47.333328}}, {"id": 6613771, "name": "Saint-Armel", "country": "FR", "coord": {"lon": -1.58333, "lat": 48.01667}}, {"id": 2981639, "name": "Saint-Armel", "country": "FR", "coord": {"lon": -1.59152, "lat": 48.01305}}, {"id": 6440582, "name": "Saint-Armou", "country": "FR", "coord": {"lon": -0.3, "lat": 43.416672}}, {"id": 2981638, "name": "Saint-Armou", "country": "FR", "coord": {"lon": -0.3, "lat": 43.416672}}, {"id": 6427416, "name": "Saint-Arnoult", "country": "FR", "coord": {"lon": 0.08333, "lat": 49.333328}}, {"id": 2981635, "name": "Saint-Arnoult", "country": "FR", "coord": {"lon": 0.0904, "lat": 49.337559}}, {"id": 6443427, "name": "Saint-Arnoult", "country": "FR", "coord": {"lon": 0.66667, "lat": 49.533329}}, {"id": 2981634, "name": "Saint-Arnoult", "country": "FR", "coord": {"lon": 0.67117, "lat": 49.52676}}, {"id": 6444065, "name": "Saint-Arnoult-en-Yvelines", "country": "FR", "coord": {"lon": 1.93333, "lat": 48.566669}}, {"id": 2981629, "name": "Saint-Arnoult-en-Yvelines", "country": "FR", "coord": {"lon": 1.9395, "lat": 48.57111}}, {"id": 6616180, "name": "Saint-Astier", "country": "FR", "coord": {"lon": 0.5291, "lat": 45.145802}}, {"id": 2981623, "name": "Saint-Astier", "country": "FR", "coord": {"lon": 0.52898, "lat": 45.145821}}, {"id": 6438465, "name": "Saint-Aubert", "country": "FR", "coord": {"lon": 3.41667, "lat": 50.216671}}, {"id": 2981615, "name": "Saint-Aubert", "country": "FR", "coord": {"lon": 3.41727, "lat": 50.20805}}, {"id": 6616738, "name": "Saint-Aubin", "country": "FR", "coord": {"lon": -0.6958, "lat": 43.711201}}, {"id": 2981613, "name": "Saint-Aubin", "country": "FR", "coord": {"lon": -0.69655, "lat": 43.71167}}, {"id": 6433735, "name": "Saint-Aubin", "country": "FR", "coord": {"lon": 5.33333, "lat": 47.033329}}, {"id": 2981609, "name": "Saint-Aubin", "country": "FR", "coord": {"lon": 5.32666, "lat": 47.03336}}, {"id": 2981553, "name": "Saint-Aubin-L\u00e9bizay", "country": "FR", "coord": {"lon": 0.00252, "lat": 49.203812}}, {"id": 6443432, "name": "Saint-Aubin-Routot", "country": "FR", "coord": {"lon": 0.33333, "lat": 49.51667}}, {"id": 2981542, "name": "Saint-Aubin-Routot", "country": "FR", "coord": {"lon": 0.32602, "lat": 49.523411}}, {"id": 7287020, "name": "Saint-Aubin-Sauges", "country": "CH", "coord": {"lon": 6.75444, "lat": 46.907089}}, {"id": 2658880, "name": "Saint-Aubin-Sauges", "country": "CH", "coord": {"lon": 6.77251, "lat": 46.894192}}, {"id": 6439227, "name": "Saint-Aubin-d'Appenai", "country": "FR", "coord": {"lon": 0.33333, "lat": 48.533329}}, {"id": 2981593, "name": "Saint-Aubin-d'Appenai", "country": "FR", "coord": {"lon": 0.33881, "lat": 48.536251}}, {"id": 6427417, "name": "Saint-Aubin-d'Arquenay", "country": "FR", "coord": {"lon": -0.28333, "lat": 49.26667}}, {"id": 2981592, "name": "Saint-Aubin-d'Arquenay", "country": "FR", "coord": {"lon": -0.28972, "lat": 49.263081}}, {"id": 6432369, "name": "Saint-Aubin-de-Blaye", "country": "FR", "coord": {"lon": -0.56667, "lat": 45.26667}}, {"id": 2981589, "name": "Saint-Aubin-de-Blaye", "country": "FR", "coord": {"lon": -0.55997, "lat": 45.267262}}, {"id": 6439228, "name": "Saint-Aubin-de-Bonneval", "country": "FR", "coord": {"lon": 0.37834, "lat": 48.94128}}, {"id": 2981588, "name": "Saint-Aubin-de-Bonneval", "country": "FR", "coord": {"lon": 0.37877, "lat": 48.941219}}, {"id": 6432370, "name": "Saint-Aubin-de-Branne", "country": "FR", "coord": {"lon": -0.16667, "lat": 44.799999}}, {"id": 2981587, "name": "Saint-Aubin-de-Branne", "country": "FR", "coord": {"lon": -0.17173, "lat": 44.808609}}, {"id": 6612370, "name": "Saint-Aubin-de-Cadelech", "country": "FR", "coord": {"lon": 0.5, "lat": 44.683331}}, {"id": 2981586, "name": "Saint-Aubin-de-Cadelech", "country": "FR", "coord": {"lon": 0.48079, "lat": 44.693031}}, {"id": 6439229, "name": "Saint-Aubin-de-Courteraie", "country": "FR", "coord": {"lon": 0.43333, "lat": 48.616669}}, {"id": 2981585, "name": "Saint-Aubin-de-Courteraie", "country": "FR", "coord": {"lon": 0.43952, "lat": 48.61002}}, {"id": 2981579, "name": "Saint-Aubin-de-Medoc", "country": "FR", "coord": {"lon": -0.71667, "lat": 44.75}}, {"id": 6432371, "name": "Saint-Aubin-de-M\u00e9doc", "country": "FR", "coord": {"lon": -0.7246, "lat": 44.9118}}, {"id": 6435566, "name": "Saint-Aubin-de-Terregatte", "country": "FR", "coord": {"lon": -1.3, "lat": 48.583328}}, {"id": 2981566, "name": "Saint-Aubin-de-Terregatte", "country": "FR", "coord": {"lon": -1.29993, "lat": 48.57605}}, {"id": 6430863, "name": "Saint-Aubin-des-Bois", "country": "FR", "coord": {"lon": 1.36667, "lat": 48.466671}}, {"id": 2981577, "name": "Saint-Aubin-des-Bois", "country": "FR", "coord": {"lon": 1.35784, "lat": 48.465481}}, {"id": 2981574, "name": "Saint-Aubin-des-Chateaux", "country": "FR", "coord": {"lon": -1.48876, "lat": 47.72047}}, {"id": 6434509, "name": "Saint-Aubin-des-Ch\u00e2teaux", "country": "FR", "coord": {"lon": -1.48333, "lat": 47.716671}}, {"id": 6445176, "name": "Saint-Aubin-des-Ormeaux", "country": "FR", "coord": {"lon": -1.05, "lat": 46.98333}}, {"id": 2981568, "name": "Saint-Aubin-des-Ormeaux", "country": "FR", "coord": {"lon": -1.04274, "lat": 46.992378}}, {"id": 6435565, "name": "Saint-Aubin-des-Pr\u00e9aux", "country": "FR", "coord": {"lon": -1.5, "lat": 48.799999}}, {"id": 2981567, "name": "Saint-Aubin-des-Pr\u00e9aux", "country": "FR", "coord": {"lon": -1.50822, "lat": 48.804661}}, {"id": 6432812, "name": "Saint-Aubin-du-Cormier", "country": "FR", "coord": {"lon": -1.4, "lat": 48.26667}}, {"id": 2981565, "name": "Saint-Aubin-du-Cormier", "country": "FR", "coord": {"lon": -1.40252, "lat": 48.25843}}, {"id": 6435567, "name": "Saint-Aubin-du-Perron", "country": "FR", "coord": {"lon": -1.36667, "lat": 49.150002}}, {"id": 2981561, "name": "Saint-Aubin-du-Perron", "country": "FR", "coord": {"lon": -1.3697, "lat": 49.143398}}, {"id": 6438944, "name": "Saint-Aubin-en-Bray", "country": "FR", "coord": {"lon": 1.8791, "lat": 49.419899}}, {"id": 2981558, "name": "Saint-Aubin-en-Bray", "country": "FR", "coord": {"lon": 1.87782, "lat": 49.420509}}, {"id": 6444190, "name": "Saint-Aubin-le-Cloud", "country": "FR", "coord": {"lon": -0.35, "lat": 46.650002}}, {"id": 2981551, "name": "Saint-Aubin-le-Cloud", "country": "FR", "coord": {"lon": -0.35258, "lat": 46.65308}}, {"id": 2981547, "name": "Saint-Aubin-les-Elbeuf", "country": "FR", "coord": {"lon": 1.01056, "lat": 49.3036}}, {"id": 6443430, "name": "Saint-Aubin-l\u00e8s-Elbeuf", "country": "FR", "coord": {"lon": 1.01667, "lat": 49.299999}}, {"id": 2981539, "name": "Saint-Aubin-sur-Algot", "country": "FR", "coord": {"lon": 0.08864, "lat": 49.1301}}, {"id": 6430563, "name": "Saint-Aubin-sur-Gaillon", "country": "FR", "coord": {"lon": 1.33333, "lat": 49.150002}}, {"id": 2981538, "name": "Saint-Aubin-sur-Gaillon", "country": "FR", "coord": {"lon": 1.32914, "lat": 49.146999}}, {"id": 6427419, "name": "Saint-Aubin-sur-Mer", "country": "FR", "coord": {"lon": -0.4, "lat": 49.333328}}, {"id": 2981536, "name": "Saint-Aubin-sur-Mer", "country": "FR", "coord": {"lon": -0.38696, "lat": 49.327862}}, {"id": 6443434, "name": "Saint-Aubin-sur-Scie", "country": "FR", "coord": {"lon": 1.06667, "lat": 49.866669}}, {"id": 2981533, "name": "Saint-Aubin-sur-Scie", "country": "FR", "coord": {"lon": 1.06823, "lat": 49.87162}}, {"id": 6137462, "name": "Saint-Augustin", "country": "CA", "coord": {"lon": -58.650169, "lat": 51.226021}}, {"id": 6443818, "name": "Saint-Augustin", "country": "FR", "coord": {"lon": 3.03333, "lat": 48.783329}}, {"id": 2981528, "name": "Saint-Augustin", "country": "FR", "coord": {"lon": 3.03016, "lat": 48.783329}}, {"id": 7535681, "name": "Saint-Augustin-de-Desmaures", "country": "CA", "coord": {"lon": -71.451309, "lat": 46.740639}}, {"id": 6429516, "name": "Saint-Aulaye", "country": "FR", "coord": {"lon": 0.13333, "lat": 45.200001}}, {"id": 2981522, "name": "Saint-Aulaye", "country": "FR", "coord": {"lon": 0.13333, "lat": 45.200001}}, {"id": 2981521, "name": "Saint-Aunes", "country": "FR", "coord": {"lon": 3.96583, "lat": 43.640831}}, {"id": 6432615, "name": "Saint-Aun\u00e8s", "country": "FR", "coord": {"lon": 3.96667, "lat": 43.633331}}, {"id": 6614193, "name": "Saint-Aupre", "country": "FR", "coord": {"lon": 5.6708, "lat": 45.399601}}, {"id": 2981519, "name": "Saint-Aupre", "country": "FR", "coord": {"lon": 5.66667, "lat": 45.383331}}, {"id": 6612543, "name": "Saint-Austremoine", "country": "FR", "coord": {"lon": 3.38333, "lat": 45.116669}}, {"id": 2981518, "name": "Saint-Austremoine", "country": "FR", "coord": {"lon": 3.37039, "lat": 45.120689}}, {"id": 2981515, "name": "Saint-Ave", "country": "FR", "coord": {"lon": -2.74648, "lat": 47.690849}}, {"id": 6433100, "name": "Saint-Avertin", "country": "FR", "coord": {"lon": 0.73333, "lat": 47.366669}}, {"id": 2981512, "name": "Saint-Avertin", "country": "FR", "coord": {"lon": 0.73993, "lat": 47.363571}}, {"id": 6440159, "name": "Saint-Avit", "country": "FR", "coord": {"lon": 2.53333, "lat": 45.866669}}, {"id": 2981503, "name": "Saint-Avit", "country": "FR", "coord": {"lon": 2.53333, "lat": 45.866669}}, {"id": 6614428, "name": "Saint-Avit", "country": "FR", "coord": {"lon": 0.2132, "lat": 44.568001}}, {"id": 2981508, "name": "Saint-Avit", "country": "FR", "coord": {"lon": 0.21262, "lat": 44.56778}}, {"id": 6429519, "name": "Saint-Avit-S\u00e9nieur", "country": "FR", "coord": {"lon": 0.81667, "lat": 44.76667}}, {"id": 2981493, "name": "Saint-Avit-S\u00e9nieur", "country": "FR", "coord": {"lon": 0.81658, "lat": 44.775051}}, {"id": 6432372, "name": "Saint-Avit-de-Soul\u00e8ge", "country": "FR", "coord": {"lon": 0.1268, "lat": 44.812801}}, {"id": 2981501, "name": "Saint-Avit-de-Soul\u00e8ge", "country": "FR", "coord": {"lon": 0.15, "lat": 44.633331}}, {"id": 6429517, "name": "Saint-Avit-de-Vialard", "country": "FR", "coord": {"lon": 0.88333, "lat": 44.950001}}, {"id": 2981499, "name": "Saint-Avit-de-Vialard", "country": "FR", "coord": {"lon": 0.86761, "lat": 44.943649}}, {"id": 6454369, "name": "Saint-Avold", "country": "FR", "coord": {"lon": 6.7, "lat": 49.099998}}, {"id": 2981492, "name": "Saint-Avold", "country": "FR", "coord": {"lon": 6.70064, "lat": 49.102699}}, {"id": 6437369, "name": "Saint-Av\u00e9", "country": "FR", "coord": {"lon": -2.75, "lat": 47.683331}}, {"id": 6434701, "name": "Saint-Ay", "country": "FR", "coord": {"lon": 1.75, "lat": 47.849998}}, {"id": 2981488, "name": "Saint-Ay", "country": "FR", "coord": {"lon": 1.75137, "lat": 47.858898}}, {"id": 6440160, "name": "Saint-Babel", "country": "FR", "coord": {"lon": 3.3, "lat": 45.599998}}, {"id": 2981483, "name": "Saint-Babel", "country": "FR", "coord": {"lon": 3.30079, "lat": 45.59634}}, {"id": 6442862, "name": "Saint-Baldoph", "country": "FR", "coord": {"lon": 5.95, "lat": 45.533329}}, {"id": 2981481, "name": "Saint-Baldoph", "country": "FR", "coord": {"lon": 5.95217, "lat": 45.5312}}, {"id": 2981473, "name": "Saint-Barnabe", "country": "FR", "coord": {"lon": -2.70483, "lat": 48.137119}}, {"id": 6612343, "name": "Saint-Barnab\u00e9", "country": "FR", "coord": {"lon": -2.7, "lat": 48.133331}}, {"id": 2981452, "name": "Saint-Barthelemy-de-Vals", "country": "FR", "coord": {"lon": 4.86977, "lat": 45.16729}}, {"id": 6137484, "name": "Saint-Barth\u00e9lemy", "country": "CA", "coord": {"lon": -73.132439, "lat": 46.183361}}, {"id": 3578476, "name": "Saint-Barth\u00e9lemy", "country": "BL", "coord": {"lon": -62.833328, "lat": 17.9}}, {"id": 6614263, "name": "Saint-Barth\u00e9lemy-d'Agenais", "country": "FR", "coord": {"lon": 0.36667, "lat": 44.51667}}, {"id": 2981458, "name": "Saint-Barth\u00e9lemy-d'Agenais", "country": "FR", "coord": {"lon": 0.36667, "lat": 44.51667}}, {"id": 6429520, "name": "Saint-Barth\u00e9lemy-de-Bellegarde", "country": "FR", "coord": {"lon": 0.2114, "lat": 45.0774}}, {"id": 2981455, "name": "Saint-Barth\u00e9lemy-de-Bellegarde", "country": "FR", "coord": {"lon": 0.2, "lat": 45.066669}}, {"id": 6612371, "name": "Saint-Barth\u00e9lemy-de-Bussi\u00e8re", "country": "FR", "coord": {"lon": 0.75, "lat": 45.633331}}, {"id": 2981454, "name": "Saint-Barth\u00e9lemy-de-Bussi\u00e8re", "country": "FR", "coord": {"lon": 0.75508, "lat": 45.640251}}, {"id": 6430206, "name": "Saint-Barth\u00e9lemy-de-Vals", "country": "FR", "coord": {"lon": 4.86667, "lat": 45.166672}}, {"id": 6137489, "name": "Saint-Basile-le-Grand", "country": "CA", "coord": {"lon": -73.282463, "lat": 45.533379}}, {"id": 6436461, "name": "Saint-Baudelle", "country": "FR", "coord": {"lon": -0.63333, "lat": 48.283329}}, {"id": 2981444, "name": "Saint-Baudelle", "country": "FR", "coord": {"lon": -0.63728, "lat": 48.280811}}, {"id": 6432618, "name": "Saint-Bauzille-de-Putois", "country": "FR", "coord": {"lon": 3.73333, "lat": 43.900002}}, {"id": 2981433, "name": "Saint-Bauzille-de-Putois", "country": "FR", "coord": {"lon": 3.7358, "lat": 43.894539}}, {"id": 6616797, "name": "Saint-Beauzire", "country": "FR", "coord": {"lon": 3.2678, "lat": 45.275398}}, {"id": 2981421, "name": "Saint-Beauzire", "country": "FR", "coord": {"lon": 3.26719, "lat": 45.274948}}, {"id": 935267, "name": "Saint-Benoit", "country": "RE", "coord": {"lon": 55.719372, "lat": -21.03801}}, {"id": 2981408, "name": "Saint-Benoit", "country": "FR", "coord": {"lon": 0.3419, "lat": 46.55315}}, {"id": 2981402, "name": "Saint-Benoit-de-Carmaux", "country": "FR", "coord": {"lon": 2.12911, "lat": 44.050369}}, {"id": 2981393, "name": "Saint-Benoit-sur-Loire", "country": "FR", "coord": {"lon": 2.31274, "lat": 47.805611}}, {"id": 6690294, "name": "Saint-Beno\u00eet", "country": "RE", "coord": {"lon": 55.716671, "lat": -21.033331}}, {"id": 6445342, "name": "Saint-Beno\u00eet", "country": "FR", "coord": {"lon": 0.33333, "lat": 46.549999}}, {"id": 6444936, "name": "Saint-Beno\u00eet-de-Carmaux", "country": "FR", "coord": {"lon": 2.13333, "lat": 44.049999}}, {"id": 6434702, "name": "Saint-Beno\u00eet-sur-Loire", "country": "FR", "coord": {"lon": 2.3, "lat": 47.816669}}, {"id": 6442392, "name": "Saint-Berain-sous-Sanvignes", "country": "FR", "coord": {"lon": 4.3, "lat": 46.700001}}, {"id": 2981390, "name": "Saint-Berain-sous-Sanvignes", "country": "FR", "coord": {"lon": 4.29405, "lat": 46.706779}}, {"id": 6137509, "name": "Saint-Bernard-de-Lacolle", "country": "CA", "coord": {"lon": -73.415863, "lat": 45.083382}}, {"id": 2981384, "name": "Saint-Beron", "country": "FR", "coord": {"lon": 5.73012, "lat": 45.501411}}, {"id": 6617034, "name": "Saint-Berthevin", "country": "FR", "coord": {"lon": -0.8254, "lat": 48.0681}}, {"id": 2981382, "name": "Saint-Berthevin", "country": "FR", "coord": {"lon": -0.83333, "lat": 48.066669}}, {"id": 7287022, "name": "Saint-Blaise", "country": "CH", "coord": {"lon": 6.98902, "lat": 47.028839}}, {"id": 2658878, "name": "Saint-Blaise", "country": "CH", "coord": {"lon": 6.98472, "lat": 47.013229}}, {"id": 6442864, "name": "Saint-Bon-Tarentaise", "country": "FR", "coord": {"lon": 6.63656, "lat": 45.43412}}, {"id": 2981309, "name": "Saint-Bon-Tarentaise", "country": "FR", "coord": {"lon": 6.63686, "lat": 45.433731}}, {"id": 2981352, "name": "Saint-Bonnet", "country": "FR", "coord": {"lon": 3.35, "lat": 46.566669}}, {"id": 6445427, "name": "Saint-Bonnet-de-Bellac", "country": "FR", "coord": {"lon": 0.95, "lat": 46.166672}}, {"id": 2981347, "name": "Saint-Bonnet-de-Bellac", "country": "FR", "coord": {"lon": 0.95511, "lat": 46.167992}}, {"id": 6441832, "name": "Saint-Bonnet-de-Mure", "country": "FR", "coord": {"lon": 5.03333, "lat": 45.683331}}, {"id": 2981338, "name": "Saint-Bonnet-de-Mure", "country": "FR", "coord": {"lon": 5.02026, "lat": 45.699581}}, {"id": 6425439, "name": "Saint-Bonnet-de-Rochefort", "country": "FR", "coord": {"lon": 3.13333, "lat": 46.150002}}, {"id": 2981337, "name": "Saint-Bonnet-de-Rochefort", "country": "FR", "coord": {"lon": 3.13791, "lat": 46.146481}}, {"id": 6427624, "name": "Saint-Bonnet-de-Salers", "country": "FR", "coord": {"lon": 2.46667, "lat": 45.166672}}, {"id": 2981336, "name": "Saint-Bonnet-de-Salers", "country": "FR", "coord": {"lon": 2.46667, "lat": 45.166672}}, {"id": 6615730, "name": "Saint-Bonnet-en-Champsaur", "country": "FR", "coord": {"lon": 6.0767, "lat": 44.682301}}, {"id": 2981355, "name": "Saint-Bonnet-en-Champsaur", "country": "FR", "coord": {"lon": 6.08333, "lat": 44.683331}}, {"id": 6440161, "name": "Saint-Bonnet-le-Bourg", "country": "FR", "coord": {"lon": 3.61667, "lat": 45.433331}}, {"id": 2981327, "name": "Saint-Bonnet-le-Bourg", "country": "FR", "coord": {"lon": 3.60866, "lat": 45.43399}}, {"id": 6440162, "name": "Saint-Bonnet-le-Chastel", "country": "FR", "coord": {"lon": 3.63333, "lat": 45.450001}}, {"id": 2981326, "name": "Saint-Bonnet-le-Chastel", "country": "FR", "coord": {"lon": 3.63361, "lat": 45.45079}}, {"id": 2981325, "name": "Saint-Bonnet-le-Chateau", "country": "FR", "coord": {"lon": 4.06673, "lat": 45.423382}}, {"id": 6434246, "name": "Saint-Bonnet-le-Ch\u00e2teau", "country": "FR", "coord": {"lon": 4.06667, "lat": 45.416672}}, {"id": 6434248, "name": "Saint-Bonnet-les-Oules", "country": "FR", "coord": {"lon": 4.33333, "lat": 45.549999}}, {"id": 2981320, "name": "Saint-Bonnet-les-Oules", "country": "FR", "coord": {"lon": 4.33145, "lat": 45.5425}}, {"id": 2981315, "name": "Saint-Bonnet-pres-Riom", "country": "FR", "coord": {"lon": 3.11162, "lat": 45.928951}}, {"id": 6440165, "name": "Saint-Bonnet-pr\u00e8s-Riom", "country": "FR", "coord": {"lon": 3.1, "lat": 45.933331}}, {"id": 7287023, "name": "Saint-Brais", "country": "CH", "coord": {"lon": 7.1187, "lat": 47.308769}}, {"id": 2658877, "name": "Saint-Brais", "country": "CH", "coord": {"lon": 7.11368, "lat": 47.306122}}, {"id": 6433103, "name": "Saint-Branchs", "country": "FR", "coord": {"lon": 0.76667, "lat": 47.23333}}, {"id": 2981305, "name": "Saint-Branchs", "country": "FR", "coord": {"lon": 0.77306, "lat": 47.226551}}, {"id": 6429119, "name": "Saint-Brandan", "country": "FR", "coord": {"lon": -2.86667, "lat": 48.383331}}, {"id": 2981304, "name": "Saint-Brandan", "country": "FR", "coord": {"lon": -2.86875, "lat": 48.390079}}, {"id": 2981303, "name": "Saint-Bres", "country": "FR", "coord": {"lon": 4.03105, "lat": 43.667419}}, {"id": 6613997, "name": "Saint-Brevin-les-Pins", "country": "FR", "coord": {"lon": -2.16667, "lat": 47.25}}, {"id": 2981296, "name": "Saint-Brevin-les-Pins", "country": "FR", "coord": {"lon": -2.16667, "lat": 47.25}}, {"id": 6432815, "name": "Saint-Briac-sur-Mer", "country": "FR", "coord": {"lon": -2.1331, "lat": 48.620701}}, {"id": 2981294, "name": "Saint-Briac-sur-Mer", "country": "FR", "coord": {"lon": -2.13435, "lat": 48.621891}}, {"id": 6432373, "name": "Saint-Brice", "country": "FR", "coord": {"lon": -0.1486, "lat": 44.697601}}, {"id": 2981292, "name": "Saint-Brice", "country": "FR", "coord": {"lon": -0.14916, "lat": 44.6978}}, {"id": 6427825, "name": "Saint-Brice", "country": "FR", "coord": {"lon": -0.28333, "lat": 45.683331}}, {"id": 2981291, "name": "Saint-Brice", "country": "FR", "coord": {"lon": -0.28333, "lat": 45.683331}}, {"id": 6616960, "name": "Saint-Brice-Courcelles", "country": "FR", "coord": {"lon": 3.986, "lat": 49.261501}}, {"id": 2981284, "name": "Saint-Brice-Courcelles", "country": "FR", "coord": {"lon": 3.98333, "lat": 49.26667}}, {"id": 6612587, "name": "Saint-Brice-de-Landelles", "country": "FR", "coord": {"lon": -1.15, "lat": 48.533329}}, {"id": 2981286, "name": "Saint-Brice-de-Landelles", "country": "FR", "coord": {"lon": -1.15259, "lat": 48.532791}}, {"id": 2981285, "name": "Saint-Brice-en-Cogles", "country": "FR", "coord": {"lon": -1.37019, "lat": 48.411572}}, {"id": 6432816, "name": "Saint-Brice-en-Cogl\u00e8s", "country": "FR", "coord": {"lon": -1.3663, "lat": 48.410999}}, {"id": 2981283, "name": "Saint-Brice-sous-Foret", "country": "FR", "coord": {"lon": 2.35361, "lat": 49.00132}}, {"id": 6446326, "name": "Saint-Brice-sous-For\u00eat", "country": "FR", "coord": {"lon": 2.36667, "lat": 49}}, {"id": 6445428, "name": "Saint-Brice-sur-Vienne", "country": "FR", "coord": {"lon": 0.95, "lat": 45.883331}}, {"id": 2981281, "name": "Saint-Brice-sur-Vienne", "country": "FR", "coord": {"lon": 0.95594, "lat": 45.878521}}, {"id": 6453805, "name": "Saint-Brieuc", "country": "FR", "coord": {"lon": -2.78333, "lat": 48.51667}}, {"id": 2981280, "name": "Saint-Brieuc", "country": "FR", "coord": {"lon": -2.78333, "lat": 48.51667}}, {"id": 6432817, "name": "Saint-Brieuc-des-Iffs", "country": "FR", "coord": {"lon": -1.85, "lat": 48.299999}}, {"id": 2981276, "name": "Saint-Brieuc-des-Iffs", "country": "FR", "coord": {"lon": -1.85061, "lat": 48.291729}}, {"id": 2981274, "name": "Saint-Bris-le-Vineux", "country": "FR", "coord": {"lon": 3.64922, "lat": 47.743961}}, {"id": 6445984, "name": "Saint-Bris-le-Vineux", "country": "FR", "coord": {"lon": 3.63333, "lat": 47.75}}, {"id": 6434703, "name": "Saint-Brisson-sur-Loire", "country": "FR", "coord": {"lon": 2.68333, "lat": 47.650002}}, {"id": 2981272, "name": "Saint-Brisson-sur-Loire", "country": "FR", "coord": {"lon": 2.68229, "lat": 47.646858}}, {"id": 6432818, "name": "Saint-Broladre", "country": "FR", "coord": {"lon": -1.65, "lat": 48.583328}}, {"id": 2981267, "name": "Saint-Broladre", "country": "FR", "coord": {"lon": -1.65768, "lat": 48.586769}}, {"id": 6137539, "name": "Saint-Bruno-de-Guigues", "country": "CA", "coord": {"lon": -79.432961, "lat": 47.46685}}, {"id": 6137540, "name": "Saint-Bruno-de-Montarville", "country": "CA", "coord": {"lon": -73.349159, "lat": 45.533409}}, {"id": 6614311, "name": "Saint-Br\u00e8s", "country": "FR", "coord": {"lon": 4.0301, "lat": 43.667099}}, {"id": 6434401, "name": "Saint-B\u00e9rain", "country": "FR", "coord": {"lon": 3.63333, "lat": 45.033329}}, {"id": 2981391, "name": "Saint-B\u00e9rain", "country": "FR", "coord": {"lon": 3.63321, "lat": 45.032791}}, {"id": 6442863, "name": "Saint-B\u00e9ron", "country": "FR", "coord": {"lon": 5.71667, "lat": 45.5}}, {"id": 6439231, "name": "Saint-B\u00f4mer-les-Forges", "country": "FR", "coord": {"lon": -0.63293, "lat": 48.6441}}, {"id": 2981358, "name": "Saint-B\u00f4mer-les-Forges", "country": "FR", "coord": {"lon": -0.63293, "lat": 48.6441}}, {"id": 6454643, "name": "Saint-Calais", "country": "FR", "coord": {"lon": 0.75, "lat": 47.916672}}, {"id": 2981263, "name": "Saint-Calais", "country": "FR", "coord": {"lon": 0.74587, "lat": 47.9221}}, {"id": 6137543, "name": "Saint-Calixte", "country": "CA", "coord": {"lon": -73.84919, "lat": 45.950081}}, {"id": 6447166, "name": "Saint-Cannat", "country": "FR", "coord": {"lon": 5.3, "lat": 43.616669}}, {"id": 2981259, "name": "Saint-Cannat", "country": "FR", "coord": {"lon": 5.2969, "lat": 43.620892}}, {"id": 6432374, "name": "Saint-Caprais-de-Blaye", "country": "FR", "coord": {"lon": -0.56667, "lat": 45.283329}}, {"id": 2981252, "name": "Saint-Caprais-de-Blaye", "country": "FR", "coord": {"lon": -0.56158, "lat": 45.28503}}, {"id": 6432375, "name": "Saint-Caprais-de-Bordeaux", "country": "FR", "coord": {"lon": -0.45, "lat": 44.75}}, {"id": 2981251, "name": "Saint-Caprais-de-Bordeaux", "country": "FR", "coord": {"lon": -0.43192, "lat": 44.74786}}, {"id": 6435050, "name": "Saint-Caprais-de-Lerm", "country": "FR", "coord": {"lon": 0.75, "lat": 44.216671}}, {"id": 2981250, "name": "Saint-Caprais-de-Lerm", "country": "FR", "coord": {"lon": 0.74509, "lat": 44.213539}}, {"id": 6429523, "name": "Saint-Capraise-d'Eymet", "country": "FR", "coord": {"lon": 0.5, "lat": 44.700001}}, {"id": 2981248, "name": "Saint-Capraise-d'Eymet", "country": "FR", "coord": {"lon": 0.50401, "lat": 44.708832}}, {"id": 6429522, "name": "Saint-Capraise-de-Lalinde", "country": "FR", "coord": {"lon": 0.65, "lat": 44.849998}}, {"id": 2981249, "name": "Saint-Capraise-de-Lalinde", "country": "FR", "coord": {"lon": 0.65409, "lat": 44.8423}}, {"id": 6613958, "name": "Saint-Caradec", "country": "FR", "coord": {"lon": -2.85, "lat": 48.200001}}, {"id": 2981247, "name": "Saint-Caradec", "country": "FR", "coord": {"lon": -2.84386, "lat": 48.19429}}, {"id": 6429121, "name": "Saint-Carreuc", "country": "FR", "coord": {"lon": -2.73333, "lat": 48.400002}}, {"id": 2981243, "name": "Saint-Carreuc", "country": "FR", "coord": {"lon": -2.73056, "lat": 48.398891}}, {"id": 6137560, "name": "Saint-Casimir", "country": "CA", "coord": {"lon": -72.132401, "lat": 46.650051}}, {"id": 6433330, "name": "Saint-Cassien", "country": "FR", "coord": {"lon": 5.55, "lat": 45.349998}}, {"id": 2981241, "name": "Saint-Cassien", "country": "FR", "coord": {"lon": 5.55321, "lat": 45.359711}}, {"id": 6429122, "name": "Saint-Cast-le-Guildo", "country": "FR", "coord": {"lon": -2.26667, "lat": 48.633331}}, {"id": 2981237, "name": "Saint-Cast-le-Guildo", "country": "FR", "coord": {"lon": -2.25777, "lat": 48.63028}}, {"id": 6440584, "name": "Saint-Castin", "country": "FR", "coord": {"lon": -0.3, "lat": 43.383331}}, {"id": 2981234, "name": "Saint-Castin", "country": "FR", "coord": {"lon": -0.3, "lat": 43.383331}}, {"id": 2981228, "name": "Saint-Cere", "country": "FR", "coord": {"lon": 1.89415, "lat": 44.857262}}, {"id": 7287024, "name": "Saint-Cergue", "country": "CH", "coord": {"lon": 6.12732, "lat": 46.451481}}, {"id": 2658876, "name": "Saint-Cergue", "country": "CH", "coord": {"lon": 6.15736, "lat": 46.4459}}, {"id": 6443032, "name": "Saint-Cergues", "country": "FR", "coord": {"lon": 6.31667, "lat": 46.23333}}, {"id": 2981227, "name": "Saint-Cergues", "country": "FR", "coord": {"lon": 6.31954, "lat": 46.23349}}, {"id": 6427625, "name": "Saint-Cernin", "country": "FR", "coord": {"lon": 2.43333, "lat": 45.049999}}, {"id": 2981224, "name": "Saint-Cernin", "country": "FR", "coord": {"lon": 2.42232, "lat": 45.057301}}, {"id": 6137571, "name": "Saint-Cesaire", "country": "CA", "coord": {"lon": -72.999138, "lat": 45.416779}}, {"id": 2981217, "name": "Saint-Cezaire-sur-Siagne", "country": "FR", "coord": {"lon": 6.79384, "lat": 43.648842}}, {"id": 6425627, "name": "Saint-Chaffrey", "country": "FR", "coord": {"lon": 6.6, "lat": 44.916672}}, {"id": 2981214, "name": "Saint-Chaffrey", "country": "FR", "coord": {"lon": 6.60768, "lat": 44.925549}}, {"id": 6427626, "name": "Saint-Chamant", "country": "FR", "coord": {"lon": 2.45, "lat": 45.083328}}, {"id": 2981212, "name": "Saint-Chamant", "country": "FR", "coord": {"lon": 2.43884, "lat": 45.091}}, {"id": 6447167, "name": "Saint-Chamas", "country": "FR", "coord": {"lon": 5.03333, "lat": 43.549999}}, {"id": 2981209, "name": "Saint-Chamas", "country": "FR", "coord": {"lon": 5.03324, "lat": 43.549461}}, {"id": 6429527, "name": "Saint-Chamassy", "country": "FR", "coord": {"lon": 0.91667, "lat": 44.866669}}, {"id": 2981207, "name": "Saint-Chamassy", "country": "FR", "coord": {"lon": 0.92774, "lat": 44.872829}}, {"id": 6434249, "name": "Saint-Chamond", "country": "FR", "coord": {"lon": 4.5, "lat": 45.466671}}, {"id": 2981206, "name": "Saint-Chamond", "country": "FR", "coord": {"lon": 4.52541, "lat": 45.473652}}, {"id": 6431391, "name": "Saint-Chaptes", "country": "FR", "coord": {"lon": 4.28333, "lat": 43.966671}}, {"id": 2981204, "name": "Saint-Chaptes", "country": "FR", "coord": {"lon": 4.27812, "lat": 43.971722}}, {"id": 6137598, "name": "Saint-Charles-sur-Richelieu", "country": "CA", "coord": {"lon": -73.182449, "lat": 45.68338}}, {"id": 6433331, "name": "Saint-Chef", "country": "FR", "coord": {"lon": 5.36667, "lat": 45.633331}}, {"id": 2981195, "name": "Saint-Chef", "country": "FR", "coord": {"lon": 5.36518, "lat": 45.633839}}, {"id": 2981190, "name": "Saint-Cheron", "country": "FR", "coord": {"lon": 2.12403, "lat": 48.554329}}, {"id": 6432619, "name": "Saint-Chinian", "country": "FR", "coord": {"lon": 2.95, "lat": 43.416672}}, {"id": 2981183, "name": "Saint-Chinian", "country": "FR", "coord": {"lon": 2.94643, "lat": 43.422379}}, {"id": 6434250, "name": "Saint-Christo-en-Jarez", "country": "FR", "coord": {"lon": 4.48333, "lat": 45.549999}}, {"id": 2981179, "name": "Saint-Christo-en-Jarez", "country": "FR", "coord": {"lon": 4.48474, "lat": 45.543159}}, {"id": 6454036, "name": "Saint-Christol", "country": "FR", "coord": {"lon": 4.08333, "lat": 43.73333}}, {"id": 2981178, "name": "Saint-Christol", "country": "FR", "coord": {"lon": 4.07991, "lat": 43.72805}}, {"id": 2981173, "name": "Saint-Christol-les-Ales", "country": "FR", "coord": {"lon": 4.07506, "lat": 44.082561}}, {"id": 6431393, "name": "Saint-Christol-l\u00e8s-Al\u00e8s", "country": "FR", "coord": {"lon": 4.08333, "lat": 44.083328}}, {"id": 6432376, "name": "Saint-Christoly-de-Blaye", "country": "FR", "coord": {"lon": -0.48333, "lat": 45.133331}}, {"id": 2981172, "name": "Saint-Christoly-de-Blaye", "country": "FR", "coord": {"lon": -0.5076, "lat": 45.131779}}, {"id": 6536001, "name": "Saint-Christophe", "country": "IT", "coord": {"lon": 7.3472, "lat": 45.754059}}, {"id": 6534761, "name": "Saint-Christophe", "country": "IT", "coord": {"lon": 7.3472, "lat": 45.754059}}, {"id": 6427013, "name": "Saint-Christophe-Vallon", "country": "FR", "coord": {"lon": 2.4128, "lat": 44.470798}}, {"id": 2981127, "name": "Saint-Christophe-Vallon", "country": "FR", "coord": {"lon": 2.41184, "lat": 44.470718}}, {"id": 6612702, "name": "Saint-Christophe-de-Chaulieu", "country": "FR", "coord": {"lon": -0.81667, "lat": 48.75}}, {"id": 2981154, "name": "Saint-Christophe-de-Chaulieu", "country": "FR", "coord": {"lon": -0.81948, "lat": 48.74646}}, {"id": 6613890, "name": "Saint-Christophe-du-Bois", "country": "FR", "coord": {"lon": -0.95, "lat": 47.033329}}, {"id": 2981149, "name": "Saint-Christophe-du-Bois", "country": "FR", "coord": {"lon": -0.94441, "lat": 47.030121}}, {"id": 6435571, "name": "Saint-Christophe-du-Foc", "country": "FR", "coord": {"lon": -1.75, "lat": 49.549999}}, {"id": 2981148, "name": "Saint-Christophe-du-Foc", "country": "FR", "coord": {"lon": -1.73929, "lat": 49.557259}}, {"id": 6445181, "name": "Saint-Christophe-du-Ligneron", "country": "FR", "coord": {"lon": -1.76667, "lat": 46.833328}}, {"id": 2981146, "name": "Saint-Christophe-du-Ligneron", "country": "FR", "coord": {"lon": -1.76586, "lat": 46.82478}}, {"id": 6439236, "name": "Saint-Christophe-le-Jajolet", "country": "FR", "coord": {"lon": 0, "lat": 48.666672}}, {"id": 2981135, "name": "Saint-Christophe-le-Jajolet", "country": "FR", "coord": {"lon": 0.00971, "lat": 48.6651}}, {"id": 2981134, "name": "Saint-Christophe-les-Gorges", "country": "FR", "coord": {"lon": 2.29306, "lat": 45.103062}}, {"id": 6434404, "name": "Saint-Christophe-sur-Dolaison", "country": "FR", "coord": {"lon": 3.8201, "lat": 44.996078}}, {"id": 2981131, "name": "Saint-Christophe-sur-Dolaison", "country": "FR", "coord": {"lon": 3.81954, "lat": 44.99625}}, {"id": 6433105, "name": "Saint-Christophe-sur-le-Nais", "country": "FR", "coord": {"lon": 0.48333, "lat": 47.616669}}, {"id": 2981129, "name": "Saint-Christophe-sur-le-Nais", "country": "FR", "coord": {"lon": 0.47801, "lat": 47.617199}}, {"id": 6137603, "name": "Saint-Chrysostome", "country": "CA", "coord": {"lon": -73.765892, "lat": 45.100079}}, {"id": 6446197, "name": "Saint-Ch\u00e9ron", "country": "FR", "coord": {"lon": 2.11667, "lat": 48.549999}}, {"id": 6432379, "name": "Saint-Cibard", "country": "FR", "coord": {"lon": -0.01667, "lat": 44.933331}}, {"id": 2981126, "name": "Saint-Cibard", "country": "FR", "coord": {"lon": -0.01667, "lat": 44.933331}}, {"id": 6432380, "name": "Saint-Ciers-d'Abzac", "country": "FR", "coord": {"lon": -0.26667, "lat": 45.033329}}, {"id": 2981121, "name": "Saint-Ciers-dAbzac", "country": "FR", "coord": {"lon": -0.26667, "lat": 45.033329}}, {"id": 6432381, "name": "Saint-Ciers-de-Canesse", "country": "FR", "coord": {"lon": -0.6, "lat": 45.083328}}, {"id": 2981120, "name": "Saint-Ciers-de-Canesse", "country": "FR", "coord": {"lon": -0.60904, "lat": 45.083569}}, {"id": 6432382, "name": "Saint-Ciers-sur-Gironde", "country": "FR", "coord": {"lon": -0.61667, "lat": 45.299999}}, {"id": 2981117, "name": "Saint-Ciers-sur-Gironde", "country": "FR", "coord": {"lon": -0.60794, "lat": 45.288551}}, {"id": 6427628, "name": "Saint-Cirgues-de-Malbert", "country": "FR", "coord": {"lon": 2.3939, "lat": 45.098099}}, {"id": 2981112, "name": "Saint-Cirgues-de-Malbert", "country": "FR", "coord": {"lon": 2.37033, "lat": 45.074921}}, {"id": 6439237, "name": "Saint-Clair-de-Halouze", "country": "FR", "coord": {"lon": -0.62719, "lat": 48.6791}},