[{"id": 1120500, "name": "Miray", "country": "AF", "coord": {"lon": 68.439438, "lat": 33.323608}}, {"id": 2870992, "name": "Mirbach", "country": "DE", "coord": {"lon": 6.68333, "lat": 50.349998}}, {"id": 2157489, "name": "Mirboo", "country": "AU", "coord": {"lon": 146.199997, "lat": -38.466671}}, {"id": 2157487, "name": "Mirboo North", "country": "AU", "coord": {"lon": 146.149994, "lat": -38.400002}}, {"id": 287218, "name": "Mirb\u0101\u0163", "country": "OM", "coord": {"lon": 54.690632, "lat": 16.99638}}, {"id": 673151, "name": "Mircea Voda", "country": "RO", "coord": {"lon": 27.383329, "lat": 45.116669}}, {"id": 673154, "name": "Mircea Voda", "country": "RO", "coord": {"lon": 28.16667, "lat": 44.283329}}, {"id": 673140, "name": "Mircesti", "country": "RO", "coord": {"lon": 26.83333, "lat": 47.083328}}, {"id": 764670, "name": "Mircze", "country": "PL", "coord": {"lon": 23.89604, "lat": 50.651642}}, {"id": 2993734, "name": "Mire", "country": "FR", "coord": {"lon": -0.49158, "lat": 47.757591}}, {"id": 3720811, "name": "Mirebalais", "country": "HT", "coord": {"lon": -72.105278, "lat": 18.83333}}, {"id": 6445303, "name": "Mirebeau", "country": "FR", "coord": {"lon": 0.18333, "lat": 46.783329}}, {"id": 2993732, "name": "Mirebeau", "country": "FR", "coord": {"lon": 0.18341, "lat": 46.78743}}, {"id": 2993730, "name": "Mirebeau-sur-Beze", "country": "FR", "coord": {"lon": 5.32093, "lat": 47.398281}}, {"id": 6428749, "name": "Mirebeau-sur-B\u00e8ze", "country": "FR", "coord": {"lon": 5.31667, "lat": 47.400002}}, {"id": 6445651, "name": "Mirecourt", "country": "FR", "coord": {"lon": 6.13333, "lat": 48.299999}}, {"id": 2993728, "name": "Mirecourt", "country": "FR", "coord": {"lon": 6.13282, "lat": 48.300892}}, {"id": 6440094, "name": "Mirefleurs", "country": "FR", "coord": {"lon": 3.23333, "lat": 45.700001}}, {"id": 2993727, "name": "Mirefleurs", "country": "FR", "coord": {"lon": 3.22441, "lat": 45.693459}}, {"id": 6431686, "name": "Miremont", "country": "FR", "coord": {"lon": 1.41667, "lat": 43.366669}}, {"id": 2993726, "name": "Miremont", "country": "FR", "coord": {"lon": 1.41724, "lat": 43.369949}}, {"id": 3195054, "name": "Miren", "country": "SI", "coord": {"lon": 13.6075, "lat": 45.895561}}, {"id": 6424396, "name": "Mirepeix", "country": "FR", "coord": {"lon": -0.25, "lat": 43.183331}}, {"id": 2993721, "name": "Mirepeix", "country": "FR", "coord": {"lon": -0.25, "lat": 43.183331}}, {"id": 6618215, "name": "Mirepoix", "country": "FR", "coord": {"lon": 1.8746, "lat": 43.088402}}, {"id": 2993720, "name": "Mirepoix", "country": "FR", "coord": {"lon": 1.8735, "lat": 43.08773}}, {"id": 673123, "name": "Miresu Mare", "country": "RO", "coord": {"lon": 23.33333, "lat": 47.5}}, {"id": 3070603, "name": "Miretice", "country": "CZ", "coord": {"lon": 15.88472, "lat": 49.841259}}, {"id": 6454032, "name": "Mireval", "country": "FR", "coord": {"lon": 3.8, "lat": 43.5}}, {"id": 2993717, "name": "Mireval", "country": "FR", "coord": {"lon": 3.8017, "lat": 43.508598}}, {"id": 7293814, "name": "Mirfield", "country": "GB", "coord": {"lon": -1.69404, "lat": 53.673901}}, {"id": 2642423, "name": "Mirfield", "country": "GB", "coord": {"lon": -1.69636, "lat": 53.673431}}, {"id": 1263015, "name": "Mirganj", "country": "IN", "coord": {"lon": 79.199997, "lat": 28.549999}}, {"id": 1738050, "name": "Miri", "country": "MY", "coord": {"lon": 114.008904, "lat": 4.4148}}, {"id": 1263012, "name": "Mirialguda", "country": "IN", "coord": {"lon": 79.583328, "lat": 16.866671}}, {"id": 2157486, "name": "Miriam Vale", "country": "AU", "coord": {"lon": 151.550003, "lat": -24.316669}}, {"id": 7034923, "name": "Miribanteng", "country": "ID", "coord": {"lon": 112.027298, "lat": -8.2358}}, {"id": 6615624, "name": "Miribel", "country": "FR", "coord": {"lon": 4.9535, "lat": 45.824402}}, {"id": 2993712, "name": "Miribel", "country": "FR", "coord": {"lon": 4.9544, "lat": 45.825802}}, {"id": 2993709, "name": "Miribel-les-Echelles", "country": "FR", "coord": {"lon": 5.70835, "lat": 45.429062}}, {"id": 6433243, "name": "Miribel-les-\u00c9chelles", "country": "FR", "coord": {"lon": 5.7086, "lat": 45.429298}}, {"id": 7034517, "name": "Mirigambar", "country": "ID", "coord": {"lon": 111.980698, "lat": -8.134}}, {"id": 787925, "name": "Mirijevo", "country": "RS", "coord": {"lon": 20.526939, "lat": 44.793892}}, {"id": 1263010, "name": "Mirik", "country": "IN", "coord": {"lon": 88.184837, "lat": 26.894529}}, {"id": 3632186, "name": "Mirimire", "country": "VE", "coord": {"lon": -68.726044, "lat": 11.1602}}, {"id": 2330087, "name": "Miringa", "country": "NG", "coord": {"lon": 12.14626, "lat": 10.73115}}, {"id": 2157481, "name": "Miriwinni", "country": "AU", "coord": {"lon": 145.916672, "lat": -17.4}}, {"id": 282746, "name": "Mirkah", "country": "PS", "coord": {"lon": 35.238071, "lat": 32.395828}}, {"id": 3195046, "name": "Mirkovci", "country": "HR", "coord": {"lon": 18.85111, "lat": 45.269718}}, {"id": 729064, "name": "Mirkovo", "country": "BG", "coord": {"lon": 23.98333, "lat": 42.700001}}, {"id": 7576421, "name": "Mirkow", "country": "PL", "coord": {"lon": 17.170259, "lat": 51.161049}}, {"id": 3195041, "name": "Mirna", "country": "SI", "coord": {"lon": 15.06194, "lat": 45.95528}}, {"id": 3195036, "name": "Mirna Pec", "country": "SI", "coord": {"lon": 15.08333, "lat": 45.860279}}, {"id": 526346, "name": "Mirnyy", "country": "RU", "coord": {"lon": 44.53598, "lat": 61.33289}}, {"id": 526347, "name": "Mirnyy", "country": "RU", "coord": {"lon": 47.653889, "lat": 58.493328}}, {"id": 869143, "name": "Mirnyy", "country": "RU", "coord": {"lon": 39.011665, "lat": 44.605831}}, {"id": 6417541, "name": "Mirnyy", "country": "RU", "coord": {"lon": 37.9575, "lat": 55.61861}}, {"id": 526354, "name": "Mirnyy", "country": "RU", "coord": {"lon": 48.75, "lat": 54.366669}}, {"id": 6727911, "name": "Mirnyy", "country": "RU", "coord": {"lon": 37.471352, "lat": 54.894112}}, {"id": 2019951, "name": "Mirnyy", "country": "RU", "coord": {"lon": 113.961113, "lat": 62.535278}}, {"id": 526357, "name": "Mirnyy", "country": "RU", "coord": {"lon": 50.216671, "lat": 53.549999}}, {"id": 831129, "name": "Mirnyy", "country": "RU", "coord": {"lon": 40.33746, "lat": 62.764091}}, {"id": 1170312, "name": "Miro Khan", "country": "PK", "coord": {"lon": 68.092117, "lat": 27.759911}}, {"id": 764666, "name": "Mirocin", "country": "PL", "coord": {"lon": 22.55596, "lat": 50.04237}}, {"id": 6355733, "name": "Mironcillo", "country": "ES", "coord": {"lon": -4.81869, "lat": 40.558319}}, {"id": 3116671, "name": "Mironcillo", "country": "ES", "coord": {"lon": -4.82449, "lat": 40.554352}}, {"id": 673106, "name": "Mironeasa", "country": "RO", "coord": {"lon": 27.41667, "lat": 46.966671}}, {"id": 526331, "name": "Mironov", "country": "RU", "coord": {"lon": 41.326488, "lat": 47.12664}}, {"id": 701032, "name": "Mironovka", "country": "UA", "coord": {"lon": 36.12899, "lat": 49.270489}}, {"id": 6845986, "name": "Mironovka", "country": "RU", "coord": {"lon": 44.214001, "lat": 54.499802}}, {"id": 1091117, "name": "Mirontsi", "country": "KM", "coord": {"lon": 44.408058, "lat": -12.15667}}, {"id": 673102, "name": "Mirosi", "country": "RO", "coord": {"lon": 24.933331, "lat": 44.416672}}, {"id": 3070593, "name": "Miroslav", "country": "CZ", "coord": {"lon": 16.312519, "lat": 48.94767}}, {"id": 673098, "name": "Miroslava", "country": "RO", "coord": {"lon": 27.51667, "lat": 47.150002}}, {"id": 673096, "name": "Miroslavesti", "country": "RO", "coord": {"lon": 26.65, "lat": 47.150002}}, {"id": 3091700, "name": "Miroslawiec", "country": "PL", "coord": {"lon": 16.087931, "lat": 53.34071}}, {"id": 3070584, "name": "Mirosov", "country": "CZ", "coord": {"lon": 13.65807, "lat": 49.68782}}, {"id": 7533510, "name": "Miros\u0142awiec", "country": "PL", "coord": {"lon": 16.087799, "lat": 53.344501}}, {"id": 3070580, "name": "Mirotice", "country": "CZ", "coord": {"lon": 14.03697, "lat": 49.429081}}, {"id": 6460767, "name": "Mirovci", "country": "BG", "coord": {"lon": 27.23333, "lat": 43.450001}}, {"id": 3070575, "name": "Mirovice", "country": "CZ", "coord": {"lon": 14.03582, "lat": 49.515549}}, {"id": 729054, "name": "Mirovtsi", "country": "BG", "coord": {"lon": 27.23333, "lat": 43.450001}}, {"id": 2870987, "name": "Mirow", "country": "DE", "coord": {"lon": 12.81538, "lat": 53.27507}}, {"id": 2870986, "name": "Mirow", "country": "DE", "coord": {"lon": 11.5, "lat": 53.5}}, {"id": 764664, "name": "Mirow", "country": "PL", "coord": {"lon": 21.0329, "lat": 51.197201}}, {"id": 1170299, "name": "Mirpur Batoro", "country": "PK", "coord": {"lon": 68.260262, "lat": 24.728609}}, {"id": 1170295, "name": "Mirpur Khas", "country": "PK", "coord": {"lon": 69.0159, "lat": 25.525101}}, {"id": 1170294, "name": "Mirpur Mathelo", "country": "PK", "coord": {"lon": 69.548859, "lat": 28.022711}}, {"id": 1170290, "name": "Mirpur Sakro", "country": "PK", "coord": {"lon": 67.627708, "lat": 24.547421}}, {"id": 5803666, "name": "Mirrormont", "country": "US", "coord": {"lon": -121.995667, "lat": 47.462318}}, {"id": 673088, "name": "Mirsid", "country": "RO", "coord": {"lon": 23.133329, "lat": 47.23333}}, {"id": 256914, "name": "Mirsini", "country": "GR", "coord": {"lon": 21.23333, "lat": 37.916672}}, {"id": 7533280, "name": "Mirsk", "country": "PL", "coord": {"lon": 15.3837, "lat": 50.9664}}, {"id": 3091686, "name": "Mirsk", "country": "PL", "coord": {"lon": 15.38567, "lat": 50.970539}}, {"id": 526296, "name": "Mirskoy", "country": "RU", "coord": {"lon": 40.399799, "lat": 45.5439}}, {"id": 2524131, "name": "Mirto", "country": "IT", "coord": {"lon": 14.75148, "lat": 38.08466}}, {"id": 1898149, "name": "Mirukashi", "country": "JP", "coord": {"lon": 129.938324, "lat": 33.438332}}, {"id": 1170281, "name": "Mirwah Gorchani", "country": "PK", "coord": {"lon": 69.052109, "lat": 25.30928}}, {"id": 4838794, "name": "Miry Brook", "country": "US", "coord": {"lon": -73.482353, "lat": 41.366482}}, {"id": 2440921, "name": "Mirya", "country": "NE", "coord": {"lon": 9.15013, "lat": 13.70727}}, {"id": 1841149, "name": "Miryang", "country": "KR", "coord": {"lon": 128.748886, "lat": 35.493328}}, {"id": 1262995, "name": "Mirzapur", "country": "IN", "coord": {"lon": 82.583328, "lat": 25.15}}, {"id": 1185165, "name": "Mirzapur", "country": "BD", "coord": {"lon": 90.099998, "lat": 24.1}}, {"id": 764659, "name": "Mirzec", "country": "PL", "coord": {"lon": 21.0571, "lat": 51.134659}}, {"id": 1262994, "name": "Mirz\u0101pur", "country": "IN", "coord": {"lon": 79.550003, "lat": 27.683332}}, {"id": 6435242, "name": "Mir\u00e9", "country": "FR", "coord": {"lon": -0.48333, "lat": 47.76667}}, {"id": 6355732, "name": "Mir\u00f3n (El)", "country": "ES", "coord": {"lon": -5.39626, "lat": 40.558929}}, {"id": 6803229, "name": "Misa-ch\u2019on", "country": "KR", "coord": {"lon": 127.429077, "lat": 37.515759}}, {"id": 3173363, "name": "Misano Adriatico", "country": "IT", "coord": {"lon": 12.69375, "lat": 43.97937}}, {"id": 3173362, "name": "Misano di Gera dAdda", "country": "IT", "coord": {"lon": 9.62246, "lat": 45.470982}}, {"id": 3523141, "name": "Misantla", "country": "MX", "coord": {"lon": -96.833328, "lat": 19.933331}}, {"id": 153772, "name": "Misasi", "country": "TZ", "coord": {"lon": 33.083328, "lat": -3}}, {"id": 2330082, "name": "Misau", "country": "NG", "coord": {"lon": 10.4703, "lat": 11.3163}}, {"id": 2129211, "name": "Misawa", "country": "JP", "coord": {"lon": 141.359726, "lat": 40.683609}}, {"id": 2129210, "name": "Misawa", "country": "JP", "coord": {"lon": 141.716675, "lat": 42.75}}, {"id": 526289, "name": "Misaylovo", "country": "RU", "coord": {"lon": 37.82, "lat": 55.563332}}, {"id": 7872744, "name": "Mischendorf", "country": "AT", "coord": {"lon": 16.296379, "lat": 47.204182}}, {"id": 2771567, "name": "Mischendorf", "country": "AT", "coord": {"lon": 16.316669, "lat": 47.183331}}, {"id": 673071, "name": "Mischii", "country": "RO", "coord": {"lon": 23.85, "lat": 44.383331}}, {"id": 6075165, "name": "Miscouche", "country": "CA", "coord": {"lon": -63.865429, "lat": 46.433441}}, {"id": 6429880, "name": "Miserey-Salines", "country": "FR", "coord": {"lon": 5.96667, "lat": 47.283329}}, {"id": 2993701, "name": "Miserey-Salines", "country": "FR", "coord": {"lon": 5.97387, "lat": 47.286381}}, {"id": 2993700, "name": "Miserieux", "country": "FR", "coord": {"lon": 4.8123, "lat": 45.973091}}, {"id": 7286511, "name": "Misery-Courtion", "country": "CH", "coord": {"lon": 7.08494, "lat": 46.8582}}, {"id": 2033111, "name": "Mishan", "country": "CN", "coord": {"lon": 131.882217, "lat": 45.54306}}, {"id": 2035746, "name": "Mishan", "country": "CN", "coord": {"lon": 131.883331, "lat": 45.549999}}, {"id": 4923670, "name": "Mishawaka", "country": "US", "coord": {"lon": -86.158623, "lat": 41.661991}}, {"id": 526274, "name": "Mishchukovo", "country": "RU", "coord": {"lon": 38.26902, "lat": 55.908241}}, {"id": 2019945, "name": "Mishelevka", "country": "RU", "coord": {"lon": 103.171944, "lat": 52.857498}}, {"id": 526271, "name": "Misheronskiy", "country": "RU", "coord": {"lon": 39.73835, "lat": 55.719269}}, {"id": 6460935, "name": "Mishevsko", "country": "BG", "coord": {"lon": 25.25, "lat": 41.527779}}, {"id": 1800436, "name": "Mishi", "country": "CN", "coord": {"lon": 112.118469, "lat": 30.22751}}, {"id": 5263207, "name": "Mishicot", "country": "US", "coord": {"lon": -87.64119, "lat": 44.239159}}, {"id": 2052157, "name": "Mishikha", "country": "RU", "coord": {"lon": 105.523064, "lat": 51.64167}}, {"id": 2019944, "name": "Mishikha", "country": "RU", "coord": {"lon": 105.592781, "lat": 51.652779}}, {"id": 1856977, "name": "Mishima", "country": "JP", "coord": {"lon": 138.916672, "lat": 35.116669}}, {"id": 526270, "name": "Mishin", "country": "RU", "coord": {"lon": 43.535, "lat": 50.359901}}, {"id": 526262, "name": "Mishino", "country": "RU", "coord": {"lon": 39.300835, "lat": 54.165558}}, {"id": 1806594, "name": "Mishixiang", "country": "CN", "coord": {"lon": 120.143417, "lat": 30.29483}}, {"id": 526247, "name": "Mishkino", "country": "RU", "coord": {"lon": 59.1064, "lat": 53.999699}}, {"id": 1498633, "name": "Mishkino", "country": "RU", "coord": {"lon": 63.9175, "lat": 55.33889}}, {"id": 294184, "name": "Mishmar HaNegev", "country": "IL", "coord": {"lon": 34.7187, "lat": 31.364161}}, {"id": 526222, "name": "Mishn\u00ebvo", "country": "RU", "coord": {"lon": 38.200001, "lat": 55.991669}}, {"id": 526213, "name": "Mishuka", "country": "RU", "coord": {"lon": 38.549999, "lat": 44.416668}}, {"id": 526210, "name": "Mishukovo", "country": "RU", "coord": {"lon": 41.700001, "lat": 54.966667}}, {"id": 6539133, "name": "Misilmeri", "country": "IT", "coord": {"lon": 13.45175, "lat": 38.033852}}, {"id": 2524126, "name": "Misilmeri", "country": "IT", "coord": {"lon": 13.45175, "lat": 38.033852}}, {"id": 3173351, "name": "Misinto", "country": "IT", "coord": {"lon": 9.08394, "lat": 45.66238}}, {"id": 526186, "name": "Misirevo", "country": "RU", "coord": {"lon": 36.75, "lat": 56.266666}}, {"id": 700997, "name": "Miskhor", "country": "UA", "coord": {"lon": 34.083332, "lat": 44.433334}}, {"id": 526185, "name": "Miskindzha", "country": "RU", "coord": {"lon": 47.84668, "lat": 41.424019}}, {"id": 717582, "name": "Miskolc", "country": "HU", "coord": {"lon": 20.783331, "lat": 48.099998}}, {"id": 6362034, "name": "Mislata", "country": "ES", "coord": {"lon": -0.42066, "lat": 39.475182}}, {"id": 2513811, "name": "Mislata", "country": "ES", "coord": {"lon": -0.41825, "lat": 39.475231}}, {"id": 787902, "name": "Misleshevo", "country": "MK", "coord": {"lon": 20.708611, "lat": 41.185001}}, {"id": 3195011, "name": "Mislinja", "country": "SI", "coord": {"lon": 15.19556, "lat": 46.441109}}, {"id": 282740, "name": "Misliyah", "country": "PS", "coord": {"lon": 35.2878, "lat": 32.386131}}, {"id": 104269, "name": "Misliyah", "country": "SA", "coord": {"lon": 42.557201, "lat": 17.459881}}, {"id": 173462, "name": "Mismiyah", "country": "SY", "coord": {"lon": 36.39254, "lat": 33.129719}}, {"id": 3879681, "name": "Misquihu\u00e9", "country": "CL", "coord": {"lon": -73.449997, "lat": -41.533329}}, {"id": 2214846, "name": "Misratah", "country": "LY", "coord": {"lon": 15.09254, "lat": 32.375351}}, {"id": 1262988, "name": "Misrikh", "country": "IN", "coord": {"lon": 80.51667, "lat": 27.450001}}, {"id": 2157449, "name": "Missabotti", "country": "AU", "coord": {"lon": 152.800003, "lat": -30.6}}, {"id": 3173350, "name": "Missaglia", "country": "IT", "coord": {"lon": 9.33705, "lat": 45.708881}}, {"id": 6075263, "name": "Missanabie", "country": "CA", "coord": {"lon": -84.083069, "lat": 48.316769}}, {"id": 3173349, "name": "Missanello", "country": "IT", "coord": {"lon": 16.165979, "lat": 40.282009}}, {"id": 3394755, "name": "Missao Velha", "country": "BR", "coord": {"lon": -39.143059, "lat": -7.24972}}, {"id": 6554066, "name": "Misselberg", "country": "DE", "coord": {"lon": 7.76667, "lat": 50.3167}}, {"id": 2870963, "name": "Misselberg", "country": "DE", "coord": {"lon": 7.76667, "lat": 50.316669}}, {"id": 6552600, "name": "Misselwarden", "country": "DE", "coord": {"lon": 8.51667, "lat": 53.666698}}, {"id": 2870962, "name": "Misselwarden", "country": "DE", "coord": {"lon": 8.51646, "lat": 53.675259}}, {"id": 2870957, "name": "Missen", "country": "DE", "coord": {"lon": 10.13333, "lat": 47.599998}}, {"id": 6557309, "name": "Missen-Wilhams", "country": "DE", "coord": {"lon": 10.1167, "lat": 47.599998}}, {"id": 3205552, "name": "Missen-Wilhams", "country": "DE", "coord": {"lon": 10.11667, "lat": 47.599998}}, {"id": 6449122, "name": "Missillac", "country": "FR", "coord": {"lon": -2.16667, "lat": 47.48333}}, {"id": 2993692, "name": "Missillac", "country": "FR", "coord": {"lon": -2.16, "lat": 47.481548}}, {"id": 5037855, "name": "Mission", "country": "US", "coord": {"lon": -94.051102, "lat": 46.58802}}, {"id": 6075292, "name": "Mission", "country": "CA", "coord": {"lon": -122.302582, "lat": 49.13298}}, {"id": 6075293, "name": "Mission", "country": "CA", "coord": {"lon": -122.3144, "lat": 49.13377}}, {"id": 4711725, "name": "Mission", "country": "US", "coord": {"lon": -98.325287, "lat": 26.21591}}, {"id": 4275600, "name": "Mission", "country": "US", "coord": {"lon": -94.655792, "lat": 39.027779}}, {"id": 5741069, "name": "Mission", "country": "US", "coord": {"lon": -118.683594, "lat": 45.67041}}, {"id": 5767144, "name": "Mission", "country": "US", "coord": {"lon": -100.658188, "lat": 43.30584}}, {"id": 2207714, "name": "Mission Bay", "country": "NZ", "coord": {"lon": 174.831665, "lat": -36.854721}}, {"id": 4164632, "name": "Mission Bay", "country": "US", "coord": {"lon": -80.20977, "lat": 26.370081}}, {"id": 4711729, "name": "Mission Bend", "country": "US", "coord": {"lon": -95.664948, "lat": 29.69384}}, {"id": 5373614, "name": "Mission Canyon", "country": "US", "coord": {"lon": -119.712914, "lat": 34.450829}}, {"id": 4275614, "name": "Mission Hills", "country": "US", "coord": {"lon": -94.616898, "lat": 39.01778}}, {"id": 5373650, "name": "Mission Hills", "country": "US", "coord": {"lon": -120.436829, "lat": 34.686089}}, {"id": 5373763, "name": "Mission Viejo", "country": "US", "coord": {"lon": -117.671997, "lat": 33.600021}}, {"id": 6075357, "name": "Mississauga", "country": "CA", "coord": {"lon": -79.658302, "lat": 43.578899}}, {"id": 4436296, "name": "Mississippi", "country": "US", "coord": {"lon": -89.750359, "lat": 32.750408}}, {"id": 4121839, "name": "Mississippi County", "country": "US", "coord": {"lon": -90.050087, "lat": 35.766739}}, {"id": 6075373, "name": "Mississippi Station", "country": "CA", "coord": {"lon": -76.682709, "lat": 44.916809}}, {"id": 6433893, "name": "Misson", "country": "FR", "coord": {"lon": -0.96667, "lat": 43.583328}}, {"id": 2993690, "name": "Misson", "country": "FR", "coord": {"lon": -0.9591, "lat": 43.592178}}, {"id": 5666639, "name": "Missoula", "country": "US", "coord": {"lon": -113.994003, "lat": 46.87215}}, {"id": 5666648, "name": "Missoula County", "country": "US", "coord": {"lon": -113.800926, "lat": 47.01659}}, {"id": 2542147, "name": "Missour", "country": "MA", "coord": {"lon": -3.98946, "lat": 33.048931}}, {"id": 4398678, "name": "Missouri", "country": "US", "coord": {"lon": -92.500458, "lat": 38.250309}}, {"id": 4711801, "name": "Missouri City", "country": "US", "coord": {"lon": -95.53772, "lat": 29.61857}}, {"id": 4867597, "name": "Missouri Valley", "country": "US", "coord": {"lon": -95.887787, "lat": 41.556381}}, {"id": 153759, "name": "Missungwi", "country": "TZ", "coord": {"lon": 33.083328, "lat": -2.85}}, {"id": 6427328, "name": "Missy", "country": "FR", "coord": {"lon": -0.55, "lat": 49.116669}}, {"id": 2993688, "name": "Missy", "country": "FR", "coord": {"lon": -0.55095, "lat": 49.12048}}, {"id": 6075439, "name": "Mistassini", "country": "CA", "coord": {"lon": -72.204903, "lat": 48.888931}}, {"id": 6075447, "name": "Mistatim", "country": "CA", "coord": {"lon": -103.367661, "lat": 52.866718}}, {"id": 7871844, "name": "Mistelbach", "country": "AT", "coord": {"lon": 16.577909, "lat": 48.57795}}, {"id": 6556764, "name": "Mistelbach", "country": "DE", "coord": {"lon": 11.5167, "lat": 49.916698}}, {"id": 2870941, "name": "Mistelbach", "country": "DE", "coord": {"lon": 11.51264, "lat": 49.912601}}, {"id": 2771557, "name": "Mistelbach", "country": "AT", "coord": {"lon": 16.57667, "lat": 48.57}}, {"id": 6556765, "name": "Mistelgau", "country": "DE", "coord": {"lon": 11.4667, "lat": 49.916698}}, {"id": 2870936, "name": "Mistelgau", "country": "DE", "coord": {"lon": 11.46586, "lat": 49.912601}}, {"id": 6542104, "name": "Misterbianco", "country": "IT", "coord": {"lon": 14.95377, "lat": 37.53405}}, {"id": 2524123, "name": "Misterbianco", "country": "IT", "coord": {"lon": 15.03089, "lat": 37.51815}}, {"id": 2642417, "name": "Misterton", "country": "GB", "coord": {"lon": -0.85, "lat": 53.450001}}, {"id": 2642416, "name": "Mistley", "country": "GB", "coord": {"lon": 1.08254, "lat": 51.94331}}, {"id": 703447, "name": "Misto Kyyiv", "country": "UA", "coord": {"lon": 30.516666, "lat": 50.433334}}, {"id": 694422, "name": "Misto Sevastopol\u2019", "country": "UA", "coord": {"lon": 33.533333, "lat": 44.599998}}, {"id": 6547899, "name": "Mistorf", "country": "DE", "coord": {"lon": 12.15, "lat": 53.883301}}, {"id": 2870926, "name": "Mistorf", "country": "DE", "coord": {"lon": 12.14453, "lat": 53.88451}}, {"id": 3674678, "name": "Mistrato", "country": "CO", "coord": {"lon": -75.883217, "lat": 5.2973}}, {"id": 2524122, "name": "Mistretta", "country": "IT", "coord": {"lon": 14.35747, "lat": 37.927059}}, {"id": 3070557, "name": "Mistrice", "country": "CZ", "coord": {"lon": 17.535971, "lat": 49.086681}}, {"id": 526183, "name": "Mists\u00ebvo", "country": "RU", "coord": {"lon": 39.116669, "lat": 55.599998}}, {"id": 526182, "name": "Mists\u00ebvskiy", "country": "RU", "coord": {"lon": 39.083332, "lat": 55.633331}}, {"id": 6075521, "name": "Mistusinne", "country": "CA", "coord": {"lon": -106.534554, "lat": 51.066761}}, {"id": 6424594, "name": "Mis\u00e9rieux", "country": "FR", "coord": {"lon": 4.81667, "lat": 45.98333}}, {"id": 1856950, "name": "Mita", "country": "JP", "coord": {"lon": 139.733337, "lat": 35.650002}}, {"id": 1856942, "name": "Mitaka-shi", "country": "JP", "coord": {"lon": 139.559631, "lat": 35.68351}}, {"id": 1856938, "name": "Mitake", "country": "JP", "coord": {"lon": 137.133331, "lat": 35.416672}}, {"id": 1085237, "name": "Mitamba", "country": "MZ", "coord": {"lon": 40.36972, "lat": -11.35972}}, {"id": 7839438, "name": "Mitcham", "country": "AU", "coord": {"lon": 138.622177, "lat": -35.006901}}, {"id": 2066066, "name": "Mitcham", "country": "AU", "coord": {"lon": 138.600006, "lat": -34.98333}}, {"id": 2642410, "name": "Mitchel Troy", "country": "GB", "coord": {"lon": -2.73731, "lat": 51.787281}}, {"id": 2642412, "name": "Mitcheldean", "country": "GB", "coord": {"lon": -2.4895, "lat": 51.864399}}, {"id": 5229794, "name": "Mitchell", "country": "US", "coord": {"lon": -98.0298, "lat": 43.709431}}, {"id": 7839807, "name": "Mitchell", "country": "AU", "coord": {"lon": 144.979996, "lat": -37.17535}}, {"id": 6075562, "name": "Mitchell", "country": "CA", "coord": {"lon": -81.199738, "lat": 43.466789}}, {"id": 4244696, "name": "Mitchell", "country": "US", "coord": {"lon": -90.085381, "lat": 38.76199}}, {"id": 4261486, "name": "Mitchell", "country": "US", "coord": {"lon": -86.473602, "lat": 38.73283}}, {"id": 5697633, "name": "Mitchell", "country": "US", "coord": {"lon": -103.808563, "lat": 41.940239}}, {"id": 7308978, "name": "Mitchell Brothers Mobile Home Park", "country": "US", "coord": {"lon": -86.280563, "lat": 42.35944}}, {"id": 6075663, "name": "Mitchells Corner", "country": "CA", "coord": {"lon": -65.01548, "lat": 45.616859}}, {"id": 2157388, "name": "Mitchells Flat", "country": "AU", "coord": {"lon": 151.283325, "lat": -32.566669}}, {"id": 2157383, "name": "Mitchellstown", "country": "AU", "coord": {"lon": 145.066666, "lat": -36.849998}}, {"id": 2066058, "name": "Mitchellville", "country": "AU", "coord": {"lon": 137.149994, "lat": -33.616669}}, {"id": 4362624, "name": "Mitchellville", "country": "US", "coord": {"lon": -76.742752, "lat": 38.92511}}, {"id": 4867632, "name": "Mitchellville", "country": "US", "coord": {"lon": -93.357712, "lat": 41.668598}}, {"id": 2962587, "name": "Mitchelstown", "country": "IE", "coord": {"lon": -8.26806, "lat": 52.265831}}, {"id": 2157380, "name": "Mitchelton", "country": "AU", "coord": {"lon": 152.966675, "lat": -27.41667}}, {"id": 2870922, "name": "Mitgenfeld", "country": "DE", "coord": {"lon": 9.83333, "lat": 50.283329}}, {"id": 1170222, "name": "Mitha Tiwana", "country": "PK", "coord": {"lon": 72.110832, "lat": 32.248611}}, {"id": 1170219, "name": "Mithi", "country": "PK", "coord": {"lon": 69.798111, "lat": 24.731831}}, {"id": 1481709, "name": "Mithwegon", "country": "MM", "coord": {"lon": 96.127777, "lat": 16.903891}}, {"id": 256879, "name": "Mithymna", "country": "GR", "coord": {"lon": 26.17639, "lat": 39.367809}}, {"id": 186531, "name": "Miti ya Hunter", "country": "KE", "coord": {"lon": 35.183331, "lat": 0.31667}}, {"id": 2157378, "name": "Mitiamo", "country": "AU", "coord": {"lon": 144.233337, "lat": -36.216671}}, {"id": 526160, "name": "Mitinka", "country": "RU", "coord": {"lon": 36.600277, "lat": 55.028057}}, {"id": 526157, "name": "Mitino", "country": "RU", "coord": {"lon": 37.252396, "lat": 54.777386}}, {"id": 526146, "name": "Mitino", "country": "RU", "coord": {"lon": 37.983334, "lat": 56.25}}, {"id": 526145, "name": "Mitino", "country": "RU", "coord": {"lon": 38.400002, "lat": 56.366669}}, {"id": 6415853, "name": "Mitino", "country": "RU", "coord": {"lon": 37.839169, "lat": 55.161388}}, {"id": 526165, "name": "Mitino", "country": "RU", "coord": {"lon": 38.796944, "lat": 55.661945}}, {"id": 526139, "name": "Mitino", "country": "RU", "coord": {"lon": 42.161667, "lat": 58.146667}}, {"id": 2111901, "name": "Mito-shi", "country": "JP", "coord": {"lon": 140.446671, "lat": 36.341389}}, {"id": 673054, "name": "Mitoc", "country": "RO", "coord": {"lon": 27.033331, "lat": 48.099998}}, {"id": 673050, "name": "Mitocu Dragomirnei", "country": "RO", "coord": {"lon": 26.25, "lat": 47.73333}}, {"id": 229144, "name": "Mitoma", "country": "UG", "coord": {"lon": 30.07, "lat": -0.68417}}, {"id": 6670303, "name": "Mitopampa", "country": "PE", "coord": {"lon": -76.225632, "lat": -9.91387}}, {"id": 7884139, "name": "Mitrabakti", "country": "ID", "coord": {"lon": 107.358398, "lat": -7.2852}}, {"id": 2157376, "name": "Mitre", "country": "AU", "coord": {"lon": 141.783325, "lat": -36.73333}}, {"id": 673048, "name": "Mitreni", "country": "RO", "coord": {"lon": 26.6, "lat": 44.166672}}, {"id": 526083, "name": "Mitrofanovka", "country": "RU", "coord": {"lon": 39.69389, "lat": 49.970829}}, {"id": 256860, "name": "Mitropoli", "country": "GR", "coord": {"lon": 21.836941, "lat": 39.339439}}, {"id": 625259, "name": "Mitropol\u2019", "country": "BY", "coord": {"lon": 25.799999, "lat": 53.599998}}, {"id": 789225, "name": "Mitrovice", "country": "XK", "coord": {"lon": 20.866671, "lat": 42.883331}}, {"id": 3342186, "name": "Mitrovi\u0107i", "country": "ME", "coord": {"lon": 19.22611, "lat": 42.3675}}, {"id": 6612797, "name": "Mitry-Mory", "country": "FR", "coord": {"lon": 2.61667, "lat": 48.98333}}, {"id": 2993679, "name": "Mitry-Mory", "country": "FR", "coord": {"lon": 2.61667, "lat": 48.98333}}, {"id": 526046, "name": "Mitryayevo", "country": "RU", "coord": {"lon": 46.200001, "lat": 56.166668}}, {"id": 921786, "name": "Mitsamiouli", "country": "KM", "coord": {"lon": 43.284439, "lat": -11.38472}}, {"id": 1856900, "name": "Mitsugarasuch\u014d", "country": "JP", "coord": {"lon": 135.833328, "lat": 34.666672}}, {"id": 1856881, "name": "Mitsukaido", "country": "JP", "coord": {"lon": 139.983337, "lat": 36.01667}}, {"id": 1856878, "name": "Mitsuke", "country": "JP", "coord": {"lon": 138.933334, "lat": 37.533329}}, {"id": 2157373, "name": "Mittagong", "country": "AU", "coord": {"lon": 150.449997, "lat": -34.450001}}, {"id": 2870913, "name": "Mittbach", "country": "DE", "coord": {"lon": 12.02977, "lat": 48.164139}}, {"id": 2870911, "name": "Mittegrossefehn", "country": "DE", "coord": {"lon": 7.55, "lat": 53.400002}}, {"id": 2870910, "name": "Mittel", "country": "DE", "coord": {"lon": 7.61667, "lat": 50.816669}}, {"id": 2870791, "name": "Mittel-Breese", "country": "DE", "coord": {"lon": 11.8, "lat": 53.01667}}, {"id": 2870909, "name": "Mittelagger", "country": "DE", "coord": {"lon": 7.65, "lat": 50.98333}}, {"id": 2870901, "name": "Mittelbach", "country": "DE", "coord": {"lon": 12.8, "lat": 50.799999}}, {"id": 2771533, "name": "Mittelberg", "country": "AT", "coord": {"lon": 10.15463, "lat": 47.3237}}, {"id": 7873738, "name": "Mittelberg", "country": "AT", "coord": {"lon": 10.15467, "lat": 47.329681}}, {"id": 2870805, "name": "Mittelberg", "country": "DE", "coord": {"lon": 7.25, "lat": 51.083328}}, {"id": 2870812, "name": "Mittelberg", "country": "DE", "coord": {"lon": 10.45, "lat": 47.816669}}, {"id": 6556022, "name": "Mittelbiberach", "country": "DE", "coord": {"lon": 9.75, "lat": 48.083302}}, {"id": 2870795, "name": "Mittelbiberach", "country": "DE", "coord": {"lon": 9.75, "lat": 48.083328}}, {"id": 6555049, "name": "Mittelbrunn", "country": "DE", "coord": {"lon": 7.55, "lat": 49.366699}}, {"id": 2870780, "name": "Mittelbrunn", "country": "DE", "coord": {"lon": 7.55, "lat": 49.366669}}, {"id": 2870773, "name": "Mitteldachstetten", "country": "DE", "coord": {"lon": 10.46667, "lat": 49.400002}}, {"id": 2870754, "name": "Mitteldorf", "country": "DE", "coord": {"lon": 9.16667, "lat": 53.066669}}, {"id": 2870750, "name": "Mitteledlau", "country": "DE", "coord": {"lon": 11.83333, "lat": 51.666672}}, {"id": 6556845, "name": "Mitteleschenbach", "country": "DE", "coord": {"lon": 10.7833, "lat": 49.216702}}, {"id": 2870743, "name": "Mitteleschenbach", "country": "DE", "coord": {"lon": 10.78333, "lat": 49.216671}}, {"id": 6554067, "name": "Mittelfischbach", "country": "DE", "coord": {"lon": 7.95, "lat": 50.25}}, {"id": 3207803, "name": "Mittelfischbach", "country": "DE", "coord": {"lon": 7.95, "lat": 50.25}}, {"id": 6441226, "name": "Mittelhausbergen", "country": "FR", "coord": {"lon": 7.6894, "lat": 48.614021}}, {"id": 2993673, "name": "Mittelhausbergen", "country": "FR", "coord": {"lon": 7.69009, "lat": 48.614361}}, {"id": 2870690, "name": "Mittelheim", "country": "DE", "coord": {"lon": 8, "lat": 50}}, {"id": 6548679, "name": "Mittelherwigsdorf", "country": "DE", "coord": {"lon": 14.7667, "lat": 50.916698}}, {"id": 2870687, "name": "Mittelherwigsdorf", "country": "DE", "coord": {"lon": 14.76667, "lat": 50.916672}}, {"id": 6553367, "name": "Mittelhof", "country": "DE", "coord": {"lon": 7.8, "lat": 50.783298}}, {"id": 2870673, "name": "Mittelhof", "country": "DE", "coord": {"lon": 7.8, "lat": 50.783329}}, {"id": 2870656, "name": "Mittelirsen", "country": "DE", "coord": {"lon": 7.6, "lat": 50.75}}, {"id": 2870633, "name": "Mittelmembach", "country": "DE", "coord": {"lon": 10.89552, "lat": 49.61232}}, {"id": 6557147, "name": "Mittelneufnach", "country": "DE", "coord": {"lon": 10.6, "lat": 48.1833}}, {"id": 2870628, "name": "Mittelneufnach", "country": "DE", "coord": {"lon": 10.6, "lat": 48.183331}}, {"id": 6552807, "name": "Mittelnkirchen", "country": "DE", "coord": {"lon": 9.62319, "lat": 53.542252}}, {"id": 2870627, "name": "Mittelnkirchen", "country": "DE", "coord": {"lon": 9.62319, "lat": 53.542252}}, {"id": 2870618, "name": "Mittelpollnitz", "country": "DE", "coord": {"lon": 11.91667, "lat": 50.75}}, {"id": 6550453, "name": "Mittelp\u00f6llnitz", "country": "DE", "coord": {"lon": 11.9167, "lat": 50.75}}, {"id": 6553615, "name": "Mittelreidenbach", "country": "DE", "coord": {"lon": 7.45, "lat": 49.733299}}, {"id": 2870612, "name": "Mittelreidenbach", "country": "DE", "coord": {"lon": 7.45, "lat": 49.73333}}, {"id": 2870584, "name": "Mittelschontal", "country": "DE", "coord": {"lon": 9.3952, "lat": 48.946152}}, {"id": 6557042, "name": "Mittelsinn", "country": "DE", "coord": {"lon": 9.61667, "lat": 50.200001}}, {"id": 2870567, "name": "Mittelsinn", "country": "DE", "coord": {"lon": 9.61667, "lat": 50.200001}}, {"id": 2870565, "name": "Mittelsommern", "country": "DE", "coord": {"lon": 10.81667, "lat": 51.200001}}, {"id": 2870556, "name": "Mittelsteinach", "country": "DE", "coord": {"lon": 10.56667, "lat": 49.666672}}, {"id": 6552601, "name": "Mittelstenahe", "country": "DE", "coord": {"lon": 9.03333, "lat": 53.650002}}, {"id": 2870549, "name": "Mittelstenahe", "country": "DE", "coord": {"lon": 9.03333, "lat": 53.650002}}, {"id": 2870543, "name": "Mittelstetten", "country": "DE", "coord": {"lon": 10.83333, "lat": 48.01667}}, {"id": 6556228, "name": "Mittelstetten", "country": "DE", "coord": {"lon": 11.1, "lat": 48.25}}, {"id": 2870541, "name": "Mittelstetten", "country": "DE", "coord": {"lon": 11.1, "lat": 48.25}}, {"id": 2870537, "name": "Mittelstille", "country": "DE", "coord": {"lon": 10.48333, "lat": 50.700001}}, {"id": 2870536, "name": "Mittelstreu", "country": "DE", "coord": {"lon": 10.26667, "lat": 50.383331}}, {"id": 6553708, "name": "Mittelstrimmig", "country": "DE", "coord": {"lon": 7.28333, "lat": 50.083302}}, {"id": 2870534, "name": "Mittelstrimmig", "country": "DE", "coord": {"lon": 7.28333, "lat": 50.083328}}, {"id": 6549934, "name": "Mittels\u00f6mmern", "country": "DE", "coord": {"lon": 10.8167, "lat": 51.200001}}, {"id": 3208093, "name": "Mittenaar", "country": "DE", "coord": {"lon": 8.33333, "lat": 50.700001}}, {"id": 2870490, "name": "Mittenaar", "country": "DE", "coord": {"lon": 8.38333, "lat": 50.700001}}, {"id": 2870482, "name": "Mittenwald", "country": "DE", "coord": {"lon": 11.26187, "lat": 47.4422}}, {"id": 6547742, "name": "Mittenwalde", "country": "DE", "coord": {"lon": 13.6667, "lat": 53.1833}}, {"id": 2870480, "name": "Mittenwalde", "country": "DE", "coord": {"lon": 13.66667, "lat": 53.183331}}, {"id": 2870481, "name": "Mittenwalde", "country": "DE", "coord": {"lon": 13.53945, "lat": 52.260071}}, {"id": 7872933, "name": "Mitterbach am Erlaufsee", "country": "AT", "coord": {"lon": 15.25185, "lat": 47.832932}}, {"id": 2771507, "name": "Mitterbach am Erlaufsee", "country": "AT", "coord": {"lon": 15.29537, "lat": 47.813961}}, {"id": 2870451, "name": "Mitterbuch", "country": "DE", "coord": {"lon": 11.9993, "lat": 48.20277}}, {"id": 2870447, "name": "Mitterdarching", "country": "DE", "coord": {"lon": 11.77151, "lat": 47.868549}}, {"id": 2870446, "name": "Mitterdorf", "country": "DE", "coord": {"lon": 13.28333, "lat": 48.5}}, {"id": 7872514, "name": "Mitterdorf an der Raab", "country": "AT", "coord": {"lon": 15.62154, "lat": 47.17075}}, {"id": 2771473, "name": "Mitterdorf an der Raab", "country": "AT", "coord": {"lon": 15.6, "lat": 47.166672}}, {"id": 2771472, "name": "Mitterdorf im Murztal", "country": "AT", "coord": {"lon": 15.51667, "lat": 47.533329}}, {"id": 7872459, "name": "Mitterdorf im M\u00fcrztal", "country": "AT", "coord": {"lon": 15.51455, "lat": 47.532219}}, {"id": 2870437, "name": "Mitterfecking", "country": "DE", "coord": {"lon": 11.95, "lat": 48.883331}}, {"id": 3205593, "name": "Mitterfelden", "country": "DE", "coord": {"lon": 12.95, "lat": 47.816669}}, {"id": 2870435, "name": "Mitterfels", "country": "DE", "coord": {"lon": 12.68333, "lat": 48.966671}}, {"id": 2870432, "name": "Mittergars", "country": "DE", "coord": {"lon": 12.33333, "lat": 48.150002}}, {"id": 2870423, "name": "Mitterharthausen", "country": "DE", "coord": {"lon": 12.55291, "lat": 48.829578}}, {"id": 7872300, "name": "Mitterlabill", "country": "AT", "coord": {"lon": 15.63297, "lat": 46.884029}}, {"id": 2771432, "name": "Mitterlabill", "country": "AT", "coord": {"lon": 15.63556, "lat": 46.889172}}, {"id": 2870385, "name": "Mitterndorf", "country": "DE", "coord": {"lon": 12.42991, "lat": 47.90403}}, {"id": 2771416, "name": "Mitterndorf", "country": "AT", "coord": {"lon": 15.48333, "lat": 48.166672}}, {"id": 7872839, "name": "Mitterndorf an der Fischa", "country": "AT", "coord": {"lon": 16.482071, "lat": 47.990269}}, {"id": 2771409, "name": "Mitterndorf an der Fischa", "country": "AT", "coord": {"lon": 16.466669, "lat": 47.98333}}, {"id": 2870368, "name": "Mitterscheyern", "country": "DE", "coord": {"lon": 11.46667, "lat": 48.51667}}, {"id": 7872243, "name": "Mittersill", "country": "AT", "coord": {"lon": 12.48588, "lat": 47.234741}}, {"id": 2771385, "name": "Mittersill", "country": "AT", "coord": {"lon": 12.48333, "lat": 47.26667}}, {"id": 6556564, "name": "Mitterskirchen", "country": "DE", "coord": {"lon": 12.7333, "lat": 48.349998}}, {"id": 2870359, "name": "Mitterskirchen", "country": "DE", "coord": {"lon": 12.73333, "lat": 48.349998}}, {"id": 2870357, "name": "Mittersthal", "country": "DE", "coord": {"lon": 11.55281, "lat": 49.212551}}, {"id": 2870355, "name": "Mitterteich", "country": "DE", "coord": {"lon": 12.23833, "lat": 49.948608}}, {"id": 3324563, "name": "Mittewald", "country": "AT", "coord": {"lon": 13.89056, "lat": 46.589722}}, {"id": 4711868, "name": "Mittie", "country": "US", "coord": {"lon": -95.229111, "lat": 31.97183}}, {"id": 2659650, "name": "Mittlersass", "country": "CH", "coord": {"lon": 9.83333, "lat": 47}}, {"id": 2870318, "name": "Mittweida", "country": "DE", "coord": {"lon": 12.98333, "lat": 50.98333}}, {"id": 3674676, "name": "Mitu", "country": "CO", "coord": {"lon": -70.173332, "lat": 1.19833}}, {"id": 2870315, "name": "Mitwitz", "country": "DE", "coord": {"lon": 11.21667, "lat": 50.25}}, {"id": 229139, "name": "Mityana", "country": "UG", "coord": {"lon": 32.022781, "lat": 0.4175}}, {"id": 7056293, "name": "Mityana District", "country": "UG", "coord": {"lon": 32.066971, "lat": 0.43213}}, {"id": 2398283, "name": "Mitzic", "country": "GA", "coord": {"lon": 11.54904, "lat": 0.78206}}, {"id": 294166, "name": "Mitzpe Ramon", "country": "IL", "coord": {"lon": 34.801109, "lat": 30.609444}}, {"id": 256883, "name": "Mit\u00e1ta", "country": "GR", "coord": {"lon": 23, "lat": 36.25}}, {"id": 1907309, "name": "Miura", "country": "JP", "coord": {"lon": 139.619171, "lat": 35.139999}}, {"id": 700977, "name": "Miusinsk", "country": "UA", "coord": {"lon": 38.903641, "lat": 48.077499}}, {"id": 8012067, "name": "Miuzela", "country": "PT", "coord": {"lon": -7.00102, "lat": 40.501541}}, {"id": 2737625, "name": "Miuzela", "country": "PT", "coord": {"lon": -7.00723, "lat": 40.511398}}, {"id": 2157361, "name": "Miva", "country": "AU", "coord": {"lon": 152.5, "lat": -25.966669}}, {"id": 1856845, "name": "Miwa", "country": "JP", "coord": {"lon": 138.199997, "lat": 36.666672}}, {"id": 3592519, "name": "Mixco", "country": "GT", "coord": {"lon": -90.606392, "lat": 14.63333}}, {"id": 6547645, "name": "Mixdorf", "country": "DE", "coord": {"lon": 14.4, "lat": 52.200001}}, {"id": 2870312, "name": "Mixdorf", "country": "DE", "coord": {"lon": 14.4, "lat": 52.200001}}, {"id": 3523127, "name": "Mixquiahuala", "country": "MX", "coord": {"lon": -99.216667, "lat": 20.23333}}, {"id": 3844104, "name": "Mixta", "country": "AR", "coord": {"lon": -65.134956, "lat": -27.228991}}, {"id": 1856828, "name": "Miyada", "country": "JP", "coord": {"lon": 130.666672, "lat": 33.716671}}, {"id": 1856826, "name": "Miyada", "country": "JP", "coord": {"lon": 137.949997, "lat": 35.76667}}, {"id": 2111888, "name": "Miyagi-ken", "country": "JP", "coord": {"lon": 140.926239, "lat": 38.449379}}, {"id": 1856801, "name": "Miyaji", "country": "JP", "coord": {"lon": 133.983337, "lat": 34.200001}}, {"id": 1856798, "name": "Miyajima", "country": "JP", "coord": {"lon": 132.326126, "lat": 34.30183}}, {"id": 1856789, "name": "Miyake", "country": "JP", "coord": {"lon": 135.550003, "lat": 34.583328}}, {"id": 2111884, "name": "Miyako", "country": "JP", "coord": {"lon": 141.952499, "lat": 39.636669}}, {"id": 1856775, "name": "Miyakonojo", "country": "JP", "coord": {"lon": 131.066666, "lat": 31.73333}}, {"id": 608816, "name": "Miyaly", "country": "KZ", "coord": {"lon": 53.783611, "lat": 48.884441}}, {"id": 1856764, "name": "Miyamaech\u014d", "country": "JP", "coord": {"lon": 139.199997, "lat": 36.316669}}, {"id": 1800430, "name": "Miyang", "country": "CN", "coord": {"lon": 103.44278, "lat": 24.404169}}, {"id": 1907235, "name": "Miyanomae", "country": "JP", "coord": {"lon": 139.392776, "lat": 35.422779}}, {"id": 3116660, "name": "Miyar", "country": "ES", "coord": {"lon": -5.13908, "lat": 43.39542}}, {"id": 1856710, "name": "Miyazaki-ken", "country": "JP", "coord": {"lon": 131.297623, "lat": 32.198071}}, {"id": 1856717, "name": "Miyazaki-shi", "country": "JP", "coord": {"lon": 131.423889, "lat": 31.91111}}, {"id": 1856703, "name": "Miyazu", "country": "JP", "coord": {"lon": 135.183334, "lat": 35.533329}}, {"id": 1856697, "name": "Miyoshi", "country": "JP", "coord": {"lon": 137.066666, "lat": 35.083328}}, {"id": 1856698, "name": "Miyoshi", "country": "JP", "coord": {"lon": 132.850006, "lat": 34.799999}}, {"id": 2035742, "name": "Miyun", "country": "CN", "coord": {"lon": 116.84333, "lat": 40.36972}}, {"id": 1133154, "name": "Mizan Alaqahdari", "country": "AF", "coord": {"lon": 66.512711, "lat": 32.17635}}, {"id": 330534, "name": "Mizan Teferi", "country": "ET", "coord": {"lon": 35.583328, "lat": 6.98333}}, {"id": 2214827, "name": "Mizdah", "country": "LY", "coord": {"lon": 12.98013, "lat": 31.445141}}, {"id": 3070546, "name": "Mizerov", "country": "CZ", "coord": {"lon": 18.560369, "lat": 49.857239}}, {"id": 625100, "name": "Mizhevichy", "country": "BY", "coord": {"lon": 25.083332, "lat": 52.983334}}, {"id": 410874, "name": "Mizhirah", "country": "SA", "coord": {"lon": 42.73333, "lat": 16.826111}}, {"id": 701286, "name": "Mizhvodne", "country": "UA", "coord": {"lon": 32.845009, "lat": 45.587509}}, {"id": 2001001, "name": "Mizi", "country": "CN", "coord": {"lon": 109.015411, "lat": 34.81242}}, {"id": 673033, "name": "Mizil", "country": "RO", "coord": {"lon": 26.450001, "lat": 45.01667}}, {"id": 525991, "name": "Mizinovo", "country": "RU", "coord": {"lon": 38.206944, "lat": 55.949722}}, {"id": 729040, "name": "Miziya", "country": "BG", "coord": {"lon": 23.85, "lat": 43.683331}}, {"id": 700974, "name": "Mizoch", "country": "UA", "coord": {"lon": 26.15, "lat": 50.400002}}, {"id": 1856685, "name": "Mizoguchi", "country": "JP", "coord": {"lon": 133.433334, "lat": 35.349998}}, {"id": 3910291, "name": "Mizque", "country": "BO", "coord": {"lon": -65.340157, "lat": -17.94101}}, {"id": 2111862, "name": "Mizuki", "country": "JP", "coord": {"lon": 140.633331, "lat": 36.51667}}, {"id": 1856667, "name": "Mizunami", "country": "JP", "coord": {"lon": 137.25, "lat": 35.366669}}, {"id": 525990, "name": "Mizur", "country": "RU", "coord": {"lon": 44.053059, "lat": 42.853062}}, {"id": 2111859, "name": "Mizusawa", "country": "JP", "coord": {"lon": 141.133331, "lat": 39.133331}}, {"id": 7286506, "name": "Mi\u00e8ge", "country": "CH", "coord": {"lon": 7.54843, "lat": 46.31443}}, {"id": 2659662, "name": "Mi\u00e8ge", "country": "CH", "coord": {"lon": 7.54714, "lat": 46.311329}}, {"id": 2659663, "name": "Mi\u00e9court", "country": "CH", "coord": {"lon": 7.17594, "lat": 47.427441}}, {"id": 2659661, "name": "Mi\u00e9ville", "country": "CH", "coord": {"lon": 7.02902, "lat": 46.147549}}, {"id": 2628310, "name": "Mi\u00f0gar\u00f0ar", "country": "IS", "coord": {"lon": -17.95118, "lat": 66.537712}}, {"id": 3116742, "name": "Mi\u00f1anes", "country": "ES", "coord": {"lon": -4.5707, "lat": 42.422459}}, {"id": 3116740, "name": "Mi\u00f1ano Menor/Mi\u00f1ao Gutxia", "country": "ES", "coord": {"lon": -2.66667, "lat": 42.916672}}, {"id": 3116741, "name": "Mi\u00f1ao Goien/Mi\u00f1ano Mayor", "country": "ES", "coord": {"lon": -2.65, "lat": 42.916672}}, {"id": 6357317, "name": "Mi\u00f1o", "country": "ES", "coord": {"lon": -8.1767, "lat": 43.351521}}, {"id": 6361159, "name": "Mi\u00f1o de San Esteban", "country": "ES", "coord": {"lon": -3.3418, "lat": 41.553181}}, {"id": 1381523, "name": "Mi\u0101n\u0101pura Khurd", "country": "PK", "coord": {"lon": 74.52005, "lat": 32.493389}}, {"id": 3092005, "name": "Mi\u0119dzg\u00f3rze", "country": "PL", "coord": {"lon": 16.76531, "lat": 50.228981}}, {"id": 7533107, "name": "Mi\u0119dzyb\u00f3rz", "country": "PL", "coord": {"lon": 17.6724, "lat": 51.401699}}, {"id": 7533411, "name": "Mi\u0119dzylesie", "country": "PL", "coord": {"lon": 16.6465, "lat": 50.144299}}, {"id": 7531692, "name": "Mi\u0119dzyrzec Podlaski", "country": "PL", "coord": {"lon": 22.7731, "lat": 52.018101}}, {"id": 7533483, "name": "Mi\u0119dzyrzecz", "country": "PL", "coord": {"lon": 15.5914, "lat": 52.448299}}, {"id": 3091964, "name": "Mi\u0119dzyrzecze G\u00f3rne", "country": "PL", "coord": {"lon": 18.94157, "lat": 49.844051}}, {"id": 7533183, "name": "Mi\u0119dzyzdroje", "country": "PL", "coord": {"lon": 14.4365, "lat": 53.925701}}, {"id": 3091804, "name": "Mi\u0142akowo", "country": "PL", "coord": {"lon": 16.183331, "lat": 54.200001}}, {"id": 764717, "name": "Mi\u0142k\u00f3w", "country": "PL", "coord": {"lon": 21.377529, "lat": 50.894859}}, {"id": 3091752, "name": "Mi\u0142ost\u00f3w", "country": "PL", "coord": {"lon": 17.16667, "lat": 51.166672}}, {"id": 7532581, "name": "Mi\u0144sk Mazowiecki", "country": "PL", "coord": {"lon": 21.556601, "lat": 52.178902}}, {"id": 3070565, "name": "Mi\u0161kovice", "country": "CZ", "coord": {"lon": 14.542, "lat": 50.15588}}, {"id": 2691792, "name": "Mjallby", "country": "SE", "coord": {"lon": 12.76667, "lat": 56.683331}}, {"id": 921784, "name": "Mjamaoue", "country": "KM", "coord": {"lon": 44.310001, "lat": -12.19361}}, {"id": 921783, "name": "Mjimandra", "country": "KM", "coord": {"lon": 44.370281, "lat": -12.19167}}, {"id": 2691743, "name": "Mjolby", "country": "SE", "coord": {"lon": 15.12365, "lat": 58.325951}}, {"id": 3145757, "name": "Mjondalen", "country": "NO", "coord": {"lon": 10.01891, "lat": 59.746311}}, {"id": 926523, "name": "Mjudzi", "country": "MW", "coord": {"lon": 33.464088, "lat": -13.57718}}, {"id": 2691798, "name": "Mj\u00e4lga", "country": "SE", "coord": {"lon": 15.43333, "lat": 60.48333}}, {"id": 2691742, "name": "Mj\u00f6lby Kommun", "country": "SE", "coord": {"lon": 15.13333, "lat": 58.316669}}, {"id": 8030185, "name": "Mkiriwadjumoi", "country": "KM", "coord": {"lon": 44.437019, "lat": -12.31086}}, {"id": 153585, "name": "Mkokotoni", "country": "TZ", "coord": {"lon": 39.254669, "lat": -5.87671}}, {"id": 153482, "name": "Mkuranga", "country": "TZ", "coord": {"lon": 39.207821, "lat": -7.11799}}, {"id": 906221, "name": "Mkushi", "country": "ZM", "coord": {"lon": 29.3939, "lat": -13.62015}}, {"id": 975511, "name": "Mkuze", "country": "ZA", "coord": {"lon": 32.038609, "lat": -27.616409}}, {"id": 3070544, "name": "Mlada Boleslav", "country": "CZ", "coord": {"lon": 14.90318, "lat": 50.41135}}, {"id": 3070542, "name": "Mlada Vozice", "country": "CZ", "coord": {"lon": 14.80857, "lat": 49.533131}}, {"id": 3070537, "name": "Mlade Buky", "country": "CZ", "coord": {"lon": 15.83348, "lat": 50.60643}}, {"id": 729035, "name": "Mladen", "country": "BG", "coord": {"lon": 25.183331, "lat": 43.083328}}, {"id": 787893, "name": "Mladenovac", "country": "RS", "coord": {"lon": 20.699169, "lat": 44.43861}}, {"id": 3194986, "name": "Mladenovo", "country": "RS", "coord": {"lon": 19.261669, "lat": 45.303059}}, {"id": 8070826, "name": "Mlagen", "country": "ID", "coord": {"lon": 111.4244, "lat": -6.783}}, {"id": 153423, "name": "Mlalo", "country": "TZ", "coord": {"lon": 38.933331, "lat": -4.93333}}, {"id": 153412, "name": "Mlandizi", "country": "TZ", "coord": {"lon": 38.73333, "lat": -6.7}}, {"id": 153408, "name": "Mlangali", "country": "TZ", "coord": {"lon": 34.51667, "lat": -9.78333}}, {"id": 7036695, "name": "Mlanggeng", "country": "ID", "coord": {"lon": 112.430298, "lat": -7.0748}}, {"id": 8071160, "name": "Mlangsen", "country": "ID", "coord": {"lon": 111.415199, "lat": -6.9741}}, {"id": 8061072, "name": "Mlatirejo", "country": "ID", "coord": {"lon": 111.304604, "lat": -6.846}}, {"id": 764634, "name": "Mlawa", "country": "PL", "coord": {"lon": 20.3841, "lat": 53.112782}}, {"id": 8070803, "name": "Mlawat", "country": "ID", "coord": {"lon": 111.417801, "lat": -6.7754}}, {"id": 7036533, "name": "Mlawe", "country": "ID", "coord": {"lon": 112.423203, "lat": -7.051}}, {"id": 700967, "name": "Mleyev", "country": "UA", "coord": {"lon": 31.533899, "lat": 49.344341}}, {"id": 934959, "name": "Mliba", "country": "SZ", "coord": {"lon": 31.58333, "lat": -26.25}}, {"id": 153384, "name": "Mlimba", "country": "TZ", "coord": {"lon": 35.816669, "lat": -8.8}}, {"id": 8077623, "name": "Mliwang", "country": "ID", "coord": {"lon": 111.890999, "lat": -6.8337}}, {"id": 764606, "name": "Mlodzieszyn", "country": "PL", "coord": {"lon": 20.200171, "lat": 52.29945}}, {"id": 1635164, "name": "Mlonggo", "country": "ID", "coord": {"lon": 110.699997, "lat": -6.53333}}, {"id": 153352, "name": "Mlowo", "country": "TZ", "coord": {"lon": 32.98333, "lat": -9}}, {"id": 3091641, "name": "Mlynary", "country": "PL", "coord": {"lon": 19.721491, "lat": 54.186901}}, {"id": 764602, "name": "Mlynarze", "country": "PL", "coord": {"lon": 21.411409, "lat": 52.95417}}, {"id": 700964, "name": "Mlyniv", "country": "UA", "coord": {"lon": 25.616751, "lat": 50.508999}}, {"id": 3070488, "name": "Ml\u00fdnec", "country": "CZ", "coord": {"lon": 13.16239, "lat": 49.412701}}, {"id": 975436, "name": "Mmabatho", "country": "ZA", "coord": {"lon": 25.633329, "lat": -25.85}}, {"id": 7654016, "name": "Mmale", "country": "BW", "coord": {"lon": 26.983419, "lat": -22.2827}}, {"id": 933347, "name": "Mmathubudukwane", "country": "BW", "coord": {"lon": 26.433331, "lat": -24.6}}, {"id": 2226441, "name": "Mme-Bafumen", "country": "CM", "coord": {"lon": 10.23333, "lat": 6.33333}}, {"id": 1106213, "name": "Mmopone", "country": "BW", "coord": {"lon": 25.87417, "lat": -24.56694}}, {"id": 525979, "name": "Mnevniki", "country": "RU", "coord": {"lon": 37.486668, "lat": 55.772499}}, {"id": 3091605, "name": "Mnich", "country": "PL", "coord": {"lon": 18.80722, "lat": 49.889439}}, {"id": 3070452, "name": "Mnichovice", "country": "CZ", "coord": {"lon": 14.70907, "lat": 49.936008}}, {"id": 3070451, "name": "Mnichovo Hradiste", "country": "CZ", "coord": {"lon": 14.97134, "lat": 50.527199}}, {"id": 3091598, "name": "Mnikow", "country": "PL", "coord": {"lon": 19.72595, "lat": 50.06044}}, {"id": 764578, "name": "Mniow", "country": "PL", "coord": {"lon": 20.48427, "lat": 51.012241}}, {"id": 3070447, "name": "Mnisek", "country": "CZ", "coord": {"lon": 15.0563, "lat": 50.831631}}, {"id": 3070446, "name": "Mnisek pod Brdy", "country": "CZ", "coord": {"lon": 14.26176, "lat": 49.866501}}, {"id": 764572, "name": "Mniszkow", "country": "PL", "coord": {"lon": 20.03915, "lat": 51.370171}}, {"id": 2019936, "name": "Mnogoudobnoye", "country": "RU", "coord": {"lon": 132.438889, "lat": 43.46917}}, {"id": 2019935, "name": "Mnogovershinnyy", "country": "RU", "coord": {"lon": 139.924164, "lat": 53.93528}}, {"id": 1091996, "name": "Mnoungou", "country": "KM", "coord": {"lon": 43.37389, "lat": -11.51778}}, {"id": 3145716, "name": "Mo", "country": "NO", "coord": {"lon": 5.80575, "lat": 60.81625}}, {"id": 3145614, "name": "Mo i Rana", "country": "NO", "coord": {"lon": 14.14278, "lat": 66.312782}}, {"id": 3546791, "name": "Moa", "country": "CU", "coord": {"lon": -74.940277, "lat": 20.65694}}, {"id": 5543307, "name": "Moab", "country": "US", "coord": {"lon": -109.549843, "lat": 38.573318}}, {"id": 2870310, "name": "Moabit", "country": "DE", "coord": {"lon": 13.33903, "lat": 52.526348}}, {"id": 673022, "name": "Moacsa", "country": "RO", "coord": {"lon": 25.966669, "lat": 45.866669}}, {"id": 1699454, "name": "Moalboal", "country": "PH", "coord": {"lon": 123.39917, "lat": 9.94333}}, {"id": 2157355, "name": "Moama", "country": "AU", "coord": {"lon": 144.783325, "lat": -36.116669}}, {"id": 2066052, "name": "Moana", "country": "AU", "coord": {"lon": 138.483337, "lat": -35.200001}}, {"id": 3116653, "name": "Moana", "country": "ES", "coord": {"lon": -8.75, "lat": 42.283329}}, {"id": 2398269, "name": "Moanda", "country": "GA", "coord": {"lon": 13.21775, "lat": -1.55746}}, {"id": 3291507, "name": "Moanflugh", "country": "IE", "coord": {"lon": -8.9825, "lat": 51.967781}}, {"id": 3305947, "name": "Moanvaun", "country": "IE", "coord": {"lon": -8.15361, "lat": 52.58889}}, {"id": 5508470, "name": "Moapa Town", "country": "US", "coord": {"lon": -114.594162, "lat": 36.68219}}, {"id": 5508473, "name": "Moapa Valley", "country": "US", "coord": {"lon": -114.470261, "lat": 36.580528}}, {"id": 673016, "name": "Moara Carp", "country": "RO", "coord": {"lon": 26.23333, "lat": 47.566669}}, {"id": 617795, "name": "Moara de Piatr\u0103", "country": "MD", "coord": {"lon": 28.006941, "lat": 47.895}}, {"id": 6535510, "name": "Moasca", "country": "IT", "coord": {"lon": 8.27834, "lat": 44.76355}}, {"id": 2962580, "name": "Moate", "country": "IE", "coord": {"lon": -7.71667, "lat": 53.549999}}, {"id": 6360230, "name": "Moa\u00f1a", "country": "ES", "coord": {"lon": -8.71009, "lat": 42.28574}}, {"id": 7341918, "name": "Moba", "country": "CN", "coord": {"lon": 105.017929, "lat": 33.22876}}, {"id": 2405347, "name": "Mobai", "country": "SL", "coord": {"lon": -10.75111, "lat": 7.99444}}, {"id": 2111855, "name": "Mobara", "country": "JP", "coord": {"lon": 140.300003, "lat": 35.416672}}, {"id": 237478, "name": "Mobaye", "country": "CF", "coord": {"lon": 21.17861, "lat": 4.31902}}, {"id": 2642404, "name": "Mobberley", "country": "GB", "coord": {"lon": -2.31667, "lat": 53.316669}}, {"id": 2870309, "name": "Mobendorf", "country": "DE", "coord": {"lon": 13.18333, "lat": 50.966671}}, {"id": 4398730, "name": "Moberly", "country": "US", "coord": {"lon": -92.43824, "lat": 39.418369}}, {"id": 6075812, "name": "Moberly Lake", "country": "CA", "coord": {"lon": -121.73629, "lat": 55.833191}}, {"id": 6075823, "name": "Mobert", "country": "CA", "coord": {"lon": -85.633163, "lat": 48.683399}}, {"id": 6075825, "name": "Mobile", "country": "CA", "coord": {"lon": -52.848049, "lat": 47.249889}}, {"id": 4076598, "name": "Mobile", "country": "US", "coord": {"lon": -88.043053, "lat": 30.694361}}, {"id": 4076607, "name": "Mobile County", "country": "US", "coord": {"lon": -88.199997, "lat": 30.78352}}, {"id": 7122887, "name": "Mobile Court East", "country": "US", "coord": {"lon": -95.748329, "lat": 48.84861}}, {"id": 5037935, "name": "Mobile Park Estates", "country": "US", "coord": {"lon": -95.375557, "lat": 45.861111}}, {"id": 1699450, "name": "Mobo", "country": "PH", "coord": {"lon": 123.657402, "lat": 12.3363}}, {"id": 5767189, "name": "Mobridge", "country": "US", "coord": {"lon": -100.42791, "lat": 45.53722}}, {"id": 3496332, "name": "Moca", "country": "DO", "coord": {"lon": -70.5, "lat": 19.5}}, {"id": 3496331, "name": "Moca", "country": "DO", "coord": {"lon": -70.525978, "lat": 19.39352}}, {"id": 4566270, "name": "Moca", "country": "PR", "coord": {"lon": -67.113243, "lat": 18.39467}}, {"id": 4566272, "name": "Moca Municipio", "country": "PR", "coord": {"lon": -67.084351, "lat": 18.3855}}, {"id": 3394745, "name": "Mocajuba", "country": "BR", "coord": {"lon": -49.507221, "lat": -2.58417}}, {"id": 2513803, "name": "Mocejon", "country": "ES", "coord": {"lon": -3.91716, "lat": 39.939339}}, {"id": 6361762, "name": "Mocej\u00f3n", "country": "ES", "coord": {"lon": -3.90916, "lat": 39.918049}}, {"id": 672987, "name": "Mocesti", "country": "RO", "coord": {"lon": 26.25, "lat": 45.049999}}, {"id": 7645375, "name": "Moch", "country": "FM", "coord": {"lon": 153.539993, "lat": 5.4918}}, {"id": 7626968, "name": "Moch Municipality", "country": "FM", "coord": {"lon": 153.538498, "lat": 5.4918}}, {"id": 806111, "name": "Mochaki", "country": "RU", "coord": {"lon": 36.968609, "lat": 51.006252}}, {"id": 6357960, "name": "Mochales", "country": "ES", "coord": {"lon": -2.02541, "lat": 41.095798}}, {"id": 3116649, "name": "Mochales", "country": "ES", "coord": {"lon": -2.0156, "lat": 41.09647}}, {"id": 525961, "name": "Mochalishche", "country": "RU", "coord": {"lon": 48.354698, "lat": 56.330601}}, {"id": 525954, "name": "Mochal\u2019niki", "country": "RU", "coord": {"lon": 40.583332, "lat": 56.583332}}, {"id": 6548753, "name": "Mochau", "country": "DE", "coord": {"lon": 13.1833, "lat": 51.133301}}, {"id": 2870304, "name": "Mochau", "country": "DE", "coord": {"lon": 13.18333, "lat": 51.133331}}, {"id": 7293065, "name": "Mochdre", "country": "GB", "coord": {"lon": -3.76117, "lat": 53.284752}}, {"id": 2642401, "name": "Mochdre", "country": "GB", "coord": {"lon": -3.75, "lat": 53.283329}}, {"id": 2642402, "name": "Mochdre", "country": "GB", "coord": {"lon": -3.36667, "lat": 52.48333}}, {"id": 3694725, "name": "Moche", "country": "PE", "coord": {"lon": -79.009171, "lat": -8.17111}}, {"id": 2870301, "name": "Mochenwangen", "country": "DE", "coord": {"lon": 9.63333, "lat": 47.883331}}, {"id": 2870298, "name": "Mocherwitz", "country": "DE", "coord": {"lon": 12.41667, "lat": 51.48333}}, {"id": 3995671, "name": "Mochicahui", "country": "MX", "coord": {"lon": -108.933327, "lat": 25.933331}}, {"id": 525936, "name": "Mochilki", "country": "RU", "coord": {"lon": 37.483891, "lat": 52.535278}}, {"id": 3995667, "name": "Mochis", "country": "MX", "coord": {"lon": -108.98333, "lat": 25.9}}, {"id": 1498589, "name": "Mochishche", "country": "RU", "coord": {"lon": 83.122902, "lat": 55.1586}}, {"id": 3091585, "name": "Mochowo", "country": "PL", "coord": {"lon": 19.55592, "lat": 52.765701}}, {"id": 933340, "name": "Mochudi", "country": "BW", "coord": {"lon": 26.15, "lat": -24.41667}}, {"id": 3694720, "name": "Mochumi", "country": "PE", "coord": {"lon": -79.86306, "lat": -6.54694}}, {"id": 1037370, "name": "Mocimboa", "country": "MZ", "coord": {"lon": 40.349998, "lat": -11.31667}}, {"id": 672983, "name": "Mociu", "country": "RO", "coord": {"lon": 24.033331, "lat": 46.799999}}, {"id": 2870278, "name": "Mockern", "country": "DE", "coord": {"lon": 11.95, "lat": 52.133331}}, {"id": 2870281, "name": "Mockern", "country": "DE", "coord": {"lon": 11.76667, "lat": 50.849998}}, {"id": 2691602, "name": "Mockfjard", "country": "SE", "coord": {"lon": 14.96667, "lat": 60.5}}, {"id": 2157347, "name": "Mockinya", "country": "AU", "coord": {"lon": 142.149994, "lat": -36.966671}}, {"id": 2870269, "name": "Mockmuhl", "country": "DE", "coord": {"lon": 9.35778, "lat": 49.325001}}, {"id": 6548789, "name": "Mockrehna", "country": "DE", "coord": {"lon": 12.8, "lat": 51.5}}, {"id": 2870266, "name": "Mockrehna", "country": "DE", "coord": {"lon": 12.81418, "lat": 51.507568}}, {"id": 2870265, "name": "Mockritz", "country": "DE", "coord": {"lon": 13.73333, "lat": 51.01667}}, {"id": 4479891, "name": "Mocksville", "country": "US", "coord": {"lon": -80.561447, "lat": 35.894032}}, {"id": 2513801, "name": "Moclin", "country": "ES", "coord": {"lon": -3.78651, "lat": 37.339588}}, {"id": 6359476, "name": "Moclinejo", "country": "ES", "coord": {"lon": -4.26082, "lat": 36.767281}}, {"id": 2513800, "name": "Moclinejo", "country": "ES", "coord": {"lon": -4.25514, "lat": 36.771339}}, {"id": 6357742, "name": "Mocl\u00edn", "country": "ES", "coord": {"lon": -3.79464, "lat": 37.35656}}, {"id": 3674654, "name": "Mocoa", "country": "CO", "coord": {"lon": -76.646606, "lat": 1.14933}}, {"id": 3457025, "name": "Mococa", "country": "BR", "coord": {"lon": -47.004719, "lat": -21.467779}}, {"id": 6534437, "name": "Moconesi", "country": "IT", "coord": {"lon": 9.20977, "lat": 44.42065}}, {"id": 3430648, "name": "Mocoreta", "country": "AR", "coord": {"lon": -57.96344, "lat": -30.61891}}, {"id": 3995652, "name": "Mocorito", "country": "MX", "coord": {"lon": -107.916672, "lat": 25.48333}}, {"id": 3048005, "name": "Mocsa", "country": "HU", "coord": {"lon": 18.185049, "lat": 47.669991}}, {"id": 717570, "name": "Mocsolya", "country": "HU", "coord": {"lon": 22.033331, "lat": 47.883331}}, {"id": 3995647, "name": "Moctezuma", "country": "MX", "coord": {"lon": -109.666672, "lat": 29.799999}}, {"id": 3995648, "name": "Moctezuma", "country": "MX", "coord": {"lon": -101.083328, "lat": 22.75}}, {"id": 2066043, "name": "Moculta", "country": "AU", "coord": {"lon": 139.116669, "lat": -34.466671}}, {"id": 672994, "name": "Moc\u0103nari", "country": "RO", "coord": {"lon": 24.6, "lat": 43.933331}}, {"id": 2330028, "name": "Modakeke", "country": "NG", "coord": {"lon": 4.26667, "lat": 7.38333}}, {"id": 6442822, "name": "Modane", "country": "FR", "coord": {"lon": 6.66667, "lat": 45.200001}}, {"id": 2993654, "name": "Modane", "country": "FR", "coord": {"lon": 6.66667, "lat": 45.200001}}, {"id": 1262958, "name": "Modasa", "country": "IN", "coord": {"lon": 73.300003, "lat": 23.466669}}, {"id": 2791133, "name": "Modave", "country": "BE", "coord": {"lon": 5.29575, "lat": 50.446629}}, {"id": 2791132, "name": "Modave", "country": "BE", "coord": {"lon": 5.29532, "lat": 50.44614}}, {"id": 1980981, "name": "Modayag", "country": "ID", "coord": {"lon": 124.383797, "lat": 0.7105}}, {"id": 2066041, "name": "Modbury", "country": "AU", "coord": {"lon": 138.683334, "lat": -34.833328}}, {"id": 2642395, "name": "Modbury", "country": "GB", "coord": {"lon": -3.88684, "lat": 50.349571}}, {"id": 975144, "name": "Modderfontein", "country": "ZA", "coord": {"lon": 28.16534, "lat": -26.08909}}, {"id": 1170157, "name": "Model Town", "country": "PK", "coord": {"lon": 74.324402, "lat": 31.4844}}, {"id": 2157345, "name": "Modella", "country": "AU", "coord": {"lon": 145.716675, "lat": -38.183331}}, {"id": 672977, "name": "Modelu", "country": "RO", "coord": {"lon": 27.383329, "lat": 44.200001}}, {"id": 6541461, "name": "Modena", "country": "IT", "coord": {"lon": 10.9192, "lat": 44.655869}}, {"id": 3173331, "name": "Modena", "country": "IT", "coord": {"lon": 10.92539, "lat": 44.647831}}, {"id": 5373900, "name": "Modesto", "country": "US", "coord": {"lon": -120.99688, "lat": 37.639099}}, {"id": 2157344, "name": "Modewarre", "country": "AU", "coord": {"lon": 144.133331, "lat": -38.25}}, {"id": 6541972, "name": "Modica", "country": "IT", "coord": {"lon": 14.77399, "lat": 36.84594}}, {"id": 2524119, "name": "Modica", "country": "IT", "coord": {"lon": 14.77399, "lat": 36.84594}}, {"id": 3173329, "name": "Modigliana", "country": "IT", "coord": {"lon": 11.79353, "lat": 44.16116}}, {"id": 6693679, "name": "Modiin", "country": "IL", "coord": {"lon": 34.999008, "lat": 31.90729}}, {"id": 8199378, "name": "Modiin Ilit", "country": "IL", "coord": {"lon": 35.044159, "lat": 31.932211}}, {"id": 968665, "name": "Modimolle", "country": "ZA", "coord": {"lon": 28.4, "lat": -24.700001}}, {"id": 2870233, "name": "Modingen", "country": "DE", "coord": {"lon": 10.43333, "lat": 48.650002}}, {"id": 8067420, "name": "Modis", "country": "ID", "coord": {"lon": 108.564796, "lat": -7.0066}}, {"id": 8012918, "name": "Modivas", "country": "PT", "coord": {"lon": -8.69064, "lat": 41.294868}}, {"id": 2737607, "name": "Modivas", "country": "PT", "coord": {"lon": -8.68995, "lat": 41.29657}}, {"id": 764531, "name": "Modliborzyce", "country": "PL", "coord": {"lon": 22.329451, "lat": 50.754162}}, {"id": 2771335, "name": "Modling", "country": "AT", "coord": {"lon": 16.289209, "lat": 48.086048}}, {"id": 3091548, "name": "Modlnica", "country": "PL", "coord": {"lon": 19.864611, "lat": 50.129581}}, {"id": 3091547, "name": "Modlniczka", "country": "PL", "coord": {"lon": 19.855301, "lat": 50.11739}}, {"id": 2870226, "name": "Modlos", "country": "DE", "coord": {"lon": 9.76667, "lat": 50.26667}}, {"id": 5568120, "name": "Modoc County", "country": "US", "coord": {"lon": -120.734413, "lat": 41.566559}}, {"id": 3173328, "name": "Modolo", "country": "IT", "coord": {"lon": 8.53002, "lat": 40.275349}}, {"id": 2029989, "name": "Modot", "country": "MN", "coord": {"lon": 109.050003, "lat": 47.75}}, {"id": 3058663, "name": "Modra", "country": "SK", "coord": {"lon": 17.30711, "lat": 48.333969}}, {"id": 3070420, "name": "Modrany", "country": "CZ", "coord": {"lon": 14.4096, "lat": 50.011162}}, {"id": 2962574, "name": "Modreeny", "country": "IE", "coord": {"lon": -8.05806, "lat": 52.95472}}, {"id": 7873547, "name": "Modriach", "country": "AT", "coord": {"lon": 15.06961, "lat": 46.942692}}, {"id": 2771330, "name": "Modriach", "country": "AT", "coord": {"lon": 15.05, "lat": 46.950001}}, {"id": 3070416, "name": "Modrice", "country": "CZ", "coord": {"lon": 16.60446, "lat": 49.119282}}, {"id": 3091543, "name": "Modrzej\u00f3w", "country": "PL", "coord": {"lon": 19.14831, "lat": 50.24007}}, {"id": 3116641, "name": "Modubar de la Emparedada", "country": "ES", "coord": {"lon": -3.65965, "lat": 42.261181}}, {"id": 6541734, "name": "Modugno", "country": "IT", "coord": {"lon": 16.777981, "lat": 41.097431}}, {"id": 3173326, "name": "Modugno", "country": "IT", "coord": {"lon": 16.777981, "lat": 41.097431}}, {"id": 6356499, "name": "Mod\u00fabar de la Emparedada", "country": "ES", "coord": {"lon": -3.65948, "lat": 42.261181}}, {"id": 2157343, "name": "Moe", "country": "AU", "coord": {"lon": 146.266663, "lat": -38.166672}}, {"id": 3116639, "name": "Moeche", "country": "ES", "coord": {"lon": -7.95, "lat": 43.549999}}, {"id": 3116637, "name": "Moeche", "country": "ES", "coord": {"lon": -8.01667, "lat": 43.549999}}, {"id": 672968, "name": "Moeciu de Jos", "country": "RO", "coord": {"lon": 25.316669, "lat": 45.48333}}, {"id": 1608725, "name": "Moeiwadi", "country": "TH", "coord": {"lon": 104.157204, "lat": 16.389441}}, {"id": 7511005, "name": "Moeiwadi", "country": "TH", "coord": {"lon": 104.157204, "lat": 16.389441}}, {"id": 2993647, "name": "Moelan-sur-Mer", "country": "FR", "coord": {"lon": -3.62892, "lat": 47.814178}}, {"id": 2642391, "name": "Moelfre", "country": "GB", "coord": {"lon": -4.23333, "lat": 53.349998}}, {"id": 2691459, "name": "Moelndal", "country": "SE", "coord": {"lon": 12.01378, "lat": 57.655399}}, {"id": 3145689, "name": "Moelv", "country": "NO", "coord": {"lon": 10.7, "lat": 60.933331}}, {"id": 3145649, "name": "Moen", "country": "NO", "coord": {"lon": 18.612261, "lat": 69.130432}}, {"id": 3173325, "name": "Moena", "country": "IT", "coord": {"lon": 11.66109, "lat": 46.377319}}, {"id": 6294491, "name": "Moenchaltorf / Dorf", "country": "CH", "coord": {"lon": 8.72211, "lat": 47.304008}}, {"id": 3383494, "name": "Moengo", "country": "SR", "coord": {"lon": -54.400002, "lat": 5.61667}}, {"id": 5305191, "name": "Moenkopi", "country": "US", "coord": {"lon": -111.222359, "lat": 36.111099}}, {"id": 2691407, "name": "Moensteras", "country": "SE", "coord": {"lon": 16.44463, "lat": 57.04134}}, {"id": 4034188, "name": "Moerai", "country": "PF", "coord": {"lon": -151.333328, "lat": -22.433331}}, {"id": 2186731, "name": "Moeraki", "country": "NZ", "coord": {"lon": 170.850006, "lat": -45.366669}}, {"id": 2791122, "name": "Moerbeke", "country": "BE", "coord": {"lon": 3.94729, "lat": 51.186298}}, {"id": 2791120, "name": "Moerbeke", "country": "BE", "coord": {"lon": 3.93001, "lat": 51.174091}}, {"id": 2691348, "name": "Moerbylanga", "country": "SE", "coord": {"lon": 16.378771, "lat": 56.524799}}, {"id": 2186722, "name": "Moerewa", "country": "NZ", "coord": {"lon": 174.033325, "lat": -35.383331}}, {"id": 2750764, "name": "Moerkapelle", "country": "NL", "coord": {"lon": 4.575, "lat": 52.04417}}, {"id": 2870221, "name": "Moers", "country": "DE", "coord": {"lon": 6.65, "lat": 51.450001}}, {"id": 2960262, "name": "Moersdorf", "country": "LU", "coord": {"lon": 6.5, "lat": 49.738331}}, {"id": 2960261, "name": "Moesdorf", "country": "LU", "coord": {"lon": 6.11667, "lat": 49.768059}}, {"id": 2960260, "name": "Moestroff", "country": "LU", "coord": {"lon": 6.23944, "lat": 49.867779}}, {"id": 2642384, "name": "Moffat", "country": "GB", "coord": {"lon": -3.44542, "lat": 55.332272}}, {"id": 672964, "name": "Moftinu Mare", "country": "RO", "coord": {"lon": 22.66667, "lat": 47.666672}}, {"id": 1262951, "name": "Moga", "country": "IN", "coord": {"lon": 75.166672, "lat": 30.799999}}, {"id": 53654, "name": "Mogadishu", "country": "SO", "coord": {"lon": 45.34375, "lat": 2.03711}}, {"id": 5163244, "name": "Mogadore", "country": "US", "coord": {"lon": -81.397888, "lat": 41.046452}}, {"id": 8010467, "name": "Mogadouro", "country": "PT", "coord": {"lon": -6.65913, "lat": 41.338161}}, {"id": 2737599, "name": "Mogadouro", "country": "PT", "coord": {"lon": -6.71187, "lat": 41.34034}}, {"id": 1262947, "name": "Mogalr\u0101japuram", "country": "IN", "coord": {"lon": 80.633331, "lat": 16.5}}, {"id": 2513798, "name": "Mogan", "country": "ES", "coord": {"lon": -15.72538, "lat": 27.88385}}, {"id": 933333, "name": "Mogapi", "country": "BW", "coord": {"lon": 27.834921, "lat": -22.323009}}, {"id": 933332, "name": "Mogapinyana", "country": "BW", "coord": {"lon": 27.6, "lat": -22.366671}}, {"id": 6360436, "name": "Mogarraz", "country": "ES", "coord": {"lon": -6.05775, "lat": 40.502998}}, {"id": 3116636, "name": "Mogarraz", "country": "ES", "coord": {"lon": -6.05327, "lat": 40.492641}}, {"id": 2405274, "name": "Mogbwemo", "country": "SL", "coord": {"lon": -12.31056, "lat": 7.76944}}, {"id": 2962573, "name": "Mogeely", "country": "IE", "coord": {"lon": -8.05944, "lat": 51.930828}}, {"id": 8011319, "name": "Mogege", "country": "PT", "coord": {"lon": -8.4115, "lat": 41.422409}}, {"id": 2737597, "name": "Mogege", "country": "PT", "coord": {"lon": -8.41285, "lat": 41.426239}}, {"id": 3394669, "name": "Mogeiro", "country": "BR", "coord": {"lon": -35.479439, "lat": -7.29944}}, {"id": 2659648, "name": "Mogelsberg", "country": "CH", "coord": {"lon": 9.13541, "lat": 47.362221}}, {"id": 6554155, "name": "Mogendorf", "country": "DE", "coord": {"lon": 7.847, "lat": 50.473701}}, {"id": 2870212, "name": "Mogendorf", "country": "DE", "coord": {"lon": 7.76667, "lat": 50.5}}, {"id": 2157336, "name": "Mogendoura", "country": "AU", "coord": {"lon": 150.050003, "lat": -35.883331}}, {"id": 2513794, "name": "Mogente", "country": "ES", "coord": {"lon": -0.7515, "lat": 38.87598}}, {"id": 7872703, "name": "Mogersdorf", "country": "AT", "coord": {"lon": 16.22773, "lat": 46.960751}}, {"id": 2771322, "name": "Mogersdorf", "country": "AT", "coord": {"lon": 16.23222, "lat": 46.949169}}, {"id": 2870210, "name": "Moggast", "country": "DE", "coord": {"lon": 11.26667, "lat": 49.76667}}, {"id": 2771321, "name": "Moggers", "country": "AT", "coord": {"lon": 9.81667, "lat": 47.566669}}, {"id": 2157331, "name": "Moggill", "country": "AU", "coord": {"lon": 152.866669, "lat": -27.58333}}, {"id": 3173320, "name": "Moggio", "country": "IT", "coord": {"lon": 9.48474, "lat": 45.933479}}, {"id": 3173318, "name": "Moggio Udinese", "country": "IT", "coord": {"lon": 13.20139, "lat": 46.410831}}, {"id": 2870202, "name": "Mogglingen", "country": "DE", "coord": {"lon": 9.9625, "lat": 48.8232}}, {"id": 2659647, "name": "Moghegno", "country": "CH", "coord": {"lon": 8.70655, "lat": 46.2407}}, {"id": 3457000, "name": "Mogi Guacu", "country": "BR", "coord": {"lon": -46.942219, "lat": -22.372219}}, {"id": 3456998, "name": "Mogi Mirim", "country": "BR", "coord": {"lon": -46.957779, "lat": -22.43194}}, {"id": 3457001, "name": "Mogi das Cruzes", "country": "BR", "coord": {"lon": -46.188332, "lat": -23.522779}}, {"id": 764502, "name": "Mogielnica", "country": "PL", "coord": {"lon": 20.722269, "lat": 51.694321}}, {"id": 787877, "name": "Mogila", "country": "MK", "coord": {"lon": 21.378611, "lat": 41.10833}}, {"id": 3091528, "name": "Mogilany", "country": "PL", "coord": {"lon": 19.889721, "lat": 49.9389}}, {"id": 2157327, "name": "Mogilla", "country": "AU", "coord": {"lon": 149.583328, "lat": -36.700001}}, {"id": 7533235, "name": "Mogilno", "country": "PL", "coord": {"lon": 17.9541, "lat": 52.658699}}, {"id": 3091523, "name": "Mogilno", "country": "PL", "coord": {"lon": 17.95578, "lat": 52.658058}}, {"id": 700924, "name": "Mogil\u00ebv", "country": "UA", "coord": {"lon": 30.35, "lat": 53.900002}}, {"id": 525907, "name": "Mogil\u00ebvo", "country": "RU", "coord": {"lon": 43.633331, "lat": 57.683334}}, {"id": 625067, "name": "Mogil\u2019na", "country": "BY", "coord": {"lon": 25.533331, "lat": 52.133331}}, {"id": 625066, "name": "Mogil\u2019nitsy", "country": "BY", "coord": {"lon": 25.716667, "lat": 53.549999}}, {"id": 3306996, "name": "Moglass", "country": "IE", "coord": {"lon": -7.71694, "lat": 52.522221}}, {"id": 6539679, "name": "Moglia", "country": "IT", "coord": {"lon": 10.9134, "lat": 44.937168}}, {"id": 3173317, "name": "Moglia", "country": "IT", "coord": {"lon": 10.9134, "lat": 44.937168}}, {"id": 3173315, "name": "Mogliano", "country": "IT", "coord": {"lon": 13.47308, "lat": 43.182751}}, {"id": 6540995, "name": "Mogliano Veneto", "country": "IT", "coord": {"lon": 12.24781, "lat": 45.557201}}, {"id": 3173314, "name": "Mogliano Veneto", "country": "IT", "coord": {"lon": 12.235, "lat": 45.564999}}, {"id": 2870194, "name": "Moglingen", "country": "DE", "coord": {"lon": 9.12694, "lat": 48.887409}}, {"id": 2157325, "name": "Moglonemby", "country": "AU", "coord": {"lon": 145.533325, "lat": -36.650002}}, {"id": 6424394, "name": "Mogneville", "country": "FR", "coord": {"lon": 2.46667, "lat": 49.316669}}, {"id": 2993633, "name": "Mogneville", "country": "FR", "coord": {"lon": 2.4717, "lat": 49.31535}}, {"id": 2157324, "name": "Mogo", "country": "AU", "coord": {"lon": 150.133331, "lat": -35.783329}}, {"id": 7739162, "name": "Mogobe wa Kgomo", "country": "BW", "coord": {"lon": 25.350189, "lat": -25.483721}}, {"id": 2019912, "name": "Mogocha", "country": "RU", "coord": {"lon": 119.76667, "lat": 53.73333}}, {"id": 933331, "name": "Mogoditshane", "country": "BW", "coord": {"lon": 25.865561, "lat": -24.62694}}, {"id": 8010723, "name": "Mogofores", "country": "PT", "coord": {"lon": -8.46492, "lat": 40.453339}}, {"id": 2737593, "name": "Mogofores", "country": "PT", "coord": {"lon": -8.4619, "lat": 40.45121}}, {"id": 1308937, "name": "Mogok", "country": "MM", "coord": {"lon": 96.5, "lat": 22.91667}}, {"id": 2524117, "name": "Mogorella", "country": "IT", "coord": {"lon": 8.85722, "lat": 39.865829}}, {"id": 2524116, "name": "Mogoro", "country": "IT", "coord": {"lon": 8.77694, "lat": 39.685558}}, {"id": 672955, "name": "Mogosani", "country": "RO", "coord": {"lon": 25.4, "lat": 44.683331}}, {"id": 672943, "name": "Mogosesti", "country": "RO", "coord": {"lon": 27.533331, "lat": 47.033329}}, {"id": 672938, "name": "Mogosesti-Siret", "country": "RO", "coord": {"lon": 26.783331, "lat": 47.133331}}, {"id": 672937, "name": "Mogosoaia", "country": "RO", "coord": {"lon": 26, "lat": 44.529171}}, {"id": 3674640, "name": "Mogotes", "country": "CO", "coord": {"lon": -72.970459, "lat": 6.47559}}, {"id": 2019895, "name": "Mogoyto", "country": "RU", "coord": {"lon": 110.449997, "lat": 54.416672}}, {"id": 2019892, "name": "Mogoytuy", "country": "RU", "coord": {"lon": 114.916672, "lat": 51.283329}}, {"id": 1699428, "name": "Mogpog", "country": "PH", "coord": {"lon": 121.861389, "lat": 13.47444}}, {"id": 2157318, "name": "Mogriguy", "country": "AU", "coord": {"lon": 148.683334, "lat": -32.066669}}, {"id": 3116630, "name": "Mogro", "country": "ES", "coord": {"lon": -3.97626, "lat": 43.427601}}, {"id": 6358226, "name": "Moguer", "country": "ES", "coord": {"lon": -6.8168, "lat": 37.246189}}, {"id": 2513791, "name": "Moguer", "country": "ES", "coord": {"lon": -6.83851, "lat": 37.275589}}, {"id": 5508487, "name": "Mogul", "country": "US", "coord": {"lon": -119.926033, "lat": 39.513802}}, {"id": 2066033, "name": "Mogumber", "country": "AU", "coord": {"lon": 116.050003, "lat": -31.049999}}, {"id": 3070413, "name": "Moguntia", "country": "CZ", "coord": {"lon": 13.26667, "lat": 49.683331}}, {"id": 2035732, "name": "Moguqi", "country": "CN", "coord": {"lon": 122.366669, "lat": 47.5}}, {"id": 974933, "name": "Mogwase", "country": "ZA", "coord": {"lon": 27.266541, "lat": -25.185049}}, {"id": 3047986, "name": "Mogyorod", "country": "HU", "coord": {"lon": 19.2407, "lat": 47.597481}}, {"id": 2019884, "name": "Mogzon", "country": "RU", "coord": {"lon": 111.960602, "lat": 51.7435}}, {"id": 6360182, "name": "Mog\u00e1n", "country": "ES", "coord": {"lon": -15.71592, "lat": 27.835409}}, {"id": 2513792, "name": "Mog\u00f3n", "country": "ES", "coord": {"lon": -3.03329, "lat": 38.075142}}, {"id": 3047967, "name": "Mohacs", "country": "HU", "coord": {"lon": 18.68306, "lat": 45.993061}}, {"id": 6201371, "name": "Mohafazat Baalbek-Hermel", "country": "LB", "coord": {"lon": 36.299999, "lat": 34.208328}}, {"id": 276780, "name": "Mohafazat Beyrouth", "country": "LB", "coord": {"lon": 35.5, "lat": 33.883331}}, {"id": 280282, "name": "Mohafazat B\u00e9qaa", "country": "LB", "coord": {"lon": 35.833328, "lat": 33.666672}}, {"id": 278297, "name": "Mohafazat Liban-Nord", "country": "LB", "coord": {"lon": 35.916672, "lat": 34.333328}}, {"id": 279894, "name": "Mohafazat Liban-Sud", "country": "LB", "coord": {"lon": 35.333328, "lat": 33.416672}}, {"id": 273607, "name": "Mohafazat Mont-Liban", "country": "LB", "coord": {"lon": 35.666672, "lat": 33.916672}}, {"id": 444191, "name": "Mohafazat Nabat\u00eey\u00e9", "country": "LB", "coord": {"lon": 35.5, "lat": 33.25}}, {"id": 932438, "name": "Mohales Hoek", "country": "LS", "coord": {"lon": 27.47691, "lat": -30.151369}}, {"id": 932439, "name": "Mohale\u2019s Hoek District", "country": "LS", "coord": {"lon": 27.66667, "lat": -30.16667}}, {"id": 6992326, "name": "Mohali", "country": "IN", "coord": {"lon": 76.722107, "lat": 30.679951}}, {"id": 5690557, "name": "Mohall", "country": "US", "coord": {"lon": -101.513222, "lat": 48.763359}}, {"id": 2487293, "name": "Mohammadia", "country": "DZ", "coord": {"lon": 0.06861, "lat": 35.588612}}, {"id": 6547301, "name": "Mohammedia", "country": "MA", "coord": {"lon": -7.37699, "lat": 33.647511}}, {"id": 6546783, "name": "Mohammedia", "country": "MA", "coord": {"lon": -7.38502, "lat": 33.69474}}, {"id": 2542051, "name": "Mohammedia", "country": "MA", "coord": {"lon": -7.39442, "lat": 33.706589}}, {"id": 1262928, "name": "Mohan", "country": "IN", "coord": {"lon": 80.683327, "lat": 26.783331}}, {"id": 1262920, "name": "Mohanb\u0101ri", "country": "IN", "coord": {"lon": 95.033333, "lat": 27.450001}}, {"id": 1262909, "name": "Mohanpur", "country": "IN", "coord": {"lon": 80.25, "lat": 28.26667}}, {"id": 1262905, "name": "Mohanur", "country": "IN", "coord": {"lon": 78.166672, "lat": 11.08333}}, {"id": 5305206, "name": "Mohave County", "country": "US", "coord": {"lon": -113.767448, "lat": 36.083321}}, {"id": 5305210, "name": "Mohave Crossing", "country": "US", "coord": {"lon": -114.58886, "lat": 35.333328}}, {"id": 5305230, "name": "Mohave Valley", "country": "US", "coord": {"lon": -114.588852, "lat": 34.93306}}, {"id": 5127233, "name": "Mohawk", "country": "US", "coord": {"lon": -75.004044, "lat": 43.011459}}, {"id": 2691542, "name": "Moheda", "country": "SE", "coord": {"lon": 14.56667, "lat": 57}}, {"id": 6361763, "name": "Mohedas de la Jara", "country": "ES", "coord": {"lon": -5.15632, "lat": 39.60207}}, {"id": 2513788, "name": "Mohedas de la Jara", "country": "ES", "coord": {"lon": -5.14247, "lat": 39.604172}}, {"id": 3070409, "name": "Mohelnice", "country": "CZ", "coord": {"lon": 16.91946, "lat": 49.776981}}, {"id": 3070404, "name": "Mohelno", "country": "CZ", "coord": {"lon": 16.19022, "lat": 49.11412}}, {"id": 6357961, "name": "Mohernando", "country": "ES", "coord": {"lon": -3.1685, "lat": 40.79863}}, {"id": 3116627, "name": "Mohernando", "country": "ES", "coord": {"lon": -3.17234, "lat": 40.801281}}, {"id": 1262891, "name": "Mohgaon", "country": "IN", "coord": {"lon": 78.716667, "lat": 21.65}}, {"id": 2962570, "name": "Mohill", "country": "IE", "coord": {"lon": -7.86667, "lat": 53.916672}}, {"id": 1262884, "name": "Mohiuddinnagar", "country": "IN", "coord": {"lon": 85.666672, "lat": 25.58333}}, {"id": 2870190, "name": "Mohlau", "country": "DE", "coord": {"lon": 12.35, "lat": 51.73333}}, {"id": 2659645, "name": "Mohlin", "country": "CH", "coord": {"lon": 7.84329, "lat": 47.559151}}, {"id": 6550509, "name": "Mohlsdorf", "country": "DE", "coord": {"lon": 12.2667, "lat": 50.666698}}, {"id": 2870178, "name": "Mohlsdorf", "country": "DE", "coord": {"lon": 12.26667, "lat": 50.666672}}, {"id": 3207377, "name": "Mohnesee", "country": "DE", "coord": {"lon": 8.13333, "lat": 51.5}}, {"id": 2870164, "name": "Mohnsen", "country": "DE", "coord": {"lon": 10.45, "lat": 53.566669}}, {"id": 5201641, "name": "Mohnton", "country": "US", "coord": {"lon": -75.984383, "lat": 40.285931}}, {"id": 2870160, "name": "Mohorn", "country": "DE", "coord": {"lon": 13.46667, "lat": 51.01667}}, {"id": 921777, "name": "Mohoro", "country": "KM", "coord": {"lon": 43.44611, "lat": -11.82583}}, {"id": 1234846, "name": "Mohottiwatta", "country": "LK", "coord": {"lon": 80.037804, "lat": 6.2681}}, {"id": 1262873, "name": "Mohpa", "country": "IN", "coord": {"lon": 78.816673, "lat": 21.316669}}, {"id": 1170102, "name": "Mohra N\u016br", "country": "PK", "coord": {"lon": 73.16288, "lat": 33.694721}}, {"id": 2870147, "name": "Mohrenbach", "country": "DE", "coord": {"lon": 11, "lat": 50.633331}}, {"id": 2870143, "name": "Mohrendorf", "country": "DE", "coord": {"lon": 11, "lat": 49.633331}}, {"id": 6551979, "name": "Mohrkirch", "country": "DE", "coord": {"lon": 9.71667, "lat": 54.666698}}, {"id": 3208557, "name": "Mohrkirch", "country": "DE", "coord": {"lon": 9.71667, "lat": 54.666672}}, {"id": 2870115, "name": "Mohsdorf", "country": "DE", "coord": {"lon": 12.83333, "lat": 50.933331}}, {"id": 700918, "name": "Mohyliv-Podilskyy", "country": "UA", "coord": {"lon": 27.798201, "lat": 48.44598}}, {"id": 3145617, "name": "Moi", "country": "NO", "coord": {"lon": 6.55184, "lat": 58.456741}}, {"id": 3115985, "name": "Moia", "country": "ES", "coord": {"lon": 2.09839, "lat": 41.811119}}, {"id": 3173311, "name": "Moiano", "country": "IT", "coord": {"lon": 14.54323, "lat": 41.080021}}, {"id": 2993629, "name": "Moidieu-Detourbe", "country": "FR", "coord": {"lon": 5.01613, "lat": 45.50988}}, {"id": 6433245, "name": "Moidieu-D\u00e9tourbe", "country": "FR", "coord": {"lon": 5.01667, "lat": 45.51667}}, {"id": 2993626, "name": "Moidrey", "country": "FR", "coord": {"lon": -1.50573, "lat": 48.575581}}, {"id": 2993622, "name": "Moigny-sur-Ecole", "country": "FR", "coord": {"lon": 2.45802, "lat": 48.432621}}, {"id": 6617951, "name": "Moigny-sur-\u00c9cole", "country": "FR", "coord": {"lon": 2.4578, "lat": 48.432598}}, {"id": 933329, "name": "Moijabana", "country": "BW", "coord": {"lon": 26.41667, "lat": -22.433331}}, {"id": 3173307, "name": "Moimacco", "country": "IT", "coord": {"lon": 13.37139, "lat": 46.092499}}, {"id": 8011271, "name": "Moimenta", "country": "PT", "coord": {"lon": -8.30125, "lat": 41.719299}}, {"id": 2737584, "name": "Moimenta", "country": "PT", "coord": {"lon": -8.30129, "lat": 41.715919}}, {"id": 8011627, "name": "Moimenta", "country": "PT", "coord": {"lon": -6.97527, "lat": 41.95126}}, {"id": 2737583, "name": "Moimenta", "country": "PT", "coord": {"lon": -6.9756, "lat": 41.94965}}, {"id": 8010656, "name": "Moimenta da Beira", "country": "PT", "coord": {"lon": -7.62959, "lat": 40.97134}}, {"id": 2737577, "name": "Moimentinha", "country": "PT", "coord": {"lon": -7.80302, "lat": 41.06905}}, {"id": 2157315, "name": "Moina", "country": "AU", "coord": {"lon": 146.116669, "lat": -41.450001}}, {"id": 672926, "name": "Moinesti", "country": "RO", "coord": {"lon": 26.48333, "lat": 46.466671}}, {"id": 2266335, "name": "Moinhos", "country": "PT", "coord": {"lon": -8.84291, "lat": 39.750938}}, {"id": 1520897, "name": "Moinkum", "country": "KZ", "coord": {"lon": 74.333893, "lat": 43.598331}}, {"id": 2524114, "name": "Moio Alcantara", "country": "IT", "coord": {"lon": 15.05148, "lat": 37.900059}}, {"id": 6534496, "name": "Moio de Calvi", "country": "IT", "coord": {"lon": 9.70075, "lat": 45.95179}}, {"id": 3173306, "name": "Moio della Civitella", "country": "IT", "coord": {"lon": 15.26886, "lat": 40.247101}}, {"id": 6534290, "name": "Moiola", "country": "IT", "coord": {"lon": 7.38973, "lat": 44.321129}}, {"id": 7839808, "name": "Moira", "country": "AU", "coord": {"lon": 145.538147, "lat": -36.050598}}, {"id": 2642376, "name": "Moira", "country": "GB", "coord": {"lon": -6.22822, "lat": 54.480209}}, {"id": 1262863, "name": "Moirang", "country": "IN", "coord": {"lon": 93.76667, "lat": 24.5}}, {"id": 6454074, "name": "Moirans", "country": "FR", "coord": {"lon": 5.56667, "lat": 45.333328}}, {"id": 2993605, "name": "Moirans", "country": "FR", "coord": {"lon": 5.55342, "lat": 45.3283}}, {"id": 6433634, "name": "Moirans-en-Montagne", "country": "FR", "coord": {"lon": 5.73333, "lat": 46.433331}}, {"id": 2993604, "name": "Moirans-en-Montagne", "country": "FR", "coord": {"lon": 5.72643, "lat": 46.433811}}, {"id": 6613535, "name": "Moirax", "country": "FR", "coord": {"lon": 0.6, "lat": 44.150002}}, {"id": 2993603, "name": "Moirax", "country": "FR", "coord": {"lon": 0.60883, "lat": 44.140541}}, {"id": 256842, "name": "Moires", "country": "GR", "coord": {"lon": 24.87442, "lat": 35.053188}}, {"id": 590186, "name": "Moisakula", "country": "EE", "coord": {"lon": 25.18639, "lat": 58.09222}}, {"id": 6552644, "name": "Moisburg", "country": "DE", "coord": {"lon": 9.7, "lat": 53.400002}}, {"id": 2870110, "name": "Moisburg", "country": "DE", "coord": {"lon": 9.7, "lat": 53.400002}}, {"id": 2870109, "name": "Moischeid", "country": "DE", "coord": {"lon": 9.05, "lat": 50.966671}}, {"id": 2993590, "name": "Moisdon-la-Riviere", "country": "FR", "coord": {"lon": -1.37258, "lat": 47.62175}}, {"id": 6613956, "name": "Moisdon-la-Rivi\u00e8re", "country": "FR", "coord": {"lon": -1.36667, "lat": 47.616669}}, {"id": 672922, "name": "Moisei", "country": "RO", "coord": {"lon": 24.54011, "lat": 47.655621}}, {"id": 6454725, "name": "Moisenay", "country": "FR", "coord": {"lon": 2.7368, "lat": 48.563099}}, {"id": 2993589, "name": "Moisenay", "country": "FR", "coord": {"lon": 2.73527, "lat": 48.56266}}, {"id": 1699418, "name": "Moises Padilla", "country": "PH", "coord": {"lon": 123.078056, "lat": 10.27028}}, {"id": 625059, "name": "Moiseyevichi", "country": "BY", "coord": {"lon": 28.2852, "lat": 53.215}}, {"id": 6444625, "name": "Moislains", "country": "FR", "coord": {"lon": 2.96667, "lat": 49.98333}}, {"id": 2993588, "name": "Moislains", "country": "FR", "coord": {"lon": 2.96404, "lat": 49.988201}}, {"id": 6444999, "name": "Moissac", "country": "FR", "coord": {"lon": 1.08333, "lat": 44.099998}}, {"id": 2993586, "name": "Moissac", "country": "FR", "coord": {"lon": 1.0945, "lat": 44.10236}}, {"id": 2427697, "name": "Moissala", "country": "TD", "coord": {"lon": 17.7663, "lat": 8.3404}}, {"id": 6454480, "name": "Moissat", "country": "FR", "coord": {"lon": 3.3587, "lat": 45.777599}}, {"id": 2993581, "name": "Moissat", "country": "FR", "coord": {"lon": 3.35, "lat": 45.76667}}, {"id": 6446301, "name": "Moisselles", "country": "FR", "coord": {"lon": 2.33333, "lat": 49.049999}}, {"id": 2993578, "name": "Moisselles", "country": "FR", "coord": {"lon": 2.33597, "lat": 49.049999}}, {"id": 6443740, "name": "Moissy-Cramayel", "country": "FR", "coord": {"lon": 2.6, "lat": 48.616669}}, {"id": 2993572, "name": "Moissy-Cramayel", "country": "FR", "coord": {"lon": 2.60125, "lat": 48.626049}}, {"id": 8010620, "name": "Moita", "country": "PT", "coord": {"lon": -9.0104, "lat": 38.658539}}, {"id": 8013132, "name": "Moita", "country": "PT", "coord": {"lon": -8.97176, "lat": 38.64032}}, {"id": 2266319, "name": "Moita", "country": "PT", "coord": {"lon": -8.99038, "lat": 38.65078}}, {"id": 3456977, "name": "Moita Bonita", "country": "BR", "coord": {"lon": -37.342781, "lat": -10.5775}}, {"id": 8012518, "name": "Moita Dos Ferreiros", "country": "PT", "coord": {"lon": -9.21385, "lat": 39.232319}}, {"id": 2266298, "name": "Moita dos Ferreiros", "country": "PT", "coord": {"lon": -9.22355, "lat": 39.248249}}, {"id": 2129176, "name": "Moiwashita", "country": "JP", "coord": {"lon": 141.350006, "lat": 43}}, {"id": 6356167, "name": "Moi\u00e0", "country": "ES", "coord": {"lon": 2.09581, "lat": 41.810089}}, {"id": 2513786, "name": "Mojacar", "country": "ES", "coord": {"lon": -1.85102, "lat": 37.140202}}, {"id": 6362217, "name": "Mojados", "country": "ES", "coord": {"lon": -4.66924, "lat": 41.427841}}, {"id": 3116619, "name": "Mojados", "country": "ES", "coord": {"lon": -4.6649, "lat": 41.432369}}, {"id": 3194928, "name": "Mojanovici", "country": "ME", "coord": {"lon": 19.22139, "lat": 42.341671}}, {"id": 5373965, "name": "Mojave", "country": "US", "coord": {"lon": -118.173958, "lat": 35.052471}}, {"id": 764494, "name": "Mojcza", "country": "PL", "coord": {"lon": 20.682671, "lat": 50.84}}, {"id": 3604712, "name": "Mojiman", "country": "HN", "coord": {"lon": -87.599998, "lat": 15.26667}}, {"id": 3194926, "name": "Mojkovac", "country": "ME", "coord": {"lon": 19.5833, "lat": 42.960442}}, {"id": 330491, "name": "Mojo", "country": "ET", "coord": {"lon": 39.116669, "lat": 8.6}}, {"id": 7579716, "name": "Mojo", "country": "ID", "coord": {"lon": 111.920601, "lat": -8.1185}}, {"id": 8060738, "name": "Mojo", "country": "ID", "coord": {"lon": 111.256401, "lat": -6.7109}}, {"id": 7375383, "name": "Mojo Wetan", "country": "ID", "coord": {"lon": 111.367897, "lat": -7.0308}}, {"id": 1635116, "name": "Mojoagung", "country": "ID", "coord": {"lon": 112.349998, "lat": -7.56667}}, {"id": 8142568, "name": "Mojoasem", "country": "ID", "coord": {"lon": 112.5728, "lat": -6.9965}}, {"id": 6621204, "name": "Mojocoya", "country": "BO", "coord": {"lon": -64.626747, "lat": -18.822081}}, {"id": 6621308, "name": "Mojocoya", "country": "BO", "coord": {"lon": -64.626747, "lat": -18.822081}}, {"id": 3910244, "name": "Mojocoya", "country": "BO", "coord": {"lon": -64.621391, "lat": -18.76333}}, {"id": 8060980, "name": "Mojogajeh", "country": "ID", "coord": {"lon": 111.277, "lat": -6.7637}}, {"id": 7406557, "name": "Mojogemi", "country": "ID", "coord": {"lon": 113.797203, "lat": -8.0578}}, {"id": 1635111, "name": "Mojokerto", "country": "ID", "coord": {"lon": 112.4338, "lat": -7.4664}}, {"id": 8068788, "name": "Mojokerto", "country": "ID", "coord": {"lon": 111.608902, "lat": -6.7334}}, {"id": 8058076, "name": "Mojolampir", "country": "ID", "coord": {"lon": 111.208702, "lat": -6.7997}}, {"id": 8185090, "name": "Mojomulyokrajan", "country": "ID", "coord": {"lon": 113.429604, "lat": -8.3445}}, {"id": 3430631, "name": "Mojon Grande", "country": "AR", "coord": {"lon": -55.156311, "lat": -27.711639}}, {"id": 3430634, "name": "Mojones Norte", "country": "AR", "coord": {"lon": -59.201801, "lat": -31.509741}}, {"id": 8140979, "name": "Mojopetung", "country": "ID", "coord": {"lon": 112.467796, "lat": -6.9803}}, {"id": 7036008, "name": "Mojorejo", "country": "ID", "coord": {"lon": 111.521004, "lat": -7.2405}}, {"id": 7035705, "name": "Mojorembun", "country": "ID", "coord": {"lon": 111.470596, "lat": -7.2269}}, {"id": 8075879, "name": "Mojoroto", "country": "ID", "coord": {"lon": 111.7798, "lat": -6.8117}}, {"id": 1958052, "name": "Mojosari", "country": "ID", "coord": {"lon": 114.194603, "lat": -7.7631}}, {"id": 8185094, "name": "Mojosarikrajan", "country": "ID", "coord": {"lon": 113.446602, "lat": -8.3553}}, {"id": 7036231, "name": "Mojosawit", "country": "ID", "coord": {"lon": 111.713097, "lat": -7.2477}}, {"id": 6621247, "name": "Mojotoro", "country": "BO", "coord": {"lon": -65.140068, "lat": -18.905809}}, {"id": 3910203, "name": "Mojotoro", "country": "BO", "coord": {"lon": -65.066673, "lat": -18.91667}}, {"id": 3194922, "name": "Mojstrana", "country": "SI", "coord": {"lon": 13.93694, "lat": 46.461109}}, {"id": 3394661, "name": "Moju", "country": "BR", "coord": {"lon": -48.76889, "lat": -1.88389}}, {"id": 6355576, "name": "Moj\u00e1car", "country": "ES", "coord": {"lon": -1.85515, "lat": 37.121449}}, {"id": 3844046, "name": "Moj\u00f3n", "country": "AR", "coord": {"lon": -64.916283, "lat": -27.22823}}, {"id": 934277, "name": "Moka", "country": "MU", "coord": {"lon": 57.495831, "lat": -20.218889}}, {"id": 934275, "name": "Moka District", "country": "MU", "coord": {"lon": 57.566669, "lat": -20.25}}, {"id": 1262852, "name": "Mokama", "country": "IN", "coord": {"lon": 85.916672, "lat": 25.4}}, {"id": 764488, "name": "Mokas", "country": "PL", "coord": {"lon": 20.329, "lat": 52.273201}}, {"id": 2186697, "name": "Mokau", "country": "NZ", "coord": {"lon": 174.616669, "lat": -38.683331}}, {"id": 2057031, "name": "Mokdale", "country": "ID", "coord": {"lon": 123.033333, "lat": -10.73333}}, {"id": 4902475, "name": "Mokena", "country": "US", "coord": {"lon": -87.889221, "lat": 41.526138}}, {"id": 256838, "name": "Mokhos", "country": "GR", "coord": {"lon": 25.42305, "lat": 35.26342}}, {"id": 932416, "name": "Mokhotlong", "country": "LS", "coord": {"lon": 29.067511, "lat": -29.289391}}, {"id": 1498547, "name": "Mokhovoye", "country": "RU", "coord": {"lon": 75.37114, "lat": 54.939602}}, {"id": 875279, "name": "Mokhovyye Gory", "country": "RU", "coord": {"lon": 44.133057, "lat": 56.328335}}, {"id": 2019867, "name": "Mokhsogollokh", "country": "RU", "coord": {"lon": 128.920273, "lat": 61.46806}}, {"id": 7628452, "name": "Mokil", "country": "FM", "coord": {"lon": 159.762833, "lat": 6.69281}}, {"id": 7626924, "name": "Mokil Municipality", "country": "FM", "coord": {"lon": 159.757004, "lat": 6.688}}, {"id": 7884617, "name": "Moko", "country": "BW", "coord": {"lon": 26.848721, "lat": -23.05641}}, {"id": 764486, "name": "Mokobody", "country": "PL", "coord": {"lon": 22.11182, "lat": 52.265228}}, {"id": 1262843, "name": "Mokokchung", "country": "IN", "coord": {"lon": 94.533333, "lat": 26.33333}}, {"id": 2226275, "name": "Mokolo", "country": "CM", "coord": {"lon": 13.80188, "lat": 10.73978}}, {"id": 964315, "name": "Mokopane", "country": "ZA", "coord": {"lon": 29.009741, "lat": -24.194361}}, {"id": 3194919, "name": "Mokosica", "country": "HR", "coord": {"lon": 18.090281, "lat": 42.67556}}, {"id": 3194918, "name": "Mokra Gora", "country": "RS", "coord": {"lon": 19.506109, "lat": 43.790829}}, {"id": 3070390, "name": "Mokra Hora", "country": "CZ", "coord": {"lon": 16.59107, "lat": 49.261761}}, {"id": 3070383, "name": "Mokre Lazce", "country": "CZ", "coord": {"lon": 18.029539, "lat": 49.904621}}, {"id": 6460529, "name": "Mokren", "country": "BG", "coord": {"lon": 26.633329, "lat": 42.75}}, {"id": 733594, "name": "Mokren", "country": "BG", "coord": {"lon": 26.633329, "lat": 42.75}}, {"id": 787857, "name": "Mokrin", "country": "RS", "coord": {"lon": 20.407221, "lat": 45.935829}}, {"id": 525724, "name": "Mokronazarov", "country": "RU", "coord": {"lon": 39.957409, "lat": 44.982281}}, {"id": 3194904, "name": "Mokronog", "country": "SI", "coord": {"lon": 15.14083, "lat": 45.93417}}, {"id": 525722, "name": "Mokrosarmatka", "country": "RU", "coord": {"lon": 38.784801, "lat": 47.33604}}, {"id": 525719, "name": "Mokrous", "country": "RU", "coord": {"lon": 47.516666, "lat": 51.233334}}, {"id": 1498511, "name": "Mokrousovo", "country": "RU", "coord": {"lon": 66.765282, "lat": 55.81028}}, {"id": 816740, "name": "Mokrovo", "country": "RU", "coord": {"lon": 37.282642, "lat": 54.975243}}, {"id": 525713, "name": "Mokroye", "country": "RU", "coord": {"lon": 35.23056, "lat": 54.759441}}, {"id": 525702, "name": "Mokroye", "country": "RU", "coord": {"lon": 40.25, "lat": 55.450001}}, {"id": 700871, "name": "Mokroye", "country": "UA", "coord": {"lon": 35.25, "lat": 47.816666}}, {"id": 3091493, "name": "Mokrsko", "country": "PL", "coord": {"lon": 18.488791, "lat": 51.17897}}, {"id": 525698, "name": "Mokrusha", "country": "RU", "coord": {"lon": 36.483334, "lat": 56.450001}}, {"id": 1498504, "name": "Mokrushino", "country": "RU", "coord": {"lon": 63.41333, "lat": 55.659439}}, {"id": 525668, "name": "Mokryy Michkas", "country": "RU", "coord": {"lon": 43.59861, "lat": 53.342499}}, {"id": 525659, "name": "Mokshan", "country": "RU", "coord": {"lon": 44.61322, "lat": 53.436501}}, {"id": 5851156, "name": "Mokuleia", "country": "US", "coord": {"lon": -158.151947, "lat": 21.584169}}, {"id": 208891, "name": "Mokumbano", "country": "CD", "coord": {"lon": 20.813641, "lat": 2.51422}}, {"id": 2329981, "name": "Mokwa", "country": "NG", "coord": {"lon": 5.05, "lat": 9.28333}}, {"id": 2791068, "name": "Mol", "country": "BE", "coord": {"lon": 5.11448, "lat": 51.192039}}, {"id": 787855, "name": "Mol", "country": "RS", "coord": {"lon": 20.131109, "lat": 45.764172}}, {"id": 2791067, "name": "Mol", "country": "BE", "coord": {"lon": 5.11662, "lat": 51.191879}}, {"id": 3173302, "name": "Mola di Bari", "country": "IT", "coord": {"lon": 17.08729, "lat": 41.06094}}, {"id": 6538945, "name": "Mola di Bari", "country": "IT", "coord": {"lon": 17.08729, "lat": 41.06094}}, {"id": 6437311, "name": "Molac", "country": "FR", "coord": {"lon": -2.4337, "lat": 47.730598}}, {"id": 2993562, "name": "Molac", "country": "FR", "coord": {"lon": -2.43484, "lat": 47.73011}}, {"id": 6362556, "name": "Molacillos", "country": "ES", "coord": {"lon": -5.66753, "lat": 41.587929}}, {"id": 3116610, "name": "Molacillos", "country": "ES", "coord": {"lon": -5.66046, "lat": 41.582691}}, {"id": 3674618, "name": "Molagavita", "country": "CO", "coord": {"lon": -72.808746, "lat": 6.67315}}, {"id": 5741182, "name": "Molalla", "country": "US", "coord": {"lon": -122.577026, "lat": 45.147339}}, {"id": 3145589, "name": "Moland", "country": "NO", "coord": {"lon": 8.0895, "lat": 59.186501}}, {"id": 3523078, "name": "Molango", "country": "MX", "coord": {"lon": -98.716667, "lat": 20.783331}}, {"id": 256833, "name": "Molaoi", "country": "GR", "coord": {"lon": 22.85132, "lat": 36.807571}}, {"id": 3173298, "name": "Molare", "country": "IT", "coord": {"lon": 8.60055, "lat": 44.618641}}, {"id": 6361018, "name": "Molares (Los)", "country": "ES", "coord": {"lon": -5.69152, "lat": 37.159962}}, {"id": 1699388, "name": "Molave", "country": "PH", "coord": {"lon": 123.490997, "lat": 8.0844}}, {"id": 3173295, "name": "Molazzana", "country": "IT", "coord": {"lon": 10.4178, "lat": 44.071751}}, {"id": 6552877, "name": "Molbergen", "country": "DE", "coord": {"lon": 7.9716, "lat": 52.8512}}, {"id": 2870094, "name": "Molbergen", "country": "DE", "coord": {"lon": 7.93333, "lat": 52.866669}}, {"id": 2771313, "name": "Molbling", "country": "AT", "coord": {"lon": 14.43333, "lat": 46.849998}}, {"id": 3219446, "name": "Molbling", "country": "AT", "coord": {"lon": 14.44806, "lat": 46.862221}}, {"id": 3523075, "name": "Molcaxac", "country": "MX", "coord": {"lon": -97.898399, "lat": 18.731939}}, {"id": 1498493, "name": "Molchanovo", "country": "RU", "coord": {"lon": 83.769173, "lat": 57.581669}}, {"id": 812935, "name": "Molchany", "country": "UA", "coord": {"lon": 36.300282, "lat": 49.9202}}, {"id": 2642372, "name": "Mold", "country": "GB", "coord": {"lon": -3.14143, "lat": 53.16674}}, {"id": 724111, "name": "Moldava nad Bodvou", "country": "SK", "coord": {"lon": 20.999571, "lat": 48.614281}}, {"id": 525627, "name": "Moldavanka", "country": "RU", "coord": {"lon": 38.368057, "lat": 44.550556}}, {"id": 3145582, "name": "Molde", "country": "NO", "coord": {"lon": 7.15882, "lat": 62.738071}}, {"id": 3145580, "name": "Molde", "country": "NO", "coord": {"lon": 7.15912, "lat": 62.737518}}, {"id": 3145573, "name": "Moldjord", "country": "NO", "coord": {"lon": 14.5743, "lat": 67.006012}}, {"id": 672912, "name": "Moldova Noua", "country": "RO", "coord": {"lon": 21.666941, "lat": 44.737499}},