[{"id": 5782055, "name": "Stansbury park", "country": "US", "coord": {"lon": -112.296059, "lat": 40.637718}}, {"id": 7287218, "name": "Stansstad", "country": "CH", "coord": {"lon": 8.35645, "lat": 46.983379}}, {"id": 2658502, "name": "Stansstad", "country": "CH", "coord": {"lon": 8.33553, "lat": 46.976799}}, {"id": 6155300, "name": "Stanstead Plain", "country": "CA", "coord": {"lon": -72.090782, "lat": 45.018188}}, {"id": 2637052, "name": "Stansted", "country": "GB", "coord": {"lon": 0.2, "lat": 51.900002}}, {"id": 2148507, "name": "Stanthorpe", "country": "AU", "coord": {"lon": 151.949997, "lat": -28.66667}}, {"id": 5048549, "name": "Stanton", "country": "US", "coord": {"lon": -93.022987, "lat": 44.471909}}, {"id": 5398630, "name": "Stanton", "country": "US", "coord": {"lon": -117.993118, "lat": 33.802521}}, {"id": 4309498, "name": "Stanton", "country": "US", "coord": {"lon": -83.858253, "lat": 37.845638}}, {"id": 5011042, "name": "Stanton", "country": "US", "coord": {"lon": -85.081413, "lat": 43.29253}}, {"id": 5079541, "name": "Stanton", "country": "US", "coord": {"lon": -97.22393, "lat": 41.950279}}, {"id": 5531683, "name": "Stanton", "country": "US", "coord": {"lon": -101.78846, "lat": 32.129292}}, {"id": 5692342, "name": "Stanton", "country": "US", "coord": {"lon": -101.381554, "lat": 47.32111}}, {"id": 1491055, "name": "Stantsionno-Oyashinskiy", "country": "RU", "coord": {"lon": 83.824501, "lat": 55.4664}}, {"id": 839646, "name": "Stantsionnyy", "country": "RU", "coord": {"lon": 39.480278, "lat": 44.435833}}, {"id": 1491053, "name": "Stantsionnyy-Polevskoy", "country": "RU", "coord": {"lon": 60.315601, "lat": 56.4412}}, {"id": 1518803, "name": "Stantsiya Kzyl", "country": "KZ", "coord": {"lon": 72.966667, "lat": 49.633331}}, {"id": 615912, "name": "Stantsiya Novyy Afon", "country": "GE", "coord": {"lon": 40.838333, "lat": 43.080555}}, {"id": 2637035, "name": "Stanwell", "country": "GB", "coord": {"lon": -0.47812, "lat": 51.45414}}, {"id": 2148505, "name": "Stanwell", "country": "AU", "coord": {"lon": 150.316666, "lat": -23.48333}}, {"id": 2148503, "name": "Stanwell Park", "country": "AU", "coord": {"lon": 150.983337, "lat": -34.23333}}, {"id": 2637034, "name": "Stanwick", "country": "GB", "coord": {"lon": -0.56348, "lat": 52.331982}}, {"id": 5811995, "name": "Stanwood", "country": "US", "coord": {"lon": -122.370712, "lat": 48.241211}}, {"id": 7873672, "name": "Stanz bei Landeck", "country": "AT", "coord": {"lon": 10.55278, "lat": 47.158131}}, {"id": 2764645, "name": "Stanz bei Landeck", "country": "AT", "coord": {"lon": 10.5534, "lat": 47.147579}}, {"id": 7873696, "name": "Stanzach", "country": "AT", "coord": {"lon": 10.59976, "lat": 47.362862}}, {"id": 2764648, "name": "Stanzach", "country": "AT", "coord": {"lon": 10.56667, "lat": 47.383331}}, {"id": 2479099, "name": "Staoueli", "country": "DZ", "coord": {"lon": 2.88783, "lat": 36.753189}}, {"id": 2829522, "name": "Stapel", "country": "DE", "coord": {"lon": 9.2, "lat": 53.183331}}, {"id": 2829513, "name": "Stapelburg", "country": "DE", "coord": {"lon": 10.66667, "lat": 51.900002}}, {"id": 2829509, "name": "Stapelfeld", "country": "DE", "coord": {"lon": 10.21667, "lat": 53.599998}}, {"id": 6552288, "name": "Stapelfeld", "country": "DE", "coord": {"lon": 10.2129, "lat": 53.605099}}, {"id": 2829506, "name": "Stapelmoorerheide", "country": "DE", "coord": {"lon": 7.28333, "lat": 53.133331}}, {"id": 2746839, "name": "Staphorst", "country": "NL", "coord": {"lon": 6.21111, "lat": 52.645}}, {"id": 2637026, "name": "Staple Fitzpaine", "country": "GB", "coord": {"lon": -3.04942, "lat": 50.95961}}, {"id": 2637025, "name": "Stapleford", "country": "GB", "coord": {"lon": -1.9, "lat": 51.116669}}, {"id": 6155340, "name": "Staplehurst", "country": "CA", "coord": {"lon": -110.084877, "lat": 53.350159}}, {"id": 2637016, "name": "Staplehurst", "country": "GB", "coord": {"lon": 0.55249, "lat": 51.161098}}, {"id": 5048555, "name": "Staples", "country": "US", "coord": {"lon": -94.792236, "lat": 46.355518}}, {"id": 5699840, "name": "Stapleton", "country": "US", "coord": {"lon": -100.512917, "lat": 41.480282}}, {"id": 758393, "name": "Staporkow", "country": "PL", "coord": {"lon": 20.57173, "lat": 51.137619}}, {"id": 2148499, "name": "Stapylton", "country": "AU", "coord": {"lon": 153.233337, "lat": -27.73333}}, {"id": 489271, "name": "Star", "country": "RU", "coord": {"lon": 34.151829, "lat": 53.623619}}, {"id": 5608754, "name": "Star", "country": "US", "coord": {"lon": -116.493462, "lat": 43.692108}}, {"id": 6155387, "name": "Star City", "country": "CA", "coord": {"lon": -104.334267, "lat": 52.866718}}, {"id": 4132227, "name": "Star City", "country": "US", "coord": {"lon": -91.843468, "lat": 33.942879}}, {"id": 4823309, "name": "Star City", "country": "US", "coord": {"lon": -79.98645, "lat": 39.658409}}, {"id": 785537, "name": "Star Dojran", "country": "MK", "coord": {"lon": 22.720831, "lat": 41.1875}}, {"id": 5213675, "name": "Star Junction", "country": "US", "coord": {"lon": -79.763649, "lat": 40.062569}}, {"id": 5315713, "name": "Star Valley", "country": "US", "coord": {"lon": -111.258469, "lat": 34.255039}}, {"id": 7531365, "name": "Stara Bia\u0142a", "country": "PL", "coord": {"lon": 19.64896, "lat": 52.605862}}, {"id": 3084967, "name": "Stara Bia\u0142a", "country": "PL", "coord": {"lon": 19.644581, "lat": 52.611912}}, {"id": 775810, "name": "Stara Blotnica", "country": "PL", "coord": {"lon": 20.974791, "lat": 51.546761}}, {"id": 3084965, "name": "Stara Dabrowa", "country": "PL", "coord": {"lon": 15.14405, "lat": 53.421909}}, {"id": 3065404, "name": "Stara Hut", "country": "CZ", "coord": {"lon": 14.19735, "lat": 49.782249}}, {"id": 3084954, "name": "Stara Kamienica", "country": "PL", "coord": {"lon": 15.57286, "lat": 50.916019}}, {"id": 3084953, "name": "Stara Kiszewa", "country": "PL", "coord": {"lon": 18.16958, "lat": 53.990059}}, {"id": 768123, "name": "Stara Kornica", "country": "PL", "coord": {"lon": 22.937519, "lat": 52.181831}}, {"id": 726863, "name": "Stara Kresna", "country": "BG", "coord": {"lon": 23.183331, "lat": 41.799999}}, {"id": 3190005, "name": "Stara Moravica", "country": "RS", "coord": {"lon": 19.46611, "lat": 45.868889}}, {"id": 3065392, "name": "Stara Paka", "country": "CZ", "coord": {"lon": 15.49444, "lat": 50.510319}}, {"id": 785559, "name": "Stara Pazova", "country": "RS", "coord": {"lon": 20.16083, "lat": 44.985001}}, {"id": 726859, "name": "Stara Reka", "country": "BG", "coord": {"lon": 26.183331, "lat": 42.883331}}, {"id": 692866, "name": "Stara Synyava", "country": "UA", "coord": {"lon": 27.619089, "lat": 49.60318}}, {"id": 3057480, "name": "Stara Tura", "country": "SK", "coord": {"lon": 17.69433, "lat": 48.77721}}, {"id": 3065379, "name": "Stara Ves nad Ondrejnici", "country": "CZ", "coord": {"lon": 18.188499, "lat": 49.727749}}, {"id": 3189989, "name": "Stara Vrhnika", "country": "SI", "coord": {"lon": 14.28111, "lat": 45.974171}}, {"id": 692856, "name": "Stara Vyzhivka", "country": "UA", "coord": {"lon": 24.43997, "lat": 51.437618}}, {"id": 758371, "name": "Stara Wies", "country": "PL", "coord": {"lon": 22.00441, "lat": 49.71505}}, {"id": 726848, "name": "Stara Zagora", "country": "BG", "coord": {"lon": 25.641939, "lat": 42.432781}}, {"id": 723505, "name": "Stara lubovna", "country": "SK", "coord": {"lon": 20.686199, "lat": 49.298592}}, {"id": 6460597, "name": "Stara reka", "country": "BG", "coord": {"lon": 26.183331, "lat": 42.883331}}, {"id": 7532300, "name": "Starachowice", "country": "PL", "coord": {"lon": 21.0716, "lat": 51.0383}}, {"id": 758390, "name": "Starachowice", "country": "PL", "coord": {"lon": 21.07126, "lat": 51.037399}}, {"id": 3166193, "name": "Staranzano", "country": "IT", "coord": {"lon": 13.50333, "lat": 45.80722}}, {"id": 489264, "name": "Staraya", "country": "RU", "coord": {"lon": 30.620556, "lat": 59.928055}}, {"id": 488557, "name": "Staraya", "country": "RU", "coord": {"lon": 38.681389, "lat": 55.393612}}, {"id": 583731, "name": "Staraya Akkermanovka", "country": "RU", "coord": {"lon": 58.239079, "lat": 51.246689}}, {"id": 489248, "name": "Staraya Bershet\u2019", "country": "RU", "coord": {"lon": 56.366669, "lat": 57.73333}}, {"id": 819743, "name": "Staraya Bitsa", "country": "RU", "coord": {"lon": 37.569168, "lat": 55.576668}}, {"id": 692909, "name": "Staraya Darnitsa", "country": "UA", "coord": {"lon": 30.633329, "lat": 50.433331}}, {"id": 489226, "name": "Staraya Derevnya", "country": "RU", "coord": {"lon": 30.240557, "lat": 59.984444}}, {"id": 489192, "name": "Staraya Kazanka", "country": "RU", "coord": {"lon": 52.916668, "lat": 54.566666}}, {"id": 489164, "name": "Staraya Kulatka", "country": "RU", "coord": {"lon": 47.616669, "lat": 52.716671}}, {"id": 489162, "name": "Staraya Kupavna", "country": "RU", "coord": {"lon": 38.1805, "lat": 55.807991}}, {"id": 489158, "name": "Staraya Ladoga", "country": "RU", "coord": {"lon": 32.294128, "lat": 59.998718}}, {"id": 528559, "name": "Staraya Matsesta", "country": "RU", "coord": {"lon": 39.802776, "lat": 43.568611}}, {"id": 489135, "name": "Staraya Mayna", "country": "RU", "coord": {"lon": 48.950001, "lat": 54.599998}}, {"id": 489119, "name": "Staraya Otrada", "country": "RU", "coord": {"lon": 44.443333, "lat": 48.554443}}, {"id": 489102, "name": "Staraya Poltavka", "country": "RU", "coord": {"lon": 46.481441, "lat": 50.47715}}, {"id": 489088, "name": "Staraya Russa", "country": "RU", "coord": {"lon": 31.360809, "lat": 57.994389}}, {"id": 489087, "name": "Staraya Ruza", "country": "RU", "coord": {"lon": 36.331051, "lat": 55.649288}}, {"id": 489069, "name": "Staraya Sitnya", "country": "RU", "coord": {"lon": 38.144722, "lat": 54.943611}}, {"id": 489063, "name": "Staraya Stanitsa", "country": "RU", "coord": {"lon": 41.151199, "lat": 45.0098}}, {"id": 489062, "name": "Staraya Stanitsa", "country": "RU", "coord": {"lon": 40.283333, "lat": 48.349998}}, {"id": 489059, "name": "Staraya Stefnya", "country": "RU", "coord": {"lon": 42.383331, "lat": 53.583332}}, {"id": 489057, "name": "Staraya Sunzha", "country": "RU", "coord": {"lon": 45.742222, "lat": 43.337219}}, {"id": 489043, "name": "Staraya Toropa", "country": "RU", "coord": {"lon": 31.670179, "lat": 56.280121}}, {"id": 489021, "name": "Staraya Vichuga", "country": "RU", "coord": {"lon": 41.878731, "lat": 57.26833}}, {"id": 489011, "name": "Staraya Yaksarka", "country": "RU", "coord": {"lon": 45.429501, "lat": 53.0271}}, {"id": 2050587, "name": "Staraya Yasachnaya", "country": "RU", "coord": {"lon": 103.738327, "lat": 52.486389}}, {"id": 2829488, "name": "Starbach", "country": "DE", "coord": {"lon": 13.26667, "lat": 51.099998}}, {"id": 2637010, "name": "Starbeck", "country": "GB", "coord": {"lon": -1.49899, "lat": 53.999439}}, {"id": 488996, "name": "Starbeyevo", "country": "RU", "coord": {"lon": 37.478611, "lat": 55.919998}}, {"id": 5048587, "name": "Starbuck", "country": "US", "coord": {"lon": -95.531151, "lat": 45.614399}}, {"id": 6461287, "name": "Starcevo", "country": "BG", "coord": {"lon": 25.066669, "lat": 41.416672}}, {"id": 6459622, "name": "Starchevo", "country": "BG", "coord": {"lon": 23.23333, "lat": 41.48333}}, {"id": 726845, "name": "Starchevo", "country": "BG", "coord": {"lon": 23.23333, "lat": 41.48333}}, {"id": 666271, "name": "Starchiojd", "country": "RO", "coord": {"lon": 26.183331, "lat": 45.316669}}, {"id": 2637008, "name": "Starcross", "country": "GB", "coord": {"lon": -3.44797, "lat": 50.627338}}, {"id": 3084912, "name": "Starcza", "country": "PL", "coord": {"lon": 19.0418, "lat": 50.664211}}, {"id": 758343, "name": "Stare Babice", "country": "PL", "coord": {"lon": 20.83403, "lat": 52.260281}}, {"id": 3084900, "name": "Stare Bogaczowice", "country": "PL", "coord": {"lon": 16.193081, "lat": 50.847519}}, {"id": 3084890, "name": "Stare Czarnowo", "country": "PL", "coord": {"lon": 14.77906, "lat": 53.27861}}, {"id": 3065353, "name": "Stare Hradiste", "country": "CZ", "coord": {"lon": 15.77885, "lat": 50.065399}}, {"id": 758332, "name": "Stare Juchy", "country": "PL", "coord": {"lon": 22.17367, "lat": 53.921982}}, {"id": 3065340, "name": "Stare Krecany", "country": "CZ", "coord": {"lon": 14.49617, "lat": 50.950439}}, {"id": 3084876, "name": "Stare Kurowo", "country": "PL", "coord": {"lon": 15.67749, "lat": 52.856689}}, {"id": 3065328, "name": "Stare Mesto", "country": "CZ", "coord": {"lon": 14.42024, "lat": 50.087002}}, {"id": 3065330, "name": "Stare Mesto", "country": "CZ", "coord": {"lon": 16.94734, "lat": 50.161739}}, {"id": 3065334, "name": "Stare Mesto", "country": "CZ", "coord": {"lon": 18.363489, "lat": 49.669922}}, {"id": 3065335, "name": "Stare Mesto", "country": "CZ", "coord": {"lon": 17.43338, "lat": 49.07515}}, {"id": 758327, "name": "Stare Miasto", "country": "PL", "coord": {"lon": 22.429279, "lat": 50.288792}}, {"id": 3084870, "name": "Stare Miasto", "country": "PL", "coord": {"lon": 18.214991, "lat": 52.179722}}, {"id": 3065325, "name": "Stare Nechanice", "country": "CZ", "coord": {"lon": 15.61787, "lat": 50.242981}}, {"id": 3084859, "name": "Stare Pole", "country": "PL", "coord": {"lon": 19.20874, "lat": 54.056671}}, {"id": 3084850, "name": "Stare Stawy", "country": "PL", "coord": {"lon": 19.22105, "lat": 50.02718}}, {"id": 3065367, "name": "Starec", "country": "CZ", "coord": {"lon": 15.82791, "lat": 49.19783}}, {"id": 3084840, "name": "Stargard Szczecinski", "country": "PL", "coord": {"lon": 15.0499, "lat": 53.33672}}, {"id": 7531735, "name": "Stargard Szczeci\u0144ski", "country": "PL", "coord": {"lon": 15.0116, "lat": 53.308998}}, {"id": 785541, "name": "Stari Banovci", "country": "RS", "coord": {"lon": 20.286671, "lat": 44.986389}}, {"id": 3189979, "name": "Stari Bar", "country": "ME", "coord": {"lon": 19.13306, "lat": 42.09}}, {"id": 692749, "name": "Stari Bohorodchany", "country": "UA", "coord": {"lon": 24.5243, "lat": 48.833611}}, {"id": 3216885, "name": "Stari Grad", "country": "HR", "coord": {"lon": 15.06222, "lat": 44.43}}, {"id": 865971, "name": "Stari Grad", "country": "RS", "coord": {"lon": 20.461861, "lat": 44.81789}}, {"id": 692742, "name": "Stari Kuty", "country": "UA", "coord": {"lon": 25.17293, "lat": 48.270931}}, {"id": 785530, "name": "Stari Lec", "country": "RS", "coord": {"lon": 20.96306, "lat": 45.283611}}, {"id": 3065300, "name": "Staric", "country": "CZ", "coord": {"lon": 18.27281, "lat": 49.68594}}, {"id": 3189964, "name": "Starigrad", "country": "HR", "coord": {"lon": 15.44306, "lat": 44.29306}}, {"id": 3189965, "name": "Starigrad", "country": "HR", "coord": {"lon": 16.59528, "lat": 43.184719}}, {"id": 488973, "name": "Starilovo", "country": "RU", "coord": {"lon": 42.492779, "lat": 56.755554}}, {"id": 488957, "name": "Starinki", "country": "RU", "coord": {"lon": 41.950001, "lat": 55.383331}}, {"id": 488946, "name": "Staritsa", "country": "RU", "coord": {"lon": 34.93544, "lat": 56.507519}}, {"id": 5172936, "name": "Stark County", "country": "US", "coord": {"lon": -81.366501, "lat": 40.816719}}, {"id": 5692348, "name": "Stark County", "country": "US", "coord": {"lon": -102.692123, "lat": 46.811119}}, {"id": 4912398, "name": "Stark County", "country": "US", "coord": {"lon": -89.800102, "lat": 41.10004}}, {"id": 805073, "name": "Starka", "country": "RU", "coord": {"lon": 38.879723, "lat": 44.194168}}, {"id": 4173999, "name": "Starke", "country": "US", "coord": {"lon": -82.109833, "lat": 29.94413}}, {"id": 6554375, "name": "Starkenburg", "country": "DE", "coord": {"lon": 7.13333, "lat": 49.966702}}, {"id": 2829480, "name": "Starkenburg", "country": "DE", "coord": {"lon": 7.13333, "lat": 49.966671}}, {"id": 2829474, "name": "Starkenschwind", "country": "DE", "coord": {"lon": 10.98461, "lat": 49.972969}}, {"id": 488926, "name": "Starkovo", "country": "RU", "coord": {"lon": 38.304722, "lat": 55.554169}}, {"id": 488927, "name": "Starkovo", "country": "RU", "coord": {"lon": 40.299721, "lat": 55.361519}}, {"id": 4447161, "name": "Starkville", "country": "US", "coord": {"lon": -88.81839, "lat": 33.450401}}, {"id": 2829457, "name": "Starnberg", "country": "DE", "coord": {"lon": 11.35, "lat": 48}}, {"id": 488914, "name": "Starnikovo", "country": "RU", "coord": {"lon": 38.396942, "lat": 55.363888}}, {"id": 863700, "name": "Staro Gradsko", "country": "MK", "coord": {"lon": 21.96278, "lat": 41.57222}}, {"id": 785515, "name": "Staro Nagorichane", "country": "MK", "coord": {"lon": 21.828609, "lat": 42.198059}}, {"id": 726828, "name": "Staro Selishte", "country": "BG", "coord": {"lon": 26.75, "lat": 43.650002}}, {"id": 6459299, "name": "Staro selishhe", "country": "BG", "coord": {"lon": 26.75, "lat": 43.650002}}, {"id": 488802, "name": "Staro-Kazach\u2019ya Sloboda", "country": "RU", "coord": {"lon": 35.783329, "lat": 54.033329}}, {"id": 1491006, "name": "Staroaleyskoye", "country": "RU", "coord": {"lon": 82, "lat": 51.006111}}, {"id": 1491004, "name": "Starobachaty", "country": "RU", "coord": {"lon": 86.207199, "lat": 54.2425}}, {"id": 488881, "name": "Starobaltachevo", "country": "RU", "coord": {"lon": 55.92131, "lat": 56.00132}}, {"id": 692829, "name": "Starobesheve", "country": "UA", "coord": {"lon": 38.03051, "lat": 47.750381}}, {"id": 692832, "name": "Starobilsk", "country": "UA", "coord": {"lon": 38.91069, "lat": 49.27832}}, {"id": 621462, "name": "Starobin", "country": "BY", "coord": {"lon": 27.4606, "lat": 52.7267}}, {"id": 488864, "name": "Starocherkasskaya", "country": "RU", "coord": {"lon": 40.041859, "lat": 47.240768}}, {"id": 488859, "name": "Staroderevyankovskaya", "country": "RU", "coord": {"lon": 38.9674, "lat": 46.127602}}, {"id": 488852, "name": "Starodub", "country": "RU", "coord": {"lon": 32.763329, "lat": 52.584438}}, {"id": 488847, "name": "Starodubskoye", "country": "RU", "coord": {"lon": 44.015282, "lat": 44.563061}}, {"id": 488839, "name": "Starodzhereliyevskaya", "country": "RU", "coord": {"lon": 38.296799, "lat": 45.47599}}, {"id": 3084826, "name": "Starogard Gdanski", "country": "PL", "coord": {"lon": 18.526381, "lat": 53.963959}}, {"id": 7531589, "name": "Starogard Gda\u0144ski", "country": "PL", "coord": {"lon": 18.526449, "lat": 53.965469}}, {"id": 488831, "name": "Starogor\u2019ye", "country": "RU", "coord": {"lon": 37.666672, "lat": 55.98333}}, {"id": 1540852, "name": "Starokamyshinsk", "country": "RU", "coord": {"lon": 61.6031, "lat": 55.055401}}, {"id": 488785, "name": "Starokorsunskaya", "country": "RU", "coord": {"lon": 39.316109, "lat": 45.05727}}, {"id": 692818, "name": "Starokostyantyniv", "country": "UA", "coord": {"lon": 27.203421, "lat": 49.757641}}, {"id": 692819, "name": "Starokozache", "country": "UA", "coord": {"lon": 29.985279, "lat": 46.337219}}, {"id": 3084824, "name": "Starokrzepice", "country": "PL", "coord": {"lon": 18.65341, "lat": 50.948589}}, {"id": 488777, "name": "Starokucherganovka", "country": "RU", "coord": {"lon": 47.955502, "lat": 46.32476}}, {"id": 1490980, "name": "Starokuznetsk", "country": "RU", "coord": {"lon": 87.166664, "lat": 53.75}}, {"id": 488758, "name": "Staroleushkovskaya", "country": "RU", "coord": {"lon": 39.763058, "lat": 45.990555}}, {"id": 488742, "name": "Starominskaya", "country": "RU", "coord": {"lon": 39.049721, "lat": 46.529999}}, {"id": 488730, "name": "Staromyshastovskaya", "country": "RU", "coord": {"lon": 39.07608, "lat": 45.343288}}, {"id": 488721, "name": "Staronikolayevo", "country": "RU", "coord": {"lon": 36.255001, "lat": 55.618332}}, {"id": 488713, "name": "Staronizhestebliyevskaya", "country": "RU", "coord": {"lon": 38.451668, "lat": 45.376667}}, {"id": 488706, "name": "Staropavlovskaya", "country": "RU", "coord": {"lon": 43.632778, "lat": 43.848888}}, {"id": 1490966, "name": "Staropesterevo", "country": "RU", "coord": {"lon": 86.409401, "lat": 54.500099}}, {"id": 488703, "name": "Staropetrovskiy", "country": "RU", "coord": {"lon": 41.854, "lat": 47.906101}}, {"id": 1490962, "name": "Staropyshminsk", "country": "RU", "coord": {"lon": 60.90295, "lat": 56.938671}}, {"id": 692800, "name": "Starosel\u2019ye", "country": "UA", "coord": {"lon": 33.916668, "lat": 44.75}}, {"id": 488635, "name": "Staroshcherbinovskaya", "country": "RU", "coord": {"lon": 38.674198, "lat": 46.6311}}, {"id": 758309, "name": "Starosielce", "country": "PL", "coord": {"lon": 23.075291, "lat": 53.13353}}, {"id": 488618, "name": "Starosubkhangulovo", "country": "RU", "coord": {"lon": 57.442299, "lat": 53.1031}}, {"id": 488275, "name": "Staros\u2019yanovo", "country": "RU", "coord": {"lon": 37.789165, "lat": 55.487499}}, {"id": 488608, "name": "Starotimoshkino", "country": "RU", "coord": {"lon": 47.531158, "lat": 53.719082}}, {"id": 488606, "name": "Starotitarovskaya", "country": "RU", "coord": {"lon": 37.14389, "lat": 45.213612}}, {"id": 488593, "name": "Staroutkinsk", "country": "RU", "coord": {"lon": 59.334831, "lat": 57.230171}}, {"id": 488587, "name": "Starovelichkovskaya", "country": "RU", "coord": {"lon": 38.732609, "lat": 45.428841}}, {"id": 692786, "name": "Staroverovka", "country": "UA", "coord": {"lon": 35.696651, "lat": 49.54361}}, {"id": 3084811, "name": "Starowa Gora", "country": "PL", "coord": {"lon": 19.48374, "lat": 51.691341}}, {"id": 488523, "name": "Staroye Al\u00ebkhnovo", "country": "RU", "coord": {"lon": 36.816666, "lat": 56.016666}}, {"id": 488500, "name": "Staroye Baryatino", "country": "RU", "coord": {"lon": 55.933334, "lat": 54.716667}}, {"id": 488488, "name": "Staroye Bobrenevo", "country": "RU", "coord": {"lon": 38.758888, "lat": 55.120277}}, {"id": 488466, "name": "Staroye Drozhzhanoye", "country": "RU", "coord": {"lon": 47.567661, "lat": 54.726582}}, {"id": 488408, "name": "Staroye Koval\u00ebvo", "country": "RU", "coord": {"lon": 30.541945, "lat": 59.995277}}, {"id": 488360, "name": "Staroye Perepechino", "country": "RU", "coord": {"lon": 39.233334, "lat": 55.900002}}, {"id": 488352, "name": "Staroye Poddub\u2019ye", "country": "RU", "coord": {"lon": 33.299999, "lat": 58.400002}}, {"id": 488324, "name": "Staroye Sav\u00eblovo", "country": "RU", "coord": {"lon": 37.383331, "lat": 56.883331}}, {"id": 621420, "name": "Staroye Selo", "country": "BY", "coord": {"lon": 28.716667, "lat": 53.183334}}, {"id": 488291, "name": "Staroye Shugurovo", "country": "RU", "coord": {"lon": 52.101349, "lat": 54.524071}}, {"id": 488284, "name": "Staroye Sosno", "country": "RU", "coord": {"lon": 32.333332, "lat": 64.5}}, {"id": 813707, "name": "Staroye Ustinovo", "country": "RU", "coord": {"lon": 34.903332, "lat": 55.987782}}, {"id": 488252, "name": "Staroye Vasil\u00ebvo", "country": "RU", "coord": {"lon": 39.299999, "lat": 55.5}}, {"id": 488214, "name": "Staroyuryevo", "country": "RU", "coord": {"lon": 40.708061, "lat": 53.316109}}, {"id": 488207, "name": "Starozheltikovo", "country": "RU", "coord": {"lon": 37.916668, "lat": 56.316666}}, {"id": 488206, "name": "Starozhilovo", "country": "RU", "coord": {"lon": 39.916, "lat": 54.225399}}, {"id": 3084807, "name": "Starozreby", "country": "PL", "coord": {"lon": 19.9855, "lat": 52.632648}}, {"id": 4734150, "name": "Starr County", "country": "US", "coord": {"lon": -98.766968, "lat": 26.566999}}, {"id": 7669939, "name": "Starrberg", "country": "CH", "coord": {"lon": 9.00817, "lat": 47.20385}}, {"id": 7287221, "name": "Starrkirch-Wil", "country": "CH", "coord": {"lon": 7.92708, "lat": 47.343021}}, {"id": 3189917, "name": "Starse", "country": "SI", "coord": {"lon": 15.76722, "lat": 46.465832}}, {"id": 2637005, "name": "Startforth", "country": "GB", "coord": {"lon": -1.93016, "lat": 54.538509}}, {"id": 726816, "name": "Startsevo", "country": "BG", "coord": {"lon": 25.066669, "lat": 41.416672}}, {"id": 5812017, "name": "Startup", "country": "US", "coord": {"lon": -121.740402, "lat": 47.867882}}, {"id": 2612730, "name": "Starup", "country": "DK", "coord": {"lon": 9.53503, "lat": 55.240971}}, {"id": 3065281, "name": "Stary Bohumin", "country": "CZ", "coord": {"lon": 18.336189, "lat": 49.916901}}, {"id": 3065263, "name": "Stary Jicin", "country": "CZ", "coord": {"lon": 17.961691, "lat": 49.576859}}, {"id": 3065259, "name": "Stary Kolin", "country": "CZ", "coord": {"lon": 15.29388, "lat": 50.009769}}, {"id": 3065249, "name": "Stary Plzenec", "country": "CZ", "coord": {"lon": 13.4735, "lat": 49.697681}}, {"id": 758282, "name": "Stary Sacz", "country": "PL", "coord": {"lon": 20.63496, "lat": 49.563641}}, {"id": 7533105, "name": "Stary S\u0105cz", "country": "PL", "coord": {"lon": 20.635099, "lat": 49.561798}}, {"id": 3084759, "name": "Stary Targ", "country": "PL", "coord": {"lon": 19.170031, "lat": 53.923351}}, {"id": 758278, "name": "Stary Wisnicz", "country": "PL", "coord": {"lon": 20.48641, "lat": 49.92548}}, {"id": 758276, "name": "Stary Zamosc", "country": "PL", "coord": {"lon": 23.171539, "lat": 50.820042}}, {"id": 692844, "name": "Starychi", "country": "UA", "coord": {"lon": 23.558479, "lat": 49.980011}}, {"id": 6417946, "name": "Staryy Bol\u2019shevik", "country": "RU", "coord": {"lon": 37.77639, "lat": 55.948055}}, {"id": 488142, "name": "Staryy Cherek", "country": "RU", "coord": {"lon": 43.846939, "lat": 43.47139}}, {"id": 488141, "name": "Staryy Chirchim", "country": "RU", "coord": {"lon": 46.361668, "lat": 52.764999}}, {"id": 616196, "name": "Staryy Dobrotvor", "country": "UA", "coord": {"lon": 24.377001, "lat": 50.231541}}, {"id": 487988, "name": "Staryy Gorod", "country": "RU", "coord": {"lon": 43.10413, "lat": 54.679691}}, {"id": 1505430, "name": "Staryy Iskitim", "country": "RU", "coord": {"lon": 83.400597, "lat": 54.612202}}, {"id": 487962, "name": "Staryy Kistrus", "country": "RU", "coord": {"lon": 40.575279, "lat": 54.486111}}, {"id": 692714, "name": "Staryy Krym", "country": "UA", "coord": {"lon": 35.099998, "lat": 45.033333}}, {"id": 692713, "name": "Staryy Krym", "country": "UA", "coord": {"lon": 37.489342, "lat": 47.161461}}, {"id": 487940, "name": "Staryy Machim", "country": "RU", "coord": {"lon": 45.737499, "lat": 52.955555}}, {"id": 874045, "name": "Staryy Malgobek", "country": "RU", "coord": {"lon": 44.589439, "lat": 43.54417}}, {"id": 692709, "name": "Staryy Merchyk", "country": "UA", "coord": {"lon": 35.759041, "lat": 49.981468}}, {"id": 1490918, "name": "Staryy Nadym", "country": "RU", "coord": {"lon": 72.684174, "lat": 65.611816}}, {"id": 487928, "name": "Staryy Oskol", "country": "RU", "coord": {"lon": 37.841667, "lat": 51.296665}}, {"id": 1518789, "name": "Staryy Otar", "country": "KZ", "coord": {"lon": 75.470833, "lat": 43.322498}}, {"id": 2016043, "name": "Staryy Perevoz", "country": "RU", "coord": {"lon": 102.050003, "lat": 54.083328}}, {"id": 7751424, "name": "Staryy Potash", "country": "RU", "coord": {"lon": 42.254299, "lat": 55.9352}}, {"id": 692703, "name": "Staryy Saltov", "country": "UA", "coord": {"lon": 36.79393, "lat": 50.08268}}, {"id": 692702, "name": "Staryy Sambor", "country": "UA", "coord": {"lon": 23.000561, "lat": 49.43856}}, {"id": 6610229, "name": "Staryy Sezukh", "country": "RU", "coord": {"lon": 42.700001, "lat": 56.48}}, {"id": 487871, "name": "Staryy Urukh", "country": "RU", "coord": {"lon": 44.018681, "lat": 43.340408}}, {"id": 621396, "name": "Staryya Darohi", "country": "BY", "coord": {"lon": 28.267, "lat": 53.040199}}, {"id": 488128, "name": "Staryye Atagi", "country": "RU", "coord": {"lon": 45.740559, "lat": 43.120281}}, {"id": 488808, "name": "Staryye Kandry", "country": "RU", "coord": {"lon": 54.049999, "lat": 54.533329}}, {"id": 513329, "name": "Staryye Ozinki", "country": "RU", "coord": {"lon": 49.676899, "lat": 51.1786}}, {"id": 3065422, "name": "Star\u00e1 B\u011bl\u00e1", "country": "CZ", "coord": {"lon": 18.205259, "lat": 49.762981}}, {"id": 3065397, "name": "Star\u00e1 L\u00edpa", "country": "CZ", "coord": {"lon": 14.56165, "lat": 50.683262}}, {"id": 3065304, "name": "Star\u00e9 Stra\u0161nice", "country": "CZ", "coord": {"lon": 14.51037, "lat": 50.076488}}, {"id": 3065278, "name": "Star\u00fd B\u0159eclav", "country": "CZ", "coord": {"lon": 16.890039, "lat": 48.771801}}, {"id": 2829423, "name": "Staschwitz", "country": "DE", "coord": {"lon": 12.25, "lat": 51.083328}}, {"id": 2829422, "name": "Stassfurt", "country": "DE", "coord": {"lon": 11.58333, "lat": 51.866669}}, {"id": 758252, "name": "Staszow", "country": "PL", "coord": {"lon": 21.16593, "lat": 50.563068}}, {"id": 7533517, "name": "Stasz\u00f3w", "country": "PL", "coord": {"lon": 21.190701, "lat": 50.562}}, {"id": 4877466, "name": "State Center", "country": "US", "coord": {"lon": -93.163544, "lat": 42.016651}}, {"id": 7115787, "name": "State Circus", "country": "MN", "coord": {"lon": 106.907188, "lat": 47.911911}}, {"id": 5213681, "name": "State College", "country": "US", "coord": {"lon": -77.860001, "lat": 40.7934}}, {"id": 4561477, "name": "State Line", "country": "US", "coord": {"lon": -77.724442, "lat": 39.724819}}, {"id": 4037645, "name": "State of Airai", "country": "PW", "coord": {"lon": 134.518661, "lat": 7.36698}}, {"id": 1278629, "name": "State of Andhra Pradesh", "country": "IN", "coord": {"lon": 79, "lat": 16}}, {"id": 1278341, "name": "State of Arun\u0101chal Pradesh", "country": "IN", "coord": {"lon": 94.5, "lat": 28}}, {"id": 1278253, "name": "State of Assam", "country": "IN", "coord": {"lon": 93, "lat": 26}}, {"id": 1275715, "name": "State of Bih\u0101r", "country": "IN", "coord": {"lon": 85.75, "lat": 25.75}}, {"id": 1444364, "name": "State of Chhatt\u012bsgarh", "country": "IN", "coord": {"lon": 82, "lat": 21.5}}, {"id": 2082282, "name": "State of Chuuk", "country": "FM", "coord": {"lon": 151.804993, "lat": 7.454}}, {"id": 338010, "name": "State of Eritrea", "country": "ER", "coord": {"lon": 39, "lat": 15}}, {"id": 1271157, "name": "State of Goa", "country": "IN", "coord": {"lon": 74.083328, "lat": 15.33333}}, {"id": 1270770, "name": "State of Gujar\u0101t", "country": "IN", "coord": {"lon": 72, "lat": 23}}, {"id": 1270260, "name": "State of Hary\u0101na", "country": "IN", "coord": {"lon": 76, "lat": 29}}, {"id": 1270101, "name": "State of Him\u0101chal Pradesh", "country": "IN", "coord": {"lon": 78, "lat": 31}}, {"id": 294640, "name": "State of Israel", "country": "IL", "coord": {"lon": 34.75, "lat": 31.5}}, {"id": 1269320, "name": "State of Jammu and Kashm\u012br", "country": "IN", "coord": {"lon": 77, "lat": 33}}, {"id": 1444365, "name": "State of Jharkhand", "country": "IN", "coord": {"lon": 85.5, "lat": 23.75}}, {"id": 1267701, "name": "State of Karn\u0101taka", "country": "IN", "coord": {"lon": 76, "lat": 13.5}}, {"id": 1267254, "name": "State of Kerala", "country": "IN", "coord": {"lon": 76.5, "lat": 10}}, {"id": 2082036, "name": "State of Kosrae", "country": "FM", "coord": {"lon": 162.981003, "lat": 5.325}}, {"id": 285570, "name": "State of Kuwait", "country": "KW", "coord": {"lon": 47.75, "lat": 29.5}}, {"id": 1264542, "name": "State of Madhya Pradesh", "country": "IN", "coord": {"lon": 78.5, "lat": 23.5}}, {"id": 1264418, "name": "State of Mah\u0101r\u0101shtra", "country": "IN", "coord": {"lon": 75, "lat": 19.5}}, {"id": 1263706, "name": "State of Manipur", "country": "IN", "coord": {"lon": 94, "lat": 25}}, {"id": 1263207, "name": "State of Megh\u0101laya", "country": "IN", "coord": {"lon": 91.333328, "lat": 25.5}}, {"id": 4037930, "name": "State of Melekeok", "country": "PW", "coord": {"lon": 134.634506, "lat": 7.494}}, {"id": 1262963, "name": "State of Mizoram", "country": "IN", "coord": {"lon": 93, "lat": 23}}, {"id": 2155400, "name": "State of New South Wales", "country": "AU", "coord": {"lon": 146, "lat": -33}}, {"id": 1262271, "name": "State of N\u0101g\u0101land", "country": "IN", "coord": {"lon": 94.25, "lat": 26}}, {"id": 1261029, "name": "State of Odisha", "country": "IN", "coord": {"lon": 84.416672, "lat": 20.5}}, {"id": 2081550, "name": "State of Pohnpei", "country": "FM", "coord": {"lon": 158.205597, "lat": 6.964}}, {"id": 1259223, "name": "State of Punjab", "country": "IN", "coord": {"lon": 75.416672, "lat": 30.91667}}, {"id": 289688, "name": "State of Qatar", "country": "QA", "coord": {"lon": 51.25, "lat": 25.5}}, {"id": 2152274, "name": "State of Queensland", "country": "AU", "coord": {"lon": 145, "lat": -20}}, {"id": 1258899, "name": "State of R\u0101jasth\u0101n", "country": "IN", "coord": {"lon": 74, "lat": 26}}, {"id": 1256312, "name": "State of Sikkim", "country": "IN", "coord": {"lon": 88.5, "lat": 27.75}}, {"id": 2061327, "name": "State of South Australia", "country": "AU", "coord": {"lon": 135, "lat": -30}}, {"id": 1255053, "name": "State of Tamil N\u0101du", "country": "IN", "coord": {"lon": 78, "lat": 11}}, {"id": 2147291, "name": "State of Tasmania", "country": "AU", "coord": {"lon": 147, "lat": -42}}, {"id": 1254169, "name": "State of Tripura", "country": "IN", "coord": {"lon": 92, "lat": 24}}, {"id": 1253626, "name": "State of Uttar Pradesh", "country": "IN", "coord": {"lon": 80.75, "lat": 27.25}}, {"id": 1444366, "name": "State of Uttarakhand", "country": "IN", "coord": {"lon": 79.25, "lat": 30.25}}, {"id": 2145234, "name": "State of Victoria", "country": "AU", "coord": {"lon": 145, "lat": -37}}, {"id": 1252881, "name": "State of West Bengal", "country": "IN", "coord": {"lon": 88, "lat": 24}}, {"id": 2058645, "name": "State of Western Australia", "country": "AU", "coord": {"lon": 122, "lat": -25}}, {"id": 2081175, "name": "State of Yap", "country": "FM", "coord": {"lon": 138.097, "lat": 9.538}}, {"id": 3164670, "name": "State of the Vatican City", "country": "VA", "coord": {"lon": 12.4533, "lat": 41.902248}}, {"id": 4597573, "name": "Stateburg", "country": "US", "coord": {"lon": -80.534813, "lat": 33.957649}}, {"id": 4224412, "name": "Statenville", "country": "US", "coord": {"lon": -83.027641, "lat": 30.70327}}, {"id": 4224413, "name": "Statesboro", "country": "US", "coord": {"lon": -81.783173, "lat": 32.448792}}, {"id": 4493316, "name": "Statesville", "country": "US", "coord": {"lon": -80.887299, "lat": 35.782639}}, {"id": 4224427, "name": "Statham", "country": "US", "coord": {"lon": -83.596558, "lat": 33.965111}}, {"id": 2364049, "name": "Station M\u00e9t\u00e9o", "country": "TG", "coord": {"lon": 1.25028, "lat": 6.16889}}, {"id": 6290669, "name": "Stationsquartier", "country": "CH", "coord": {"lon": 8.47003, "lat": 47.32877}}, {"id": 3166189, "name": "Statte", "country": "IT", "coord": {"lon": 17.208611, "lat": 40.564171}}, {"id": 2764625, "name": "Stattegg", "country": "AT", "coord": {"lon": 15.41667, "lat": 47.133331}}, {"id": 7873414, "name": "Stattegg", "country": "AT", "coord": {"lon": 15.42719, "lat": 47.157249}}, {"id": 2764624, "name": "Stattersdorf", "country": "AT", "coord": {"lon": 15.63333, "lat": 48.183331}}, {"id": 7871893, "name": "Statzendorf", "country": "AT", "coord": {"lon": 15.64898, "lat": 48.310459}}, {"id": 2764621, "name": "Statzendorf", "country": "AT", "coord": {"lon": 15.64127, "lat": 48.307522}}, {"id": 617317, "name": "Stauceni", "country": "MD", "coord": {"lon": 28.870279, "lat": 47.087502}}, {"id": 666263, "name": "Stauceni", "country": "RO", "coord": {"lon": 26.75, "lat": 47.716671}}, {"id": 6548661, "name": "Stauchitz", "country": "DE", "coord": {"lon": 13.2167, "lat": 51.25}}, {"id": 2829402, "name": "Stauchitz", "country": "DE", "coord": {"lon": 13.21667, "lat": 51.25}}, {"id": 2829401, "name": "Stauda", "country": "DE", "coord": {"lon": 13.51667, "lat": 51.23333}}, {"id": 2829389, "name": "Staudach", "country": "DE", "coord": {"lon": 11.76667, "lat": 47.700001}}, {"id": 2829385, "name": "Staudach", "country": "DE", "coord": {"lon": 11.85644, "lat": 47.912109}}, {"id": 6556415, "name": "Staudach-Egerndach", "country": "DE", "coord": {"lon": 12.4833, "lat": 47.783298}}, {"id": 2829375, "name": "Staudach-Egerndach", "country": "DE", "coord": {"lon": 12.48333, "lat": 47.783329}}, {"id": 2829370, "name": "Stauden", "country": "DE", "coord": {"lon": 12.28333, "lat": 47.883331}}, {"id": 6553548, "name": "Staudernheim", "country": "DE", "coord": {"lon": 7.68333, "lat": 49.783298}}, {"id": 2829353, "name": "Staudernheim", "country": "DE", "coord": {"lon": 7.68333, "lat": 49.783329}}, {"id": 6554177, "name": "Staudt", "country": "DE", "coord": {"lon": 7.83333, "lat": 50.466702}}, {"id": 2829345, "name": "Staudt", "country": "DE", "coord": {"lon": 7.83333, "lat": 50.466671}}, {"id": 2829339, "name": "Stauf", "country": "DE", "coord": {"lon": 8.0275, "lat": 49.551109}}, {"id": 7287222, "name": "Staufen", "country": "CH", "coord": {"lon": 8.15998, "lat": 47.378731}}, {"id": 2829333, "name": "Staufen", "country": "DE", "coord": {"lon": 8.21667, "lat": 47.75}}, {"id": 2658498, "name": "Staufen", "country": "CH", "coord": {"lon": 8.16606, "lat": 47.38372}}, {"id": 2829318, "name": "Staufen im Breisgau", "country": "DE", "coord": {"lon": 7.73333, "lat": 47.883331}}, {"id": 2829322, "name": "Staufenberg", "country": "DE", "coord": {"lon": 8.71667, "lat": 50.666672}}, {"id": 2148435, "name": "Staughton Vale", "country": "AU", "coord": {"lon": 144.283325, "lat": -37.849998}}, {"id": 3207386, "name": "Staum\u00fchle", "country": "DE", "coord": {"lon": 8.72194, "lat": 51.82082}}, {"id": 4787440, "name": "Staunton", "country": "US", "coord": {"lon": -79.071701, "lat": 38.149578}}, {"id": 4250608, "name": "Staunton", "country": "US", "coord": {"lon": -89.791206, "lat": 39.012272}}, {"id": 2829300, "name": "Staupitz", "country": "DE", "coord": {"lon": 13.66667, "lat": 51.533329}}, {"id": 2829299, "name": "Stausacker", "country": "DE", "coord": {"lon": 11.81667, "lat": 48.883331}}, {"id": 6453391, "name": "Stavanger", "country": "NO", "coord": {"lon": 5.72856, "lat": 58.96941}}, {"id": 3137115, "name": "Stavanger", "country": "NO", "coord": {"lon": 5.73332, "lat": 58.970051}}, {"id": 2636995, "name": "Staveley", "country": "GB", "coord": {"lon": -1.35, "lat": 53.26667}}, {"id": 2786186, "name": "Stavelot", "country": "BE", "coord": {"lon": 5.93433, "lat": 50.392979}}, {"id": 2786185, "name": "Stavelot", "country": "BE", "coord": {"lon": 5.93124, "lat": 50.395}}, {"id": 6548022, "name": "Staven", "country": "DE", "coord": {"lon": 13.4, "lat": 53.633301}}, {"id": 2829291, "name": "Staven", "country": "DE", "coord": {"lon": 13.4, "lat": 53.633331}}, {"id": 3137091, "name": "Stavern", "country": "NO", "coord": {"lon": 10.03333, "lat": 59}}, {"id": 2636990, "name": "Staverton", "country": "GB", "coord": {"lon": -2.15778, "lat": 51.911659}}, {"id": 2612710, "name": "Stavnsholt", "country": "DK", "coord": {"lon": 12.40545, "lat": 55.814789}}, {"id": 487846, "name": "Stavropol", "country": "RU", "coord": {"lon": 41.973331, "lat": 45.042778}}, {"id": 487839, "name": "Stavropol\u2019skiy Kray", "country": "RU", "coord": {"lon": 44, "lat": 45}}, {"id": 734155, "name": "Stavros", "country": "GR", "coord": {"lon": 22.308611, "lat": 40.58889}}, {"id": 734150, "name": "Stavroupoli", "country": "GR", "coord": {"lon": 22.938061, "lat": 40.669441}}, {"id": 487837, "name": "Stavrovo", "country": "RU", "coord": {"lon": 40.012951, "lat": 56.13311}}, {"id": 2612695, "name": "Stavtrup", "country": "DK", "coord": {"lon": 10.11987, "lat": 56.131241}}, {"id": 692672, "name": "Stavyshche", "country": "UA", "coord": {"lon": 29.533333, "lat": 50.400002}}, {"id": 2148431, "name": "Stawell", "country": "AU", "coord": {"lon": 142.766663, "lat": -37.049999}}, {"id": 758242, "name": "Stawiguda", "country": "PL", "coord": {"lon": 20.40041, "lat": 53.6572}}, {"id": 758238, "name": "Stawiski", "country": "PL", "coord": {"lon": 22.154619, "lat": 53.379871}}, {"id": 3084717, "name": "Stawiszyn", "country": "PL", "coord": {"lon": 18.11171, "lat": 51.917858}}, {"id": 6155692, "name": "Stayner", "country": "CA", "coord": {"lon": -80.095978, "lat": 44.418331}}, {"id": 5754464, "name": "Stayton", "country": "US", "coord": {"lon": -122.794533, "lat": 44.800678}}, {"id": 6539772, "name": "Stazzano", "country": "IT", "coord": {"lon": 8.86995, "lat": 44.727348}}, {"id": 3166182, "name": "Stazzano", "country": "IT", "coord": {"lon": 8.86995, "lat": 44.727348}}, {"id": 6540268, "name": "Stazzema", "country": "IT", "coord": {"lon": 10.3109, "lat": 43.99345}}, {"id": 3166180, "name": "Stazzema", "country": "IT", "coord": {"lon": 10.3109, "lat": 43.99345}}, {"id": 6534453, "name": "Stazzona", "country": "IT", "coord": {"lon": 9.27524, "lat": 46.13879}}, {"id": 6551145, "name": "Sta\u00dffurt, Stadt", "country": "DE", "coord": {"lon": 11.58, "lat": 51.8396}}, {"id": 666265, "name": "Sta\u0163iunea Zoologic\u0103 Marin\u0103", "country": "RO", "coord": {"lon": 28.6, "lat": 44.049999}}, {"id": 6944115, "name": "Ste-Anne-Des-Monts", "country": "CA", "coord": {"lon": -66.492302, "lat": 49.122139}}, {"id": 6155806, "name": "Steady Brook", "country": "CA", "coord": {"lon": -57.81509, "lat": 48.950008}}, {"id": 6155817, "name": "Steamboat", "country": "CA", "coord": {"lon": -123.719727, "lat": 58.68298}}, {"id": 5582371, "name": "Steamboat Springs", "country": "US", "coord": {"lon": -106.831718, "lat": 40.484982}}, {"id": 4309559, "name": "Stearns", "country": "US", "coord": {"lon": -84.47744, "lat": 36.698971}}, {"id": 5048685, "name": "Stearns County", "country": "US", "coord": {"lon": -94.550278, "lat": 45.549961}}, {"id": 6553858, "name": "Stebach", "country": "DE", "coord": {"lon": 7.65, "lat": 50.516701}}, {"id": 2829280, "name": "Stebach", "country": "DE", "coord": {"lon": 7.65, "lat": 50.51667}}, {"id": 692638, "name": "Steblev", "country": "UA", "coord": {"lon": 31.097639, "lat": 49.401859}}, {"id": 3084695, "name": "Steblewo", "country": "PL", "coord": {"lon": 18.82991, "lat": 54.180191}}, {"id": 692632, "name": "Stebnik", "country": "UA", "coord": {"lon": 23.56357, "lat": 49.294159}}, {"id": 3065213, "name": "Steborice", "country": "CZ", "coord": {"lon": 17.80547, "lat": 49.93708}}, {"id": 2658496, "name": "Stechelberg", "country": "CH", "coord": {"lon": 7.90149, "lat": 46.543129}}, {"id": 3065210, "name": "Stechovice", "country": "CZ", "coord": {"lon": 14.40543, "lat": 49.851089}}, {"id": 2829268, "name": "Stechow", "country": "DE", "coord": {"lon": 12.45, "lat": 52.633331}}, {"id": 2658495, "name": "Steckborn", "country": "CH", "coord": {"lon": 8.98333, "lat": 47.666672}}, {"id": 7287223, "name": "Steckborn", "country": "CH", "coord": {"lon": 8.99054, "lat": 47.658241}}, {"id": 2829250, "name": "Steckenborn", "country": "DE", "coord": {"lon": 6.35, "lat": 50.633331}}, {"id": 2829237, "name": "Stecklenberg", "country": "DE", "coord": {"lon": 11.08333, "lat": 51.73333}}, {"id": 2829225, "name": "Stedefreund", "country": "DE", "coord": {"lon": 8.60933, "lat": 52.083832}}, {"id": 2829223, "name": "Steden", "country": "DE", "coord": {"lon": 8.86667, "lat": 53.366669}}, {"id": 6551609, "name": "Stedesand", "country": "DE", "coord": {"lon": 8.91667, "lat": 54.733299}}, {"id": 2829219, "name": "Stedesand", "country": "DE", "coord": {"lon": 8.91667, "lat": 54.73333}}, {"id": 6553016, "name": "Stedesdorf", "country": "DE", "coord": {"lon": 7.66418, "lat": 53.625401}}, {"id": 2829218, "name": "Stedesdorf", "country": "DE", "coord": {"lon": 7.66667, "lat": 53.633331}}, {"id": 4493343, "name": "Stedman", "country": "US", "coord": {"lon": -78.693909, "lat": 35.0135}}, {"id": 2829211, "name": "Stedten", "country": "DE", "coord": {"lon": 10.98333, "lat": 50.933331}}, {"id": 2829212, "name": "Stedten", "country": "DE", "coord": {"lon": 11.16667, "lat": 50.833328}}, {"id": 2829210, "name": "Stedten", "country": "DE", "coord": {"lon": 11.68333, "lat": 51.433331}}, {"id": 2829204, "name": "Steeden", "country": "DE", "coord": {"lon": 8.13333, "lat": 50.416672}}, {"id": 7873697, "name": "Steeg", "country": "AT", "coord": {"lon": 10.24982, "lat": 47.23756}}, {"id": 2764605, "name": "Steeg", "country": "AT", "coord": {"lon": 10.29436, "lat": 47.243931}}, {"id": 2829198, "name": "Steeg", "country": "DE", "coord": {"lon": 7.4, "lat": 50.98333}}, {"id": 2786180, "name": "Steeghoven", "country": "BE", "coord": {"lon": 4.63333, "lat": 51.349998}}, {"id": 2829187, "name": "Steele", "country": "DE", "coord": {"lon": 7.08333, "lat": 51.450001}}, {"id": 4091755, "name": "Steele", "country": "US", "coord": {"lon": -86.201637, "lat": 33.939819}}, {"id": 4410101, "name": "Steele", "country": "US", "coord": {"lon": -89.829247, "lat": 36.083961}}, {"id": 5062036, "name": "Steele", "country": "US", "coord": {"lon": -99.915939, "lat": 46.85471}}, {"id": 5048696, "name": "Steele County", "country": "US", "coord": {"lon": -93.133537, "lat": 44.033298}}, {"id": 4250627, "name": "Steeleville", "country": "US", "coord": {"lon": -89.658432, "lat": 38.007271}}, {"id": 5214040, "name": "Steelton", "country": "US", "coord": {"lon": -76.841362, "lat": 40.235371}}, {"id": 4561484, "name": "Steelville", "country": "US", "coord": {"lon": -75.993561, "lat": 39.904831}}, {"id": 4410113, "name": "Steelville", "country": "US", "coord": {"lon": -91.354874, "lat": 37.968102}}, {"id": 6438507, "name": "Steenbecque", "country": "FR", "coord": {"lon": 2.48333, "lat": 50.666672}}, {"id": 2973826, "name": "Steenbecque", "country": "FR", "coord": {"lon": 2.48442, "lat": 50.67421}}, {"id": 3361077, "name": "Steenberg", "country": "ZA", "coord": {"lon": 18.47023, "lat": -34.074421}}, {"id": 2746804, "name": "Steenbergen", "country": "NL", "coord": {"lon": 4.31944, "lat": 51.584171}}, {"id": 6438508, "name": "Steene", "country": "FR", "coord": {"lon": 2.38333, "lat": 50.950001}}, {"id": 2973825, "name": "Steene", "country": "FR", "coord": {"lon": 2.36812, "lat": 50.952278}}, {"id": 6551923, "name": "Steenfeld", "country": "DE", "coord": {"lon": 9.36667, "lat": 54.150002}}, {"id": 2829183, "name": "Steenfeld", "country": "DE", "coord": {"lon": 9.36667, "lat": 54.150002}}, {"id": 2829175, "name": "Steenodde", "country": "DE", "coord": {"lon": 8.3775, "lat": 54.639519}}, {"id": 2786125, "name": "Steenokkerzeel", "country": "BE", "coord": {"lon": 4.51143, "lat": 50.918781}}, {"id": 2786124, "name": "Steenokkerzeel", "country": "BE", "coord": {"lon": 4.50989, "lat": 50.91851}}, {"id": 6438509, "name": "Steenvoorde", "country": "FR", "coord": {"lon": 2.58333, "lat": 50.799999}}, {"id": 2973823, "name": "Steenvoorde", "country": "FR", "coord": {"lon": 2.58244, "lat": 50.810459}}, {"id": 6438510, "name": "Steenwerck", "country": "FR", "coord": {"lon": 2.78333, "lat": 50.700001}}, {"id": 2973821, "name": "Steenwerck", "country": "FR", "coord": {"lon": 2.77829, "lat": 50.701988}}, {"id": 2746766, "name": "Steenwijk", "country": "NL", "coord": {"lon": 6.12083, "lat": 52.787498}}, {"id": 2746761, "name": "Steenwijkerwold", "country": "NL", "coord": {"lon": 6.06389, "lat": 52.804169}}, {"id": 4979819, "name": "Steep Falls", "country": "US", "coord": {"lon": -70.652557, "lat": 43.793968}}, {"id": 4493374, "name": "Steep Pines Fork", "country": "US", "coord": {"lon": -76.64798, "lat": 34.724331}}, {"id": 6156019, "name": "Steep Rock", "country": "CA", "coord": {"lon": -98.800453, "lat": 51.44252}}, {"id": 2636967, "name": "Steeple Claydon", "country": "GB", "coord": {"lon": -0.98328, "lat": 51.936432}}, {"id": 2148408, "name": "Steeple Flat", "country": "AU", "coord": {"lon": 149.366669, "lat": -36.566669}}, {"id": 6547974, "name": "Steesow", "country": "DE", "coord": {"lon": 11.5333, "lat": 53.166698}}, {"id": 2829168, "name": "Steesow", "country": "DE", "coord": {"lon": 11.54406, "lat": 53.15881}}, {"id": 2636963, "name": "Steeton", "country": "GB", "coord": {"lon": -1.95, "lat": 53.883331}}, {"id": 6459707, "name": "Stefan Karadzha", "country": "BG", "coord": {"lon": 26.73333, "lat": 43.900002}}, {"id": 726804, "name": "Stefan Karadzha", "country": "BG", "coord": {"lon": 26.73333, "lat": 43.900002}}, {"id": 617284, "name": "Stefan Voda", "country": "MD", "coord": {"lon": 29.663059, "lat": 46.515282}}, {"id": 666214, "name": "Stefan Voda", "country": "RO", "coord": {"lon": 27.316669, "lat": 44.316669}}, {"id": 666248, "name": "Stefan cel Mare", "country": "RO", "coord": {"lon": 26.51667, "lat": 46.98333}}, {"id": 666249, "name": "Stefan cel Mare", "country": "RO", "coord": {"lon": 27.633329, "lat": 46.716671}}, {"id": 666251, "name": "Stefan cel Mare", "country": "RO", "coord": {"lon": 25.25, "lat": 44.5}}, {"id": 666253, "name": "Stefan cel Mare", "country": "RO", "coord": {"lon": 24.216669, "lat": 43.816669}}, {"id": 6535378, "name": "Stefanaconi", "country": "IT", "coord": {"lon": 16.124201, "lat": 38.677879}}, {"id": 253218, "name": "Stefanavikion", "country": "GR", "coord": {"lon": 22.73333, "lat": 39.466671}}, {"id": 666235, "name": "Stefanesti", "country": "RO", "coord": {"lon": 24.933331, "lat": 44.866669}}, {"id": 666238, "name": "Stefanesti", "country": "RO", "coord": {"lon": 24.25, "lat": 44.616669}}, {"id": 666217, "name": "Stefanesti-Sat", "country": "RO", "coord": {"lon": 27.183331, "lat": 47.783329}}, {"id": 666223, "name": "Stefanestii de Jos", "country": "RO", "coord": {"lon": 26.200001, "lat": 44.533329}}, {"id": 621313, "name": "Stefanopol\u2019", "country": "BY", "coord": {"lon": 28.85, "lat": 53.150002}}, {"id": 6459193, "name": "Stefanovo", "country": "BG", "coord": {"lon": 23, "lat": 42.48333}}, {"id": 726802, "name": "Stefanovo", "country": "BG", "coord": {"lon": 23, "lat": 42.48333}}, {"id": 758204, "name": "Stefan\u00f3w", "country": "PL", "coord": {"lon": 21.216669, "lat": 51.98333}}, {"id": 666211, "name": "Stefesti", "country": "RO", "coord": {"lon": 25.9, "lat": 45.216671}}, {"id": 6554715, "name": "Steffeln", "country": "DE", "coord": {"lon": 6.56667, "lat": 50.283298}}, {"id": 2829161, "name": "Steffeln", "country": "DE", "coord": {"lon": 6.56667, "lat": 50.283329}}, {"id": 7669941, "name": "Steffen", "country": "CH", "coord": {"lon": 7.58232, "lat": 47.425079}}, {"id": 6547798, "name": "Steffenshagen", "country": "DE", "coord": {"lon": 11.8333, "lat": 54.099998}}, {"id": 2829154, "name": "Steffenshagen", "country": "DE", "coord": {"lon": 11.83333, "lat": 54.099998}}, {"id": 2829152, "name": "Steffenshof", "country": "DE", "coord": {"lon": 7.43333, "lat": 50.133331}}, {"id": 7287224, "name": "Steffisburg", "country": "CH", "coord": {"lon": 7.6327, "lat": 46.781448}}, {"id": 2658494, "name": "Steffisburg", "country": "CH", "coord": {"lon": 7.63249, "lat": 46.778069}}, {"id": 6556747, "name": "Stegaurach", "country": "DE", "coord": {"lon": 10.8333, "lat": 49.866699}}, {"id": 2829145, "name": "Stegaurach", "country": "DE", "coord": {"lon": 10.84385, "lat": 49.865429}}, {"id": 2612689, "name": "Stege", "country": "DK", "coord": {"lon": 12.28461, "lat": 54.987041}}, {"id": 2829139, "name": "Stegelitz", "country": "DE", "coord": {"lon": 13.8511, "lat": 53.12875}}, {"id": 2829135, "name": "Stegelkaten", "country": "DE", "coord": {"lon": 10.25, "lat": 53.950001}}, {"id": 2960062, "name": "Stegen", "country": "LU", "coord": {"lon": 6.17194, "lat": 49.830002}}, {"id": 6555761, "name": "Stegen", "country": "DE", "coord": {"lon": 7.96667, "lat": 47.983299}}, {"id": 2829130, "name": "Stegen", "country": "DE", "coord": {"lon": 7.96667, "lat": 47.98333}}, {"id": 4912474, "name": "Steger", "country": "US", "coord": {"lon": -87.636429, "lat": 41.470032}}, {"id": 7872698, "name": "Stegersbach", "country": "AT", "coord": {"lon": 16.16877, "lat": 47.161228}}, {"id": 2764587, "name": "Stegersbach", "country": "AT", "coord": {"lon": 16.16667, "lat": 47.166672}}, {"id": 2746752, "name": "Steggerda", "country": "NL", "coord": {"lon": 6.07548, "lat": 52.857342}}, {"id": 2829116, "name": "Stegh", "country": "DE", "coord": {"lon": 6.11667, "lat": 50.933331}}, {"id": 3084673, "name": "Stegna", "country": "PL", "coord": {"lon": 19.11252, "lat": 54.326839}}, {"id": 2674326, "name": "Stehag", "country": "SE", "coord": {"lon": 13.38333, "lat": 55.900002}}, {"id": 2829087, "name": "Steibis", "country": "DE", "coord": {"lon": 10.01667, "lat": 47.533329}}, {"id": 2764581, "name": "Steiermark", "country": "AT", "coord": {"lon": 15.16667, "lat": 47.25}}, {"id": 2829058, "name": "Steigen", "country": "DE", "coord": {"lon": 9.3, "lat": 47.816669}}, {"id": 2148406, "name": "Steiglitz", "country": "AU", "coord": {"lon": 144.183334, "lat": -37.883331}}, {"id": 2148407, "name": "Steiglitz", "country": "AU", "coord": {"lon": 153.350006, "lat": -27.75}}, {"id": 6549143, "name": "Steigra", "country": "DE", "coord": {"lon": 11.6667, "lat": 51.299999}}, {"id": 2829011, "name": "Steigra", "country": "DE", "coord": {"lon": 11.66667, "lat": 51.299999}}, {"id": 5812092, "name": "Steilacoom", "country": "US", "coord": {"lon": -122.602631, "lat": 47.169819}}, {"id": 2828994, "name": "Steilshoop", "country": "DE", "coord": {"lon": 10.05917, "lat": 53.610279}}, {"id": 6558439, "name": "Steimbke", "country": "DE", "coord": {"lon": 9.40414, "lat": 52.662201}}, {"id": 2828993, "name": "Steimbke", "country": "DE", "coord": {"lon": 9.39091, "lat": 52.654831}}, {"id": 6553859, "name": "Steimel", "country": "DE", "coord": {"lon": 7.63333, "lat": 50.616699}}, {"id": 2828984, "name": "Steimel", "country": "DE", "coord": {"lon": 7.63333, "lat": 50.616669}}, {"id": 2828971, "name": "Steimke", "country": "DE", "coord": {"lon": 10.60215, "lat": 52.74622}}, {"id": 7872323, "name": "Stein", "country": "AT", "coord": {"lon": 16.084089, "lat": 46.994572}}, {"id": 2764569, "name": "Stein", "country": "AT", "coord": {"lon": 16.086941, "lat": 46.99778}}, {"id": 2828939, "name": "Stein", "country": "DE", "coord": {"lon": 7.93333, "lat": 49.150002}}, {"id": 6551778, "name": "Stein", "country": "DE", "coord": {"lon": 10.2667, "lat": 54.416698}}, {"id": 2828929, "name": "Stein", "country": "DE", "coord": {"lon": 10.26667, "lat": 54.416672}}, {"id": 2658490, "name": "Stein", "country": "CH", "coord": {"lon": 7.95256, "lat": 47.544029}}, {"id": 2746748, "name": "Stein", "country": "NL", "coord": {"lon": 5.76667, "lat": 50.96917}}, {"id": 7287227, "name": "Stein (AG)", "country": "CH", "coord": {"lon": 7.95275, "lat": 47.54517}}, {"id": 7287228, "name": "Stein am Rhein", "country": "CH", "coord": {"lon": 8.85779, "lat": 47.666592}}, {"id": 2658489, "name": "Stein am Rhein", "country": "CH", "coord": {"lon": 8.85964, "lat": 47.659328}}, {"id": 2764553, "name": "Stein an der Donau", "country": "AT", "coord": {"lon": 15.58102, "lat": 48.40163}}, {"id": 2828685, "name": "Stein bei Nurnberg", "country": "DE", "coord": {"lon": 11.01667, "lat": 49.416672}}, {"id": 6554875, "name": "Stein-Bockenheim", "country": "DE", "coord": {"lon": 7.96667, "lat": 49.766701}}, {"id": 2828386, "name": "Stein-Bockenheim", "country": "DE", "coord": {"lon": 7.96667, "lat": 49.76667}}, {"id": 6554270, "name": "Stein-Neukirch", "country": "DE", "coord": {"lon": 8.05, "lat": 50.6833}}, {"id": 2827749, "name": "Stein-Neukirch", "country": "DE", "coord": {"lon": 8.05, "lat": 50.683331}}, {"id": 6554271, "name": "Stein-Wingert", "country": "DE", "coord": {"lon": 7.73333, "lat": 50.716702}}, {"id": 2827608, "name": "Stein-Wingert", "country": "DE", "coord": {"lon": 7.73333, "lat": 50.716671}}, {"id": 2828925, "name": "Steina", "country": "DE", "coord": {"lon": 9.25, "lat": 50.883331}}, {"id": 6548733, "name": "Steina", "country": "DE", "coord": {"lon": 14.05, "lat": 51.200001}}, {"id": 2828923, "name": "Steina", "country": "DE", "coord": {"lon": 14.05, "lat": 51.200001}}, {"id": 2828907, "name": "Steinach", "country": "DE", "coord": {"lon": 11.16667, "lat": 50.433331}}, {"id": 6556599, "name": "Steinach", "country": "DE", "coord": {"lon": 12.6167, "lat": 48.950001}}, {"id": 2828911, "name": "Steinach", "country": "DE", "coord": {"lon": 12.61667, "lat": 48.950001}}, {"id": 6555805, "name": "Steinach", "country": "DE", "coord": {"lon": 8.05, "lat": 48.299999}}, {"id": 2828913, "name": "Steinach", "country": "DE", "coord": {"lon": 8.05, "lat": 48.299999}}, {"id": 7873623, "name": "Steinach am Brenner", "country": "AT", "coord": {"lon": 11.48985, "lat": 47.088089}}, {"id": 2764557, "name": "Steinach am Brenner", "country": "AT", "coord": {"lon": 11.46667, "lat": 47.083328}}, {"id": 2828895, "name": "Steinach an der Ens", "country": "DE", "coord": {"lon": 10.26667, "lat": 49.450001}}, {"id": 7871905, "name": "Steinakirchen am Forst", "country": "AT", "coord": {"lon": 15.0433, "lat": 48.069408}}, {"id": 2764556, "name": "Steinakirchen am Forst", "country": "AT", "coord": {"lon": 15.03333, "lat": 48.066669}}, {"id": 6555357, "name": "Steinalben", "country": "DE", "coord": {"lon": 7.65, "lat": 49.3167}}, {"id": 2828879, "name": "Steinalben", "country": "DE", "coord": {"lon": 7.65, "lat": 49.316669}}, {"id": 6552613, "name": "Steinau", "country": "DE", "coord": {"lon": 8.88333, "lat": 53.6833}}, {"id": 2828869, "name": "Steinau", "country": "DE", "coord": {"lon": 8.88333, "lat": 53.683331}}, {"id": 2828871, "name": "Steinau an der Strasse", "country": "DE", "coord": {"lon": 9.46335, "lat": 50.314011}}, {"id": 2828832, "name": "Steinbach", "country": "DE", "coord": {"lon": 10.36667, "lat": 49.200001}}, {"id": 6156102, "name": "Steinbach", "country": "CA", "coord": {"lon": -96.684509, "lat": 49.525791}}, {"id": 2828804, "name": "Steinbach", "country": "DE", "coord": {"lon": 11.21378, "lat": 50.35619}}, {"id": 2828794, "name": "Steinbach", "country": "DE", "coord": {"lon": 12.65, "lat": 50.933331}}, {"id": 2764539, "name": "Steinbach", "country": "AT", "coord": {"lon": 16.195391, "lat": 48.246971}}, {"id": 6549816, "name": "Steinbach", "country": "DE", "coord": {"lon": 10.2167, "lat": 51.416698}}, {"id": 2828788, "name": "Steinbach", "country": "DE", "coord": {"lon": 10.21866, "lat": 51.422119}}, {"id": 6549896, "name": "Steinbach", "country": "DE", "coord": {"lon": 10.3667, "lat": 50.833302}}, {"id": 2828795, "name": "Steinbach", "country": "DE", "coord": {"lon": 10.36667, "lat": 50.833328}}, {"id": 2828805, "name": "Steinbach", "country": "DE", "coord": {"lon": 11.65, "lat": 50.150002}}, {"id": 6553971, "name": "Steinbach", "country": "DE", "coord": {"lon": 7.6, "lat": 50.033298}}, {"id": 2828806, "name": "Steinbach", "country": "DE", "coord": {"lon": 7.6, "lat": 50.033329}}, {"id": 6441631, "name": "Steinbach", "country": "FR", "coord": {"lon": 7.15193, "lat": 47.821049}}, {"id": 2973819, "name": "Steinbach", "country": "FR", "coord": {"lon": 7.15279, "lat": 47.8214}}, {"id": 7872175, "name": "Steinbach am Attersee", "country": "AT", "coord": {"lon": 13.57722, "lat": 47.812969}}, {"id": 2764527, "name": "Steinbach am Attersee", "country": "AT", "coord": {"lon": 13.55, "lat": 47.816669}}, {"id": 6554989, "name": "Steinbach am Donnersberg", "country": "DE", "coord": {"lon": 7.95, "lat": 49.599998}}, {"id": 2828738, "name": "Steinbach am Donnersberg", "country": "DE", "coord": {"lon": 7.95, "lat": 49.599998}}, {"id": 2828737, "name": "Steinbach am Taunus", "country": "DE", "coord": {"lon": 8.56667, "lat": 50.166672}}, {"id": 2828735, "name": "Steinbach am Wald", "country": "DE", "coord": {"lon": 11.36667, "lat": 50.433331}}, {"id": 2828712, "name": "Steinbachweier", "country": "DE", "coord": {"lon": 6.66667, "lat": 49.633331}}, {"id": 2828697, "name": "Steinbeck", "country": "DE", "coord": {"lon": 11.97158, "lat": 54.140999}}, {"id": 2828688, "name": "Steinbecker Vorstadt", "country": "DE", "coord": {"lon": 13.38333, "lat": 54.099998}}, {"id": 2828681, "name": "Steinbek", "country": "DE", "coord": {"lon": 10.4, "lat": 53.916672}}, {"id": 2828449, "name": "Steinberg", "country": "DE", "coord": {"lon": 11.3, "lat": 48.116669}}, {"id": 2828438, "name": "Steinberg", "country": "DE", "coord": {"lon": 10.01667, "lat": 50.299999}}, {"id": 6552056, "name": "Steinberg", "country": "DE", "coord": {"lon": 9.78333, "lat": 54.766701}}, {"id": 2828428, "name": "Steinberg", "country": "DE", "coord": {"lon": 9.78333, "lat": 54.76667}}, {"id": 2828427, "name": "Steinberg", "country": "DE", "coord": {"lon": 12.88333, "lat": 48.650002}}, {"id": 6556707, "name": "Steinberg", "country": "DE", "coord": {"lon": 12.1833, "lat": 49.283298}}, {"id": 2828443, "name": "Steinberg", "country": "DE", "coord": {"lon": 12.18333, "lat": 49.283329}}, {"id": 6552057, "name": "Steinbergkirche", "country": "DE", "coord": {"lon": 9.7545, "lat": 54.7719}}, {"id": 2828396, "name": "Steinbergkirche", "country": "DE", "coord": {"lon": 9.76667, "lat": 54.75}}, {"id": 6554606, "name": "Steinborn", "country": "DE", "coord": {"lon": 6.63333, "lat": 50.0667}}, {"id": 2828384, "name": "Steinborn", "country": "DE", "coord": {"lon": 6.63333, "lat": 50.066669}}, {"id": 6441371, "name": "Steinbourg", "country": "FR", "coord": {"lon": 7.41277, "lat": 48.770111}}, {"id": 2973818, "name": "Steinbourg", "country": "FR", "coord": {"lon": 7.41354, "lat": 48.770279}}, {"id": 2764492, "name": "Steinbrunn", "country": "AT", "coord": {"lon": 16.4, "lat": 47.833328}}, {"id": 2764296, "name": "Steinbrunn", "country": "AT", "coord": {"lon": 16.41667, "lat": 47.833328}}, {"id": 2828352, "name": "Steinbr\u00fccken", "country": "DE", "coord": {"lon": 8.33333, "lat": 50.816669}}, {"id": 2828718, "name": "Steinb\u00e4chle", "country": "DE", "coord": {"lon": 7.95, "lat": 48.316669}}, {"id": 2828277, "name": "Steindamm", "country": "DE", "coord": {"lon": 10.56667, "lat": 54}}, {"id": 2764484, "name": "Steindorf", "country": "AT", "coord": {"lon": 13.7, "lat": 47.150002}}, {"id": 6557124, "name": "Steindorf", "country": "DE", "coord": {"lon": 11.0067, "lat": 48.2132}}, {"id": 2828270, "name": "Steindorf", "country": "DE", "coord": {"lon": 11, "lat": 48.216671}}, {"id": 7871687, "name": "Steindorf am Ossiacher See", "country": "AT", "coord": {"lon": 13.98892, "lat": 46.6992}}, {"id": 2764480, "name": "Steindorf am Ossiacher See", "country": "AT", "coord": {"lon": 14.00917, "lat": 46.69833}}, {"id": 2828259, "name": "Steinebach", "country": "DE", "coord": {"lon": 7.81667, "lat": 50.633331}}, {"id": 2828260, "name": "Steinebach", "country": "DE", "coord": {"lon": 11.05, "lat": 48.049999}}, {"id": 6554666, "name": "Steineberg", "country": "DE", "coord": {"lon": 6.91667, "lat": 50.1833}}, {"id": 2828249, "name": "Steineberg", "country": "DE", "coord": {"lon": 6.91667, "lat": 50.183331}}, {"id": 6554178, "name": "Steinefrenz", "country": "DE", "coord": {"lon": 7.93333, "lat": 50.466702}}, {"id": 2828241, "name": "Steinefrenz", "country": "DE", "coord": {"lon": 7.93333, "lat": 50.466671}}, {"id": 7669943, "name": "Steinegg", "country": "CH", "coord": {"lon": 9.43146, "lat": 47.321949}}, {"id": 2828235, "name": "Steinegge", "country": "DE", "coord": {"lon": 9.05385, "lat": 52.065262}}, {"id": 6555894, "name": "Steinen", "country": "DE", "coord": {"lon": 7.74227, "lat": 47.641338}}, {"id": 2828228, "name": "Steinen", "country": "DE", "coord": {"lon": 7.73914, "lat": 47.644459}}, {"id": 6554179, "name": "Steinen", "country": "DE", "coord": {"lon": 7.8, "lat": 50.583302}}, {"id": 2828227, "name": "Steinen", "country": "DE", "coord": {"lon": 7.8, "lat": 50.583328}}, {"id": 7287230, "name": "Steinen", "country": "CH", "coord": {"lon": 8.6095, "lat": 47.051739}}, {"id": 2658488, "name": "Steinen", "country": "CH", "coord": {"lon": 8.61214, "lat": 47.049759}}, {"id": 6555404, "name": "Steinenbronn", "country": "DE", "coord": {"lon": 9.12175, "lat": 48.66185}}, {"id": 2828206, "name": "Steinenbronn", "country": "DE", "coord": {"lon": 9.11667, "lat": 48.666672}}, {"id": 7287231, "name": "Steinerberg", "country": "CH", "coord": {"lon": 8.58119, "lat": 47.067471}}, {"id": 2658486, "name": "Steinerberg", "country": "CH", "coord": {"lon": 8.58399, "lat": 47.052059}}, {"id": 6553448, "name": "Steineroth", "country": "DE", "coord": {"lon": 7.85, "lat": 50.75}}, {"id": 2828165, "name": "Steineroth", "country": "DE", "coord": {"lon": 7.85, "lat": 50.75}}, {"id": 2828132, "name": "Steinfeld", "country": "DE", "coord": {"lon": 10.76667, "lat": 53.833328}}, {"id": 6555223, "name": "Steinfeld", "country": "DE", "coord": {"lon": 8.03694, "lat": 49.048302}}, {"id": 2828141, "name": "Steinfeld", "country": "DE", "coord": {"lon": 8.03694, "lat": 49.048328}}, {"id": 7871658, "name": "Steinfeld", "country": "AT", "coord": {"lon": 13.27614, "lat": 46.769798}}, {"id": 2764453, "name": "Steinfeld", "country": "AT", "coord": {"lon": 13.27167, "lat": 46.76556}}, {"id": 6551996, "name": "Steinfeld", "country": "DE", "coord": {"lon": 9.75, "lat": 54.599998}}, {"id": 2828129, "name": "Steinfeld", "country": "DE", "coord": {"lon": 9.75, "lat": 54.599998}}, {"id": 6547799, "name": "Steinfeld", "country": "DE", "coord": {"lon": 12.3167, "lat": 54.099998}}, {"id": 2828131, "name": "Steinfeld", "country": "DE", "coord": {"lon": 12.30975, "lat": 54.108131}}, {"id": 2828136, "name": "Steinfeld", "country": "DE", "coord": {"lon": 8.21667, "lat": 52.599998}}, {"id": 6557050, "name": "Steinfeld", "country": "DE", "coord": {"lon": 9.66944, "lat": 49.952801}}, {"id": 2828140, "name": "Steinfeld", "country": "DE", "coord": {"lon": 9.66944, "lat": 49.952782}}, {"id": 2828121, "name": "Steinfels", "country": "DE", "coord": {"lon": 12, "lat": 49.666672}}, {"id": 2828118, "name": "Steinfischbach", "country": "DE", "coord": {"lon": 8.33333, "lat": 50.283329}}, {"id": 6693268, "name": "Steinfort", "country": "LU", "coord": {"lon": 5.91917, "lat": 49.661388}}, {"id": 2960061, "name": "Steinfort", "country": "LU", "coord": {"lon": 5.91917, "lat": 49.661388}}, {"id": 2828105, "name": "Steinfurt", "country": "DE", "coord": {"lon": 7.33664, "lat": 52.150452}}, {"id": 3209057, "name": "Steinfurth", "country": "DE", "coord": {"lon": 12.28333, "lat": 51.666672}}, {"id": 2828100, "name": "Steinfurth", "country": "DE", "coord": {"lon": 8.75, "lat": 50.400002}}, {"id": 2828090, "name": "Steingaden", "country": "DE", "coord": {"lon": 10.33333, "lat": 47.666672}}, {"id": 6556446, "name": "Steingaden", "country": "DE", "coord": {"lon": 10.8667, "lat": 47.700001}}, {"id": 2828089, "name": "Steingaden", "country": "DE", "coord": {"lon": 10.86667, "lat": 47.700001}}, {"id": 2828060, "name": "Steingruben", "country": "DE", "coord": {"lon": 7.81667, "lat": 49.666672}}, {"id": 6553119, "name": "Steinhagen", "country": "DE", "coord": {"lon": 8.42945, "lat": 52.013649}}, {"id": 2828050, "name": "Steinhagen", "country": "DE", "coord": {"lon": 8.4, "lat": 52}}, {"id": 6548143, "name": "Steinhagen", "country": "DE", "coord": {"lon": 12.9833, "lat": 54.216702}}, {"id": 2828045, "name": "Steinhagen", "country": "DE", "coord": {"lon": 12.98867, "lat": 54.226158}}, {"id": 6547906, "name": "Steinhagen", "country": "DE", "coord": {"lon": 11.9333, "lat": 53.849998}}, {"id": 2828048, "name": "Steinhagen", "country": "DE", "coord": {"lon": 11.93333, "lat": 53.849998}}, {"id": 2828042, "name": "Steinhaldenfeld", "country": "DE", "coord": {"lon": 9.23186, "lat": 48.827831}}, {"id": 4174059, "name": "Steinhatchee", "country": "US", "coord": {"lon": -83.387642, "lat": 29.671061}}, {"id": 7873281, "name": "Steinhaus", "country": "AT", "coord": {"lon": 14.01455, "lat": 48.113731}}, {"id": 2764443, "name": "Steinhaus", "country": "AT", "coord": {"lon": 14.0189, "lat": 48.116138}}, {"id": 2658484, "name": "Steinhaus", "country": "CH", "coord": {"lon": 7.34219, "lat": 46.833881}}, {"id": 2658483, "name": "Steinhausen", "country": "CH", "coord": {"lon": 8.48581, "lat": 47.195099}}, {"id": 2828018, "name": "Steinhausen", "country": "DE", "coord": {"lon": 9.61667, "lat": 47.883331}}, {"id": 3352919, "name": "Steinhausen", "country": "NA", "coord": {"lon": 18.23333, "lat": -21.816669}}, {"id": 2828016, "name": "Steinhausen", "country": "DE", "coord": {"lon": 9.7, "lat": 48.033329}}, {"id": 6556028, "name": "Steinhausen an der Rottum", "country": "DE", "coord": {"lon": 9.96667, "lat": 48.016701}}, {"id": 2828007, "name": "Steinhausen an der Rottum", "country": "DE", "coord": {"lon": 9.96667, "lat": 48.01667}}, {"id": 6550305, "name": "Steinheid", "country": "DE", "coord": {"lon": 11.0833, "lat": 50.466702}}, {"id": 2827999, "name": "Steinheid", "country": "DE", "coord": {"lon": 11.08333, "lat": 50.466671}}, {"id": 2827990, "name": "Steinheim", "country": "DE", "coord": {"lon": 9.09136, "lat": 51.870659}}, {"id": 2827992, "name": "Steinheim", "country": "DE", "coord": {"lon": 10.53726, "lat": 48.595341}}, {"id": 6555573, "name": "Steinheim am Albuch", "country": "DE", "coord": {"lon": 10.0412, "lat": 48.692699}}, {"id": 2827989, "name": "Steinheim am Albuch", "country": "DE", "coord": {"lon": 10.06382, "lat": 48.690899}}, {"id": 2827988, "name": "Steinheim am der Murr", "country": "DE", "coord": {"lon": 9.28333, "lat": 48.966671}}, {"id": 6549817, "name": "Steinheuterode", "country": "DE", "coord": {"lon": 10.0667, "lat": 51.383301}}, {"id": 2827983, "name": "Steinheuterode", "country": "DE", "coord": {"lon": 10.06667, "lat": 51.383331}}, {"id": 2827968, "name": "Steinhof", "country": "DE", "coord": {"lon": 12.85, "lat": 49.099998}}, {"id": 7287233, "name": "Steinhof", "country": "CH", "coord": {"lon": 7.68659, "lat": 47.159161}}, {"id": 6691360, "name": "Steinhof", "country": "CH", "coord": {"lon": 7.68674, "lat": 47.16124}}, {"id": 2827965, "name": "Steinhofel", "country": "DE", "coord": {"lon": 14.16667, "lat": 52.400002}}, {"id": 2827963, "name": "Steinhofen", "country": "DE", "coord": {"lon": 8.91667, "lat": 48.316669}}, {"id": 3205569, "name": "Steinholz", "country": "DE", "coord": {"lon": 10.65, "lat": 47.900002}}, {"id": 2827955, "name": "Steinhoring", "country": "DE", "coord": {"lon": 12.0314, "lat": 48.086788}}, {"id": 6552323, "name": "Steinhorst", "country": "DE", "coord": {"lon": 10.4, "lat": 52.6833}}, {"id": 2827951, "name": "Steinhorst", "country": "DE", "coord": {"lon": 10.4, "lat": 52.683331}}, {"id": 6551507, "name": "Steinhorst", "country": "DE", "coord": {"lon": 10.4833, "lat": 53.716702}}, {"id": 2827950, "name": "Steinhorst", "country": "DE", "coord": {"lon": 10.48333, "lat": 53.716671}}, {"id": 2827932, "name": "Steinhude", "country": "DE", "coord": {"lon": 9.35, "lat": 52.450001}}, {"id": 6551103, "name": "Steinh\u00f6fel", "country": "DE", "coord": {"lon": 14.1375, "lat": 52.426399}}, {"id": 6556160, "name": "Steinh\u00f6ring", "country": "DE", "coord": {"lon": 12.0333, "lat": 48.083302}}, {"id": 6548624, "name": "Steinigtwolmsdorf", "country": "DE", "coord": {"lon": 14.35, "lat": 51.0667}}, {"id": 2827907, "name": "Steinigtwolmsdorf", "country": "DE", "coord": {"lon": 14.3454, "lat": 51.063141}}, {"id": 6554667, "name": "Steiningen", "country": "DE", "coord": {"lon": 6.91667, "lat": 50.1833}}, {"id": 2827900, "name": "Steiningen", "country": "DE", "coord": {"lon": 6.91667, "lat": 50.183331}}, {"id": 2827893, "name": "Steinitz", "country": "DE", "coord": {"lon": 12.03333, "lat": 52.51667}}, {"id": 6549728, "name": "Steinitz", "country": "DE", "coord": {"lon": 11.1167, "lat": 52.833302}}, {"id": 2827896, "name": "Steinitz", "country": "DE", "coord": {"lon": 11.11667, "lat": 52.833328}}, {"id": 6552813, "name": "Steinkirchen", "country": "DE", "coord": {"lon": 9.6025, "lat": 53.579102}}, {"id": 2827862, "name": "Steinkirchen", "country": "DE", "coord": {"lon": 9.61111, "lat": 53.56601}}, {"id": 6556193, "name": "Steinkirchen", "country": "DE", "coord": {"lon": 12.0833, "lat": 48.383301}}, {"id": 2827870, "name": "Steinkirchen", "country": "DE", "coord": {"lon": 12.08333, "lat": 48.383331}}, {"id": 3136944, "name": "Steinkjer", "country": "NO", "coord": {"lon": 11.38505, "lat": 64.193031}}, {"id": 3136947, "name": "Steinkjer", "country": "NO", "coord": {"lon": 11.49537, "lat": 64.01487}}, {"id": 2827799, "name": "Steinkrug", "country": "DE", "coord": {"lon": 9.25, "lat": 54.25}}, {"id": 2827764, "name": "Steinmark", "country": "DE", "coord": {"lon": 9.525, "lat": 49.863331}}, {"id": 6555636, "name": "Steinmauern", "country": "DE", "coord": {"lon": 8.18333, "lat": 48.900002}}, {"id": 2827758, "name": "Steinmauern", "country": "DE", "coord": {"lon": 8.19692, "lat": 48.900951}}, {"id": 7287234, "name": "Steinmaur", "country": "CH", "coord": {"lon": 8.44334, "lat": 47.497711}}, {"id": 6295515, "name": "Steinmaur", "country": "CH", "coord": {"lon": 8.45216, "lat": 47.497101}}, {"id": 2827741, "name": "Steinperf", "country": "DE", "coord": {"lon": 8.46667, "lat": 50.816669}}, {"id": 2827712, "name": "Steinreuth", "country": "DE", "coord": {"lon": 12.1, "lat": 49.783329}}, {"id": 6549818, "name": "Steinrode", "country": "DE", "coord": {"lon": 10.4833, "lat": 51.5}}, {"id": 2827702, "name": "Steinrode", "country": "DE", "coord": {"lon": 10.48333, "lat": 51.5}}, {"id": 2827695, "name": "Steins", "country": "DE", "coord": {"lon": 12.01667, "lat": 50.450001}}, {"id": 6554102, "name": "Steinsberg", "country": "DE", "coord": {"lon": 7.95, "lat": 50.333302}}, {"id": 2827688, "name": "Steinsberg", "country": "DE", "coord": {"lon": 7.95, "lat": 50.333328}}, {"id": 7626377, "name": "Steinsdalen", "country": "NO", "coord": {"lon": 10.51284, "lat": 64.298752}}, {"id": 2827678, "name": "Steinsdorf", "country": "DE", "coord": {"lon": 11.49436, "lat": 50.584759}}, {"id": 6550522, "name": "Steinsdorf", "country": "DE", "coord": {"lon": 12.05, "lat": 50.75}}, {"id": 2827677, "name": "Steinsdorf", "country": "DE", "coord": {"lon": 12.05, "lat": 50.75}}, {"id": 6693281, "name": "Steinsel", "country": "LU", "coord": {"lon": 6.12389, "lat": 49.676941}}, {"id": 2960058, "name": "Steinsel", "country": "LU", "coord": {"lon": 6.12389, "lat": 49.676941}}, {"id": 6556854, "name": "Steinsfeld", "country": "DE", "coord": {"lon": 10.2167, "lat": 49.416698}}, {"id": 2827664, "name": "Steinsfeld", "country": "DE", "coord": {"lon": 10.21667, "lat": 49.416672}}, {"id": 3136903, "name": "Steinshamn", "country": "NO", "coord": {"lon": 6.46975, "lat": 62.783272}}, {"id": 5274592, "name": "Steinthal", "country": "US", "coord": {"lon": -88.002319, "lat": 43.982491}}, {"id": 6549985, "name": "Steinthaleben", "country": "DE", "coord": {"lon": 11.0167, "lat": 51.400002}}, {"id": 2827638, "name": "Steinthaleben", "country": "DE", "coord": {"lon": 11.01667, "lat": 51.400002}}, {"id": 6555022, "name": "Steinweiler", "country": "DE", "coord": {"lon": 8.14139, "lat": 49.121101}}, {"id": 2827615, "name": "Steinweiler", "country": "DE", "coord": {"lon": 8.14139, "lat": 49.121109}}, {"id": 6555061, "name": "Steinwenden", "country": "DE", "coord": {"lon": 7.53333, "lat": 49.450001}}, {"id": 2827613, "name": "Steinwenden", "country": "DE", "coord": {"lon": 7.53333, "lat": 49.450001}}, {"id": 2827610, "name": "Steinwiesen", "country": "DE", "coord": {"lon": 11.46667, "lat": 50.299999}}, {"id": 2827602, "name": "Steisslingen", "country": "DE", "coord": {"lon": 8.93333, "lat": 47.799999}}, {"id": 6555868, "name": "Stei\u00dflingen", "country": "DE", "coord": {"lon": 8.93333, "lat": 47.799999}}, {"id": 3189893, "name": "Stejanovci", "country": "RS", "coord": {"lon": 19.72333, "lat": 45.056671}}, {"id": 666198, "name": "Stejari", "country": "RO", "coord": {"lon": 23.683331, "lat": 44.76667}}, {"id": 666187, "name": "Stejaru", "country": "RO", "coord": {"lon": 28.549999, "lat": 44.76667}}, {"id": 666193, "name": "Stejaru", "country": "RO", "coord": {"lon": 24.883329, "lat": 44.183331}}, {"id": 2786088, "name": "Stekene", "country": "BE", "coord": {"lon": 4.03347, "lat": 51.21476}}, {"id": 2786087, "name": "Stekene", "country": "BE", "coord": {"lon": 4.0365, "lat": 51.2099}}, {"id": 875314, "name": "Steklozavod", "country": "RU", "coord": {"lon": 44.087223, "lat": 56.339722}}, {"id": 2050586, "name": "Steklyanka", "country": "RU", "coord": {"lon": 103.967499, "lat": 52.40028}}, {"id": 7289488, "name": "Stell", "country": "DE", "coord": {"lon": 9.6466, "lat": 53.215389}}, {"id": 6534716, "name": "Stella", "country": "IT", "coord": {"lon": 8.49795, "lat": 44.39344}}, {"id": 4568347, "name": "Stella", "country": "PR", "coord": {"lon": -67.246849, "lat": 18.32189}}, {"id": 3166170, "name": "Stella Cilento", "country": "IT", "coord": {"lon": 15.09286, "lat": 40.2318}}, {"id": 3166169, "name": "Stellanello", "country": "IT", "coord": {"lon": 8.06025, "lat": 43.999931}}, {"id": 6156141, "name": "Stellarton", "country": "CA", "coord": {"lon": -62.66069, "lat": 45.55854}}, {"id": 3166168, "name": "Stellata", "country": "IT", "coord": {"lon": 11.41667, "lat": 44.883331}}, {"id": 2827597, "name": "Stellau", "country": "DE", "coord": {"lon": 10.23333, "lat": 53.583328}}, {"id": 2827574, "name": "Stelle", "country": "DE", "coord": {"lon": 10.11138, "lat": 53.384159}}, {"id": 6552650, "name": "Stelle", "country": "DE", "coord": {"lon": 10.11138, "lat": 53.384159}}, {"id": 2827572, "name": "Stelle", "country": "DE", "coord": {"lon": 8.46667, "lat": 52.433331}}, {"id": 6551378, "name": "Stelle-Wittenwurth", "country": "DE", "coord": {"lon": 9.05, "lat": 54.266701}}, {"id": 2827559, "name": "Stelle-Wittenwurth", "country": "DE", "coord": {"lon": 9.05, "lat": 54.26667}}, {"id": 3361026, "name": "Stellenberg", "country": "ZA", "coord": {"lon": 18.65992, "lat": -33.866089}}, {"id": 3361025, "name": "Stellenbosch", "country": "ZA", "coord": {"lon": 18.86676, "lat": -33.93462}}, {"id": 2827552, "name": "Stellingen", "country": "DE", "coord": {"lon": 9.9287, "lat": 53.592201}}, {"id": 666166, "name": "Stelnica", "country": "RO", "coord": {"lon": 27.883329, "lat": 44.416672}}, {"id": 3166166, "name": "Stelvio", "country": "IT", "coord": {"lon": 10.54526, "lat": 46.598011}}, {"id": 6555062, "name": "Stelzenberg", "country": "DE", "coord": {"lon": 7.73333, "lat": 49.383301}}, {"id": 2827527, "name": "Stelzenberg", "country": "DE", "coord": {"lon": 7.73333, "lat": 49.383331}}, {"id": 6552754, "name": "Stemmen", "country": "DE", "coord": {"lon": 9.55, "lat": 53.216702}}, {"id": 2827501, "name": "Stemmen", "country": "DE", "coord": {"lon": 9.55313, "lat": 53.224232}}, {"id": 2827498, "name": "Stemmer", "country": "DE", "coord": {"lon": 8.86667, "lat": 52.333328}}, {"id": 2827490, "name": "Stemmern", "country": "DE", "coord": {"lon": 11.57255, "lat": 51.996929}}, {"id": 6552461, "name": "Stemshorn", "country": "DE", "coord": {"lon": 8.36667, "lat": 52.450001}}, {"id": 2827481, "name": "Stemshorn", "country": "DE", "coord": {"lon": 8.36667, "lat": 52.450001}}, {"id": 2827480, "name": "Stemwarde", "country": "DE", "coord": {"lon": 10.23333, "lat": 53.566669}}, {"id": 6437220, "name": "Stenay", "country": "FR", "coord": {"lon": 5.18333, "lat": 49.48333}}, {"id": 2973809, "name": "Stenay", "country": "FR", "coord": {"lon": 5.18606, "lat": 49.494888}}, {"id": 2827479, "name": "Stendal", "country": "DE", "coord": {"lon": 11.85, "lat": 52.599998}}, {"id": 455260, "name": "Stende", "country": "LV", "coord": {"lon": 22.533331, "lat": 57.150002}}, {"id": 2827474, "name": "Stenden", "country": "DE", "coord": {"lon": 6.45, "lat": 51.416672}}, {"id": 2827469, "name": "Stenderup", "country": "DE", "coord": {"lon": 9.48333, "lat": 54.633331}}, {"id": 2827467, "name": "Stenderupau", "country": "DE", "coord": {"lon": 9.46667, "lat": 54.633331}}, {"id": 2827461, "name": "Stendorf", "country": "DE", "coord": {"lon": 11.7, "lat": 51.116669}}, {"id": 2827462, "name": "Stendorf", "country": "DE", "coord": {"lon": 9.83333, "lat": 50.716671}}, {"id": 6156162, "name": "Stenen", "country": "CA", "coord": {"lon": -102.384239, "lat": 51.899979}}, {"id": 2674209, "name": "Stenhamra", "country": "SE", "coord": {"lon": 17.66667, "lat": 59.333328}}, {"id": 3166163, "name": "Stenico", "country": "IT", "coord": {"lon": 10.85367, "lat": 46.050201}}, {"id": 487776, "name": "Steninskaya", "country": "RU", "coord": {"lon": 38.960278, "lat": 55.664165}}, {"id": 2674181, "name": "Stenkullen", "country": "SE", "coord": {"lon": 12.31667, "lat": 57.799999}}, {"id": 2612633, "name": "Stenlille", "country": "DK", "coord": {"lon": 11.59146, "lat": 55.540218}}, {"id": 2612629, "name": "Stenlose", "country": "DK", "coord": {"lon": 12.19723, "lat": 55.76828}}, {"id": 2827436, "name": "Stennewitz", "country": "DE", "coord": {"lon": 13.95, "lat": 51.866669}}, {"id": 2827433, "name": "Stennweiler", "country": "DE", "coord": {"lon": 7.11399, "lat": 49.391201}}, {"id": 3065191, "name": "Stenovice", "country": "CZ", "coord": {"lon": 13.39963, "lat": 49.670509}}, {"id": 2673969, "name": "Stensta", "country": "SE", "coord": {"lon": 14.1, "lat": 59.333328}}, {"id": 2673952, "name": "Stenstorp", "country": "SE", "coord": {"lon": 15.06667, "lat": 58.48333}}, {"id": 2612594, "name": "Stenstrup", "country": "DK", "coord": {"lon": 10.50474, "lat": 55.133518}}, {"id": 2827427, "name": "Stenum", "country": "DE", "coord": {"lon": 8.56667, "lat": 53.066669}}, {"id": 2673875, "name": "Stenungsund", "country": "SE", "coord": {"lon": 11.8181, "lat": 58.070461}}, {"id": 7873580, "name": "Stenzengreith", "country": "AT", "coord": {"lon": 15.50118, "lat": 47.210709}}, {"id": 2764382, "name": "Stenzengreith", "country": "AT", "coord": {"lon": 15.51667, "lat": 47.200001}}, {"id": 584938, "name": "Stepan Razin", "country": "AZ", "coord": {"lon": 49.958889, "lat": 40.429722}}, {"id": 692604, "name": "Stepanivka", "country": "UA", "coord": {"lon": 29.986839, "lat": 46.794891}}, {"id": 3065187, "name": "Stepankovice", "country": "CZ", "coord": {"lon": 18.037411, "lat": 49.957378}}, {"id": 3065180, "name": "Stepanov", "country": "CZ", "coord": {"lon": 16.917021, "lat": 50.16238}}, {"id": 3065185, "name": "Stepanov", "country": "CZ", "coord": {"lon": 17.220409, "lat": 49.68404}}, {"id": 3189891, "name": "Stepanovicevo", "country": "RS", "coord": {"lon": 19.69833, "lat": 45.413891}}, {"id": 487687, "name": "Stepanovka", "country": "RU", "coord": {"lon": 39.049999, "lat": 55.533333}}, {"id": 487679, "name": "Stepanovo", "country": "RU", "coord": {"lon": 41.116669, "lat": 54.983334}}, {"id": 487677, "name": "Stepanovo", "country": "RU", "coord": {"lon": 38.463612, "lat": 55.7225}}, {"id": 487727, "name": "Stepanovskiy", "country": "RU", "coord": {"lon": 38.805119, "lat": 47.536369}}, {"id": 487635, "name": "Stepanovskoye", "country": "RU", "coord": {"lon": 37.14389, "lat": 55.777222}}, {"id": 487631, "name": "Stepanshchino", "country": "RU", "coord": {"lon": 38.530277, "lat": 55.246944}}, {"id": 487629, "name": "Stepantsevo", "country": "RU", "coord": {"lon": 41.703201, "lat": 56.131432}}, {"id": 487628, "name": "Stepantsevo", "country": "RU", "coord": {"lon": 36.166668, "lat": 56.366669}}, {"id": 614087, "name": "Stepantsminda", "country": "GE", "coord": {"lon": 44.64333, "lat": 42.65667}}, {"id": 857378, "name": "Stepan\u2019kovo", "country": "RU", "coord": {"lon": 35.964371, "lat": 56.28455}}, {"id": 487740, "name": "Stepan\u2019kovo", "country": "RU", "coord": {"lon": 37.816666, "lat": 56.066666}}, {"id": 487743, "name": "Stepan\u2019kovo", "country": "RU", "coord": {"lon": 36.899445, "lat": 55.984444}}, {"id": 2961364, "name": "Stepaside", "country": "IE", "coord": {"lon": -6.21361, "lat": 53.252499}}, {"id": 6550043, "name": "Stepfershausen", "country": "DE", "coord": {"lon": 10.3, "lat": 50.599998}}, {"id": 2827414, "name": "Stepfershausen", "country": "DE", "coord": {"lon": 10.3, "lat": 50.599998}}, {"id": 2827409, "name": "Stephanshausen", "country": "DE", "coord": {"lon": 7.95, "lat": 50.033329}}, {"id": 6556383, "name": "Stephanskirchen", "country": "DE", "coord": {"lon": 12.1528, "lat": 47.859501}}, {"id": 2827406, "name": "Stephanskirchen", "country": "DE", "coord": {"lon": 12.1856, "lat": 47.853889}}, {"id": 6556467, "name": "Stephansposching", "country": "DE", "coord": {"lon": 12.8, "lat": 48.8167}}, {"id": 2827400, "name": "Stephansposching", "country": "DE", "coord": {"lon": 12.8, "lat": 48.816669}}, {"id": 2827397, "name": "Stephansried", "country": "DE", "coord": {"lon": 10.31667, "lat": 47.98333}}, {"id": 4787519, "name": "Stephens City", "country": "US", "coord": {"lon": -78.218063, "lat": 39.083439}}, {"id": 4552182, "name": "Stephens County", "country": "US", "coord": {"lon": -97.850311, "lat": 34.466751}}, {"id": 4912492, "name": "Stephenson County", "country": "US", "coord": {"lon": -89.666779, "lat": 42.350021}}, {"id": 6156244, "name": "Stephenville", "country": "CA", "coord": {"lon": -58.581799, "lat": 48.550011}}, {"id": 4734350, "name": "Stephenville", "country": "US", "coord": {"lon": -98.202263, "lat": 32.220699}}, {"id": 6156245, "name": "Stephenville Crossing", "country": "CA", "coord": {"lon": -58.431801, "lat": 48.500011}}, {"id": 487611, "name": "Stepkovo", "country": "RU", "coord": {"lon": 38.733334, "lat": 56.316666}}, {"id": 3084660, "name": "Stepnica", "country": "PL", "coord": {"lon": 14.62555, "lat": 53.651871}}, {"id": 1537939, "name": "Stepnogorsk", "country": "KZ", "coord": {"lon": 71.88694, "lat": 52.354439}}, {"id": 487574, "name": "Stepnoy", "country": "RU", "coord": {"lon": 36.183331, "lat": 51.73333}}, {"id": 487543, "name": "Stepnoye", "country": "RU", "coord": {"lon": 46.866669, "lat": 51.400002}}, {"id": 797411, "name": "Stepnoye", "country": "RU", "coord": {"lon": 44.584999, "lat": 44.270828}}, {"id": 1518768, "name": "Stepnyak", "country": "KZ", "coord": {"lon": 70.780281, "lat": 52.833889}}, {"id": 785489, "name": "Stepojevac", "country": "RS", "coord": {"lon": 20.295, "lat": 44.512779}}, {"id": 7303923, "name": "Stepove", "country": "UA", "coord": {"lon": 30.079189, "lat": 46.70385}}, {"id": 2827389, "name": "Steppach", "country": "DE", "coord": {"lon": 10.83333, "lat": 48.383331}}, {"id": 2636947, "name": "Steppingley", "country": "GB", "coord": {"lon": -0.52855, "lat": 52.00758}}, {"id": 2636945, "name": "Stepps", "country": "GB", "coord": {"lon": -4.1521, "lat": 55.888988}}, {"id": 487505, "name": "Stepygino", "country": "RU", "coord": {"lon": 37.709721, "lat": 55.209721}}, {"id": 1476203, "name": "Ster Giyan", "country": "AF", "coord": {"lon": 69.373077, "lat": 32.977039}}, {"id": 2827376, "name": "Sterbfritz", "country": "DE", "coord": {"lon": 9.62282, "lat": 50.313351}}, {"id": 758182, "name": "Sterdyn", "country": "PL", "coord": {"lon": 22.293579, "lat": 52.580261}}, {"id": 2827368, "name": "Sterkelshausen", "country": "DE", "coord": {"lon": 9.65, "lat": 51}}, {"id": 2827366, "name": "Sterklis", "country": "DE", "coord": {"lon": 10.3, "lat": 47.583328}}, {"id": 6551508, "name": "Sterley", "country": "DE", "coord": {"lon": 10.8167, "lat": 53.616699}}, {"id": 2827359, "name": "Sterley", "country": "DE", "coord": {"lon": 10.81667, "lat": 53.616669}}, {"id": 487498, "name": "Sterlibashevo", "country": "RU", "coord": {"lon": 55.257801, "lat": 53.43755}}, {"id": 4843650, "name": "Sterling", "country": "US", "coord": {"lon": -71.828682, "lat": 41.7076}}, {"id": 5582392, "name": "Sterling", "country": "US", "coord": {"lon": -103.20771, "lat": 40.625542}}, {"id": 4787534, "name": "Sterling", "country": "US", "coord": {"lon": -77.428596, "lat": 39.006222}}, {"id": 4912499, "name": "Sterling", "country": "US", "coord": {"lon": -89.69622, "lat": 41.788639}}, {"id": 4279983, "name": "Sterling", "country": "US", "coord": {"lon": -98.207008, "lat": 38.210011}}, {"id": 4952005, "name": "Sterling", "country": "US", "coord": {"lon": -71.760628, "lat": 42.437592}}, {"id": 5875173, "name": "Sterling", "country": "US", "coord": {"lon": -150.764725, "lat": 60.53722}}, {"id": 5531747, "name": "Sterling City", "country": "US", "coord": {"lon": -100.984833, "lat": 31.83625}}, {"id": 5011148, "name": "Sterling Heights", "country": "US", "coord": {"lon": -83.030197, "lat": 42.580311}}, {"id": 4342638, "name": "Sterlington", "country": "US", "coord": {"lon": -92.085968, "lat": 32.696251}}, {"id": 487495, "name": "Sterlitamak", "country": "RU", "coord": {"lon": 55.95015, "lat": 53.624619}}, {"id": 2827352, "name": "Stern", "country": "DE", "coord": {"lon": 13.46667, "lat": 53.799999}}, {"id": 3166161, "name": "Sternatia", "country": "IT", "coord": {"lon": 18.225229, "lat": 40.222118}}, {"id": 2827336, "name": "Sternberg", "country": "DE", "coord": {"lon": 11.82678, "lat": 53.71236}}, {"id": 3065166, "name": "Sternberk", "country": "CZ", "coord": {"lon": 17.298889, "lat": 49.730438}}, {"id": 2827328, "name": "Sternebeck", "country": "DE", "coord": {"lon": 13.99392, "lat": 52.672951}}, {"id": 2658480, "name": "Sternenberg", "country": "CH", "coord": {"lon": 8.91667, "lat": 47.383331}}, {"id": 2827318, "name": "Sternenfels", "country": "DE", "coord": {"lon": 8.85083, "lat": 49.051392}}, {"id": 6555710, "name": "Sternenfels", "country": "DE", "coord": {"lon": 8.85083, "lat": 49.051399}}, {"id": 7870373, "name": "Sterrenberg", "country": "NL", "coord": {"lon": 5.88387, "lat": 51.9935}}, {"id": 6552058, "name": "Sterup", "country": "DE", "coord": {"lon": 9.73333, "lat": 54.733299}}, {"id": 2827284, "name": "Sterup", "country": "DE", "coord": {"lon": 9.73333, "lat": 54.73333}}, {"id": 2827282, "name": "Sterupgaard", "country": "DE", "coord": {"lon": 9.73333, "lat": 54.716671}}, {"id": 2827278, "name": "Sterzenbach", "country": "DE", "coord": {"lon": 7.48333, "lat": 50.75}}, {"id": 2827277, "name": "Sterzenbach", "country": "DE", "coord": {"lon": 7.68333, "lat": 50.916672}}, {"id": 3084647, "name": "Steszew", "country": "PL", "coord": {"lon": 16.70085, "lat": 52.283699}}, {"id": 3065163, "name": "Steti", "country": "CZ", "coord": {"lon": 14.37421, "lat": 50.45298}}, {"id": 692531, "name": "Stetseva", "country": "UA", "coord": {"lon": 25.57572, "lat": 48.527672}}, {"id": 4979840, "name": "Stetson", "country": "US", "coord": {"lon": -69.142822, "lat": 44.891731}}, {"id": 2827264, "name": "Stettberg", "country": "DE", "coord": {"lon": 10.33333, "lat": 49.383331}}, {"id": 7872910, "name": "Stetteldorf am Wagram", "country": "AT", "coord": {"lon": 16.02388, "lat": 48.400711}}, {"id": 2764368, "name": "Stetteldorf am Wagram", "country": "AT", "coord": {"lon": 16.01667, "lat": 48.400002}}, {"id": 2827238, "name": "Stetten", "country": "DE", "coord": {"lon": 9.68106, "lat": 48.259602}}, {"id": 7871794, "name": "Stetten", "country": "AT", "coord": {"lon": 16.386259, "lat": 48.364712}}, {"id": 2764366, "name": "Stetten", "country": "AT", "coord": {"lon": 16.383329, "lat": 48.366669}}, {"id": 6695938, "name": "Stetten", "country": "CH", "coord": {"lon": 8.66298, "lat": 47.74025}}, {"id": 6554990, "name": "Stetten", "country": "DE", "coord": {"lon": 8.09194, "lat": 49.669399}}, {"id": 2827223, "name": "Stetten", "country": "DE", "coord": {"lon": 8.09194, "lat": 49.669441}}, {"id": 6557260, "name": "Stetten", "country": "DE", "coord": {"lon": 10.4333, "lat": 48.033298}}, {"id": 2827240, "name": "Stetten", "country": "DE", "coord": {"lon": 10.43333, "lat": 48.033329}}, {"id": 6556051, "name": "Stetten", "country": "DE", "coord": {"lon": 9.3, "lat": 47.6833}}, {"id": 2827246, "name": "Stetten", "country": "DE", "coord": {"lon": 9.29855, "lat": 47.690121}}, {"id": 2827216, "name": "Stetten am Kalten Markt", "country": "DE", "coord": {"lon": 9.07775, "lat": 48.124191}}, {"id": 2827213, "name": "Stetten bei Hechingen", "country": "DE", "coord": {"lon": 8.97978, "lat": 48.345531}}, {"id": 2827206, "name": "Stettenhofen", "country": "DE", "coord": {"lon": 10.86667, "lat": 48.466671}}, {"id": 2827200, "name": "Stetternich", "country": "DE", "coord": {"lon": 6.4, "lat": 50.916672}}, {"id": 6557004, "name": "Stettfeld", "country": "DE", "coord": {"lon": 10.7167, "lat": 49.966702}}, {"id": 2827197, "name": "Stettfeld", "country": "DE", "coord": {"lon": 10.72386, "lat": 49.97187}}, {"id": 7287238, "name": "Stettfurt", "country": "CH", "coord": {"lon": 8.95692, "lat": 47.525169}}, {"id": 2658479, "name": "Stettfurt", "country": "CH", "coord": {"lon": 8.95509, "lat": 47.52446}}, {"id": 7287239, "name": "Stettlen", "country": "CH", "coord": {"lon": 7.52212, "lat": 46.956631}}, {"id": 2658478, "name": "Stettlen", "country": "CH", "coord": {"lon": 7.52508, "lat": 46.958351}}, {"id": 6156307, "name": "Stettler", "country": "CA", "coord": {"lon": -112.718613, "lat": 52.31683}}, {"id": 5011157, "name": "Steuben", "country": "US", "coord": {"lon": -86.456818, "lat": 46.18829}}, {"id": 4979854, "name": "Steuben", "country": "US", "coord": {"lon": -67.965279, "lat": 44.510632}}, {"id": 4926796, "name": "Steuben County", "country": "US", "coord": {"lon": -84.999413, "lat": 41.634769}}, {"id": 5139656, "name": "Steuben County", "country": "US", "coord": {"lon": -77.333038, "lat": 42.266739}}, {"id": 4926802, "name": "Steubenville", "country": "US", "coord": {"lon": -85.022743, "lat": 41.532269}}, {"id": 5173048, "name": "Steubenville", "country": "US", "coord": {"lon": -80.633957, "lat": 40.369789}}, {"id": 2827189, "name": "Steuden", "country": "DE", "coord": {"lon": 11.76667, "lat": 51.416672}}, {"id": 2827188, "name": "Steudnitz", "country": "DE", "coord": {"lon": 11.7, "lat": 51.01667}}, {"id": 2827187, "name": "Steudten", "country": "DE", "coord": {"lon": 12.81667, "lat": 51.033329}}, {"id": 2827186, "name": "Steudten", "country": "DE", "coord": {"lon": 13.21667, "lat": 51.216671}}, {"id": 7872813, "name": "Steuerberg", "country": "AT", "coord": {"lon": 14.10409, "lat": 46.785751}}, {"id": 2764364, "name": "Steuerberg", "country": "AT", "coord": {"lon": 14.11667, "lat": 46.783329}}, {"id": 2827179, "name": "Steutz", "country": "DE", "coord": {"lon": 12.08333, "lat": 51.883331}}, {"id": 2636940, "name": "Stevenage", "country": "GB", "coord": {"lon": -0.20256, "lat": 51.902241}}, {"id": 7290568, "name": "Stevenage District", "country": "GB", "coord": {"lon": -0.18897, "lat": 51.90041}}, {"id": 5812148, "name": "Stevens County", "country": "US", "coord": {"lon": -117.834419, "lat": 48.433231}}, {"id": 5048759, "name": "Stevens County", "country": "US", "coord": {"lon": -96.000893, "lat": 45.566631}}, {"id": 5274644, "name": "Stevens Point", "country": "US", "coord": {"lon": -89.574562, "lat": 44.523579}}, {"id": 5875188, "name": "Stevens Village", "country": "US", "coord": {"lon": -149.090836, "lat": 66.006393}}, {"id": 4787602, "name": "Stevensburg", "country": "US", "coord": {"lon": -77.899719, "lat": 38.44318}}, {"id": 4091859, "name": "Stevenson", "country": "US", "coord": {"lon": -85.839417, "lat": 34.86869}}, {"id": 5812177, "name": "Stevenson", "country": "US", "coord": {"lon": -121.884521, "lat": 45.695671}}, {"id": 6156393, "name": "Stevensons Village", "country": "CA", "coord": {"lon": -53.248081, "lat": 47.683189}}, {"id": 2636938, "name": "Stevenston", "country": "GB", "coord": {"lon": -4.75339, "lat": 55.639702}}, {"id": 5680485, "name": "Stevensville", "country": "US", "coord": {"lon": -114.093163, "lat": 46.509918}}, {"id": 4370366, "name": "Stevensville", "country": "US", "coord": {"lon": -76.3144, "lat": 38.980671}}, {"id": 5011183, "name": "Stevensville", "country": "US", "coord": {"lon": -86.51947, "lat": 42.014488}}, {"id": 7602285, "name": "Steveston", "country": "CA", "coord": {"lon": -123.181374, "lat": 49.12714}}, {"id": 2636935, "name": "Stevington", "country": "GB", "coord": {"lon": -0.55515, "lat": 52.16848}}, {"id": 2612565, "name": "Stevns Kommune", "country": "DK", "coord": {"lon": 12.33333, "lat": 55.316669}}, {"id": 6156422, "name": "Stewardson Inlet", "country": "CA", "coord": {"lon": -126.319633, "lat": 49.416271}}, {"id": 6156427, "name": "Stewart", "country": "CA", "coord": {"lon": -129.987274, "lat": 55.932892}}, {"id": 6156426, "name": "Stewart", "country": "CA", "coord": {"lon": -112.735153, "lat": 49.64999}}, {"id": 5139698, "name": "Stewart Manor", "country": "US", "coord": {"lon": -73.688461, "lat": 40.719269}}, {"id": 6156580, "name": "Stewart Valley", "country": "CA", "coord": {"lon": -107.801353, "lat": 50.600079}}, {"id": 7292849, "name": "Stewartby", "country": "GB", "coord": {"lon": -0.50875, "lat": 52.080231}}, {"id": 6947164, "name": "Stewartby", "country": "GB", "coord": {"lon": -0.5149, "lat": 52.070438}}, {"id": 2148363, "name": "Stewarton", "country": "AU", "coord": {"lon": 145.800003, "lat": -36.433331}}, {"id": 2636932, "name": "Stewarton", "country": "GB", "coord": {"lon": -4.5, "lat": 55.666672}}, {"id": 2148357, "name": "Stewarts Brook", "country": "AU", "coord": {"lon": 151.316666, "lat": -32}}, {"id": 2148353, "name": "Stewarts River", "country": "AU", "coord": {"lon": 152.649994, "lat": -31.73333}}, {"id": 4561501, "name": "Stewartstown", "country": "US", "coord": {"lon": -76.591362, "lat": 39.753712}}, {"id": 4091923, "name": "Stewartville", "country": "US", "coord": {"lon": -86.244423, "lat": 33.079288}}, {"id": 5048796, "name": "Stewartville", "country": "US", "coord": {"lon": -92.48851, "lat": 43.855518}}, {"id": 6156586, "name": "Stewiacke", "country": "CA", "coord": {"lon": -63.348679, "lat": 45.13345}}, {"id": 2636930, "name": "Stewkley", "country": "GB", "coord": {"lon": -0.76132, "lat": 51.92585}}, {"id": 2827166, "name": "Steyerberg", "country": "DE", "coord": {"lon": 9.03333, "lat": 52.566669}}, {"id": 2636928, "name": "Steyning", "country": "GB", "coord": {"lon": -0.32787, "lat": 50.88744}}, {"id": 7871503, "name": "Steyr", "country": "AT", "coord": {"lon": 14.42301, "lat": 48.053841}}, {"id": 2764359, "name": "Steyr", "country": "AT", "coord": {"lon": 14.42127, "lat": 48.04274}}, {"id": 2764347, "name": "Steyr Stadt", "country": "AT", "coord": {"lon": 14.41667, "lat": 48.033329}}, {"id": 7872155, "name": "Steyregg", "country": "AT", "coord": {"lon": 14.369, "lat": 48.28474}}, {"id": 2764354, "name": "Steyregg", "country": "AT", "coord": {"lon": 14.36995, "lat": 48.28513}}, {"id": 3065157, "name": "Stezery", "country": "CZ", "coord": {"lon": 15.74831, "lat": 50.215721}}, {"id": 758175, "name": "Stezyca", "country": "PL", "coord": {"lon": 21.77087, "lat": 51.581871}}, {"id": 3084641, "name": "Stezyca", "country": "PL", "coord": {"lon": 17.95569, "lat": 54.205929}}, {"id": 3166151, "name": "Stezzano", "country": "IT", "coord": {"lon": 9.64925, "lat": 45.650681}}, {"id": 3166150, "name": "Stia", "country": "IT", "coord": {"lon": 11.70843, "lat": 43.802952}}, {"id": 2827149, "name": "Stick", "country": "DE", "coord": {"lon": 8.26667, "lat": 53.566669}}, {"id": 4912555, "name": "Stickney", "country": "US", "coord": {"lon": -87.782829, "lat": 41.821419}}, {"id": 6557202, "name": "Stiefenhofen", "country": "DE", "coord": {"lon": 10, "lat": 47.599998}}, {"id": 2829080, "name": "Stiefenhofen", "country": "DE", "coord": {"lon": 10.00365, "lat": 47.593201}}, {"id": 2827108, "name": "Stiege", "country": "DE", "coord": {"lon": 10.88333, "lat": 51.666672}}, {"id": 2746705, "name": "Stiens", "country": "NL", "coord": {"lon": 5.75769, "lat": 53.262341}}, {"id": 3166144, "name": "Stienta", "country": "IT", "coord": {"lon": 11.54211, "lat": 44.941078}}, {"id": 2827071, "name": "Stierhof", "country": "DE", "coord": {"lon": 10.95, "lat": 48.349998}}, {"id": 2827049, "name": "Stiftenh\u00f6fte", "country": "DE", "coord": {"lon": 8.56667, "lat": 52.950001}}, {"id": 2827040, "name": "Stiftsgr\u00fcn", "country": "DE", "coord": {"lon": 11.85, "lat": 50.283329}}, {"id": 2612552, "name": "Stige", "country": "DK", "coord": {"lon": 10.4094, "lat": 55.439411}}, {"id": 4552206, "name": "Stigler", "country": "US", "coord": {"lon": -95.123016, "lat": 35.253712}}, {"id": 3166141, "name": "Stigliano", "country": "IT", "coord": {"lon": 16.231079, "lat": 40.400921}}, {"id": 2522999, "name": "Stignano", "country": "IT", "coord": {"lon": 16.47031, "lat": 38.41608}}, {"id": 2673829, "name": "Stigtomta", "country": "SE", "coord": {"lon": 16.783331, "lat": 58.799999}}, {"id": 3189884, "name": "Stijena", "country": "BA", "coord": {"lon": 16.01722, "lat": 44.93528}}, {"id": 6156698, "name": "Stikine", "country": "CA", "coord": {"lon": -131.803482, "lat": 56.699409}}, {"id": 3065142, "name": "Stikovec", "country": "CZ", "coord": {"lon": 18.1525, "lat": 49.64954}}, {"id": 952199, "name": "Stilbaai-Oos", "country": "ZA", "coord": {"lon": 21.42083, "lat": -34.36853}}, {"id": 5062050, "name": "Stiles", "country": "US", "coord": {"lon": -97.052589, "lat": 46.075241}}, {"id": 5214175, "name": "Stiles", "country": "US", "coord": {"lon": -75.50824, "lat": 40.665371}}, {"id": 952192, "name": "Stilfontein", "country": "ZA", "coord": {"lon": 26.76829, "lat": -26.844931}}, {"id": 6441373, "name": "Still", "country": "FR", "coord": {"lon": 7.40388, "lat": 48.550018}}, {"id": 2973798, "name": "Still", "country": "FR", "coord": {"lon": 7.40444, "lat": 48.54982}}, {"id": 952200, "name": "Still Bay", "country": "ZA", "coord": {"lon": 21.40748, "lat": -34.369301}}, {"id": 2827009, "name": "Stillhorn", "country": "DE", "coord": {"lon": 8.6, "lat": 53.23333}}, {"id": 2658477, "name": "Stilli", "country": "CH", "coord": {"lon": 8.23159, "lat": 47.5172}}, {"id": 2612541, "name": "Stilling", "country": "DK", "coord": {"lon": 9.98822, "lat": 56.062241}}, {"id": 4912566, "name": "Stillman Valley", "country": "US", "coord": {"lon": -89.179268, "lat": 42.10725}},