[{"id": 6438479, "name": "Saint-Saulve", "country": "FR", "coord": {"lon": 3.55, "lat": 50.366669}}, {"id": 2977058, "name": "Saint-Saulve", "country": "FR", "coord": {"lon": 3.55612, "lat": 50.37141}}, {"id": 6427653, "name": "Saint-Saury", "country": "FR", "coord": {"lon": 2.16667, "lat": 44.866669}}, {"id": 2977056, "name": "Saint-Saury", "country": "FR", "coord": {"lon": 2.1399, "lat": 44.86684}}, {"id": 6614497, "name": "Saint-Sauvant", "country": "FR", "coord": {"lon": 0.0566, "lat": 46.359901}}, {"id": 2977054, "name": "Saint-Sauvant", "country": "FR", "coord": {"lon": 0.05634, "lat": 46.35965}}, {"id": 6618447, "name": "Saint-Sauves-d'Auvergne", "country": "FR", "coord": {"lon": 2.6882, "lat": 45.606602}}, {"id": 2977050, "name": "Saint-Sauves-dAuvergne", "country": "FR", "coord": {"lon": 2.68333, "lat": 45.599998}}, {"id": 6139045, "name": "Saint-Sauveur", "country": "CA", "coord": {"lon": -74.179428, "lat": 45.88686}}, {"id": 6613799, "name": "Saint-Sauveur", "country": "FR", "coord": {"lon": 2.21667, "lat": 49.933331}}, {"id": 2977033, "name": "Saint-Sauveur", "country": "FR", "coord": {"lon": 2.21162, "lat": 49.93792}}, {"id": 6614001, "name": "Saint-Sauveur", "country": "FR", "coord": {"lon": 2.78333, "lat": 49.316669}}, {"id": 2977034, "name": "Saint-Sauveur", "country": "FR", "coord": {"lon": 2.78321, "lat": 49.318569}}, {"id": 6454603, "name": "Saint-Sauveur", "country": "FR", "coord": {"lon": 6.38333, "lat": 47.799999}}, {"id": 2977038, "name": "Saint-Sauveur", "country": "FR", "coord": {"lon": 6.38583, "lat": 47.805302}}, {"id": 6613457, "name": "Saint-Sauveur", "country": "FR", "coord": {"lon": 0.61667, "lat": 46.799999}}, {"id": 2977041, "name": "Saint-Sauveur", "country": "FR", "coord": {"lon": 0.62277, "lat": 46.808418}}, {"id": 6616572, "name": "Saint-Sauveur", "country": "FR", "coord": {"lon": -0.8344, "lat": 45.202499}}, {"id": 2977043, "name": "Saint-Sauveur", "country": "FR", "coord": {"lon": -0.83433, "lat": 45.202721}}, {"id": 6454093, "name": "Saint-Sauveur", "country": "FR", "coord": {"lon": 5.35, "lat": 45.150002}}, {"id": 2977044, "name": "Saint-Sauveur", "country": "FR", "coord": {"lon": 5.3528, "lat": 45.153351}}, {"id": 6616488, "name": "Saint-Sauveur", "country": "FR", "coord": {"lon": 1.4012, "lat": 43.749001}}, {"id": 2977049, "name": "Saint-Sauveur", "country": "FR", "coord": {"lon": 1.40085, "lat": 43.748299}}, {"id": 6435646, "name": "Saint-Sauveur-Lendelin", "country": "FR", "coord": {"lon": -1.41667, "lat": 49.133331}}, {"id": 2977010, "name": "Saint-Sauveur-Lendelin", "country": "FR", "coord": {"lon": -1.41405, "lat": 49.129879}}, {"id": 6439301, "name": "Saint-Sauveur-de-Carrouges", "country": "FR", "coord": {"lon": -0.11667, "lat": 48.583328}}, {"id": 2977030, "name": "Saint-Sauveur-de-Carrouges", "country": "FR", "coord": {"lon": -0.10715, "lat": 48.585678}}, {"id": 6425848, "name": "Saint-Sauveur-de-Montagut", "country": "FR", "coord": {"lon": 4.58333, "lat": 44.816669}}, {"id": 2977023, "name": "Saint-Sauveur-de-Montagut", "country": "FR", "coord": {"lon": 4.57993, "lat": 44.821419}}, {"id": 6432445, "name": "Saint-Sauveur-de-Puynormand", "country": "FR", "coord": {"lon": -0.03333, "lat": 45}}, {"id": 2977020, "name": "Saint-Sauveur-de-Puynormand", "country": "FR", "coord": {"lon": -0.03333, "lat": 45}}, {"id": 6432862, "name": "Saint-Sauveur-des-Landes", "country": "FR", "coord": {"lon": -1.31667, "lat": 48.333328}}, {"id": 2977019, "name": "Saint-Sauveur-des-Landes", "country": "FR", "coord": {"lon": -1.31248, "lat": 48.342781}}, {"id": 6139047, "name": "Saint-Sauveur-des-Monts", "country": "CA", "coord": {"lon": -74.165909, "lat": 45.900082}}, {"id": 6434318, "name": "Saint-Sauveur-en-Rue", "country": "FR", "coord": {"lon": 4.5, "lat": 45.26667}}, {"id": 2977015, "name": "Saint-Sauveur-en-Rue", "country": "FR", "coord": {"lon": 4.4953, "lat": 45.27021}}, {"id": 6435645, "name": "Saint-Sauveur-la-Pommeraye", "country": "FR", "coord": {"lon": -1.45, "lat": 48.849998}}, {"id": 2977012, "name": "Saint-Sauveur-la-Pommeraye", "country": "FR", "coord": {"lon": -1.44453, "lat": 48.846081}}, {"id": 6435647, "name": "Saint-Sauveur-le-Vicomte", "country": "FR", "coord": {"lon": -1.53333, "lat": 49.383331}}, {"id": 2977007, "name": "Saint-Sauveur-le-Vicomte", "country": "FR", "coord": {"lon": -1.5331, "lat": 49.385471}}, {"id": 2977006, "name": "Saint-Sauveur-sur-Ecole", "country": "FR", "coord": {"lon": 2.54711, "lat": 48.497501}}, {"id": 6443844, "name": "Saint-Sauveur-sur-\u00c9cole", "country": "FR", "coord": {"lon": 2.5487, "lat": 48.496498}}, {"id": 6425471, "name": "Saint-Sauvier", "country": "FR", "coord": {"lon": 2.33333, "lat": 46.383331}}, {"id": 2977004, "name": "Saint-Sauvier", "country": "FR", "coord": {"lon": 2.33162, "lat": 46.386059}}, {"id": 6616573, "name": "Saint-Savin", "country": "FR", "coord": {"lon": -0.4483, "lat": 45.138599}}, {"id": 2976997, "name": "Saint-Savin", "country": "FR", "coord": {"lon": -0.45, "lat": 45.150002}}, {"id": 6445358, "name": "Saint-Savin", "country": "FR", "coord": {"lon": 0.86667, "lat": 46.566669}}, {"id": 2977000, "name": "Saint-Savin", "country": "FR", "coord": {"lon": 0.86709, "lat": 46.565281}}, {"id": 6433396, "name": "Saint-Savin", "country": "FR", "coord": {"lon": 5.3, "lat": 45.633331}}, {"id": 2977001, "name": "Saint-Savin", "country": "FR", "coord": {"lon": 5.30722, "lat": 45.627701}}, {"id": 6428117, "name": "Saint-Savinien", "country": "FR", "coord": {"lon": -0.68333, "lat": 45.883331}}, {"id": 2976996, "name": "Saint-Savinien", "country": "FR", "coord": {"lon": -0.67919, "lat": 45.87711}}, {"id": 6427086, "name": "Saint-Savournin", "country": "FR", "coord": {"lon": 5.53333, "lat": 43.400002}}, {"id": 2976994, "name": "Saint-Savournin", "country": "FR", "coord": {"lon": 5.5269, "lat": 43.408482}}, {"id": 6443507, "name": "Saint-Sa\u00ebns", "country": "FR", "coord": {"lon": 1.28333, "lat": 49.666672}}, {"id": 2976986, "name": "Saint-Sebastien-de-Morsent", "country": "FR", "coord": {"lon": 1.0873, "lat": 49.01096}}, {"id": 2976984, "name": "Saint-Sebastien-sur-Loire", "country": "FR", "coord": {"lon": -1.50332, "lat": 47.20768}}, {"id": 6432446, "name": "Saint-Selve", "country": "FR", "coord": {"lon": -0.48333, "lat": 44.666672}}, {"id": 2976974, "name": "Saint-Selve", "country": "FR", "coord": {"lon": -0.47887, "lat": 44.670952}}, {"id": 6435650, "name": "Saint-Senier-sous-Avranches", "country": "FR", "coord": {"lon": -1.33333, "lat": 48.683331}}, {"id": 2976972, "name": "Saint-Senier-sous-Avranches", "country": "FR", "coord": {"lon": -1.33126, "lat": 48.68399}}, {"id": 6432864, "name": "Saint-Senoux", "country": "FR", "coord": {"lon": -1.78333, "lat": 47.900002}}, {"id": 2976969, "name": "Saint-Senoux", "country": "FR", "coord": {"lon": -1.78819, "lat": 47.905521}}, {"id": 6435082, "name": "Saint-Sernin", "country": "FR", "coord": {"lon": 0.2393, "lat": 44.711102}}, {"id": 2976963, "name": "Saint-Sernin", "country": "FR", "coord": {"lon": 0.23807, "lat": 44.70993}}, {"id": 6425849, "name": "Saint-Sernin", "country": "FR", "coord": {"lon": 4.4, "lat": 44.566669}}, {"id": 2976964, "name": "Saint-Sernin", "country": "FR", "coord": {"lon": 4.39163, "lat": 44.572079}}, {"id": 6442463, "name": "Saint-Sernin-du-Bois", "country": "FR", "coord": {"lon": 4.43333, "lat": 46.833328}}, {"id": 2976962, "name": "Saint-Sernin-du-Bois", "country": "FR", "coord": {"lon": 4.43271, "lat": 46.84074}}, {"id": 6613750, "name": "Saint-Servais", "country": "FR", "coord": {"lon": -4.15, "lat": 48.51667}}, {"id": 2976956, "name": "Saint-Servais", "country": "FR", "coord": {"lon": -4.15, "lat": 48.51667}}, {"id": 6432447, "name": "Saint-Seurin-de-Bourg", "country": "FR", "coord": {"lon": -0.56667, "lat": 45.049999}}, {"id": 2976950, "name": "Saint-Seurin-de-Bourg", "country": "FR", "coord": {"lon": -0.56667, "lat": 45.049999}}, {"id": 6432448, "name": "Saint-Seurin-de-Cadourne", "country": "FR", "coord": {"lon": -0.78333, "lat": 45.283329}}, {"id": 2976949, "name": "Saint-Seurin-de-Cadourne", "country": "FR", "coord": {"lon": -0.78851, "lat": 45.286362}}, {"id": 6612373, "name": "Saint-Seurin-de-Prats", "country": "FR", "coord": {"lon": 0.08333, "lat": 44.833328}}, {"id": 2976946, "name": "Saint-Seurin-de-Prats", "country": "FR", "coord": {"lon": 0.08333, "lat": 44.833328}}, {"id": 6432450, "name": "Saint-Seurin-sur-l'Isle", "country": "FR", "coord": {"lon": 0, "lat": 45.01667}}, {"id": 2976944, "name": "Saint-Seurin-sur-lIsle", "country": "FR", "coord": {"lon": 0, "lat": 45.01667}}, {"id": 6433974, "name": "Saint-Sever", "country": "FR", "coord": {"lon": -0.56667, "lat": 43.76667}}, {"id": 2976942, "name": "Saint-Sever", "country": "FR", "coord": {"lon": -0.57357, "lat": 43.757271}}, {"id": 6427494, "name": "Saint-Sever-Calvados", "country": "FR", "coord": {"lon": -1.03333, "lat": 48.833328}}, {"id": 2976939, "name": "Saint-Sever-Calvados", "country": "FR", "coord": {"lon": -1.04773, "lat": 48.840351}}, {"id": 6440898, "name": "Saint-Sever-de-Rustan", "country": "FR", "coord": {"lon": 0.23333, "lat": 43.349998}}, {"id": 2976938, "name": "Saint-Sever-de-Rustan", "country": "FR", "coord": {"lon": 0.22391, "lat": 43.350349}}, {"id": 2976919, "name": "Saint-Simeon-de-Bressieux", "country": "FR", "coord": {"lon": 5.26591, "lat": 45.338501}}, {"id": 2976912, "name": "Saint-Simon", "country": "FR", "coord": {"lon": 5.91388, "lat": 45.70583}}, {"id": 6427654, "name": "Saint-Simon", "country": "FR", "coord": {"lon": 2.48333, "lat": 44.966671}}, {"id": 2976914, "name": "Saint-Simon", "country": "FR", "coord": {"lon": 2.4909, "lat": 44.96492}}, {"id": 6433398, "name": "Saint-Sim\u00e9on-de-Bressieux", "country": "FR", "coord": {"lon": 5.26649, "lat": 45.329491}}, {"id": 6614667, "name": "Saint-Sorlin-de-Conac", "country": "FR", "coord": {"lon": -0.68333, "lat": 45.366669}}, {"id": 2976898, "name": "Saint-Sorlin-de-Conac", "country": "FR", "coord": {"lon": -0.68333, "lat": 45.366669}}, {"id": 6424690, "name": "Saint-Sorlin-en-Bugey", "country": "FR", "coord": {"lon": 5.36667, "lat": 45.883331}}, {"id": 2976896, "name": "Saint-Sorlin-en-Bugey", "country": "FR", "coord": {"lon": 5.3711, "lat": 45.884682}}, {"id": 6430237, "name": "Saint-Sorlin-en-Valloire", "country": "FR", "coord": {"lon": 4.95, "lat": 45.283329}}, {"id": 2976895, "name": "Saint-Sorlin-en-Valloire", "country": "FR", "coord": {"lon": 4.95205, "lat": 45.28986}}, {"id": 6438480, "name": "Saint-Souplet", "country": "FR", "coord": {"lon": 3.53333, "lat": 50.049999}}, {"id": 2976885, "name": "Saint-Souplet", "country": "FR", "coord": {"lon": 3.53179, "lat": 50.056389}}, {"id": 6443846, "name": "Saint-Soupplets", "country": "FR", "coord": {"lon": 2.8, "lat": 49.033329}}, {"id": 2976883, "name": "Saint-Soupplets", "country": "FR", "coord": {"lon": 2.80723, "lat": 49.038658}}, {"id": 6139088, "name": "Saint-Stanislas", "country": "CA", "coord": {"lon": -72.165268, "lat": 48.999931}}, {"id": 6139090, "name": "Saint-Stanislas-de-Kostka", "country": "CA", "coord": {"lon": -74.115929, "lat": 45.18338}}, {"id": 2658860, "name": "Saint-Sulpice", "country": "CH", "coord": {"lon": 6.55897, "lat": 46.510471}}, {"id": 6613237, "name": "Saint-Sulpice", "country": "FR", "coord": {"lon": 2.12105, "lat": 49.351299}}, {"id": 2976866, "name": "Saint-Sulpice", "country": "FR", "coord": {"lon": 2.12314, "lat": 49.350491}}, {"id": 6617799, "name": "Saint-Sulpice", "country": "FR", "coord": {"lon": 1.6874, "lat": 43.7742}}, {"id": 2976879, "name": "Saint-Sulpice", "country": "FR", "coord": {"lon": 1.68511, "lat": 43.775002}}, {"id": 7287039, "name": "Saint-Sulpice (VD)", "country": "CH", "coord": {"lon": 6.55994, "lat": 46.513}}, {"id": 6429625, "name": "Saint-Sulpice-d'Excideuil", "country": "FR", "coord": {"lon": 1, "lat": 45.383331}}, {"id": 2976850, "name": "Saint-Sulpice-d'Excideuil", "country": "FR", "coord": {"lon": 1.00726, "lat": 45.38953}}, {"id": 6427855, "name": "Saint-Sulpice-de-Cognac", "country": "FR", "coord": {"lon": -0.38333, "lat": 45.76667}}, {"id": 2976863, "name": "Saint-Sulpice-de-Cognac", "country": "FR", "coord": {"lon": -0.38093, "lat": 45.759781}}, {"id": 6432452, "name": "Saint-Sulpice-de-Faleyrens", "country": "FR", "coord": {"lon": -0.18333, "lat": 44.866669}}, {"id": 2976862, "name": "Saint-Sulpice-de-Faleyrens", "country": "FR", "coord": {"lon": -0.18333, "lat": 44.866669}}, {"id": 6432453, "name": "Saint-Sulpice-de-Guilleragues", "country": "FR", "coord": {"lon": 0.05, "lat": 44.633331}}, {"id": 2976859, "name": "Saint-Sulpice-de-Guilleragues", "country": "FR", "coord": {"lon": 0.05063, "lat": 44.62888}}, {"id": 6614954, "name": "Saint-Sulpice-de-Pommeray", "country": "FR", "coord": {"lon": 1.26667, "lat": 47.599998}}, {"id": 2976868, "name": "Saint-Sulpice-de-Pommeray", "country": "FR", "coord": {"lon": 1.26667, "lat": 47.599998}}, {"id": 6429624, "name": "Saint-Sulpice-de-Roumagnac", "country": "FR", "coord": {"lon": 0.4, "lat": 45.200001}}, {"id": 2976856, "name": "Saint-Sulpice-de-Roumagnac", "country": "FR", "coord": {"lon": 0.39418, "lat": 45.205269}}, {"id": 6428125, "name": "Saint-Sulpice-de-Royan", "country": "FR", "coord": {"lon": -1.01667, "lat": 45.666672}}, {"id": 2976855, "name": "Saint-Sulpice-de-Royan", "country": "FR", "coord": {"lon": -1.01252, "lat": 45.670349}}, {"id": 6432455, "name": "Saint-Sulpice-et-Cameyrac", "country": "FR", "coord": {"lon": -0.4, "lat": 44.916672}}, {"id": 2976847, "name": "Saint-Sulpice-et-Cameyrac", "country": "FR", "coord": {"lon": -0.39048, "lat": 44.911308}}, {"id": 2976846, "name": "Saint-Sulpice-la-Foret", "country": "FR", "coord": {"lon": -1.57972, "lat": 48.216671}}, {"id": 6432866, "name": "Saint-Sulpice-la-For\u00eat", "country": "FR", "coord": {"lon": -1.58333, "lat": 48.216671}}, {"id": 2976843, "name": "Saint-Sulpice-le-Gueretois", "country": "FR", "coord": {"lon": 1.82826, "lat": 46.20097}}, {"id": 6429316, "name": "Saint-Sulpice-le-Gu\u00e9r\u00e9tois", "country": "FR", "coord": {"lon": 1.83333, "lat": 46.200001}}, {"id": 6445462, "name": "Saint-Sulpice-les-Feuilles", "country": "FR", "coord": {"lon": 1.36667, "lat": 46.316669}}, {"id": 2976840, "name": "Saint-Sulpice-les-Feuilles", "country": "FR", "coord": {"lon": 1.36792, "lat": 46.31868}}, {"id": 2976837, "name": "Saint-Sulpice-sur-Leze", "country": "FR", "coord": {"lon": 1.32091, "lat": 43.330761}}, {"id": 6431828, "name": "Saint-Sulpice-sur-L\u00e8ze", "country": "FR", "coord": {"lon": 1.33333, "lat": 43.333328}}, {"id": 6439303, "name": "Saint-Sulpice-sur-Risle", "country": "FR", "coord": {"lon": 0.66667, "lat": 48.783329}}, {"id": 2976836, "name": "Saint-Sulpice-sur-Risle", "country": "FR", "coord": {"lon": 0.65739, "lat": 48.780628}}, {"id": 6427495, "name": "Saint-Sylvain", "country": "FR", "coord": {"lon": -0.21667, "lat": 49.049999}}, {"id": 2976830, "name": "Saint-Sylvain", "country": "FR", "coord": {"lon": -0.21758, "lat": 49.05624}}, {"id": 6438481, "name": "Saint-Sylvestre-Cappel", "country": "FR", "coord": {"lon": 2.555, "lat": 50.7771}}, {"id": 2976823, "name": "Saint-Sylvestre-Cappel", "country": "FR", "coord": {"lon": 2.55622, "lat": 50.776249}}, {"id": 6440227, "name": "Saint-Sylvestre-Pragoulin", "country": "FR", "coord": {"lon": 3.38333, "lat": 46.049999}}, {"id": 2976821, "name": "Saint-Sylvestre-Pragoulin", "country": "FR", "coord": {"lon": 3.39905, "lat": 46.05101}}, {"id": 6435083, "name": "Saint-Sylvestre-sur-Lot", "country": "FR", "coord": {"lon": 0.81667, "lat": 44.400002}}, {"id": 2976820, "name": "Saint-Sylvestre-sur-Lot", "country": "FR", "coord": {"lon": 0.80441, "lat": 44.396671}}, {"id": 6454748, "name": "Saint-Symphorien", "country": "FR", "coord": {"lon": -0.5, "lat": 46.26667}}, {"id": 2976816, "name": "Saint-Symphorien", "country": "FR", "coord": {"lon": -0.4922, "lat": 46.26442}}, {"id": 6432456, "name": "Saint-Symphorien", "country": "FR", "coord": {"lon": -0.48333, "lat": 44.433331}}, {"id": 2976818, "name": "Saint-Symphorien", "country": "FR", "coord": {"lon": -0.49047, "lat": 44.429409}}, {"id": 6434319, "name": "Saint-Symphorien-de-Lay", "country": "FR", "coord": {"lon": 4.21667, "lat": 45.950001}}, {"id": 2976805, "name": "Saint-Symphorien-de-Lay", "country": "FR", "coord": {"lon": 4.21204, "lat": 45.94849}}, {"id": 6612756, "name": "Saint-Symphorien-sur-Coise", "country": "FR", "coord": {"lon": 4.45, "lat": 45.633331}}, {"id": 2976794, "name": "Saint-Symphorien-sur-Coise", "country": "FR", "coord": {"lon": 4.45811, "lat": 45.632}}, {"id": 3233580, "name": "Saint-S\u00e9bastien", "country": "FR", "coord": {"lon": -2.31926, "lat": 47.255329}}, {"id": 6430636, "name": "Saint-S\u00e9bastien-de-Morsent", "country": "FR", "coord": {"lon": 1.08333, "lat": 49.01667}}, {"id": 6435648, "name": "Saint-S\u00e9bastien-de-Raids", "country": "FR", "coord": {"lon": -1.36667, "lat": 49.183331}}, {"id": 2976985, "name": "Saint-S\u00e9bastien-de-Raids", "country": "FR", "coord": {"lon": -1.37119, "lat": 49.190239}}, {"id": 6434540, "name": "Saint-S\u00e9bastien-sur-Loire", "country": "FR", "coord": {"lon": -1.50337, "lat": 47.207661}}, {"id": 2976791, "name": "Saint-Thegonnec", "country": "FR", "coord": {"lon": -3.95, "lat": 48.51667}}, {"id": 6443847, "name": "Saint-Thibault-des-Vignes", "country": "FR", "coord": {"lon": 2.68333, "lat": 48.866669}}, {"id": 2976780, "name": "Saint-Thibault-des-Vignes", "country": "FR", "coord": {"lon": 2.68041, "lat": 48.871109}}, {"id": 2976777, "name": "Saint-Thibery", "country": "FR", "coord": {"lon": 3.41774, "lat": 43.39658}}, {"id": 6432652, "name": "Saint-Thib\u00e9ry", "country": "FR", "coord": {"lon": 3.41667, "lat": 43.400002}}, {"id": 6614668, "name": "Saint-Thomas-de-Conac", "country": "FR", "coord": {"lon": -0.68333, "lat": 45.383331}}, {"id": 2976768, "name": "Saint-Thomas-de-Conac", "country": "FR", "coord": {"lon": -0.68333, "lat": 45.383331}}, {"id": 6431056, "name": "Saint-Thonan", "country": "FR", "coord": {"lon": -4.33333, "lat": 48.48333}}, {"id": 2976759, "name": "Saint-Thonan", "country": "FR", "coord": {"lon": -4.33333, "lat": 48.48333}}, {"id": 6432868, "name": "Saint-Thurial", "country": "FR", "coord": {"lon": -1.93333, "lat": 48.033329}}, {"id": 2976757, "name": "Saint-Thurial", "country": "FR", "coord": {"lon": -1.93181, "lat": 48.02924}}, {"id": 6437394, "name": "Saint-Thuriau", "country": "FR", "coord": {"lon": -2.95, "lat": 48.01667}}, {"id": 2976756, "name": "Saint-Thuriau", "country": "FR", "coord": {"lon": -2.95, "lat": 48.01667}}, {"id": 6453936, "name": "Saint-Th\u00e9gonnec", "country": "FR", "coord": {"lon": -3.95, "lat": 48.51667}}, {"id": 6139151, "name": "Saint-Timoth\u00e9e", "country": "CA", "coord": {"lon": -74.039497, "lat": 45.291752}}, {"id": 6139153, "name": "Saint-Tite", "country": "CA", "coord": {"lon": -72.56411, "lat": 46.727558}}, {"id": 6139154, "name": "Saint-Tite", "country": "CA", "coord": {"lon": -72.565811, "lat": 46.73336}}, {"id": 6424691, "name": "Saint-Trivier-de-Courtes", "country": "FR", "coord": {"lon": 5.08333, "lat": 46.466671}}, {"id": 2976748, "name": "Saint-Trivier-de-Courtes", "country": "FR", "coord": {"lon": 5.08047, "lat": 46.459042}}, {"id": 6424692, "name": "Saint-Trivier-sur-Moignans", "country": "FR", "coord": {"lon": 4.9, "lat": 46.066669}}, {"id": 2976747, "name": "Saint-Trivier-sur-Moignans", "country": "FR", "coord": {"lon": 4.89755, "lat": 46.07233}}, {"id": 2976743, "name": "Saint-Trojan-les-Bains", "country": "FR", "coord": {"lon": -1.20728, "lat": 45.841339}}, {"id": 6428126, "name": "Saint-Trojan-les-Bains", "country": "FR", "coord": {"lon": -1.2, "lat": 45.833328}}, {"id": 6445064, "name": "Saint-Tropez", "country": "FR", "coord": {"lon": 6.63333, "lat": 43.26667}}, {"id": 2976742, "name": "Saint-Tropez", "country": "FR", "coord": {"lon": 6.63981, "lat": 43.269321}}, {"id": 2976739, "name": "Saint-Trosse", "country": "FR", "coord": {"lon": -1.0588, "lat": 44.294289}}, {"id": 2976736, "name": "Saint-Tugen", "country": "FR", "coord": {"lon": -4.57632, "lat": 48.01783}}, {"id": 6431058, "name": "Saint-Urbain", "country": "FR", "coord": {"lon": -4.23333, "lat": 48.400002}}, {"id": 2976730, "name": "Saint-Urbain", "country": "FR", "coord": {"lon": -4.23333, "lat": 48.400002}}, {"id": 6445232, "name": "Saint-Urbain", "country": "FR", "coord": {"lon": -2.01667, "lat": 46.866669}}, {"id": 2976731, "name": "Saint-Urbain", "country": "FR", "coord": {"lon": -2.00961, "lat": 46.875568}}, {"id": 2658858, "name": "Saint-Ursanne", "country": "CH", "coord": {"lon": 7.15436, "lat": 47.364738}}, {"id": 2976725, "name": "Saint-Ursin", "country": "FR", "coord": {"lon": -1.4399, "lat": 48.800529}}, {"id": 6428872, "name": "Saint-Usage", "country": "FR", "coord": {"lon": 5.26667, "lat": 47.099998}}, {"id": 2976724, "name": "Saint-Usage", "country": "FR", "coord": {"lon": 5.26044, "lat": 47.110088}}, {"id": 6442467, "name": "Saint-Usuge", "country": "FR", "coord": {"lon": 5.25, "lat": 46.683331}}, {"id": 2976721, "name": "Saint-Usuge", "country": "FR", "coord": {"lon": 5.25089, "lat": 46.679001}}, {"id": 6430239, "name": "Saint-Uze", "country": "FR", "coord": {"lon": 4.86667, "lat": 45.183331}}, {"id": 2976719, "name": "Saint-Uze", "country": "FR", "coord": {"lon": 4.86561, "lat": 45.18502}}, {"id": 6435654, "name": "Saint-Vaast-la-Hougue", "country": "FR", "coord": {"lon": -1.2664, "lat": 49.5882}}, {"id": 2976712, "name": "Saint-Vaast-la-Hougue", "country": "FR", "coord": {"lon": -1.26931, "lat": 49.588428}}, {"id": 6427497, "name": "Saint-Vaast-sur-Seulles", "country": "FR", "coord": {"lon": -0.63333, "lat": 49.150002}}, {"id": 2976710, "name": "Saint-Vaast-sur-Seulles", "country": "FR", "coord": {"lon": -0.63206, "lat": 49.142361}}, {"id": 2976704, "name": "Saint-Valerien", "country": "FR", "coord": {"lon": 3.09523, "lat": 48.178051}}, {"id": 6443514, "name": "Saint-Valery-en-Caux", "country": "FR", "coord": {"lon": 0.73333, "lat": 49.866669}}, {"id": 2976703, "name": "Saint-Valery-en-Caux", "country": "FR", "coord": {"lon": 0.73333, "lat": 49.866669}}, {"id": 6613779, "name": "Saint-Valery-sur-Somme", "country": "FR", "coord": {"lon": 1.63333, "lat": 50.183331}}, {"id": 2976701, "name": "Saint-Valery-sur-Somme", "country": "FR", "coord": {"lon": 1.63333, "lat": 50.183331}}, {"id": 6442469, "name": "Saint-Vallier", "country": "FR", "coord": {"lon": 4.36667, "lat": 46.633331}}, {"id": 2976697, "name": "Saint-Vallier", "country": "FR", "coord": {"lon": 4.37107, "lat": 46.641071}}, {"id": 6430240, "name": "Saint-Vallier", "country": "FR", "coord": {"lon": 4.8158, "lat": 45.1782}}, {"id": 2976699, "name": "Saint-Vallier", "country": "FR", "coord": {"lon": 4.81514, "lat": 45.175919}}, {"id": 6425679, "name": "Saint-Vallier-de-Thiey", "country": "FR", "coord": {"lon": 6.85, "lat": 43.700001}}, {"id": 2976695, "name": "Saint-Vallier-de-Thiey", "country": "FR", "coord": {"lon": 6.8443, "lat": 43.695389}}, {"id": 6446011, "name": "Saint-Val\u00e9rien", "country": "FR", "coord": {"lon": 3.1, "lat": 48.183331}}, {"id": 6454749, "name": "Saint-Varent", "country": "FR", "coord": {"lon": -0.23333, "lat": 46.883331}}, {"id": 2976693, "name": "Saint-Varent", "country": "FR", "coord": {"lon": -0.2321, "lat": 46.889339}}, {"id": 6429318, "name": "Saint-Vaury", "country": "FR", "coord": {"lon": 1.75, "lat": 46.200001}}, {"id": 2976691, "name": "Saint-Vaury", "country": "FR", "coord": {"lon": 1.75654, "lat": 46.20417}}, {"id": 6439875, "name": "Saint-Venant", "country": "FR", "coord": {"lon": 2.55, "lat": 50.616669}}, {"id": 2976690, "name": "Saint-Venant", "country": "FR", "coord": {"lon": 2.53946, "lat": 50.61956}}, {"id": 2976683, "name": "Saint-Verand", "country": "FR", "coord": {"lon": 4.52791, "lat": 45.91996}}, {"id": 2976684, "name": "Saint-Verand", "country": "FR", "coord": {"lon": 5.33195, "lat": 45.172771}}, {"id": 6428464, "name": "Saint-Viance", "country": "FR", "coord": {"lon": 1.45, "lat": 45.216671}}, {"id": 2976680, "name": "Saint-Viance", "country": "FR", "coord": {"lon": 1.45284, "lat": 45.217522}}, {"id": 2976679, "name": "Saint-Viatre", "country": "FR", "coord": {"lon": 1.93276, "lat": 47.52438}}, {"id": 6434541, "name": "Saint-Viaud", "country": "FR", "coord": {"lon": -2.01667, "lat": 47.25}}, {"id": 2976678, "name": "Saint-Viaud", "country": "FR", "coord": {"lon": -2.01833, "lat": 47.256191}}, {"id": 6615697, "name": "Saint-Victor", "country": "FR", "coord": {"lon": 2.609, "lat": 46.395}}, {"id": 2976667, "name": "Saint-Victor", "country": "FR", "coord": {"lon": 2.60858, "lat": 46.394669}}, {"id": 6434447, "name": "Saint-Victor-Malescours", "country": "FR", "coord": {"lon": 4.31667, "lat": 45.283329}}, {"id": 2976652, "name": "Saint-Victor-Malescours", "country": "FR", "coord": {"lon": 4.31221, "lat": 45.29166}}, {"id": 6440228, "name": "Saint-Victor-Montvianeix", "country": "FR", "coord": {"lon": 3.6, "lat": 45.933331}}, {"id": 2976651, "name": "Saint-Victor-Montvianeix", "country": "FR", "coord": {"lon": 3.60268, "lat": 45.940269}}, {"id": 6433402, "name": "Saint-Victor-de-Cessieu", "country": "FR", "coord": {"lon": 5.4, "lat": 45.549999}}, {"id": 2976663, "name": "Saint-Victor-de-Cessieu", "country": "FR", "coord": {"lon": 5.4, "lat": 45.549999}}, {"id": 6439305, "name": "Saint-Victor-de-R\u00e9no", "country": "FR", "coord": {"lon": 0.7, "lat": 48.5}}, {"id": 2976658, "name": "Saint-Victor-de-R\u00e9no", "country": "FR", "coord": {"lon": 0.69927, "lat": 48.503262}}, {"id": 6431441, "name": "Saint-Victor-la-Coste", "country": "FR", "coord": {"lon": 4.63333, "lat": 44.066669}}, {"id": 2976653, "name": "Saint-Victor-la-Coste", "country": "FR", "coord": {"lon": 4.64238, "lat": 44.06295}}, {"id": 6427087, "name": "Saint-Victoret", "country": "FR", "coord": {"lon": 5.23333, "lat": 43.416672}}, {"id": 2976656, "name": "Saint-Victoret", "country": "FR", "coord": {"lon": 5.23396, "lat": 43.419571}}, {"id": 6445465, "name": "Saint-Victurnien", "country": "FR", "coord": {"lon": 1, "lat": 45.883331}}, {"id": 2976643, "name": "Saint-Victurnien", "country": "FR", "coord": {"lon": 1.01376, "lat": 45.878551}}, {"id": 6435655, "name": "Saint-Vigor-des-Monts", "country": "FR", "coord": {"lon": -1.08333, "lat": 48.916672}}, {"id": 2976639, "name": "Saint-Vigor-des-Monts", "country": "FR", "coord": {"lon": -1.08548, "lat": 48.910721}}, {"id": 6427498, "name": "Saint-Vigor-des-M\u00e9zerets", "country": "FR", "coord": {"lon": -0.63333, "lat": 48.916672}}, {"id": 2976640, "name": "Saint-Vigor-des-M\u00e9zerets", "country": "FR", "coord": {"lon": -0.64101, "lat": 48.908669}}, {"id": 6427499, "name": "Saint-Vigor-le-Grand", "country": "FR", "coord": {"lon": -0.68333, "lat": 49.283329}}, {"id": 2976637, "name": "Saint-Vigor-le-Grand", "country": "FR", "coord": {"lon": -0.68579, "lat": 49.282421}}, {"id": 6616801, "name": "Saint-Vincent", "country": "FR", "coord": {"lon": 3.9104, "lat": 45.144001}}, {"id": 2976628, "name": "Saint-Vincent", "country": "FR", "coord": {"lon": 3.90939, "lat": 45.144348}}, {"id": 6614748, "name": "Saint-Vincent", "country": "FR", "coord": {"lon": -0.15, "lat": 43.166672}}, {"id": 2976635, "name": "Saint-Vincent", "country": "FR", "coord": {"lon": -0.15, "lat": 43.166672}}, {"id": 3168712, "name": "Saint-Vincent", "country": "IT", "coord": {"lon": 7.64861, "lat": 45.751259}}, {"id": 6429627, "name": "Saint-Vincent-de-Connezac", "country": "FR", "coord": {"lon": 0.4, "lat": 45.166672}}, {"id": 2976613, "name": "Saint-Vincent-de-Connezac", "country": "FR", "coord": {"lon": 0.39791, "lat": 45.163818}}, {"id": 6429628, "name": "Saint-Vincent-de-Cosse", "country": "FR", "coord": {"lon": 1.1, "lat": 44.833328}}, {"id": 2976612, "name": "Saint-Vincent-de-Cosse", "country": "FR", "coord": {"lon": 1.1, "lat": 44.833328}}, {"id": 6435085, "name": "Saint-Vincent-de-Lamontjoie", "country": "FR", "coord": {"lon": 0.5, "lat": 44.083328}}, {"id": 2976610, "name": "Saint-Vincent-de-Lamontjoie", "country": "FR", "coord": {"lon": 0.51187, "lat": 44.08503}}, {"id": 6433404, "name": "Saint-Vincent-de-Mercuze", "country": "FR", "coord": {"lon": 5.95, "lat": 45.366669}}, {"id": 2976609, "name": "Saint-Vincent-de-Mercuze", "country": "FR", "coord": {"lon": 5.95182, "lat": 45.370628}}, {"id": 6139184, "name": "Saint-Vincent-de-Paul", "country": "CA", "coord": {"lon": -73.649178, "lat": 45.616779}}, {"id": 6614680, "name": "Saint-Vincent-de-Paul", "country": "FR", "coord": {"lon": -1, "lat": 43.75}}, {"id": 2976608, "name": "Saint-Vincent-de-Paul", "country": "FR", "coord": {"lon": -1.00662, "lat": 43.744308}}, {"id": 6614012, "name": "Saint-Vincent-de-Paul", "country": "FR", "coord": {"lon": -0.4681, "lat": 44.954102}}, {"id": 2976607, "name": "Saint-Vincent-de-Paul", "country": "FR", "coord": {"lon": -0.46751, "lat": 44.954288}}, {"id": 6432459, "name": "Saint-Vincent-de-Pertignas", "country": "FR", "coord": {"lon": -0.11667, "lat": 44.799999}}, {"id": 2976606, "name": "Saint-Vincent-de-Pertignas", "country": "FR", "coord": {"lon": -0.11155, "lat": 44.798119}}, {"id": 6433975, "name": "Saint-Vincent-de-Tyrosse", "country": "FR", "coord": {"lon": -1.3, "lat": 43.666672}}, {"id": 2976600, "name": "Saint-Vincent-de-Tyrosse", "country": "FR", "coord": {"lon": -1.30799, "lat": 43.660309}}, {"id": 6434542, "name": "Saint-Vincent-des-Landes", "country": "FR", "coord": {"lon": -1.5, "lat": 47.650002}}, {"id": 2976603, "name": "Saint-Vincent-des-Landes", "country": "FR", "coord": {"lon": -1.49572, "lat": 47.656952}}, {"id": 6445235, "name": "Saint-Vincent-sur-Graon", "country": "FR", "coord": {"lon": -1.38333, "lat": 46.51667}}, {"id": 2976585, "name": "Saint-Vincent-sur-Graon", "country": "FR", "coord": {"lon": -1.38881, "lat": 46.516899}}, {"id": 6437395, "name": "Saint-Vincent-sur-Oust", "country": "FR", "coord": {"lon": -2.15, "lat": 47.700001}}, {"id": 2976581, "name": "Saint-Vincent-sur-Oust", "country": "FR", "coord": {"lon": -2.14657, "lat": 47.7001}}, {"id": 6429631, "name": "Saint-Vincent-sur-l'Isle", "country": "FR", "coord": {"lon": 0.88333, "lat": 45.25}}, {"id": 2976582, "name": "Saint-Vincent-sur-l'Isle", "country": "FR", "coord": {"lon": 0.89627, "lat": 45.244652}}, {"id": 6429982, "name": "Saint-Vit", "country": "FR", "coord": {"lon": 5.81667, "lat": 47.183331}}, {"id": 2976579, "name": "Saint-Vit", "country": "FR", "coord": {"lon": 5.81667, "lat": 47.183331}}, {"id": 6435086, "name": "Saint-Vite", "country": "FR", "coord": {"lon": 0.96667, "lat": 44.48333}}, {"id": 2976577, "name": "Saint-Vite", "country": "FR", "coord": {"lon": 0.93876, "lat": 44.471329}}, {"id": 2787316, "name": "Saint-Vith", "country": "BE", "coord": {"lon": 6.12728, "lat": 50.284069}}, {"id": 2787315, "name": "Saint-Vith", "country": "BE", "coord": {"lon": 6.12724, "lat": 50.28146}}, {"id": 6445466, "name": "Saint-Vitte-sur-Briance", "country": "FR", "coord": {"lon": 1.55, "lat": 45.616669}}, {"id": 2976575, "name": "Saint-Vitte-sur-Briance", "country": "FR", "coord": {"lon": 1.5531, "lat": 45.626671}}, {"id": 6432460, "name": "Saint-Vivien-de-Blaye", "country": "FR", "coord": {"lon": -0.5, "lat": 45.099998}}, {"id": 2976570, "name": "Saint-Vivien-de-Blaye", "country": "FR", "coord": {"lon": -0.5, "lat": 45.099998}}, {"id": 6612486, "name": "Saint-Vivien-de-Mons\u00e9gur", "country": "FR", "coord": {"lon": 0.11667, "lat": 44.616669}}, {"id": 2976568, "name": "Saint-Vivien-de-Mons\u00e9gur", "country": "FR", "coord": {"lon": 0.10762, "lat": 44.61639}}, {"id": 6432461, "name": "Saint-Vivien-de-M\u00e9doc", "country": "FR", "coord": {"lon": -1.03333, "lat": 45.433331}}, {"id": 2976569, "name": "Saint-Vivien-de-M\u00e9doc", "country": "FR", "coord": {"lon": -1.03376, "lat": 45.426941}}, {"id": 6434122, "name": "Saint-Vi\u00e2tre", "country": "FR", "coord": {"lon": 1.93333, "lat": 47.51667}}, {"id": 6425473, "name": "Saint-Voir", "country": "FR", "coord": {"lon": 3.51667, "lat": 46.400002}}, {"id": 2976567, "name": "Saint-Voir", "country": "FR", "coord": {"lon": 3.51957, "lat": 46.40617}}, {"id": 6454882, "name": "Saint-Vrain", "country": "FR", "coord": {"lon": 2.33333, "lat": 48.533329}}, {"id": 2976565, "name": "Saint-Vrain", "country": "FR", "coord": {"lon": 2.33331, "lat": 48.543018}}, {"id": 6613638, "name": "Saint-V\u00e9rand", "country": "FR", "coord": {"lon": 4.53333, "lat": 45.916672}}, {"id": 6616676, "name": "Saint-V\u00e9rand", "country": "FR", "coord": {"lon": 5.3324, "lat": 45.172798}}, {"id": 2976558, "name": "Saint-Wandrille-Rancon", "country": "FR", "coord": {"lon": 0.76497, "lat": 49.526581}}, {"id": 6443518, "name": "Saint-Wandrille-Ran\u00e7on", "country": "FR", "coord": {"lon": 0.76667, "lat": 49.533329}}, {"id": 6139198, "name": "Saint-Wenceslas", "country": "CA", "coord": {"lon": -72.332397, "lat": 46.166759}}, {"id": 6446334, "name": "Saint-Witz", "country": "FR", "coord": {"lon": 2.56667, "lat": 49.083328}}, {"id": 2976557, "name": "Saint-Witz", "country": "FR", "coord": {"lon": 2.57122, "lat": 49.091}}, {"id": 6428129, "name": "Saint-Xandre", "country": "FR", "coord": {"lon": -1.1, "lat": 46.200001}}, {"id": 2976556, "name": "Saint-Xandre", "country": "FR", "coord": {"lon": -1.10267, "lat": 46.204441}}, {"id": 6433976, "name": "Saint-Yaguen", "country": "FR", "coord": {"lon": -0.73333, "lat": 43.883331}}, {"id": 2976554, "name": "Saint-Yaguen", "country": "FR", "coord": {"lon": -0.74278, "lat": 43.888988}}, {"id": 6442472, "name": "Saint-Yan", "country": "FR", "coord": {"lon": 4.03333, "lat": 46.416672}}, {"id": 2976553, "name": "Saint-Yan", "country": "FR", "coord": {"lon": 4.03876, "lat": 46.411469}}, {"id": 6425474, "name": "Saint-Yorre", "country": "FR", "coord": {"lon": 3.46667, "lat": 46.066669}}, {"id": 2976548, "name": "Saint-Yorre", "country": "FR", "coord": {"lon": 3.46812, "lat": 46.06057}}, {"id": 6445467, "name": "Saint-Yrieix-la-Perche", "country": "FR", "coord": {"lon": 1.2, "lat": 45.51667}}, {"id": 2976546, "name": "Saint-Yrieix-la-Perche", "country": "FR", "coord": {"lon": 1.20569, "lat": 45.516041}}, {"id": 6427858, "name": "Saint-Yrieix-sur-Charente", "country": "FR", "coord": {"lon": 0.11667, "lat": 45.683331}}, {"id": 2976542, "name": "Saint-Yrieix-sur-Charente", "country": "FR", "coord": {"lon": 0.11667, "lat": 45.683331}}, {"id": 6615111, "name": "Saint-Yvi", "country": "FR", "coord": {"lon": -3.93333, "lat": 47.966671}}, {"id": 2976537, "name": "Saint-Yvi", "country": "FR", "coord": {"lon": -3.93333, "lat": 47.966671}}, {"id": 6440229, "name": "Saint-Yvoine", "country": "FR", "coord": {"lon": 3.23333, "lat": 45.583328}}, {"id": 2976538, "name": "Saint-Yvoine", "country": "FR", "coord": {"lon": 3.23436, "lat": 45.584991}}, {"id": 2787313, "name": "Saint-Yvon", "country": "BE", "coord": {"lon": 2.90992, "lat": 50.743351}}, {"id": 6432463, "name": "Saint-Yzan-de-Soudiac", "country": "FR", "coord": {"lon": -0.41667, "lat": 45.133331}}, {"id": 2976536, "name": "Saint-Yzan-de-Soudiac", "country": "FR", "coord": {"lon": -0.41078, "lat": 45.141178}}, {"id": 6445065, "name": "Saint-Zacharie", "country": "FR", "coord": {"lon": 5.71667, "lat": 43.383331}}, {"id": 2976534, "name": "Saint-Zacharie", "country": "FR", "coord": {"lon": 5.70808, "lat": 43.385208}}, {"id": 6139216, "name": "Saint-Zotique", "country": "CA", "coord": {"lon": -74.249237, "lat": 45.250092}}, {"id": 6435578, "name": "Saint-\u00c9bremond-de-Bonfoss\u00e9", "country": "FR", "coord": {"lon": -1.15, "lat": 49.066669}}, {"id": 2980735, "name": "Saint-\u00c9bremond-de-Bonfoss\u00e9", "country": "FR", "coord": {"lon": -1.15012, "lat": 49.067619}}, {"id": 6616671, "name": "Saint-\u00c9gr\u00e8ve", "country": "FR", "coord": {"lon": 5.6834, "lat": 45.2313}}, {"id": 6438069, "name": "Saint-\u00c9loi", "country": "FR", "coord": {"lon": 3.21667, "lat": 46.966671}}, {"id": 6425444, "name": "Saint-\u00c9loy-d'Allier", "country": "FR", "coord": {"lon": 2.35, "lat": 46.48333}}, {"id": 2980495, "name": "Saint-\u00c9loy-d'Allier", "country": "FR", "coord": {"lon": 2.36304, "lat": 46.487431}}, {"id": 6428268, "name": "Saint-\u00c9loy-de-Gy", "country": "FR", "coord": {"lon": 2.35, "lat": 47.150002}}, {"id": 6440174, "name": "Saint-\u00c9loy-la-Glaci\u00e8re", "country": "FR", "coord": {"lon": 3.56667, "lat": 45.566669}}, {"id": 2980493, "name": "Saint-\u00c9loy-la-Glaci\u00e8re", "country": "FR", "coord": {"lon": 3.57262, "lat": 45.56184}}, {"id": 6440175, "name": "Saint-\u00c9loy-les-Mines", "country": "FR", "coord": {"lon": 2.834, "lat": 46.160999}}, {"id": 6432385, "name": "Saint-\u00c9milion", "country": "FR", "coord": {"lon": -0.15, "lat": 44.883331}}, {"id": 6433107, "name": "Saint-\u00c9pain", "country": "FR", "coord": {"lon": 0.5372, "lat": 47.145599}}, {"id": 6614010, "name": "Saint-\u00c9tienne", "country": "FR", "coord": {"lon": 4.4, "lat": 45.433331}}, {"id": 6434409, "name": "Saint-\u00c9tienne-Lardeyrol", "country": "FR", "coord": {"lon": 4, "lat": 45.066669}}, {"id": 2980225, "name": "Saint-\u00c9tienne-Lardeyrol", "country": "FR", "coord": {"lon": 4.00154, "lat": 45.071861}}, {"id": 6439857, "name": "Saint-\u00c9tienne-au-Mont", "country": "FR", "coord": {"lon": 1.6271, "lat": 50.681702}}, {"id": 6433950, "name": "Saint-\u00c9tienne-d'Orthe", "country": "FR", "coord": {"lon": -1.16667, "lat": 43.583328}}, {"id": 2980241, "name": "Saint-\u00c9tienne-d'Orthe", "country": "FR", "coord": {"lon": -1.17785, "lat": 43.588692}}, {"id": 6440589, "name": "Saint-\u00c9tienne-de-Ba\u00efgorry", "country": "FR", "coord": {"lon": -1.35, "lat": 43.166672}}, {"id": 6427631, "name": "Saint-\u00c9tienne-de-Carlat", "country": "FR", "coord": {"lon": 2.58333, "lat": 44.900002}}, {"id": 2980275, "name": "Saint-\u00c9tienne-de-Carlat", "country": "FR", "coord": {"lon": 2.57428, "lat": 44.904812}}, {"id": 6433108, "name": "Saint-\u00c9tienne-de-Chigny", "country": "FR", "coord": {"lon": 0.5165, "lat": 47.370602}}, {"id": 6433339, "name": "Saint-\u00c9tienne-de-Crossey", "country": "FR", "coord": {"lon": 5.6456, "lat": 45.378899}}, {"id": 6425798, "name": "Saint-\u00c9tienne-de-Fontbellon", "country": "FR", "coord": {"lon": 4.38333, "lat": 44.599998}}, {"id": 6435055, "name": "Saint-\u00c9tienne-de-Foug\u00e8res", "country": "FR", "coord": {"lon": 0.55, "lat": 44.416672}}, {"id": 2980267, "name": "Saint-\u00c9tienne-de-Foug\u00e8res", "country": "FR", "coord": {"lon": 0.55512, "lat": 44.418571}}, {"id": 6425799, "name": "Saint-\u00c9tienne-de-Lugdar\u00e8s", "country": "FR", "coord": {"lon": 3.95, "lat": 44.650002}}, {"id": 2980262, "name": "Saint-\u00c9tienne-de-Lugdar\u00e8s", "country": "FR", "coord": {"lon": 3.9554, "lat": 44.650982}}, {"id": 6612549, "name": "Saint-\u00c9tienne-de-Mer-Morte", "country": "FR", "coord": {"lon": -1.75, "lat": 46.933331}}, {"id": 6434511, "name": "Saint-\u00c9tienne-de-Montluc", "country": "FR", "coord": {"lon": -1.78333, "lat": 47.26667}}, {"id": 6433340, "name": "Saint-\u00c9tienne-de-Saint-Geoirs", "country": "FR", "coord": {"lon": 5.35, "lat": 45.333328}}, {"id": 6425446, "name": "Saint-\u00c9tienne-de-Vicq", "country": "FR", "coord": {"lon": 3.53333, "lat": 46.183331}}, {"id": 2980244, "name": "Saint-\u00c9tienne-de-Vicq", "country": "FR", "coord": {"lon": 3.53412, "lat": 46.177711}}, {"id": 6138149, "name": "Saint-\u00c9tienne-des-Gr\u00e8s", "country": "CA", "coord": {"lon": -72.765831, "lat": 46.43335}}, {"id": 6445187, "name": "Saint-\u00c9tienne-du-Bois", "country": "FR", "coord": {"lon": -1.6, "lat": 46.833328}}, {"id": 6424661, "name": "Saint-\u00c9tienne-du-Bois", "country": "FR", "coord": {"lon": 5.28333, "lat": 46.283329}}, {"id": 6447169, "name": "Saint-\u00c9tienne-du-Gr\u00e8s", "country": "FR", "coord": {"lon": 4.71667, "lat": 43.783329}}, {"id": 6429128, "name": "Saint-\u00c9tienne-du-Gu\u00e9-de-l'Isle", "country": "FR", "coord": {"lon": -2.65, "lat": 48.099998}}, {"id": 2980237, "name": "Saint-\u00c9tienne-du-Gu\u00e9-de-l'Isle", "country": "FR", "coord": {"lon": -2.64808, "lat": 48.10302}}, {"id": 6443443, "name": "Saint-\u00c9tienne-du-Rouvray", "country": "FR", "coord": {"lon": 1.1, "lat": 49.383331}}, {"id": 6432826, "name": "Saint-\u00c9tienne-en-Cogl\u00e8s", "country": "FR", "coord": {"lon": -1.33333, "lat": 48.400002}}, {"id": 6427430, "name": "Saint-\u00c9tienne-la-Thillaye", "country": "FR", "coord": {"lon": 0.11667, "lat": 49.283329}}, {"id": 2980224, "name": "Saint-\u00c9tienne-la-Thillaye", "country": "FR", "coord": {"lon": 0.12021, "lat": 49.29002}}, {"id": 6445725, "name": "Saint-\u00c9tienne-l\u00e8s-Remiremont", "country": "FR", "coord": {"lon": 6.605, "lat": 48.023102}}, {"id": 6434410, "name": "Saint-\u00c9tienne-sur-Blesle", "country": "FR", "coord": {"lon": 3.13333, "lat": 45.316669}}, {"id": 2980215, "name": "Saint-\u00c9tienne-sur-Blesle", "country": "FR", "coord": {"lon": 3.13333, "lat": 45.316669}}, {"id": 6424662, "name": "Saint-\u00c9tienne-sur-Chalaronne", "country": "FR", "coord": {"lon": 4.86667, "lat": 46.150002}}, {"id": 6424663, "name": "Saint-\u00c9tienne-sur-Reyssouze", "country": "FR", "coord": {"lon": 5.0012, "lat": 46.412998}}, {"id": 2980213, "name": "Saint-\u00c9tienne-sur-Reyssouze", "country": "FR", "coord": {"lon": 5.00077, "lat": 46.412479}}, {"id": 6440177, "name": "Saint-\u00c9tienne-sur-Usson", "country": "FR", "coord": {"lon": 3.41667, "lat": 45.5}}, {"id": 2980211, "name": "Saint-\u00c9tienne-sur-Usson", "country": "FR", "coord": {"lon": 3.41201, "lat": 45.505901}}, {"id": 6431042, "name": "Saint-\u00c9varzec", "country": "FR", "coord": {"lon": -4.01667, "lat": 47.933331}}, {"id": 4033683, "name": "Sainte Am\u00e9lie", "country": "PF", "coord": {"lon": -149.566666, "lat": -17.533331}}, {"id": 6639619, "name": "Sainte Catherine de la Jacques Cartier", "country": "CA", "coord": {"lon": -71.62056, "lat": 46.85244}}, {"id": 934052, "name": "Sainte Croix", "country": "MU", "coord": {"lon": 57.521389, "lat": -20.145}}, {"id": 4407294, "name": "Sainte Genevieve", "country": "US", "coord": {"lon": -90.041779, "lat": 37.981441}}, {"id": 4407295, "name": "Sainte Genevieve County", "country": "US", "coord": {"lon": -90.200119, "lat": 37.883389}}, {"id": 6137696, "name": "Sainte-Adele", "country": "CA", "coord": {"lon": -74.132507, "lat": 45.950081}}, {"id": 6443422, "name": "Sainte-Adresse", "country": "FR", "coord": {"lon": 0.08333, "lat": 49.5}}, {"id": 2980795, "name": "Sainte-Adresse", "country": "FR", "coord": {"lon": 0.08446, "lat": 49.5089}}, {"id": 6137700, "name": "Sainte-Agathe", "country": "CA", "coord": {"lon": -74.282516, "lat": 46.050091}}, {"id": 6137702, "name": "Sainte-Agathe-des-Monts", "country": "CA", "coord": {"lon": -74.282516, "lat": 46.050091}}, {"id": 2980789, "name": "Sainte-Agnes", "country": "FR", "coord": {"lon": 7.46595, "lat": 43.799431}}, {"id": 6137705, "name": "Sainte-Agn\u00e8s", "country": "CA", "coord": {"lon": -74.399246, "lat": 45.016788}}, {"id": 6425669, "name": "Sainte-Agn\u00e8s", "country": "FR", "coord": {"lon": 7.46667, "lat": 43.799999}}, {"id": 6427621, "name": "Sainte-Anastasie", "country": "FR", "coord": {"lon": 2.98333, "lat": 45.166672}}, {"id": 2980784, "name": "Sainte-Anastasie", "country": "FR", "coord": {"lon": 2.96931, "lat": 45.172329}}, {"id": 6445058, "name": "Sainte-Anastasie-sur-Issole", "country": "FR", "coord": {"lon": 6.13333, "lat": 43.333328}}, {"id": 2980783, "name": "Sainte-Anastasie-sur-Issole", "country": "FR", "coord": {"lon": 6.12359, "lat": 43.34211}}, {"id": 6137715, "name": "Sainte-Ang\u00e8le-de-Laval", "country": "CA", "coord": {"lon": -72.50882, "lat": 46.334259}}, {"id": 6690393, "name": "Sainte-Anne", "country": "GP", "coord": {"lon": -61.366669, "lat": 16.23333}}, {"id": 3578466, "name": "Sainte-Anne", "country": "GP", "coord": {"lon": -61.379189, "lat": 16.22636}}, {"id": 7522147, "name": "Sainte-Anne-de-Beaupr\u00e9", "country": "CA", "coord": {"lon": -70.928329, "lat": 47.023891}}, {"id": 6137733, "name": "Sainte-Anne-de-Bellevue", "country": "CA", "coord": {"lon": -73.945602, "lat": 45.406181}}, {"id": 6137745, "name": "Sainte-Anne-des-Lacs", "country": "CA", "coord": {"lon": -74.132507, "lat": 45.850079}}, {"id": 6137749, "name": "Sainte-Anne-des-Monts", "country": "CA", "coord": {"lon": -66.492432, "lat": 49.12402}}, {"id": 6137753, "name": "Sainte-Anne-des-Plaines", "country": "CA", "coord": {"lon": -73.811562, "lat": 45.764679}}, {"id": 6137754, "name": "Sainte-Anne-du-Lac", "country": "CA", "coord": {"lon": -75.332573, "lat": 46.883411}}, {"id": 6616813, "name": "Sainte-Anne-sur-Brivet", "country": "FR", "coord": {"lon": -2.0026, "lat": 47.459702}}, {"id": 2980761, "name": "Sainte-Anne-sur-Brivet", "country": "FR", "coord": {"lon": -2.00415, "lat": 47.460709}}, {"id": 6137758, "name": "Sainte-Barbe", "country": "CA", "coord": {"lon": -74.199242, "lat": 45.16679}}, {"id": 6435049, "name": "Sainte-Bazeille", "country": "FR", "coord": {"lon": 0.1, "lat": 44.533329}}, {"id": 2980742, "name": "Sainte-Bazeille", "country": "FR", "coord": {"lon": 0.0974, "lat": 44.530731}}, {"id": 6137781, "name": "Sainte-Catherine", "country": "CA", "coord": {"lon": -72.566322, "lat": 46.318359}}, {"id": 6137780, "name": "Sainte-Catherine", "country": "CA", "coord": {"lon": -73.582481, "lat": 45.400082}}, {"id": 6439856, "name": "Sainte-Catherine", "country": "FR", "coord": {"lon": 2.76667, "lat": 50.299999}}, {"id": 2980723, "name": "Sainte-Catherine", "country": "FR", "coord": {"lon": 2.76404, "lat": 50.307571}}, {"id": 2980716, "name": "Sainte-Cecile", "country": "FR", "coord": {"lon": -1.11429, "lat": 46.742859}}, {"id": 2980711, "name": "Sainte-Cecile-les-Vignes", "country": "FR", "coord": {"lon": 4.8839, "lat": 44.24506}}, {"id": 935257, "name": "Sainte-Clotilde", "country": "RE", "coord": {"lon": 55.478722, "lat": -20.891609}}, {"id": 6616091, "name": "Sainte-Colombe", "country": "FR", "coord": {"lon": 4.4585, "lat": 47.427299}}, {"id": 2980687, "name": "Sainte-Colombe", "country": "FR", "coord": {"lon": 4.45739, "lat": 47.42643}}, {"id": 6454022, "name": "Sainte-Colombe", "country": "FR", "coord": {"lon": -0.0613, "lat": 44.879398}}, {"id": 2980694, "name": "Sainte-Colombe", "country": "FR", "coord": {"lon": -0.06667, "lat": 44.866669}}, {"id": 6443821, "name": "Sainte-Colombe", "country": "FR", "coord": {"lon": 3.25, "lat": 48.533329}}, {"id": 2980684, "name": "Sainte-Colombe", "country": "FR", "coord": {"lon": 3.25518, "lat": 48.530472}}, {"id": 6612753, "name": "Sainte-Colombe", "country": "FR", "coord": {"lon": 4.86667, "lat": 45.51667}}, {"id": 2980691, "name": "Sainte-Colombe", "country": "FR", "coord": {"lon": 4.86136, "lat": 45.524738}}, {"id": 6435054, "name": "Sainte-Colombe-en-Bruilhois", "country": "FR", "coord": {"lon": 0.51667, "lat": 44.183331}}, {"id": 2980676, "name": "Sainte-Colombe-en-Bruilhois", "country": "FR", "coord": {"lon": 0.51572, "lat": 44.178219}}, {"id": 6441751, "name": "Sainte-Consorce", "country": "FR", "coord": {"lon": 4.7, "lat": 45.76667}}, {"id": 2980668, "name": "Sainte-Consorce", "country": "FR", "coord": {"lon": 4.69735, "lat": 45.777061}}, {"id": 6616181, "name": "Sainte-Croix", "country": "FR", "coord": {"lon": 0.8315, "lat": 44.739899}}, {"id": 2980657, "name": "Sainte-Croix", "country": "FR", "coord": {"lon": 0.83333, "lat": 44.73333}}, {"id": 7287026, "name": "Sainte-Croix", "country": "CH", "coord": {"lon": 6.48894, "lat": 46.823689}}, {"id": 2658874, "name": "Sainte-Croix", "country": "CH", "coord": {"lon": 6.50283, "lat": 46.822029}}, {"id": 6427423, "name": "Sainte-Croix-Grand-Tonne", "country": "FR", "coord": {"lon": -0.55, "lat": 49.23333}}, {"id": 2980647, "name": "Sainte-Croix-Grand-Tonne", "country": "FR", "coord": {"lon": -0.56285, "lat": 49.231548}}, {"id": 6435574, "name": "Sainte-Croix-Hague", "country": "FR", "coord": {"lon": -1.76667, "lat": 49.633331}}, {"id": 2980646, "name": "Sainte-Croix-Hague", "country": "FR", "coord": {"lon": -1.77285, "lat": 49.638451}}, {"id": 6441603, "name": "Sainte-Croix-aux-Mines", "country": "FR", "coord": {"lon": 7.21667, "lat": 48.26667}}, {"id": 2980658, "name": "Sainte-Croix-aux-Mines", "country": "FR", "coord": {"lon": 7.22445, "lat": 48.261238}}, {"id": 6429531, "name": "Sainte-Croix-de-Mareuil", "country": "FR", "coord": {"lon": 0.43333, "lat": 45.466671}}, {"id": 2980655, "name": "Sainte-Croix-de-Mareuil", "country": "FR", "coord": {"lon": 0.42623, "lat": 45.46452}}, {"id": 2980653, "name": "Sainte-Croix-de-Saint-L\u00f4", "country": "FR", "coord": {"lon": -1.03344, "lat": 49.11919}}, {"id": 6441604, "name": "Sainte-Croix-en-Plaine", "country": "FR", "coord": {"lon": 7.38453, "lat": 48.009048}}, {"id": 2980648, "name": "Sainte-Croix-en-Plaine", "country": "FR", "coord": {"lon": 7.38556, "lat": 48.008759}}, {"id": 6427424, "name": "Sainte-Croix-sur-Mer", "country": "FR", "coord": {"lon": -0.51667, "lat": 49.316669}}, {"id": 2980643, "name": "Sainte-Croix-sur-Mer", "country": "FR", "coord": {"lon": -0.51102, "lat": 49.313782}}, {"id": 6445180, "name": "Sainte-C\u00e9cile", "country": "FR", "coord": {"lon": -1.11667, "lat": 46.75}}, {"id": 6137799, "name": "Sainte-C\u00e9cile-de-Masham", "country": "CA", "coord": {"lon": -76.032669, "lat": 45.650108}}, {"id": 6445091, "name": "Sainte-C\u00e9cile-les-Vignes", "country": "FR", "coord": {"lon": 4.88333, "lat": 44.25}}, {"id": 6137838, "name": "Sainte-Doroth\u00e9e", "country": "CA", "coord": {"lon": -73.815887, "lat": 45.533379}}, {"id": 6440587, "name": "Sainte-Engr\u00e2ce", "country": "FR", "coord": {"lon": -0.8533, "lat": 43.013699}}, {"id": 2980634, "name": "Sainte-Engr\u00e2ce", "country": "FR", "coord": {"lon": -0.81239, "lat": 42.996052}}, {"id": 6137878, "name": "Sainte-Eulalie", "country": "CA", "coord": {"lon": -72.2491, "lat": 46.10006}}, {"id": 6454023, "name": "Sainte-Eulalie", "country": "FR", "coord": {"lon": -0.48333, "lat": 44.916672}}, {"id": 2980625, "name": "Sainte-Eulalie", "country": "FR", "coord": {"lon": -0.47417, "lat": 44.90667}}, {"id": 6433951, "name": "Sainte-Eulalie-en-Born", "country": "FR", "coord": {"lon": -1.18333, "lat": 44.26667}}, {"id": 2980617, "name": "Sainte-Eulalie-en-Born", "country": "FR", "coord": {"lon": -1.18295, "lat": 44.274658}}, {"id": 2980616, "name": "Sainte-Euphemie", "country": "FR", "coord": {"lon": 4.79437, "lat": 45.971958}}, {"id": 6453509, "name": "Sainte-Euph\u00e9mie", "country": "FR", "coord": {"lon": 4.78333, "lat": 45.966671}}, {"id": 6354898, "name": "Sainte-Euph\u00e9mie-sur-Rivi\u00e8re-du-Sud", "country": "CA", "coord": {"lon": -70.440521, "lat": 46.773521}}, {"id": 2980611, "name": "Sainte-Fereole", "country": "FR", "coord": {"lon": 1.58278, "lat": 45.228062}}, {"id": 6453817, "name": "Sainte-Feyre", "country": "FR", "coord": {"lon": 1.91667, "lat": 46.133331}}, {"id": 2980610, "name": "Sainte-Feyre", "country": "FR", "coord": {"lon": 1.91517, "lat": 46.139}}, {"id": 6445188, "name": "Sainte-Flaive-des-Loups", "country": "FR", "coord": {"lon": -1.58333, "lat": 46.616669}}, {"id": 2980606, "name": "Sainte-Flaive-des-Loups", "country": "FR", "coord": {"lon": -1.58082, "lat": 46.613029}}, {"id": 6434413, "name": "Sainte-Florine", "country": "FR", "coord": {"lon": 3.33333, "lat": 45.400002}}, {"id": 2980603, "name": "Sainte-Florine", "country": "FR", "coord": {"lon": 3.31995, "lat": 45.40546}}, {"id": 6428427, "name": "Sainte-Fortunade", "country": "FR", "coord": {"lon": 1.76667, "lat": 45.200001}}, {"id": 2980601, "name": "Sainte-Fortunade", "country": "FR", "coord": {"lon": 1.77181, "lat": 45.20805}}, {"id": 6325488, "name": "Sainte-Foy", "country": "CA", "coord": {"lon": -71.295433, "lat": 46.756149}}, {"id": 6445191, "name": "Sainte-Foy", "country": "FR", "coord": {"lon": -1.66667, "lat": 46.549999}}, {"id": 2980597, "name": "Sainte-Foy", "country": "FR", "coord": {"lon": -1.67265, "lat": 46.54488}}, {"id": 6429541, "name": "Sainte-Foy-de-Belv\u00e8s", "country": "FR", "coord": {"lon": 1.05, "lat": 44.73333}}, {"id": 2980593, "name": "Sainte-Foy-de-Belv\u00e8s", "country": "FR", "coord": {"lon": 1.03882, "lat": 44.723881}}, {"id": 2980590, "name": "Sainte-Foy-de-Peyrolieres", "country": "FR", "coord": {"lon": 1.14476, "lat": 43.492619}}, {"id": 6431804, "name": "Sainte-Foy-de-Peyroli\u00e8res", "country": "FR", "coord": {"lon": 1.15, "lat": 43.5}}, {"id": 6441761, "name": "Sainte-Foy-l'Argenti\u00e8re", "country": "FR", "coord": {"lon": 4.46667, "lat": 45.700001}}, {"id": 2980587, "name": "Sainte-Foy-lArgentiere", "country": "FR", "coord": {"lon": 4.47266, "lat": 45.708321}}, {"id": 6432392, "name": "Sainte-Foy-la-Longue", "country": "FR", "coord": {"lon": -0.145, "lat": 44.610298}}, {"id": 2980588, "name": "Sainte-Foy-la-Longue", "country": "FR", "coord": {"lon": -0.14487, "lat": 44.610191}}, {"id": 2980586, "name": "Sainte-Foy-les-Lyon", "country": "FR", "coord": {"lon": 4.79688, "lat": 45.736919}}, {"id": 6441762, "name": "Sainte-Foy-l\u00e8s-Lyon", "country": "FR", "coord": {"lon": 4.8, "lat": 45.73333}}, {"id": 6428426, "name": "Sainte-F\u00e9r\u00e9ole", "country": "FR", "coord": {"lon": 1.58333, "lat": 45.23333}}, {"id": 6439247, "name": "Sainte-Gauburge-Sainte-Colombe", "country": "FR", "coord": {"lon": 0.431, "lat": 48.714298}}, {"id": 2980581, "name": "Sainte-Gauburge-Sainte-Colombe", "country": "FR", "coord": {"lon": 0.43126, "lat": 48.71722}}, {"id": 6435059, "name": "Sainte-Gemme-Martaillac", "country": "FR", "coord": {"lon": 0.15, "lat": 44.366669}}, {"id": 2980569, "name": "Sainte-Gemme-Martaillac", "country": "FR", "coord": {"lon": 0.15905, "lat": 44.360069}}, {"id": 6445193, "name": "Sainte-Gemme-la-Plaine", "country": "FR", "coord": {"lon": -1.1, "lat": 46.48333}}, {"id": 2980570, "name": "Sainte-Gemme-la-Plaine", "country": "FR", "coord": {"lon": -1.11321, "lat": 46.482861}}, {"id": 6458652, "name": "Sainte-Gemmes-sur-Loire", "country": "FR", "coord": {"lon": -0.55684, "lat": 47.422901}}, {"id": 2980565, "name": "Sainte-Gemmes-sur-Loire", "country": "FR", "coord": {"lon": -0.55684, "lat": 47.422901}}, {"id": 2980562, "name": "Sainte-Genevieve", "country": "FR", "coord": {"lon": 2.19904, "lat": 49.2892}}, {"id": 2980558, "name": "Sainte-Genevieve-des-Bois", "country": "FR", "coord": {"lon": 2.31965, "lat": 48.64682}}, {"id": 2980559, "name": "Sainte-Genevieve-des-Bois", "country": "FR", "coord": {"lon": 2.81652, "lat": 47.81776}}, {"id": 2980554, "name": "Sainte-Genevieve-sur-Argence", "country": "FR", "coord": {"lon": 2.75954, "lat": 44.802219}}, {"id": 6613840, "name": "Sainte-Genevi\u00e8ve", "country": "FR", "coord": {"lon": 2.2, "lat": 49.283329}}, {"id": 6137900, "name": "Sainte-Genevi\u00e8ve-de-Batiscan", "country": "CA", "coord": {"lon": -72.338814, "lat": 46.530048}}, {"id": 6446199, "name": "Sainte-Genevi\u00e8ve-des-Bois", "country": "FR", "coord": {"lon": 2.33333, "lat": 48.633331}}, {"id": 6434708, "name": "Sainte-Genevi\u00e8ve-des-Bois", "country": "FR", "coord": {"lon": 2.81667, "lat": 47.816669}}, {"id": 6427020, "name": "Sainte-Genevi\u00e8ve-sur-Argence", "country": "FR", "coord": {"lon": 2.75, "lat": 44.799999}}, {"id": 6137916, "name": "Sainte-Hedwidge", "country": "CA", "coord": {"lon": -72.349152, "lat": 48.483398}}, {"id": 2980547, "name": "Sainte-Helene", "country": "FR", "coord": {"lon": -3.20359, "lat": 47.719761}}, {"id": 2980550, "name": "Sainte-Helene", "country": "FR", "coord": {"lon": -0.88333, "lat": 44.966671}}, {"id": 2980542, "name": "Sainte-Helene-sur-Isere", "country": "FR", "coord": {"lon": 6.32065, "lat": 45.613129}}, {"id": 6454811, "name": "Sainte-Hermine", "country": "FR", "coord": {"lon": -1.05, "lat": 46.549999}}, {"id": 2980541, "name": "Sainte-Hermine", "country": "FR", "coord": {"lon": -1.05476, "lat": 46.55619}}, {"id": 6427444, "name": "Sainte-Honorine-du-Fay", "country": "FR", "coord": {"lon": -0.5, "lat": 49.083328}}, {"id": 2980537, "name": "Sainte-Honorine-du-Fay", "country": "FR", "coord": {"lon": -0.49295, "lat": 49.077751}}, {"id": 6439263, "name": "Sainte-Honorine-la-Chardonne", "country": "FR", "coord": {"lon": -0.48333, "lat": 48.816669}}, {"id": 2980536, "name": "Sainte-Honorine-la-Chardonne", "country": "FR", "coord": {"lon": -0.48575, "lat": 48.824429}}, {"id": 6439264, "name": "Sainte-Honorine-la-Guillaume", "country": "FR", "coord": {"lon": -0.38333, "lat": 48.783329}}, {"id": 2980535, "name": "Sainte-Honorine-la-Guillaume", "country": "FR", "coord": {"lon": -0.37916, "lat": 48.780369}}, {"id": 6437380, "name": "Sainte-H\u00e9l\u00e8ne", "country": "FR", "coord": {"lon": -3.2, "lat": 47.716671}}, {"id": 6432404, "name": "Sainte-H\u00e9l\u00e8ne", "country": "FR", "coord": {"lon": -0.88333, "lat": 44.966671}}, {"id": 7534563, "name": "Sainte-H\u00e9l\u00e8ne-de-Breakeyville", "country": "CA", "coord": {"lon": -71.23381, "lat": 46.665459}}, {"id": 6442875, "name": "Sainte-H\u00e9l\u00e8ne-sur-Is\u00e8re", "country": "FR", "coord": {"lon": 6.31667, "lat": 45.616669}}, {"id": 6442699, "name": "Sainte-Jamme-sur-Sarthe", "country": "FR", "coord": {"lon": 0.18333, "lat": 48.150002}}, {"id": 2980532, "name": "Sainte-Jamme-sur-Sarthe", "country": "FR", "coord": {"lon": 0.16743, "lat": 48.142639}}, {"id": 6137941, "name": "Sainte-Julie", "country": "CA", "coord": {"lon": -73.332458, "lat": 45.583382}}, {"id": 6137947, "name": "Sainte-Julienne", "country": "CA", "coord": {"lon": -73.715874, "lat": 45.96677}}, {"id": 6431814, "name": "Sainte-Livrade", "country": "FR", "coord": {"lon": 1.1, "lat": 43.650002}}, {"id": 2980520, "name": "Sainte-Livrade", "country": "FR", "coord": {"lon": 1.10449, "lat": 43.64933}}, {"id": 6435062, "name": "Sainte-Livrade-sur-Lot", "country": "FR", "coord": {"lon": 0.6, "lat": 44.400002}}, {"id": 2980519, "name": "Sainte-Livrade-sur-Lot", "country": "FR", "coord": {"lon": 0.5912, "lat": 44.399288}}, {"id": 6432977, "name": "Sainte-Lizaigne", "country": "FR", "coord": {"lon": 2.01667, "lat": 47}}, {"id": 2980514, "name": "Sainte-Lizaigne", "country": "FR", "coord": {"lon": 2.02266, "lat": 47.00695}}, {"id": 3569928, "name": "Sainte-Luce", "country": "MQ", "coord": {"lon": -60.927078, "lat": 14.46733}}, {"id": 6434524, "name": "Sainte-Luce-sur-Loire", "country": "FR", "coord": {"lon": -1.5, "lat": 47.25}}, {"id": 2980488, "name": "Sainte-Luce-sur-Loire", "country": "FR", "coord": {"lon": -1.4843, "lat": 47.253811}}, {"id": 6137976, "name": "Sainte-Madeleine-de-la-Rivi\u00e8re-Madeleine", "country": "CA", "coord": {"lon": -65.298721, "lat": 49.233391}}, {"id": 6944114, "name": "Sainte-Marguerite", "country": "CA", "coord": {"lon": -67.083893, "lat": 48.29998}}, {"id": 6137982, "name": "Sainte-Marguerite", "country": "CA", "coord": {"lon": -74.065903, "lat": 46.033379}}, {"id": 6617905, "name": "Sainte-Marguerite", "country": "FR", "coord": {"lon": 6.9767, "lat": 48.268799}}, {"id": 2980476, "name": "Sainte-Marguerite", "country": "FR", "coord": {"lon": 6.98439, "lat": 48.267349}}, {"id": 6137994, "name": "Sainte-Marguerite--Est\u00e9rel", "country": "CA", "coord": {"lon": -74.065872, "lat": 46.033409}}, {"id": 6427462, "name": "Sainte-Marguerite-de-Viette", "country": "FR", "coord": {"lon": 0.08333, "lat": 49.01667}}, {"id": 2980460, "name": "Sainte-Marguerite-de-Viette", "country": "FR", "coord": {"lon": 0.09338, "lat": 49.012321}}, {"id": 6443470, "name": "Sainte-Marguerite-sur-Duclair", "country": "FR", "coord": {"lon": 0.85, "lat": 49.51667}}, {"id": 2980457, "name": "Sainte-Marguerite-sur-Duclair", "country": "FR", "coord": {"lon": 0.84362, "lat": 49.508518}}, {"id": 6945989, "name": "Sainte-Marie", "country": "CA", "coord": {"lon": -71.011681, "lat": 46.43401}}, {"id": 6690302, "name": "Sainte-Marie", "country": "RE", "coord": {"lon": 55.549999, "lat": -20.883329}}, {"id": 935255, "name": "Sainte-Marie", "country": "RE", "coord": {"lon": 55.549599, "lat": -20.896839}}, {"id": 6690679, "name": "Sainte-Marie", "country": "MQ", "coord": {"lon": -60.993599, "lat": 14.7814}}, {"id": 3569926, "name": "Sainte-Marie", "country": "MQ", "coord": {"lon": -60.992741, "lat": 14.78392}}, {"id": 6617401, "name": "Sainte-Marie", "country": "FR", "coord": {"lon": 3.0176, "lat": 42.727501}}, {"id": 6432850, "name": "Sainte-Marie", "country": "FR", "coord": {"lon": -2, "lat": 47.700001}}, {"id": 2980446, "name": "Sainte-Marie", "country": "FR", "coord": {"lon": -2.0019, "lat": 47.69429}}, {"id": 6945994, "name": "Sainte-Marie-De-Beauce", "country": "CA", "coord": {"lon": -70.9842, "lat": 46.389999}}, {"id": 6439865, "name": "Sainte-Marie-Kerque", "country": "FR", "coord": {"lon": 2.13333, "lat": 50.900002}}, {"id": 2980418, "name": "Sainte-Marie-Kerque", "country": "FR", "coord": {"lon": 2.13664, "lat": 50.89917}}, {"id": 6427463, "name": "Sainte-Marie-Laumont", "country": "FR", "coord": {"lon": -0.9, "lat": 48.916672}}, {"id": 2980413, "name": "Sainte-Marie-Laumont", "country": "FR", "coord": {"lon": -0.8881, "lat": 48.918449}}, {"id": 6427464, "name": "Sainte-Marie-Outre-l'Eau", "country": "FR", "coord": {"lon": -1.01667, "lat": 48.933331}}, {"id": 2980412, "name": "Sainte-Marie-Outre-l'Eau", "country": "FR", "coord": {"lon": -1.02321, "lat": 48.934761}}, {"id": 2980411, "name": "Sainte-Marie-Plage", "country": "FR", "coord": {"lon": 3.03751, "lat": 42.724979}}, {"id": 2980439, "name": "Sainte-Marie-aux-Chenes", "country": "FR", "coord": {"lon": 6.00065, "lat": 49.191681}}, {"id": 6612662, "name": "Sainte-Marie-aux-Ch\u00eanes", "country": "FR", "coord": {"lon": 6, "lat": 49.200001}}, {"id": 6441607, "name": "Sainte-Marie-aux-Mines", "country": "FR", "coord": {"lon": 7.18333, "lat": 48.25}}, {"id": 2980438, "name": "Sainte-Marie-aux-Mines", "country": "FR", "coord": {"lon": 7.18528, "lat": 48.246799}}, {"id": 6429576, "name": "Sainte-Marie-de-Chignac", "country": "FR", "coord": {"lon": 0.83333, "lat": 45.133331}}, {"id": 2980433, "name": "Sainte-Marie-de-Chignac", "country": "FR", "coord": {"lon": 0.82905, "lat": 45.131001}}, {"id": 2980431, "name": "Sainte-Marie-de-Frugie", "country": "FR", "coord": {"lon": 0.99578, "lat": 45.552139}}, {"id": 2980429, "name": "Sainte-Marie-de-Re", "country": "FR", "coord": {"lon": -1.31281, "lat": 46.15237}}, {"id": 6428090, "name": "Sainte-Marie-de-R\u00e9", "country": "FR", "coord": {"lon": -1.3, "lat": 46.150002}}, {"id": 6443472, "name": "Sainte-Marie-des-Champs", "country": "FR", "coord": {"lon": 0.78333, "lat": 49.616669}}, {"id": 2980427, "name": "Sainte-Marie-des-Champs", "country": "FR", "coord": {"lon": 0.77904, "lat": 49.621201}}, {"id": 6435612, "name": "Sainte-Marie-du-Bois", "country": "FR", "coord": {"lon": -0.9, "lat": 48.566669}}, {"id": 2980423, "name": "Sainte-Marie-du-Bois", "country": "FR", "coord": {"lon": -0.89172, "lat": 48.56242}}, {"id": 6435063, "name": "Sainte-Marthe", "country": "FR", "coord": {"lon": 0.1493, "lat": 44.414101}}, {"id": 2980407, "name": "Sainte-Marthe", "country": "FR", "coord": {"lon": 0.1491, "lat": 44.41523}}, {"id": 6138032, "name": "Sainte-Marthe-sur-le-Lac", "country": "CA", "coord": {"lon": -73.932503, "lat": 45.533379}}, {"id": 6138037, "name": "Sainte-Martine", "country": "CA", "coord": {"lon": -73.805588, "lat": 45.246181}}, {"id": 6138038, "name": "Sainte-Martine", "country": "CA", "coord": {"lon": -73.799187, "lat": 45.25008}}, {"id": 6426564, "name": "Sainte-Maure", "country": "FR", "coord": {"lon": 4.05, "lat": 48.349998}}, {"id": 2980405, "name": "Sainte-Maure", "country": "FR", "coord": {"lon": 4.05962, "lat": 48.34729}}, {"id": 6433117, "name": "Sainte-Maure-de-Touraine", "country": "FR", "coord": {"lon": 0.6218, "lat": 47.112301}}, {"id": 2980403, "name": "Sainte-Maure-de-Touraine", "country": "FR", "coord": {"lon": 0.62236, "lat": 47.111301}}, {"id": 6445060, "name": "Sainte-Maxime", "country": "FR", "coord": {"lon": 6.63333, "lat": 43.299999}}, {"id": 2980402, "name": "Sainte-Maxime", "country": "FR", "coord": {"lon": 6.63849, "lat": 43.309071}}, {"id": 6435998, "name": "Sainte-Menehould", "country": "FR", "coord": {"lon": 4.9, "lat": 49.083328}}, {"id": 2980400, "name": "Sainte-Menehould", "country": "FR", "coord": {"lon": 4.9, "lat": 49.083328}}, {"id": 2980397, "name": "Sainte-Mere-Eglise", "country": "FR", "coord": {"lon": -1.31726, "lat": 49.41}}, {"id": 6429594, "name": "Sainte-Mondane", "country": "FR", "coord": {"lon": 1.33333, "lat": 44.849998}}, {"id": 2980390, "name": "Sainte-Mondane", "country": "FR", "coord": {"lon": 1.33333, "lat": 44.849998}}, {"id": 6435626, "name": "Sainte-M\u00e8re-\u00c9glise", "country": "FR", "coord": {"lon": -1.31667, "lat": 49.416672}}, {"id": 6429595, "name": "Sainte-Nathal\u00e8ne", "country": "FR", "coord": {"lon": 1.2869, "lat": 44.905499}}, {"id": 2980388, "name": "Sainte-Nathal\u00e8ne", "country": "FR", "coord": {"lon": 1.25, "lat": 44.916672}}, {"id": 2803245, "name": "Sainte-Ode", "country": "BE", "coord": {"lon": 5.52544, "lat": 50.026161}}, {"id": 2787435, "name": "Sainte-Ode", "country": "BE", "coord": {"lon": 5.51926, "lat": 50.017231}}, {"id": 6439287, "name": "Sainte-Opportune", "country": "FR", "coord": {"lon": -0.41667, "lat": 48.73333}}, {"id": 2980381, "name": "Sainte-Opportune", "country": "FR", "coord": {"lon": -0.41612, "lat": 48.741772}}, {"id": 6434536, "name": "Sainte-Pazanne", "country": "FR", "coord": {"lon": -1.81667, "lat": 47.099998}}, {"id": 2980372, "name": "Sainte-Pazanne", "country": "FR", "coord": {"lon": -1.8095, "lat": 47.103001}}, {"id": 6435633, "name": "Sainte-Pience", "country": "FR", "coord": {"lon": -1.3015, "lat": 48.763802}}, {"id": 2980369, "name": "Sainte-Pience", "country": "FR", "coord": {"lon": -1.30033, "lat": 48.75882}}, {"id": 6614005, "name": "Sainte-Radegonde", "country": "FR", "coord": {"lon": 2.63333, "lat": 44.333328}}, {"id": 2980364, "name": "Sainte-Radegonde", "country": "FR", "coord": {"lon": 2.62672, "lat": 44.337429}}, {"id": 6617719, "name": "Sainte-Radegonde", "country": "FR", "coord": {"lon": -0.2467, "lat": 46.984501}}, {"id": 2980356, "name": "Sainte-Radegonde", "country": "FR", "coord": {"lon": -0.25, "lat": 46.98333}}, {"id": 6434539, "name": "Sainte-Reine-de-Bretagne", "country": "FR", "coord": {"lon": -2.18333, "lat": 47.433331}}, {"id": 2980345, "name": "Sainte-Reine-de-Bretagne", "country": "FR", "coord": {"lon": -2.19238, "lat": 47.441311}}, {"id": 6138082, "name": "Sainte-Rosalie", "country": "CA", "coord": {"lon": -72.898331, "lat": 45.646172}}, {"id": 6690392, "name": "Sainte-Rose", "country": "GP", "coord": {"lon": -61.683331, "lat": 16.33333}}, {"id": 3578447, "name": "Sainte-Rose", "country": "GP", "coord": {"lon": -61.697929, "lat": 16.33238}}, {"id": 935251, "name": "Sainte-Rose", "country": "RE", "coord": {"lon": 55.796291, "lat": -21.129829}}, {"id": 6138095, "name": "Sainte-Sabine", "country": "CA", "coord": {"lon": -73.015839, "lat": 45.233379}}, {"id": 6426572, "name": "Sainte-Savine", "country": "FR", "coord": {"lon": 4.05, "lat": 48.299999}}, {"id": 2980335, "name": "Sainte-Savine", "country": "FR", "coord": {"lon": 4.04642, "lat": 48.296371}}, {"id": 6138098, "name": "Sainte-Scholastique", "country": "CA", "coord": {"lon": -74.09201, "lat": 45.65258}}, {"id": 2980328, "name": "Sainte-Sigolene", "country": "FR", "coord": {"lon": 4.23343, "lat": 45.24329}}, {"id": 6434444, "name": "Sainte-Sigol\u00e8ne", "country": "FR", "coord": {"lon": 4.25, "lat": 45.23333}}, {"id": 6428292, "name": "Sainte-Solange", "country": "FR", "coord": {"lon": 2.55, "lat": 47.133331}}, {"id": 2980324, "name": "Sainte-Solange", "country": "FR", "coord": {"lon": 2.55019, "lat": 47.13628}}, {"id": 6138103, "name": "Sainte-Sophie", "country": "CA", "coord": {"lon": -73.899193, "lat": 45.81678}}, {"id": 6428123, "name": "Sainte-Soulle", "country": "FR", "coord": {"lon": -1.01667, "lat": 46.183331}}, {"id": 2980320, "name": "Sainte-Soulle", "country": "FR", "coord": {"lon": -1.01607, "lat": 46.188469}}, {"id": 6690304, "name": "Sainte-Suzanne", "country": "RE", "coord": {"lon": 55.616669, "lat": -20.9}}, {"id": 935248, "name": "Sainte-Suzanne", "country": "RE", "coord": {"lon": 55.60886, "lat": -20.906139}}, {"id": 6436506, "name": "Sainte-Suzanne", "country": "FR", "coord": {"lon": -0.35, "lat": 48.099998}}, {"id": 2980304, "name": "Sainte-Suzanne", "country": "FR", "coord": {"lon": -0.35439, "lat": 48.098179}}, {"id": 6429981, "name": "Sainte-Suzanne", "country": "FR", "coord": {"lon": 6.76667, "lat": 47.5}}, {"id": 2980305, "name": "Sainte-Suzanne", "country": "FR", "coord": {"lon": 6.76775, "lat": 47.500172}}, {"id": 6432457, "name": "Sainte-Terre", "country": "FR", "coord": {"lon": -0.11667, "lat": 44.833328}}, {"id": 2980301, "name": "Sainte-Terre", "country": "FR", "coord": {"lon": -0.11667, "lat": 44.833328}}, {"id": 6138118, "name": "Sainte-Thecle", "country": "CA", "coord": {"lon": -72.499107, "lat": 46.816761}}, {"id": 6138121, "name": "Sainte-Therese", "country": "CA", "coord": {"lon": -73.827568, "lat": 45.639221}}, {"id": 6425472, "name": "Sainte-Th\u00e9rence", "country": "FR", "coord": {"lon": 2.55, "lat": 46.23333}}, {"id": 2980299, "name": "Sainte-Th\u00e9rence", "country": "FR", "coord": {"lon": 2.55, "lat": 46.23333}}, {"id": 6425578, "name": "Sainte-Tulle", "country": "FR", "coord": {"lon": 5.76667, "lat": 43.783329}}, {"id": 2980205, "name": "Sainte-Tulle", "country": "FR", "coord": {"lon": 5.76736, "lat": 43.78846}}, {"id": 6444230, "name": "Sainte-Verge", "country": "FR", "coord": {"lon": -0.21667, "lat": 47.01667}}, {"id": 2980182, "name": "Sainte-Verge", "country": "FR", "coord": {"lon": -0.21033, "lat": 47.008179}}, {"id": 6137875, "name": "Sainte-\u00c9m\u00e9lie-de-l'\u00c9nergie", "country": "CA", "coord": {"lon": -73.64917, "lat": 46.316769}}, {"id": 6435656, "name": "Sainteny", "country": "FR", "coord": {"lon": -1.31667, "lat": 49.23333}}, {"id": 2980384, "name": "Sainteny", "country": "FR", "coord": {"lon": -1.31429, "lat": 49.238209}}, {"id": 2980340, "name": "Saintes", "country": "FR", "coord": {"lon": -0.63333, "lat": 45.75}}, {"id": 6453739, "name": "Saintes", "country": "FR", "coord": {"lon": -0.63333, "lat": 45.75}}, {"id": 6447171, "name": "Saintes-Maries-de-la-Mer", "country": "FR", "coord": {"lon": 4.43333, "lat": 43.450001}}, {"id": 2980325, "name": "Saintes-Maries-de-la-Mer", "country": "FR", "coord": {"lon": 4.42913, "lat": 43.452141}}, {"id": 2638800, "name": "Saintfield", "country": "GB", "coord": {"lon": -5.83065, "lat": 54.460461}}, {"id": 1257751, "name": "Sainthia", "country": "IN", "coord": {"lon": 87.666672, "lat": 23.950001}}, {"id": 6446206, "name": "Saintry-sur-Seine", "country": "FR", "coord": {"lon": 2.5, "lat": 48.599998}}, {"id": 2977103, "name": "Saintry-sur-Seine", "country": "FR", "coord": {"lon": 2.49515, "lat": 48.596401}}, {"id": 6443842, "name": "Saints", "country": "FR", "coord": {"lon": 3.05, "lat": 48.75}}, {"id": 2977101, "name": "Saints", "country": "FR", "coord": {"lon": 3.04645, "lat": 48.760658}}, {"id": 7828758, "name": "Saipan", "country": "MP", "coord": {"lon": 145.754501, "lat": 15.21233}}, {"id": 4041552, "name": "Saipan Municipality", "country": "MP", "coord": {"lon": 145.701004, "lat": 15.1355}}, {"id": 281793, "name": "Sair", "country": "PS", "coord": {"lon": 35.140171, "lat": 31.57855}}, {"id": 3838445, "name": "Saira", "country": "AR", "coord": {"lon": -62.10244, "lat": -32.408218}}, {"id": 1257743, "name": "Sairang", "country": "IN", "coord": {"lon": 92.666672, "lat": 23.799999}}, {"id": 6439306, "name": "Saires-la-Verrerie", "country": "FR", "coord": {"lon": -0.49709, "lat": 48.68602}}, {"id": 2976529, "name": "Saires-la-Verrerie", "country": "FR", "coord": {"lon": -0.49709, "lat": 48.68602}}, {"id": 6940394, "name": "Saitama", "country": "JP", "coord": {"lon": 139.65657, "lat": 35.90807}}, {"id": 1853226, "name": "Saitama-ken", "country": "JP", "coord": {"lon": 139.649033, "lat": 35.857208}}, {"id": 1257737, "name": "Saitlaw", "country": "IN", "coord": {"lon": 92.583328, "lat": 23.966669}}, {"id": 6444232, "name": "Saivres", "country": "FR", "coord": {"lon": -0.23333, "lat": 46.433331}}, {"id": 2976521, "name": "Saivres", "country": "FR", "coord": {"lon": -0.23677, "lat": 46.432621}}, {"id": 2787304, "name": "Saiwiat", "country": "BE", "coord": {"lon": 4.9, "lat": 50.599998}}, {"id": 2976520, "name": "Saix", "country": "FR", "coord": {"lon": 2.18333, "lat": 43.583328}}, {"id": 7643690, "name": "Saiyang", "country": "CN", "coord": {"lon": 115.924538, "lat": 29.57885}}, {"id": 1386385, "name": "Saiyid\u0101n", "country": "PK", "coord": {"lon": 73.762642, "lat": 33.18795}}, {"id": 6436852, "name": "Saizerais", "country": "FR", "coord": {"lon": 6.05, "lat": 48.799999}}, {"id": 2976516, "name": "Saizerais", "country": "FR", "coord": {"lon": 6.04472, "lat": 48.790829}}, {"id": 3109308, "name": "Sai\u00e1ns", "country": "ES", "coord": {"lon": -8.58333, "lat": 42.583328}}, {"id": 786146, "name": "Sajan", "country": "RS", "coord": {"lon": 20.27833, "lat": 45.84444}}, {"id": 6359114, "name": "Sajazarra", "country": "ES", "coord": {"lon": -2.94306, "lat": 42.595329}}, {"id": 3111120, "name": "Sajazarra", "country": "ES", "coord": {"lon": -2.96124, "lat": 42.58884}}, {"id": 1280107, "name": "Sajia", "country": "CN", "coord": {"lon": 88.050003, "lat": 28.91667}}, {"id": 7783030, "name": "Sajir", "country": "ID", "coord": {"lon": 106.0858, "lat": -6.5068}}, {"id": 108121, "name": "Sajir", "country": "SA", "coord": {"lon": 44.59964, "lat": 25.18251}}, {"id": 786142, "name": "Sajkas", "country": "RS", "coord": {"lon": 20.08972, "lat": 45.272221}}, {"id": 715970, "name": "Sajobabony", "country": "HU", "coord": {"lon": 20.73333, "lat": 48.166672}}, {"id": 715962, "name": "Sajokaza", "country": "HU", "coord": {"lon": 20.58333, "lat": 48.283329}}, {"id": 715958, "name": "Sajolad", "country": "HU", "coord": {"lon": 20.9, "lat": 48.049999}}, {"id": 715951, "name": "Sajooeroes", "country": "HU", "coord": {"lon": 21.033331, "lat": 47.950001}}, {"id": 715945, "name": "Sajoszentpeter", "country": "HU", "coord": {"lon": 20.716669, "lat": 48.216671}}, {"id": 715941, "name": "Sajoszoged", "country": "HU", "coord": {"lon": 21, "lat": 47.950001}}, {"id": 715939, "name": "Sajovamos", "country": "HU", "coord": {"lon": 20.85, "lat": 48.183331}}, {"id": 293657, "name": "Sajur", "country": "IL", "coord": {"lon": 35.341358, "lat": 32.942661}}, {"id": 1598503, "name": "Sak Lek", "country": "TH", "coord": {"lon": 100.471031, "lat": 16.50528}}, {"id": 1853209, "name": "Sakado", "country": "JP", "coord": {"lon": 139.388885, "lat": 35.95694}}, {"id": 1853202, "name": "Sakaguchi", "country": "JP", "coord": {"lon": 139.033325, "lat": 35.950001}}, {"id": 1853193, "name": "Sakai", "country": "JP", "coord": {"lon": 139.800003, "lat": 36.099998}}, {"id": 1853195, "name": "Sakai", "country": "JP", "coord": {"lon": 135.466675, "lat": 34.583328}}, {"id": 1853192, "name": "Sakai", "country": "JP", "coord": {"lon": 139.25, "lat": 36.26667}}, {"id": 1853190, "name": "Sakaide", "country": "JP", "coord": {"lon": 133.850006, "lat": 34.316669}}, {"id": 1853188, "name": "Sakaidech\u014d", "country": "JP", "coord": {"lon": 133.850006, "lat": 34.316669}}, {"id": 1853174, "name": "Sakaiminato", "country": "JP", "coord": {"lon": 133.233337, "lat": 35.549999}}, {"id": 102527, "name": "Sakaka", "country": "SA", "coord": {"lon": 40.206409, "lat": 29.96974}}, {"id": 1853163, "name": "Sakaki", "country": "JP", "coord": {"lon": 138.183334, "lat": 36.466671}}, {"id": 1853150, "name": "Sakanashi", "country": "JP", "coord": {"lon": 131.133331, "lat": 32.933331}}, {"id": 1057095, "name": "Sakaraha", "country": "MG", "coord": {"lon": 44.533329, "lat": -22.9}}, {"id": 740352, "name": "Sakarya", "country": "TR", "coord": {"lon": 30.58333, "lat": 40.75}}, {"id": 2282178, "name": "Sakassou", "country": "CI", "coord": {"lon": -5.29263, "lat": 7.45462}}, {"id": 1853140, "name": "Sakata", "country": "JP", "coord": {"lon": 139.854996, "lat": 38.916672}}, {"id": 2041533, "name": "Sakchu-up", "country": "KP", "coord": {"lon": 125.046669, "lat": 40.389439}}, {"id": 205970, "name": "Sake", "country": "CD", "coord": {"lon": 29.045, "lat": -1.57361}}, {"id": 1516678, "name": "Saken Seyfullin", "country": "KZ", "coord": {"lon": 72.82972, "lat": 48.851669}}, {"id": 8054129, "name": "Sakerta Barat", "country": "ID", "coord": {"lon": 108.405502, "lat": -7.0342}}, {"id": 8054161, "name": "Sakerta Timur", "country": "ID", "coord": {"lon": 108.415901, "lat": -7.0366}}, {"id": 2392009, "name": "Sakete", "country": "BJ", "coord": {"lon": 2.65866, "lat": 6.73618}}, {"id": 1629186, "name": "Saketi", "country": "ID", "coord": {"lon": 105.991997, "lat": -6.401}}, {"id": 7766605, "name": "Saketipasar", "country": "ID", "coord": {"lon": 105.994301, "lat": -6.4014}}, {"id": 7766609, "name": "Saketipasir", "country": "ID", "coord": {"lon": 105.993103, "lat": -6.3976}}, {"id": 2121529, "name": "Sakhalinskaya Oblast\u2019", "country": "RU", "coord": {"lon": 143, "lat": 50}}, {"id": 1493241, "name": "Sakhal\u2019", "country": "RU", "coord": {"lon": 71.033333, "lat": 61.299999}}, {"id": 499363, "name": "Sakharovo", "country": "RU", "coord": {"lon": 36.050152, "lat": 56.89949}}, {"id": 6609139, "name": "Sakharovo", "country": "RU", "coord": {"lon": 42.470001, "lat": 56.75}}, {"id": 1189056, "name": "Sakhipur", "country": "BD", "coord": {"lon": 90.183327, "lat": 24.299999}}, {"id": 293655, "name": "Sakhnin", "country": "IL", "coord": {"lon": 35.293331, "lat": 32.862221}}, {"id": 694919, "name": "Sakhnovshchyna", "country": "UA", "coord": {"lon": 35.871979, "lat": 49.151661}}, {"id": 247074, "name": "Sakhrah", "country": "JO", "coord": {"lon": 35.846561, "lat": 32.36805}}, {"id": 2017282, "name": "Sakhuli", "country": "RU", "coord": {"lon": 110.400002, "lat": 54.366669}}, {"id": 2323390, "name": "Saki", "country": "NG", "coord": {"lon": 3.38333, "lat": 8.66667}}, {"id": 595044, "name": "Sakiai", "country": "LT", "coord": {"lon": 23.03583, "lat": 54.95472}}, {"id": 247068, "name": "Sakib", "country": "JO", "coord": {"lon": 35.80946, "lat": 32.283298}}, {"id": 2467239, "name": "Sakiet Sidi Youssef", "country": "TN", "coord": {"lon": 8.35547, "lat": 36.222919}}, {"id": 1257703, "name": "Sakit", "country": "IN", "coord": {"lon": 78.816673, "lat": 27.450001}}, {"id": 506060, "name": "Sakko i Vantsetti", "country": "RU", "coord": {"lon": 44.483334, "lat": 48.5}}, {"id": 1257698, "name": "Sakleshpur", "country": "IN", "coord": {"lon": 75.783333, "lat": 12.96667}}, {"id": 499342, "name": "Sakmara", "country": "RU", "coord": {"lon": 55.333801, "lat": 51.984379}}, {"id": 1606790, "name": "Sakon Nakhon", "country": "TH", "coord": {"lon": 104.147247, "lat": 17.16116}}, {"id": 1629176, "name": "Sakra", "country": "ID", "coord": {"lon": 116.461998, "lat": -8.6831}}, {"id": 1166381, "name": "Sakrand", "country": "PK", "coord": {"lon": 68.273613, "lat": 26.13839}}, {"id": 4088146, "name": "Saks", "country": "US", "coord": {"lon": -85.839691, "lat": 33.698711}}, {"id": 2614328, "name": "Sakskobing", "country": "DK", "coord": {"lon": 11.62599, "lat": 54.799702}}, {"id": 2614323, "name": "Saksun", "country": "FO", "coord": {"lon": -7.17241, "lat": 62.248211}}, {"id": 3140546, "name": "Saksvik", "country": "NO", "coord": {"lon": 10.6, "lat": 63.433331}}, {"id": 1257673, "name": "Sakti", "country": "IN", "coord": {"lon": 82.966667, "lat": 22.033331}}, {"id": 1853081, "name": "Saku", "country": "JP", "coord": {"lon": 138.483337, "lat": 36.216671}}, {"id": 588831, "name": "Saku", "country": "EE", "coord": {"lon": 24.65778, "lat": 59.302219}}, {"id": 7522413, "name": "Saku vald", "country": "EE", "coord": {"lon": 24.71649, "lat": 59.280689}}, {"id": 786137, "name": "Sakule", "country": "RS", "coord": {"lon": 20.485559, "lat": 45.146111}}, {"id": 2295692, "name": "Sakumona", "country": "GH", "coord": {"lon": -0.04746, "lat": 5.61304}}, {"id": 2111220, "name": "Sakura", "country": "JP", "coord": {"lon": 140.233337, "lat": 35.716671}}, {"id": 1853072, "name": "Sakurabashid\u014dri", "country": "JP", "coord": {"lon": 137.216675, "lat": 36.700001}}, {"id": 1853071, "name": "Sakurach\u014d", "country": "JP", "coord": {"lon": 139.466675, "lat": 36.150002}}, {"id": 1853066, "name": "Sakurai", "country": "JP", "coord": {"lon": 135.850006, "lat": 34.5}}, {"id": 1853058, "name": "Sakurakabu", "country": "JP", "coord": {"lon": 139.466675, "lat": 35.450001}}, {"id": 499319, "name": "Sakushevo", "country": "RU", "coord": {"lon": 46.533333, "lat": 61.116669}}, {"id": 3066439, "name": "Sakvice", "country": "CZ", "coord": {"lon": 16.714239, "lat": 48.897461}}, {"id": 694910, "name": "Saky", "country": "UA", "coord": {"lon": 33.603058, "lat": 45.135555}}, {"id": 638104, "name": "Sakyla", "country": "FI", "coord": {"lon": 22.33333, "lat": 61.033329}}, {"id": 247061, "name": "Sal", "country": "JO", "coord": {"lon": 35.911942, "lat": 32.569439}}, {"id": 4655513, "name": "Sal City", "country": "US", "coord": {"lon": -86.049149, "lat": 35.05592}}, {"id": 3374235, "name": "Sal Rei", "country": "CV", "coord": {"lon": -22.91667, "lat": 16.183331}}, {"id": 2680662, "name": "Sala", "country": "SE", "coord": {"lon": 16.60655, "lat": 59.91993}}, {"id": 6536709, "name": "Sala Baganza", "country": "IT", "coord": {"lon": 10.23178, "lat": 44.720261}}, {"id": 3168703, "name": "Sala Baganza", "country": "IT", "coord": {"lon": 10.23178, "lat": 44.720261}}, {"id": 3168701, "name": "Sala Biellese", "country": "IT", "coord": {"lon": 7.95842, "lat": 45.50816}}, {"id": 6534448, "name": "Sala Comacina", "country": "IT", "coord": {"lon": 9.16604, "lat": 45.96418}}, {"id": 3168699, "name": "Sala Consilina", "country": "IT", "coord": {"lon": 15.59887, "lat": 40.391209}}, {"id": 2680657, "name": "Sala Kommun", "country": "SE", "coord": {"lon": 16.6, "lat": 59.966671}}, {"id": 3168696, "name": "Sala Monferrato", "country": "IT", "coord": {"lon": 8.35874, "lat": 45.07515}}, {"id": 6139289, "name": "Salaberry-de-Valleyfield", "country": "CA", "coord": {"lon": -74.13253, "lat": 45.25008}}, {"id": 668252, "name": "Salacea", "country": "RO", "coord": {"lon": 22.316669, "lat": 47.466671}}, {"id": 455910, "name": "Salacgriva", "country": "LV", "coord": {"lon": 24.358061, "lat": 57.753609}}, {"id": 7628367, "name": "Salacgr\u012bvas Novads", "country": "LV", "coord": {"lon": 24.451941, "lat": 57.74028}}, {"id": 6555468, "name": "Salach", "country": "DE", "coord": {"lon": 9.73333, "lat": 48.6833}}, {"id": 2842331, "name": "Salach", "country": "DE", "coord": {"lon": 9.73715, "lat": 48.691978}}, {"id": 6691842, "name": "Saladan", "country": "TH", "coord": {"lon": 99.036507, "lat": 7.61342}}, {"id": 3429403, "name": "Saladas", "country": "AR", "coord": {"lon": -58.625912, "lat": -28.253839}}, {"id": 3838411, "name": "Saladero M. Cabal", "country": "AR", "coord": {"lon": -60.036758, "lat": -30.880751}}, {"id": 3429399, "name": "Saladillo", "country": "AR", "coord": {"lon": -59.777882, "lat": -35.637081}}, {"id": 4725807, "name": "Salado", "country": "US", "coord": {"lon": -97.53862, "lat": 30.94713}}, {"id": 3670383, "name": "Saladoblanco", "country": "CO", "coord": {"lon": -76.04335, "lat": 1.99244}}, {"id": 2295684, "name": "Salaga", "country": "GH", "coord": {"lon": -0.51875, "lat": 8.55083}}, {"id": 6429632, "name": "Salagnac", "country": "FR", "coord": {"lon": 1.18333, "lat": 45.316669}}, {"id": 2976511, "name": "Salagnac", "country": "FR", "coord": {"lon": 1.19704, "lat": 45.311131}}, {"id": 6433405, "name": "Salagnon", "country": "FR", "coord": {"lon": 5.35, "lat": 45.666672}}, {"id": 2976509, "name": "Salagnon", "country": "FR", "coord": {"lon": 5.35809, "lat": 45.66713}}, {"id": 3988219, "name": "Salagua", "country": "MX", "coord": {"lon": -104.333328, "lat": 19.1}}, {"id": 2482447, "name": "Salah Bey", "country": "DZ", "coord": {"lon": 5.29053, "lat": 35.8545}}, {"id": 1493224, "name": "Salair", "country": "RU", "coord": {"lon": 85.797203, "lat": 54.231201}}, {"id": 6433406, "name": "Salaise-sur-Sanne", "country": "FR", "coord": {"lon": 4.8194, "lat": 45.3447}}, {"id": 2976507, "name": "Salaise-sur-Sanne", "country": "FR", "coord": {"lon": 4.81829, "lat": 45.342339}}, {"id": 2222312, "name": "Salak", "country": "CM", "coord": {"lon": 14.25251, "lat": 10.45935}}, {"id": 7034551, "name": "Salakan Lor", "country": "ID", "coord": {"lon": 111.9935, "lat": -8.157}}, {"id": 164952, "name": "Salakhid", "country": "SY", "coord": {"lon": 36.572708, "lat": 32.872711}}, {"id": 1628058, "name": "Salakuray", "country": "ID", "coord": {"lon": 107.864304, "lat": -7.2564}}, {"id": 286621, "name": "Salalah", "country": "OM", "coord": {"lon": 54.092369, "lat": 17.015051}}, {"id": 7579513, "name": "Salam", "country": "ID", "coord": {"lon": 111.975899, "lat": -8.0256}}, {"id": 7758231, "name": "Salam", "country": "ID", "coord": {"lon": 105.717598, "lat": -6.6914}}, {"id": 3590616, "name": "Salama", "country": "GT", "coord": {"lon": -90.26667, "lat": 15.1}}, {"id": 3602602, "name": "Salama", "country": "HN", "coord": {"lon": -85.966667, "lat": 15.75}}, {"id": 3602603, "name": "Salama", "country": "HN", "coord": {"lon": -86.583328, "lat": 14.83333}}, {"id": 6360513, "name": "Salamanca", "country": "ES", "coord": {"lon": -5.68022, "lat": 40.955971}}, {"id": 3111108, "name": "Salamanca", "country": "ES", "coord": {"lon": -5.65, "lat": 40.966671}}, {"id": 3988214, "name": "Salamanca", "country": "MX", "coord": {"lon": -101.199997, "lat": 20.566669}}, {"id": 3872594, "name": "Salamanca", "country": "CL", "coord": {"lon": -70.972221, "lat": -31.775}}, {"id": 1690984, "name": "Salamanca", "country": "PH", "coord": {"lon": 123.529999, "lat": 10.74655}}, {"id": 5136088, "name": "Salamanca", "country": "US", "coord": {"lon": -78.715027, "lat": 42.157841}}, {"id": 3670370, "name": "Salamina", "country": "CO", "coord": {"lon": -75.487488, "lat": 5.40733}}, {"id": 3670368, "name": "Salamina", "country": "CO", "coord": {"lon": -74.794632, "lat": 10.49027}}, {"id": 254144, "name": "Salamis", "country": "GR", "coord": {"lon": 23.49649, "lat": 37.964272}}, {"id": 164947, "name": "Salamiyah", "country": "SY", "coord": {"lon": 37.053242, "lat": 35.011269}}, {"id": 7921745, "name": "Salamnunggal", "country": "ID", "coord": {"lon": 107.898003, "lat": -7.1064}}, {"id": 2087362, "name": "Salamo", "country": "PG", "coord": {"lon": 150.785583, "lat": -9.66027}}, {"id": 7375268, "name": "Salamrejo", "country": "ID", "coord": {"lon": 112.314697, "lat": -8.2254}}, {"id": 3168695, "name": "Salandra", "country": "IT", "coord": {"lon": 16.31918, "lat": 40.527519}}, {"id": 8073577, "name": "Salanegara", "country": "ID", "coord": {"lon": 108.743301, "lat": -7.1616}}, {"id": 2355404, "name": "Salanso", "country": "BF", "coord": {"lon": -4.08333, "lat": 12.18333}}, {"id": 595020, "name": "Salantai", "country": "LT", "coord": {"lon": 21.566669, "lat": 56.066669}}, {"id": 2523558, "name": "Salaparuta", "country": "IT", "coord": {"lon": 13.00974, "lat": 37.757938}}, {"id": 1690955, "name": "Salapungan", "country": "PH", "coord": {"lon": 120.929001, "lat": 15.1337}}, {"id": 2035196, "name": "Salaqi", "country": "CN", "coord": {"lon": 110.510834, "lat": 40.541389}}, {"id": 6357774, "name": "Salar", "country": "ES", "coord": {"lon": -4.01914, "lat": 37.149879}}, {"id": 2511551, "name": "Salar", "country": "ES", "coord": {"lon": -4.06576, "lat": 37.15036}}, {"id": 3168692, "name": "Salara", "country": "IT", "coord": {"lon": 11.42621, "lat": 44.98328}}, {"id": 668243, "name": "Salard", "country": "RO", "coord": {"lon": 22.049999, "lat": 47.216671}}, {"id": 6359489, "name": "Salares", "country": "ES", "coord": {"lon": -4.01552, "lat": 36.85725}}, {"id": 2511547, "name": "Salares", "country": "ES", "coord": {"lon": -4.02434, "lat": 36.85463}}, {"id": 499298, "name": "Salar\u2019y\u00ebvo", "country": "RU", "coord": {"lon": 37.43438, "lat": 55.622051}}, {"id": 6359962, "name": "Salas", "country": "ES", "coord": {"lon": -6.26015, "lat": 43.415611}}, {"id": 3111101, "name": "Salas", "country": "ES", "coord": {"lon": -6.26023, "lat": 43.4118}}, {"id": 6358403, "name": "Salas Altas", "country": "ES", "coord": {"lon": 0.07873, "lat": 42.116718}}, {"id": 3111098, "name": "Salas Altas", "country": "ES", "coord": {"lon": 0.06821, "lat": 42.114071}}, {"id": 6358404, "name": "Salas Bajas", "country": "ES", "coord": {"lon": 0.09271, "lat": 42.095589}}, {"id": 3111097, "name": "Salas Bajas", "country": "ES", "coord": {"lon": 0.08349, "lat": 42.10046}}, {"id": 3191340, "name": "Salas Crnobarski", "country": "RS", "coord": {"lon": 19.39222, "lat": 44.826111}}, {"id": 3191339, "name": "Salas Nocajski", "country": "RS", "coord": {"lon": 19.586109, "lat": 44.94722}}, {"id": 6356578, "name": "Salas de Bureba", "country": "ES", "coord": {"lon": -3.4728, "lat": 42.70084}}, {"id": 3111096, "name": "Salas de Bureba", "country": "ES", "coord": {"lon": -3.47359, "lat": 42.691898}}, {"id": 3111095, "name": "Salas de la Ribera", "country": "ES", "coord": {"lon": -6.81626, "lat": 42.436138}}, {"id": 6356579, "name": "Salas de los Infantes", "country": "ES", "coord": {"lon": -3.2722, "lat": 42.05072}}, {"id": 3111092, "name": "Salas de los Infantes", "country": "ES", "coord": {"lon": -3.28631, "lat": 42.022419}}, {"id": 6535283, "name": "Salasco", "country": "IT", "coord": {"lon": 8.26423, "lat": 45.325562}}, {"id": 455898, "name": "Salaspils", "country": "LV", "coord": {"lon": 24.36544, "lat": 56.860142}}, {"id": 3168689, "name": "Salassa", "country": "IT", "coord": {"lon": 7.68922, "lat": 45.355652}}, {"id": 668238, "name": "Salasu de Sus", "country": "RO", "coord": {"lon": 22.950001, "lat": 45.51667}}, {"id": 668236, "name": "Salatig", "country": "RO", "coord": {"lon": 23.133329, "lat": 47.366669}}, {"id": 1629131, "name": "Salatiga", "country": "ID", "coord": {"lon": 110.492783, "lat": -7.33194}}, {"id": 668229, "name": "Salatrucel", "country": "RO", "coord": {"lon": 24.383329, "lat": 45.25}}, {"id": 668226, "name": "Salatrucu", "country": "RO", "coord": {"lon": 24.51667, "lat": 45.333328}}, {"id": 6432465, "name": "Salaunes", "country": "FR", "coord": {"lon": -0.83333, "lat": 44.933331}}, {"id": 2976497, "name": "Salaunes", "country": "FR", "coord": {"lon": -0.83143, "lat": 44.936218}}, {"id": 1653334, "name": "Salavan", "country": "LA", "coord": {"lon": 106.416672, "lat": 15.71667}}, {"id": 499292, "name": "Salavat", "country": "RU", "coord": {"lon": 55.90773, "lat": 53.383652}}, {"id": 7669891, "name": "Salavaux", "country": "CH", "coord": {"lon": 7.02324, "lat": 46.919682}}, {"id": 3692747, "name": "Salaverry", "country": "PE", "coord": {"lon": -78.966667, "lat": -8.23333}}, {"id": 1690937, "name": "Salawagan", "country": "PH", "coord": {"lon": 125.114998, "lat": 7.70528}}, {"id": 8017893, "name": "Salawi", "country": "ID", "coord": {"lon": 108.009598, "lat": -7.3411}}, {"id": 1629123, "name": "Salawu", "country": "ID", "coord": {"lon": 108.032501, "lat": -7.3755}}, {"id": 1690934, "name": "Salay", "country": "PH", "coord": {"lon": 124.789169, "lat": 8.85917}}, {"id": 1257638, "name": "Salaya", "country": "IN", "coord": {"lon": 69.599998, "lat": 22.316669}}, {"id": 6865927, "name": "Salaya", "country": "TH", "coord": {"lon": 100.321114, "lat": 13.802}}, {"id": 1690920, "name": "Salaza", "country": "PH", "coord": {"lon": 119.955299, "lat": 15.4541}}, {"id": 1056953, "name": "Salazamay", "country": "MG", "coord": {"lon": 49.400002, "lat": -18.116671}}, {"id": 3111088, "name": "Salazar", "country": "ES", "coord": {"lon": -3.61828, "lat": 42.976768}}, {"id": 3838297, "name": "Salazar", "country": "AR", "coord": {"lon": -62.200001, "lat": -36.299999}}, {"id": 935210, "name": "Salazie", "country": "RE", "coord": {"lon": 55.539001, "lat": -21.02734}}, {"id": 2976491, "name": "Salbert", "country": "FR", "coord": {"lon": 6.82209, "lat": 47.672359}}, {"id": 2842324, "name": "Salbke", "country": "DE", "coord": {"lon": 11.66825, "lat": 52.07745}}, {"id": 6434123, "name": "Salbris", "country": "FR", "coord": {"lon": 2.05, "lat": 47.433331}}, {"id": 2976490, "name": "Salbris", "country": "FR", "coord": {"lon": 2.05124, "lat": 47.424198}}, {"id": 3590605, "name": "Salcaja", "country": "GT", "coord": {"lon": -91.449997, "lat": 14.88333}}, {"id": 6362616, "name": "Salce", "country": "ES", "coord": {"lon": -6.22344, "lat": 41.276321}}, {"id": 3111085, "name": "Salce", "country": "ES", "coord": {"lon": -6.21875, "lat": 41.269958}}, {"id": 668219, "name": "Salcea", "country": "RO", "coord": {"lon": 26.366671, "lat": 47.650002}}, {"id": 3111081, "name": "Salceda", "country": "ES", "coord": {"lon": -8.56667, "lat": 42.116669}}, {"id": 3111078, "name": "Salceda de Caselas", "country": "ES", "coord": {"lon": -8.58333, "lat": 42.099998}}, {"id": 6361604, "name": "Salcedillo", "country": "ES", "coord": {"lon": -1.00987, "lat": 40.94511}}, {"id": 3111076, "name": "Salcedillo", "country": "ES", "coord": {"lon": -1.00433, "lat": 40.962002}}, {"id": 6536627, "name": "Salcedo", "country": "IT", "coord": {"lon": 11.5672, "lat": 45.757702}}, {"id": 3168687, "name": "Salcedo", "country": "IT", "coord": {"lon": 11.5672, "lat": 45.757702}}, {"id": 3111072, "name": "Salcedo", "country": "ES", "coord": {"lon": -2.96368, "lat": 42.734291}}, {"id": 3111069, "name": "Salcedo", "country": "ES", "coord": {"lon": -6.70404, "lat": 43.530369}}, {"id": 1690908, "name": "Salcedo", "country": "PH", "coord": {"lon": 120.539436, "lat": 17.15472}}, {"id": 1690909, "name": "Salcedo", "country": "PH", "coord": {"lon": 120.599998, "lat": 15.85722}}, {"id": 1690910, "name": "Salcedo", "country": "PH", "coord": {"lon": 121.467422, "lat": 12.81052}}, {"id": 1690912, "name": "Salcedo", "country": "PH", "coord": {"lon": 125.665001, "lat": 11.14694}}, {"id": 7263003, "name": "Salcha", "country": "US", "coord": {"lon": -146.9021, "lat": 64.523987}}, {"id": 2842320, "name": "Salchendorf", "country": "DE", "coord": {"lon": 8.15, "lat": 50.866669}}, {"id": 6556596, "name": "Salching", "country": "DE", "coord": {"lon": 12.5667, "lat": 48.8167}}, {"id": 2842315, "name": "Salching", "country": "DE", "coord": {"lon": 12.56667, "lat": 48.816669}}, {"id": 668210, "name": "Salcia", "country": "RO", "coord": {"lon": 26.33333, "lat": 45.183331}}, {"id": 668214, "name": "Salcia", "country": "RO", "coord": {"lon": 22.92778, "lat": 44.140831}}, {"id": 668215, "name": "Salcia", "country": "RO", "coord": {"lon": 24.91667, "lat": 43.950001}}, {"id": 668198, "name": "Salcia Tudor", "country": "RO", "coord": {"lon": 27.51667, "lat": 45.366669}}, {"id": 668193, "name": "Salciile", "country": "RO", "coord": {"lon": 26.48333, "lat": 44.816669}}, {"id": 595016, "name": "Salcininkai", "country": "LT", "coord": {"lon": 25.383329, "lat": 54.299999}}, {"id": 668186, "name": "Salcioara", "country": "RO", "coord": {"lon": 25.58333, "lat": 44.716671}}, {"id": 668188, "name": "Salcioara", "country": "RO", "coord": {"lon": 26.883329, "lat": 44.533329}}, {"id": 3168684, "name": "Salcito", "country": "IT", "coord": {"lon": 14.51012, "lat": 41.747532}}, {"id": 668173, "name": "Salciua de Sus", "country": "RO", "coord": {"lon": 23.41667, "lat": 46.400002}}, {"id": 2638682, "name": "Salcombe", "country": "GB", "coord": {"lon": -3.76874, "lat": 50.237431}}, {"id": 668167, "name": "Salcuta", "country": "RO", "coord": {"lon": 23.433331, "lat": 44.25}}, {"id": 3838294, "name": "Saldan", "country": "AR", "coord": {"lon": -64.306999, "lat": -31.30262}}, {"id": 3111065, "name": "Saldana", "country": "ES", "coord": {"lon": -4.73605, "lat": 42.521461}}, {"id": 3670357, "name": "Saldana", "country": "CO", "coord": {"lon": -75.015167, "lat": 3.92922}}, {"id": 3111063, "name": "Saldana de Burgos", "country": "ES", "coord": {"lon": -3.69707, "lat": 42.258381}}, {"id": 3361934, "name": "Saldanha", "country": "ZA", "coord": {"lon": 17.944201, "lat": -33.011669}}, {"id": 6360101, "name": "Salda\u00f1a", "country": "ES", "coord": {"lon": -4.69641, "lat": 42.554951}}, {"id": 6356580, "name": "Salda\u00f1a de Burgos", "country": "ES", "coord": {"lon": -3.69741, "lat": 42.258759}}, {"id": 6360514, "name": "Saldeana", "country": "ES", "coord": {"lon": -6.63478, "lat": 41.01144}}, {"id": 3111061, "name": "Saldeana", "country": "ES", "coord": {"lon": -6.64015, "lat": 41.020679}}, {"id": 6556481, "name": "Saldenburg", "country": "DE", "coord": {"lon": 13.35, "lat": 48.783298}}, {"id": 2842311, "name": "Saldenburg", "country": "DE", "coord": {"lon": 13.35, "lat": 48.783329}}, {"id": 6356214, "name": "Saldes", "country": "ES", "coord": {"lon": 1.73809, "lat": 42.226471}}, {"id": 3111060, "name": "Saldes", "country": "ES", "coord": {"lon": 1.73333, "lat": 42.23333}}, {"id": 3111057, "name": "Saldias", "country": "ES", "coord": {"lon": -1.77946, "lat": 43.088581}}, {"id": 3111055, "name": "Saldon", "country": "ES", "coord": {"lon": -1.42782, "lat": 40.32513}}, {"id": 6361194, "name": "Salduero", "country": "ES", "coord": {"lon": -2.80906, "lat": 41.899139}}, {"id": 3111054, "name": "Salduero", "country": "ES", "coord": {"lon": -2.7967, "lat": 41.889462}}, {"id": 3838289, "name": "Saldungaray", "country": "AR", "coord": {"lon": -61.770672, "lat": -38.204929}}, {"id": 455890, "name": "Saldus", "country": "LV", "coord": {"lon": 22.48807, "lat": 56.663631}}, {"id": 455888, "name": "Saldus Rajons", "country": "LV", "coord": {"lon": 22.5, "lat": 56.666672}}, {"id": 6359761, "name": "Sald\u00edas", "country": "ES", "coord": {"lon": -1.77292, "lat": 43.092941}}, {"id": 6361605, "name": "Sald\u00f3n", "country": "ES", "coord": {"lon": -1.42076, "lat": 40.33004}}, {"id": 2150615, "name": "Sale", "country": "AU", "coord": {"lon": 147.066666, "lat": -38.099998}}, {"id": 2638678, "name": "Sale", "country": "GB", "coord": {"lon": -2.32443, "lat": 53.42519}}, {"id": 2537763, "name": "Sale", "country": "MA", "coord": {"lon": -6.8166, "lat": 34.038921}}, {"id": 1629122, "name": "Sale", "country": "ID", "coord": {"lon": 111.604301, "lat": -6.8619}}, {"id": 3168682, "name": "Sale", "country": "IT", "coord": {"lon": 8.80935, "lat": 44.980659}}, {"id": 4655515, "name": "Sale Creek", "country": "US", "coord": {"lon": -85.108841, "lat": 35.38229}}, {"id": 3168678, "name": "Sale Marasino", "country": "IT", "coord": {"lon": 10.11356, "lat": 45.703281}}, {"id": 6535486, "name": "Sale San Giovanni", "country": "IT", "coord": {"lon": 8.07794, "lat": 44.399139}}, {"id": 6534304, "name": "Sale delle Langhe", "country": "IT", "coord": {"lon": 8.08014, "lat": 44.395241}}, {"id": 6441032, "name": "Saleilles", "country": "FR", "coord": {"lon": 2.95, "lat": 42.650002}}, {"id": 2976481, "name": "Saleilles", "country": "FR", "coord": {"lon": 2.95309, "lat": 42.654179}}, {"id": 1493197, "name": "Salekhard", "country": "RU", "coord": {"lon": 66.601936, "lat": 66.529999}}, {"id": 4249286, "name": "Salem", "country": "US", "coord": {"lon": -88.945618, "lat": 38.626991}}, {"id": 1257629, "name": "Salem", "country": "IN", "coord": {"lon": 78.166672, "lat": 11.65}}, {"id": 4784112, "name": "Salem", "country": "US", "coord": {"lon": -80.054764, "lat": 37.293468}}, {"id": 4950065, "name": "Salem", "country": "US", "coord": {"lon": -70.896721, "lat": 42.519539}}, {"id": 5092268, "name": "Salem", "country": "US", "coord": {"lon": -71.20089, "lat": 42.788422}}, {"id": 5750162, "name": "Salem", "country": "US", "coord": {"lon": -123.035103, "lat": 44.942902}}, {"id": 6551494, "name": "Salem", "country": "DE", "coord": {"lon": 10.8333, "lat": 53.666698}}, {"id": 2842305, "name": "Salem", "country": "DE", "coord": {"lon": 10.83333, "lat": 53.666672}}, {"id": 2842306, "name": "Salem", "country": "DE", "coord": {"lon": 9.28333, "lat": 47.783329}}, {"id": 6639586, "name": "Salem", "country": "DE", "coord": {"lon": 9.29583, "lat": 47.76667}}, {"id": 1629104, "name": "Salem", "country": "ID", "coord": {"lon": 108.805901, "lat": -7.1825}}, {"id": 6930653, "name": "Salem", "country": "SE", "coord": {"lon": 17.76646, "lat": 59.201859}}, {"id": 4129962, "name": "Salem", "country": "US", "coord": {"lon": -91.822647, "lat": 36.371181}}, {"id": 4129965, "name": "Salem", "country": "US", "coord": {"lon": -92.55822, "lat": 34.628979}}, {"id": 4264334, "name": "Salem", "country": "US", "coord": {"lon": -86.101089, "lat": 38.60561}}, {"id": 4407308, "name": "Salem", "country": "US", "coord": {"lon": -91.53598, "lat": 37.645599}}, {"id": 4489915, "name": "Salem", "country": "US", "coord": {"lon": -81.697037, "lat": 35.698738}}, {"id": 4503944, "name": "Salem", "country": "US", "coord": {"lon": -75.46714, "lat": 39.571781}}, {"id": 4821203, "name": "Salem", "country": "US", "coord": {"lon": -80.55899, "lat": 39.282871}},