[{"id": 7873461, "name": "Ehrenhausen", "country": "AT", "coord": {"lon": 15.58686, "lat": 46.722069}}, {"id": 2780316, "name": "Ehrenhausen", "country": "AT", "coord": {"lon": 15.58667, "lat": 46.724171}}, {"id": 2932809, "name": "Ehrenthal", "country": "DE", "coord": {"lon": 7.66667, "lat": 50.166672}}, {"id": 2932788, "name": "Ehringshausen", "country": "DE", "coord": {"lon": 8.38333, "lat": 50.599998}}, {"id": 6553221, "name": "Ehringshausen", "country": "DE", "coord": {"lon": 8.3814, "lat": 50.6022}}, {"id": 2932786, "name": "Ehrl", "country": "DE", "coord": {"lon": 11.05, "lat": 50}}, {"id": 2932782, "name": "Ehrlich", "country": "DE", "coord": {"lon": 7.75, "lat": 50.716671}}, {"id": 2907421, "name": "Ehrlich", "country": "DE", "coord": {"lon": 7.75, "lat": 50.700001}}, {"id": 2932774, "name": "Ehrsberg", "country": "DE", "coord": {"lon": 7.90561, "lat": 47.743649}}, {"id": 2780307, "name": "Ehrwald", "country": "AT", "coord": {"lon": 10.91667, "lat": 47.400002}}, {"id": 3319581, "name": "Ehrwald", "country": "AT", "coord": {"lon": 10.91667, "lat": 47.400002}}, {"id": 1811744, "name": "Ehu", "country": "CN", "coord": {"lon": 117.448402, "lat": 29.476139}}, {"id": 1924207, "name": "Ehu", "country": "CN", "coord": {"lon": 117.794312, "lat": 28.290501}}, {"id": 6555087, "name": "Ehweiler", "country": "DE", "coord": {"lon": 7.36667, "lat": 49.516701}}, {"id": 2932764, "name": "Ehweiler", "country": "DE", "coord": {"lon": 7.36667, "lat": 49.51667}}, {"id": 2932757, "name": "Eibach", "country": "DE", "coord": {"lon": 8.33333, "lat": 50.75}}, {"id": 6358120, "name": "Eibar", "country": "ES", "coord": {"lon": -2.46165, "lat": 43.19978}}, {"id": 3123709, "name": "Eibar", "country": "ES", "coord": {"lon": -2.47158, "lat": 43.184929}}, {"id": 863771, "name": "Eibat", "country": "AZ", "coord": {"lon": 49.77528, "lat": 40.338612}}, {"id": 6548671, "name": "Eibau", "country": "DE", "coord": {"lon": 14.6608, "lat": 50.9841}}, {"id": 2932756, "name": "Eibau", "country": "DE", "coord": {"lon": 14.66667, "lat": 50.98333}}, {"id": 2932750, "name": "Eibelshausen", "country": "DE", "coord": {"lon": 8.35, "lat": 50.816669}}, {"id": 2932748, "name": "Eibelstadt", "country": "DE", "coord": {"lon": 9.99962, "lat": 49.723919}}, {"id": 2932738, "name": "Eibenstock", "country": "DE", "coord": {"lon": 12.6, "lat": 50.51667}}, {"id": 2756295, "name": "Eibergen", "country": "NL", "coord": {"lon": 6.64861, "lat": 52.099998}}, {"id": 7872262, "name": "Eibiswald", "country": "AT", "coord": {"lon": 15.24585, "lat": 46.68483}}, {"id": 2780283, "name": "Eibiswald", "country": "AT", "coord": {"lon": 15.24722, "lat": 46.686668}}, {"id": 6554838, "name": "Eich", "country": "DE", "coord": {"lon": 8.39889, "lat": 49.75}}, {"id": 2932715, "name": "Eich", "country": "DE", "coord": {"lon": 8.39889, "lat": 49.75}}, {"id": 7285712, "name": "Eich", "country": "CH", "coord": {"lon": 8.17132, "lat": 47.159908}}, {"id": 2660931, "name": "Eich", "country": "CH", "coord": {"lon": 8.16696, "lat": 47.151161}}, {"id": 2932706, "name": "Eicha", "country": "DE", "coord": {"lon": 12.56922, "lat": 51.296059}}, {"id": 2660930, "name": "Eichberg", "country": "CH", "coord": {"lon": 9.5299, "lat": 47.34304}}, {"id": 7872356, "name": "Eichberg", "country": "AT", "coord": {"lon": 15.95595, "lat": 47.38818}}, {"id": 2780274, "name": "Eichberg", "country": "AT", "coord": {"lon": 15.96667, "lat": 47.383331}}, {"id": 2932553, "name": "Eiche", "country": "DE", "coord": {"lon": 14.08333, "lat": 51.883331}}, {"id": 2932550, "name": "Eiche", "country": "DE", "coord": {"lon": 13.58906, "lat": 52.563461}}, {"id": 2932548, "name": "Eiche-Golm", "country": "DE", "coord": {"lon": 12.96667, "lat": 52.400002}}, {"id": 2932549, "name": "Eichede", "country": "DE", "coord": {"lon": 10.4, "lat": 53.716671}}, {"id": 2932448, "name": "Eichelborn", "country": "DE", "coord": {"lon": 11.18333, "lat": 50.950001}}, {"id": 6553376, "name": "Eichelhardt", "country": "DE", "coord": {"lon": 7.7, "lat": 50.716702}}, {"id": 2932440, "name": "Eichelhardt", "country": "DE", "coord": {"lon": 7.7, "lat": 50.716671}}, {"id": 2932426, "name": "Eichelsbach", "country": "DE", "coord": {"lon": 9.23528, "lat": 49.849171}}, {"id": 6553377, "name": "Eichen", "country": "DE", "coord": {"lon": 7.53333, "lat": 50.633301}}, {"id": 2932390, "name": "Eichen", "country": "DE", "coord": {"lon": 7.53333, "lat": 50.633331}}, {"id": 6556218, "name": "Eichenau", "country": "DE", "coord": {"lon": 11.3212, "lat": 48.1721}}, {"id": 2932382, "name": "Eichenau", "country": "DE", "coord": {"lon": 11.31667, "lat": 48.166672}}, {"id": 6553303, "name": "Eichenbach", "country": "DE", "coord": {"lon": 6.81667, "lat": 50.4333}}, {"id": 2932379, "name": "Eichenbach", "country": "DE", "coord": {"lon": 6.81667, "lat": 50.433331}}, {"id": 2932376, "name": "Eichenbarleben", "country": "DE", "coord": {"lon": 11.4, "lat": 52.166672}}, {"id": 7873731, "name": "Eichenberg", "country": "AT", "coord": {"lon": 9.7966, "lat": 47.535488}}, {"id": 2780264, "name": "Eichenberg", "country": "AT", "coord": {"lon": 9.78333, "lat": 47.533329}}, {"id": 6550353, "name": "Eichenberg", "country": "DE", "coord": {"lon": 11.5333, "lat": 50.799999}}, {"id": 2932343, "name": "Eichenberg", "country": "DE", "coord": {"lon": 11.53333, "lat": 50.799999}}, {"id": 6550168, "name": "Eichenberg", "country": "DE", "coord": {"lon": 10.6667, "lat": 50.549999}}, {"id": 2932344, "name": "Eichenberg", "country": "DE", "coord": {"lon": 10.66667, "lat": 50.549999}}, {"id": 2932329, "name": "Eichenbuhl", "country": "DE", "coord": {"lon": 9.32917, "lat": 49.705559}}, {"id": 6557021, "name": "Eichenb\u00fchl", "country": "DE", "coord": {"lon": 9.32917, "lat": 49.705601}}, {"id": 2932321, "name": "Eichendorf", "country": "DE", "coord": {"lon": 12.85, "lat": 48.633331}}, {"id": 2932322, "name": "Eichendorf", "country": "DE", "coord": {"lon": 11.25, "lat": 47.799999}}, {"id": 2932313, "name": "Eichenhausen", "country": "DE", "coord": {"lon": 10.3, "lat": 50.316669}}, {"id": 2932304, "name": "Eichenhofen", "country": "DE", "coord": {"lon": 10.48333, "lat": 48.466671}}, {"id": 2932296, "name": "Eichenkofen", "country": "DE", "coord": {"lon": 11.91667, "lat": 48.349998}}, {"id": 2932286, "name": "Eichenried", "country": "DE", "coord": {"lon": 11.78206, "lat": 48.277481}}, {"id": 2932277, "name": "Eichenstein", "country": "DE", "coord": {"lon": 11.70409, "lat": 50.384659}}, {"id": 6553243, "name": "Eichenzell", "country": "DE", "coord": {"lon": 9.6961, "lat": 50.493401}}, {"id": 2932266, "name": "Eichenzell", "country": "DE", "coord": {"lon": 9.69672, "lat": 50.495361}}, {"id": 2932260, "name": "Eicherloh", "country": "DE", "coord": {"lon": 11.78333, "lat": 48.25}}, {"id": 2932259, "name": "Eicherscheid", "country": "DE", "coord": {"lon": 6.76667, "lat": 50.533329}}, {"id": 2932241, "name": "Eichfeld", "country": "DE", "coord": {"lon": 11.26667, "lat": 50.716671}}, {"id": 7873533, "name": "Eichfeld", "country": "AT", "coord": {"lon": 15.75064, "lat": 46.73653}}, {"id": 2780260, "name": "Eichfeld", "country": "AT", "coord": {"lon": 15.76806, "lat": 46.725281}}, {"id": 7873010, "name": "Eichgraben", "country": "AT", "coord": {"lon": 15.98316, "lat": 48.171139}}, {"id": 2780259, "name": "Eichgraben", "country": "AT", "coord": {"lon": 15.98391, "lat": 48.172039}}, {"id": 2932161, "name": "Eichholz", "country": "DE", "coord": {"lon": 7.71667, "lat": 50.916672}}, {"id": 2932163, "name": "Eichholz", "country": "DE", "coord": {"lon": 11.55, "lat": 50.066669}}, {"id": 2932158, "name": "Eichholz", "country": "DE", "coord": {"lon": 13.65, "lat": 51.616669}}, {"id": 2932132, "name": "Eichhorst", "country": "DE", "coord": {"lon": 13.63807, "lat": 52.890831}}, {"id": 6548034, "name": "Eichhorst", "country": "DE", "coord": {"lon": 13.5, "lat": 53.599998}}, {"id": 2932131, "name": "Eichhorst", "country": "DE", "coord": {"lon": 13.5, "lat": 53.599998}}, {"id": 2932126, "name": "Eichicht", "country": "DE", "coord": {"lon": 11.43548, "lat": 50.611301}}, {"id": 6548531, "name": "Eichigt", "country": "DE", "coord": {"lon": 12.1667, "lat": 50.349998}}, {"id": 2932119, "name": "Eichigt", "country": "DE", "coord": {"lon": 12.16667, "lat": 50.349998}}, {"id": 2932082, "name": "Eichrodt", "country": "DE", "coord": {"lon": 10.4, "lat": 50.966671}}, {"id": 6547387, "name": "Eichsfeld", "country": "DE", "coord": {"lon": 10.21548, "lat": 51.374538}}, {"id": 2932069, "name": "Eichstatt", "country": "DE", "coord": {"lon": 11.18333, "lat": 48.883331}}, {"id": 2932067, "name": "Eichstedt", "country": "DE", "coord": {"lon": 11.85, "lat": 52.683331}}, {"id": 6556063, "name": "Eichstegen", "country": "DE", "coord": {"lon": 9.5, "lat": 47.9333}}, {"id": 2932066, "name": "Eichstegen", "country": "DE", "coord": {"lon": 9.5, "lat": 47.933331}}, {"id": 2932063, "name": "Eichstetten", "country": "DE", "coord": {"lon": 7.73333, "lat": 48.083328}}, {"id": 6549768, "name": "Eichstruth", "country": "DE", "coord": {"lon": 10.0833, "lat": 51.299999}}, {"id": 2932061, "name": "Eichstruth", "country": "DE", "coord": {"lon": 10.08333, "lat": 51.299999}}, {"id": 2932056, "name": "Eichtersheim", "country": "DE", "coord": {"lon": 8.77361, "lat": 49.238892}}, {"id": 6547562, "name": "Eichwalde", "country": "DE", "coord": {"lon": 13.6167, "lat": 52.366699}}, {"id": 2932040, "name": "Eichwalde", "country": "DE", "coord": {"lon": 13.61667, "lat": 52.366669}}, {"id": 2932033, "name": "Eickbusch", "country": "DE", "coord": {"lon": 8.48866, "lat": 52.648579}}, {"id": 2932031, "name": "Eickel", "country": "DE", "coord": {"lon": 8.56667, "lat": 52.316669}}, {"id": 2932029, "name": "Eickel", "country": "DE", "coord": {"lon": 7.18333, "lat": 51.51667}}, {"id": 2932027, "name": "Eickelborn", "country": "DE", "coord": {"lon": 8.21667, "lat": 51.650002}}, {"id": 2932026, "name": "Eickelerbruch", "country": "DE", "coord": {"lon": 7.16667, "lat": 51.51667}}, {"id": 6552768, "name": "Eickeloh", "country": "DE", "coord": {"lon": 9.6, "lat": 52.733299}}, {"id": 2932024, "name": "Eickeloh", "country": "DE", "coord": {"lon": 9.60686, "lat": 52.729221}}, {"id": 2932019, "name": "Eicken", "country": "DE", "coord": {"lon": 6.3, "lat": 51.216671}}, {"id": 2932012, "name": "Eickendorf", "country": "DE", "coord": {"lon": 11.67538, "lat": 51.947651}}, {"id": 3207339, "name": "Eickhoff", "country": "DE", "coord": {"lon": 8.21667, "lat": 51.48333}}, {"id": 6552553, "name": "Eicklingen", "country": "DE", "coord": {"lon": 10.1867, "lat": 52.5462}}, {"id": 2931985, "name": "Eicklingen", "country": "DE", "coord": {"lon": 10.18333, "lat": 52.549999}}, {"id": 2931976, "name": "Eickum", "country": "DE", "coord": {"lon": 8.6, "lat": 52.116669}}, {"id": 3158697, "name": "Eide", "country": "NO", "coord": {"lon": 7.44669, "lat": 62.917351}}, {"id": 7274677, "name": "Eidelstedt", "country": "DE", "coord": {"lon": 9.90538, "lat": 53.606972}}, {"id": 7873233, "name": "Eidenberg", "country": "AT", "coord": {"lon": 14.23339, "lat": 48.394562}}, {"id": 2780250, "name": "Eidenberg", "country": "AT", "coord": {"lon": 14.23313, "lat": 48.39439}}, {"id": 3158668, "name": "Eidfjord", "country": "NO", "coord": {"lon": 7.07193, "lat": 60.467499}}, {"id": 2622676, "name": "Eidi", "country": "FO", "coord": {"lon": -7.09245, "lat": 62.299301}}, {"id": 5520953, "name": "Eidson Road", "country": "US", "coord": {"lon": -100.487022, "lat": 28.6772}}, {"id": 3158615, "name": "Eidsvag", "country": "NO", "coord": {"lon": 8.06681, "lat": 62.776699}}, {"id": 2167693, "name": "Eidsvold", "country": "AU", "coord": {"lon": 151.133331, "lat": -25.366671}}, {"id": 3158606, "name": "Eidsvoll", "country": "NO", "coord": {"lon": 11.26119, "lat": 60.32893}}, {"id": 3158608, "name": "Eidsvoll", "country": "NO", "coord": {"lon": 11.26161, "lat": 60.33046}}, {"id": 7262854, "name": "Eielson Air Force Base", "country": "US", "coord": {"lon": -147.054413, "lat": 64.663269}}, {"id": 2931916, "name": "Eigelbach", "country": "DE", "coord": {"lon": 6.58333, "lat": 50.183331}}, {"id": 6555860, "name": "Eigeltingen", "country": "DE", "coord": {"lon": 8.9, "lat": 47.866699}}, {"id": 2931911, "name": "Eigeltingen", "country": "DE", "coord": {"lon": 8.9, "lat": 47.866669}}, {"id": 2931901, "name": "Eigenrieden", "country": "DE", "coord": {"lon": 10.33333, "lat": 51.216671}}, {"id": 2931900, "name": "Eigenrode", "country": "DE", "coord": {"lon": 10.43333, "lat": 51.283329}}, {"id": 2660929, "name": "Eigenthal", "country": "CH", "coord": {"lon": 8.21261, "lat": 47.0107}}, {"id": 5116317, "name": "Eighmyville", "country": "US", "coord": {"lon": -73.857361, "lat": 41.943699}}, {"id": 6693626, "name": "Eight Ash Green", "country": "GB", "coord": {"lon": 0.8228, "lat": 51.89587}}, {"id": 2167651, "name": "Eight Mile Plains", "country": "AU", "coord": {"lon": 153.100006, "lat": -27.58333}}, {"id": 2964428, "name": "Eighter", "country": "IE", "coord": {"lon": -7.13472, "lat": 53.81778}}, {"id": 2756283, "name": "Eijsden", "country": "NL", "coord": {"lon": 5.7177, "lat": 50.779999}}, {"id": 8128567, "name": "Eik", "country": "NO", "coord": {"lon": 10.41916, "lat": 59.290329}}, {"id": 3158578, "name": "Eike", "country": "NO", "coord": {"lon": 5.36389, "lat": 59.398331}}, {"id": 3158558, "name": "Eikelandsosen", "country": "NO", "coord": {"lon": 5.74602, "lat": 60.243019}}, {"id": 7285714, "name": "Eiken", "country": "CH", "coord": {"lon": 7.98915, "lat": 47.537102}}, {"id": 2660927, "name": "Eiken", "country": "CH", "coord": {"lon": 7.98883, "lat": 47.533939}}, {"id": 2931881, "name": "Eil", "country": "DE", "coord": {"lon": 7.08333, "lat": 50.900002}}, {"id": 295291, "name": "Eilabun", "country": "IL", "coord": {"lon": 35.400398, "lat": 32.83622}}, {"id": 295277, "name": "Eilat", "country": "IL", "coord": {"lon": 34.948212, "lat": 29.55805}}, {"id": 2931877, "name": "Eilbek", "country": "DE", "coord": {"lon": 10.05, "lat": 53.566669}}, {"id": 2167636, "name": "Eildon", "country": "AU", "coord": {"lon": 145.916672, "lat": -37.23333}}, {"id": 2634428, "name": "Eilean Siar", "country": "GB", "coord": {"lon": -7.16667, "lat": 57.666672}}, {"id": 2931871, "name": "Eilenburg", "country": "DE", "coord": {"lon": 12.63338, "lat": 51.459839}}, {"id": 2950698, "name": "Eilenburg, Berg", "country": "DE", "coord": {"lon": 12.61471, "lat": 51.46133}}, {"id": 6550843, "name": "Eilenburg, Stadt", "country": "DE", "coord": {"lon": 12.6612, "lat": 51.465}}, {"id": 2931867, "name": "Eilendorf", "country": "DE", "coord": {"lon": 9.7, "lat": 53.450001}}, {"id": 2931864, "name": "Eilenstedt", "country": "DE", "coord": {"lon": 11.03333, "lat": 51.98333}}, {"id": 2931856, "name": "Eilern", "country": "DE", "coord": {"lon": 8.78333, "lat": 51.549999}}, {"id": 6554534, "name": "Eilscheid", "country": "DE", "coord": {"lon": 6.38333, "lat": 50.133301}}, {"id": 2931843, "name": "Eilscheid", "country": "DE", "coord": {"lon": 6.38333, "lat": 50.133331}}, {"id": 2931842, "name": "Eilsdorf", "country": "DE", "coord": {"lon": 11, "lat": 52}}, {"id": 6549298, "name": "Eilsleben", "country": "DE", "coord": {"lon": 11.2167, "lat": 52.150002}}, {"id": 2931838, "name": "Eilsleben", "country": "DE", "coord": {"lon": 11.21035, "lat": 52.147079}}, {"id": 2931837, "name": "Eilsum", "country": "DE", "coord": {"lon": 7.15, "lat": 53.466671}}, {"id": 2931834, "name": "Eilum", "country": "DE", "coord": {"lon": 10.72575, "lat": 52.16256}}, {"id": 2931830, "name": "Eimbeckhausen", "country": "DE", "coord": {"lon": 9.42284, "lat": 52.232738}}, {"id": 2931828, "name": "Eime", "country": "DE", "coord": {"lon": 9.72118, "lat": 52.07449}}, {"id": 6555879, "name": "Eimeldingen", "country": "DE", "coord": {"lon": 7.6, "lat": 47.633301}}, {"id": 2931827, "name": "Eimeldingen", "country": "DE", "coord": {"lon": 7.6, "lat": 47.633331}}, {"id": 2931826, "name": "Eimelrod", "country": "DE", "coord": {"lon": 8.7, "lat": 51.299999}}, {"id": 6552503, "name": "Eimen", "country": "DE", "coord": {"lon": 9.78333, "lat": 51.883301}}, {"id": 2931825, "name": "Eimen", "country": "DE", "coord": {"lon": 9.78333, "lat": 51.883331}}, {"id": 2931821, "name": "Eimersleben", "country": "DE", "coord": {"lon": 11.20056, "lat": 52.221909}}, {"id": 6552818, "name": "Eimke", "country": "DE", "coord": {"lon": 10.3167, "lat": 52.966702}}, {"id": 2931818, "name": "Eimke", "country": "DE", "coord": {"lon": 10.31324, "lat": 52.966011}}, {"id": 2911293, "name": "Eimsbuettel", "country": "DE", "coord": {"lon": 9.98333, "lat": 53.566669}}, {"id": 6555267, "name": "Eimsheim", "country": "DE", "coord": {"lon": 8.28944, "lat": 49.795799}}, {"id": 2931815, "name": "Eimsheim", "country": "DE", "coord": {"lon": 8.28944, "lat": 49.79583}}, {"id": 2167629, "name": "Einasleigh", "country": "AU", "coord": {"lon": 144.100006, "lat": -18.51667}}, {"id": 2931809, "name": "Einbach", "country": "DE", "coord": {"lon": 8.15, "lat": 48.316669}}, {"id": 2931804, "name": "Einbeck", "country": "DE", "coord": {"lon": 9.86667, "lat": 51.816669}}, {"id": 2756253, "name": "Eindhoven", "country": "NL", "coord": {"lon": 5.47778, "lat": 51.44083}}, {"id": 2798895, "name": "Eindhoven", "country": "BE", "coord": {"lon": 4.63496, "lat": 51.33429}}, {"id": 6550354, "name": "Eineborn", "country": "DE", "coord": {"lon": 11.8667, "lat": 50.833302}}, {"id": 2931795, "name": "Eineborn", "country": "DE", "coord": {"lon": 11.86667, "lat": 50.833328}}, {"id": 3205814, "name": "Einen", "country": "DE", "coord": {"lon": 7.9, "lat": 51.966671}}, {"id": 6551427, "name": "Einhaus", "country": "DE", "coord": {"lon": 10.7333, "lat": 53.716702}}, {"id": 2931759, "name": "Einhaus", "country": "DE", "coord": {"lon": 10.73333, "lat": 53.716671}}, {"id": 6553156, "name": "Einhausen", "country": "DE", "coord": {"lon": 8.5517, "lat": 49.670601}}, {"id": 2931753, "name": "Einhausen", "country": "DE", "coord": {"lon": 8.54833, "lat": 49.67667}}, {"id": 6550006, "name": "Einhausen", "country": "DE", "coord": {"lon": 10.4667, "lat": 50.533298}}, {"id": 2931752, "name": "Einhausen", "country": "DE", "coord": {"lon": 10.46667, "lat": 50.533329}}, {"id": 6553748, "name": "Einig", "country": "DE", "coord": {"lon": 7.28333, "lat": 50.283298}}, {"id": 2931742, "name": "Einig", "country": "DE", "coord": {"lon": 7.28333, "lat": 50.283329}}, {"id": 2931703, "name": "Einollen", "country": "DE", "coord": {"lon": 7.63333, "lat": 49.616669}}, {"id": 3207701, "name": "Einrich", "country": "DE", "coord": {"lon": 7.8, "lat": 50.25}}, {"id": 2931694, "name": "Einsbach", "country": "DE", "coord": {"lon": 11.26678, "lat": 48.269032}}, {"id": 6554942, "name": "Einselthum", "country": "DE", "coord": {"lon": 8.12472, "lat": 49.651699}}, {"id": 2931691, "name": "Einselthum", "country": "DE", "coord": {"lon": 8.12472, "lat": 49.651669}}, {"id": 7285715, "name": "Einsiedeln", "country": "CH", "coord": {"lon": 8.77922, "lat": 47.117378}}, {"id": 2660925, "name": "Einsiedeln", "country": "CH", "coord": {"lon": 8.75, "lat": 47.116669}}, {"id": 2931666, "name": "Einsiedlerhof", "country": "DE", "coord": {"lon": 7.66667, "lat": 49.433331}}, {"id": 2931660, "name": "Einste", "country": "DE", "coord": {"lon": 9.11667, "lat": 52.916672}}, {"id": 3020314, "name": "Einville-au-Jard", "country": "FR", "coord": {"lon": 6.48786, "lat": 48.653229}}, {"id": 2601501, "name": "Ein\u00f6de", "country": "AT", "coord": {"lon": 16.23539, "lat": 48.022541}}, {"id": 2931714, "name": "Ein\u00f6de", "country": "DE", "coord": {"lon": 10.4, "lat": 47.76667}}, {"id": 6555088, "name": "Ein\u00f6llen", "country": "DE", "coord": {"lon": 7.63333, "lat": 49.616699}}, {"id": 2268638, "name": "Eiras", "country": "PT", "coord": {"lon": -9.01447, "lat": 39.46698}}, {"id": 2268636, "name": "Eiras", "country": "PT", "coord": {"lon": -8.36817, "lat": 39.888592}}, {"id": 8011799, "name": "Eiras", "country": "PT", "coord": {"lon": -8.42401, "lat": 40.24213}}, {"id": 2740057, "name": "Eiras", "country": "PT", "coord": {"lon": -8.41548, "lat": 40.248268}}, {"id": 2740056, "name": "Eiras", "country": "PT", "coord": {"lon": -8.14562, "lat": 40.549831}}, {"id": 3123703, "name": "Eiras", "country": "ES", "coord": {"lon": -8.78333, "lat": 41.933331}}, {"id": 865238, "name": "Eirinoupoli", "country": "GR", "coord": {"lon": 22.19278, "lat": 40.678059}}, {"id": 2740043, "name": "Eiriz", "country": "PT", "coord": {"lon": -8.02913, "lat": 40.933689}}, {"id": 3664321, "name": "Eirunepe", "country": "BR", "coord": {"lon": -69.873611, "lat": -6.66028}}, {"id": 7873397, "name": "Eisbach", "country": "AT", "coord": {"lon": 15.27246, "lat": 47.13377}}, {"id": 2780218, "name": "Eisbach", "country": "AT", "coord": {"lon": 15.26667, "lat": 47.116669}}, {"id": 2931608, "name": "Eisbergen", "country": "DE", "coord": {"lon": 9.01667, "lat": 52.200001}}, {"id": 2960618, "name": "Eischen", "country": "LU", "coord": {"lon": 5.87861, "lat": 49.685558}}, {"id": 2931599, "name": "Eischleben", "country": "DE", "coord": {"lon": 10.98333, "lat": 50.883331}}, {"id": 7285716, "name": "Eischoll", "country": "CH", "coord": {"lon": 7.76224, "lat": 46.282181}}, {"id": 2660924, "name": "Eischoll", "country": "CH", "coord": {"lon": 7.77995, "lat": 46.293522}}, {"id": 2931598, "name": "Eischott", "country": "DE", "coord": {"lon": 10.84179, "lat": 52.486229}}, {"id": 6552383, "name": "Eisdorf", "country": "DE", "coord": {"lon": 10.1667, "lat": 51.766701}}, {"id": 2931594, "name": "Eisdorf am Harz", "country": "DE", "coord": {"lon": 10.17591, "lat": 51.76152}}, {"id": 6556361, "name": "Eiselfing", "country": "DE", "coord": {"lon": 12.2333, "lat": 48.049999}}, {"id": 2890590, "name": "Eiselfing", "country": "DE", "coord": {"lon": 12.24272, "lat": 48.041142}}, {"id": 2931578, "name": "Eisemroth", "country": "DE", "coord": {"lon": 8.41667, "lat": 50.73333}}, {"id": 1832617, "name": "Eisen", "country": "KR", "coord": {"lon": 128.930832, "lat": 35.967499}}, {"id": 1832384, "name": "Eisen", "country": "KR", "coord": {"lon": 128.630829, "lat": 36.821671}}, {"id": 2931576, "name": "Eisen", "country": "DE", "coord": {"lon": 7.9, "lat": 50.5}}, {"id": 2931574, "name": "Eisenach", "country": "DE", "coord": {"lon": 10.31667, "lat": 50.98333}}, {"id": 6554535, "name": "Eisenach", "country": "DE", "coord": {"lon": 6.51667, "lat": 49.849998}}, {"id": 2931575, "name": "Eisenach", "country": "DE", "coord": {"lon": 6.51667, "lat": 49.849998}}, {"id": 2931569, "name": "Eisenbach", "country": "DE", "coord": {"lon": 8.26667, "lat": 47.966671}}, {"id": 2931521, "name": "Eisenberg", "country": "DE", "coord": {"lon": 11.9, "lat": 50.966671}}, {"id": 2931522, "name": "Eisenberg", "country": "DE", "coord": {"lon": 8.07, "lat": 49.56583}}, {"id": 6557211, "name": "Eisenberg", "country": "DE", "coord": {"lon": 10.6, "lat": 47.599998}}, {"id": 2931550, "name": "Eisenberg", "country": "DE", "coord": {"lon": 10.60524, "lat": 47.612011}}, {"id": 2931511, "name": "Eisenbernreut", "country": "DE", "coord": {"lon": 13.45, "lat": 48.76667}}, {"id": 2960617, "name": "Eisenborn", "country": "LU", "coord": {"lon": 6.18528, "lat": 49.686668}}, {"id": 2931501, "name": "Eisenburg", "country": "DE", "coord": {"lon": 10.2087, "lat": 48.014042}}, {"id": 6551827, "name": "Eisendorf", "country": "DE", "coord": {"lon": 9.86667, "lat": 54.200001}}, {"id": 2931497, "name": "Eisendorf", "country": "DE", "coord": {"lon": 9.86667, "lat": 54.200001}}, {"id": 7872422, "name": "Eisenerz", "country": "AT", "coord": {"lon": 14.88837, "lat": 47.54607}}, {"id": 2780207, "name": "Eisenerz", "country": "AT", "coord": {"lon": 14.88333, "lat": 47.533329}}, {"id": 2931488, "name": "Eisenharz", "country": "DE", "coord": {"lon": 9.96667, "lat": 47.683331}}, {"id": 2931481, "name": "Eisenhuettenstadt", "country": "DE", "coord": {"lon": 14.65, "lat": 52.150002}}, {"id": 6551088, "name": "Eisenh\u00fcttenstadt", "country": "DE", "coord": {"lon": 14.63001, "lat": 52.146549}}, {"id": 6554313, "name": "Eisenschmitt", "country": "DE", "coord": {"lon": 6.71667, "lat": 50.049999}}, {"id": 2931467, "name": "Eisenschmitt", "country": "DE", "coord": {"lon": 6.71667, "lat": 50.049999}}, {"id": 2780190, "name": "Eisenstadt", "country": "AT", "coord": {"lon": 16.52327, "lat": 47.84565}}, {"id": 2931433, "name": "Eisfeld", "country": "DE", "coord": {"lon": 10.91667, "lat": 50.416672}}, {"id": 7872874, "name": "Eisgarn", "country": "AT", "coord": {"lon": 15.10546, "lat": 48.918201}}, {"id": 2780176, "name": "Eisgarn", "country": "AT", "coord": {"lon": 15.1, "lat": 48.900002}}, {"id": 6554020, "name": "Eisighofen", "country": "DE", "coord": {"lon": 8.01667, "lat": 50.233299}}, {"id": 2931425, "name": "Eisighofen", "country": "DE", "coord": {"lon": 8.01667, "lat": 50.23333}}, {"id": 6555700, "name": "Eisingen", "country": "DE", "coord": {"lon": 8.66667, "lat": 48.950001}}, {"id": 2931424, "name": "Eisingen", "country": "DE", "coord": {"lon": 8.66667, "lat": 48.950001}}, {"id": 6557078, "name": "Eisingen", "country": "DE", "coord": {"lon": 9.831, "lat": 49.759499}}, {"id": 2931423, "name": "Eisingen", "country": "DE", "coord": {"lon": 9.83111, "lat": 49.75972}}, {"id": 599614, "name": "Eisiskes", "country": "LT", "coord": {"lon": 25, "lat": 54.166672}}, {"id": 2931414, "name": "Eislingen", "country": "DE", "coord": {"lon": 9.70676, "lat": 48.695148}}, {"id": 2931404, "name": "Eismerszell", "country": "DE", "coord": {"lon": 11.05984, "lat": 48.149738}}, {"id": 2931403, "name": "Eisolzried", "country": "DE", "coord": {"lon": 11.33969, "lat": 48.25848}}, {"id": 2660922, "name": "Eison", "country": "CH", "coord": {"lon": 7.46257, "lat": 46.152672}}, {"id": 2931397, "name": "Eissen", "country": "DE", "coord": {"lon": 9.16667, "lat": 51.566669}}, {"id": 2931392, "name": "Eisten", "country": "DE", "coord": {"lon": 7.55, "lat": 52.799999}}, {"id": 7285717, "name": "Eisten", "country": "CH", "coord": {"lon": 7.90762, "lat": 46.179119}}, {"id": 2660921, "name": "Eisten", "country": "CH", "coord": {"lon": 7.89282, "lat": 46.200748}}, {"id": 7601776, "name": "Eita Village", "country": "KI", "coord": {"lon": 173.081131, "lat": 1.36154}}, {"id": 6554127, "name": "Eitelborn", "country": "DE", "coord": {"lon": 7.71667, "lat": 50.366699}}, {"id": 2931385, "name": "Eitelborn", "country": "DE", "coord": {"lon": 7.71667, "lat": 50.366669}}, {"id": 6556167, "name": "Eitensheim", "country": "DE", "coord": {"lon": 11.3167, "lat": 48.8167}}, {"id": 2931378, "name": "Eitensheim", "country": "DE", "coord": {"lon": 11.31667, "lat": 48.816669}}, {"id": 6553244, "name": "Eiterfeld", "country": "DE", "coord": {"lon": 9.78685, "lat": 50.752949}}, {"id": 2931372, "name": "Eiterfeld", "country": "DE", "coord": {"lon": 9.8, "lat": 50.76667}}, {"id": 6553080, "name": "Eitorf", "country": "DE", "coord": {"lon": 7.4403, "lat": 50.775002}}, {"id": 2931361, "name": "Eitorf", "country": "DE", "coord": {"lon": 7.45, "lat": 50.76667}}, {"id": 2931356, "name": "Eitting", "country": "DE", "coord": {"lon": 12.91667, "lat": 48.5}}, {"id": 6556180, "name": "Eitting", "country": "DE", "coord": {"lon": 11.9, "lat": 48.366699}}, {"id": 2931357, "name": "Eitting", "country": "DE", "coord": {"lon": 11.9, "lat": 48.366669}}, {"id": 2931340, "name": "Eitzum", "country": "DE", "coord": {"lon": 9.84693, "lat": 52.07914}}, {"id": 3158444, "name": "Eivinvik", "country": "NO", "coord": {"lon": 5.07362, "lat": 60.98138}}, {"id": 6640026, "name": "Eixample", "country": "ES", "coord": {"lon": -0.37225, "lat": 39.462841}}, {"id": 6544100, "name": "Eixample", "country": "ES", "coord": {"lon": 2.16179, "lat": 41.388962}}, {"id": 2931334, "name": "Eixe", "country": "DE", "coord": {"lon": 10.18333, "lat": 52.349998}}, {"id": 6548112, "name": "Eixen", "country": "DE", "coord": {"lon": 12.72337, "lat": 54.161659}}, {"id": 2931333, "name": "Eixen", "country": "DE", "coord": {"lon": 12.72384, "lat": 54.16143}}, {"id": 8010748, "name": "Eixo", "country": "PT", "coord": {"lon": -8.57332, "lat": 40.628738}}, {"id": 2740031, "name": "Eixo", "country": "PT", "coord": {"lon": -8.56922, "lat": 40.627579}}, {"id": 2622677, "name": "Ei\u00f0i", "country": "FO", "coord": {"lon": -7.08541, "lat": 62.300861}}, {"id": 2622666, "name": "Ejby", "country": "DK", "coord": {"lon": 9.92973, "lat": 55.430099}}, {"id": 2622664, "name": "Ejby", "country": "DK", "coord": {"lon": 11.84725, "lat": 55.689232}}, {"id": 2622665, "name": "Ejby", "country": "DK", "coord": {"lon": 12.08171, "lat": 55.485802}}, {"id": 6362788, "name": "Ejea de los Caballeros", "country": "ES", "coord": {"lon": -1.15371, "lat": 42.159679}}, {"id": 3123688, "name": "Ejea de los Caballeros", "country": "ES", "coord": {"lon": -1.13716, "lat": 42.12632}}, {"id": 6360361, "name": "Ejeme", "country": "ES", "coord": {"lon": -5.52152, "lat": 40.766769}}, {"id": 3123687, "name": "Ejeme", "country": "ES", "coord": {"lon": -5.53828, "lat": 40.76685}}, {"id": 3644417, "name": "Ejido", "country": "VE", "coord": {"lon": -71.237503, "lat": 8.551389}}, {"id": 4011631, "name": "Ejido El Largo", "country": "MX", "coord": {"lon": -108.26667, "lat": 29.683331}}, {"id": 4011482, "name": "Ejido Pantanito", "country": "MX", "coord": {"lon": -111.050003, "lat": 30.6}}, {"id": 3971762, "name": "Ejido Reforma Agraria", "country": "MX", "coord": {"lon": -114.421944, "lat": 32.361111}}, {"id": 2343784, "name": "Ejigbo", "country": "NG", "coord": {"lon": 4.31667, "lat": 7.9}}, {"id": 2343776, "name": "Ejirin", "country": "NG", "coord": {"lon": 3.90019, "lat": 6.61423}}, {"id": 616062, "name": "Ejmiatsin", "country": "AM", "coord": {"lon": 44.294621, "lat": 40.165569}}, {"id": 6361509, "name": "Ejulve", "country": "ES", "coord": {"lon": -0.56223, "lat": 40.752781}}, {"id": 3123686, "name": "Ejulve", "country": "ES", "coord": {"lon": -0.55344, "lat": 40.776329}}, {"id": 2301217, "name": "Ejura", "country": "GH", "coord": {"lon": -1.35617, "lat": 7.38558}}, {"id": 3529510, "name": "Ejutla de Crespo", "country": "MX", "coord": {"lon": -96.73333, "lat": 16.566669}}, {"id": 1976191, "name": "Ekabudi", "country": "ID", "coord": {"lon": 122.239197, "lat": -4.0535}}, {"id": 5650548, "name": "Ekalaka", "country": "US", "coord": {"lon": -104.552727, "lat": 45.888889}}, {"id": 262833, "name": "Ekali", "country": "GR", "coord": {"lon": 23.83333, "lat": 38.116669}}, {"id": 1105726, "name": "Ekangala", "country": "ZA", "coord": {"lon": 28.74918, "lat": -25.69619}}, {"id": 2716758, "name": "Ekangen", "country": "SE", "coord": {"lon": 15.63333, "lat": 58.466671}}, {"id": 563551, "name": "Ekazhevo", "country": "RU", "coord": {"lon": 44.823059, "lat": 43.212219}}, {"id": 2931321, "name": "Ekeberg", "country": "DE", "coord": {"lon": 9.61667, "lat": 54.650002}}, {"id": 2716668, "name": "Ekeby", "country": "SE", "coord": {"lon": 17.52, "lat": 59.25}}, {"id": 2933672, "name": "Ekelsdorf", "country": "DE", "coord": {"lon": 10.68498, "lat": 54.057949}}, {"id": 660325, "name": "Ekenaes", "country": "FI", "coord": {"lon": 23.433889, "lat": 59.973591}}, {"id": 2716601, "name": "Ekenassjon", "country": "SE", "coord": {"lon": 15, "lat": 57.5}}, {"id": 6551956, "name": "Ekenis", "country": "DE", "coord": {"lon": 9.85, "lat": 54.633301}}, {"id": 2931314, "name": "Ekenis", "country": "DE", "coord": {"lon": 9.85, "lat": 54.633331}}, {"id": 2798873, "name": "Ekeren", "country": "BE", "coord": {"lon": 4.41813, "lat": 51.280869}}, {"id": 2716586, "name": "Ekeroe", "country": "SE", "coord": {"lon": 17.81212, "lat": 59.291}}, {"id": 2343720, "name": "Eket", "country": "NG", "coord": {"lon": 7.92092, "lat": 4.64122}}, {"id": 736354, "name": "Ekhinos", "country": "GR", "coord": {"lon": 24.966669, "lat": 41.283329}}, {"id": 2931308, "name": "Ekholt", "country": "DE", "coord": {"lon": 9.71667, "lat": 53.75}}, {"id": 1524325, "name": "Ekibastuz", "country": "KZ", "coord": {"lon": 75.366669, "lat": 51.666672}}, {"id": 2167626, "name": "Ekibin", "country": "AU", "coord": {"lon": 153.033325, "lat": -27.51667}}, {"id": 2024461, "name": "Ekimchan", "country": "RU", "coord": {"lon": 132.966675, "lat": 53.066669}}, {"id": 2595346, "name": "Ekiti State", "country": "NG", "coord": {"lon": 5.25, "lat": 7.66667}}, {"id": 6941672, "name": "Eklobhati", "country": "NP", "coord": {"lon": 83.773842, "lat": 28.818281}}, {"id": 5861493, "name": "Eklutna", "country": "US", "coord": {"lon": -149.362213, "lat": 61.458061}}, {"id": 1811739, "name": "Ekou", "country": "CN", "coord": {"lon": 113.191193, "lat": 39.131248}}, {"id": 2343641, "name": "Ekpoma", "country": "NG", "coord": {"lon": 6.139, "lat": 6.74206}}, {"id": 313526, "name": "Eksere", "country": "TR", "coord": {"lon": 31.99971, "lat": 36.813389}}, {"id": 2716443, "name": "Ekshaerad", "country": "SE", "coord": {"lon": 13.49647, "lat": 60.172749}}, {"id": 2716437, "name": "Eksjoe", "country": "SE", "coord": {"lon": 14.97205, "lat": 57.666431}}, {"id": 2798863, "name": "Ekstergoor", "country": "BE", "coord": {"lon": 4.78333, "lat": 51.333328}}, {"id": 1006420, "name": "Ekuvukeni", "country": "ZA", "coord": {"lon": 30.15513, "lat": -28.46752}}, {"id": 1326149, "name": "Ekyigon", "country": "MM", "coord": {"lon": 95.98333, "lat": 21.683331}}, {"id": 2462879, "name": "El Aargub", "country": "EH", "coord": {"lon": -15.83472, "lat": 23.577551}}, {"id": 2498782, "name": "El Abadia", "country": "DZ", "coord": {"lon": 1.68609, "lat": 36.269508}}, {"id": 2565070, "name": "El Abalario", "country": "ES", "coord": {"lon": -6.67206, "lat": 37.115311}}, {"id": 2498775, "name": "El Abiodh Sidi Cheikh", "country": "DZ", "coord": {"lon": 0.54839, "lat": 32.893002}}, {"id": 3806940, "name": "El Abismo", "country": "VE", "coord": {"lon": -61.389442, "lat": 6.073333}}, {"id": 3612784, "name": "El Achiotal", "country": "HN", "coord": {"lon": -88.75, "lat": 14.08333}}, {"id": 2498766, "name": "El Achir", "country": "DZ", "coord": {"lon": 4.62744, "lat": 36.063862}}, {"id": 2498765, "name": "El Achour", "country": "DZ", "coord": {"lon": 2.99056, "lat": 36.731941}}, {"id": 60207, "name": "El Ad", "country": "SO", "coord": {"lon": 49.150002, "lat": 11.28333}}, {"id": 3597676, "name": "El Adelanto", "country": "GT", "coord": {"lon": -89.833328, "lat": 14.16667}}, {"id": 3757172, "name": "El Aeropuerto", "country": "VE", "coord": {"lon": -72.264549, "lat": 8.2353}}, {"id": 2498752, "name": "El Affroun", "country": "DZ", "coord": {"lon": 2.62528, "lat": 36.4701}}, {"id": 3612734, "name": "El Agua Dulcita", "country": "HN", "coord": {"lon": -87.75, "lat": 14.7}}, {"id": 3508639, "name": "El Aguacate", "country": "DO", "coord": {"lon": -70.540932, "lat": 19.600719}}, {"id": 3612750, "name": "El Aguacate", "country": "HN", "coord": {"lon": -85.849998, "lat": 14.91667}}, {"id": 3685027, "name": "El Aguila", "country": "CO", "coord": {"lon": -76.040039, "lat": 4.91345}}, {"id": 3859000, "name": "El Aguilar", "country": "AR", "coord": {"lon": -65.692131, "lat": -23.225821}}, {"id": 3941417, "name": "El Agustino", "country": "PE", "coord": {"lon": -77.01667, "lat": -12.06667}}, {"id": 2550806, "name": "El Aioun", "country": "MA", "coord": {"lon": -2.50612, "lat": 34.583191}}, {"id": 3123682, "name": "El Alamo", "country": "ES", "coord": {"lon": -3.99447, "lat": 40.230659}}, {"id": 3434932, "name": "El Alcazar", "country": "AR", "coord": {"lon": -54.815231, "lat": -26.71459}}, {"id": 6697573, "name": "El Alcor II", "country": "ES", "coord": {"lon": -4.10975, "lat": 40.545151}}, {"id": 3644365, "name": "El Algarrobo", "country": "VE", "coord": {"lon": -61.950001, "lat": 7.8}}, {"id": 3620106, "name": "El Almendro", "country": "NI", "coord": {"lon": -84.70269, "lat": 11.67859}}, {"id": 2518737, "name": "El Alqui\u00e1n", "country": "ES", "coord": {"lon": -2.35313, "lat": 36.852631}}, {"id": 2518736, "name": "El Altet", "country": "ES", "coord": {"lon": -0.5397, "lat": 38.272991}}, {"id": 3508569, "name": "El Alto", "country": "DO", "coord": {"lon": -70.449997, "lat": 18.616671}}, {"id": 3697441, "name": "El Alto", "country": "PE", "coord": {"lon": -81.214722, "lat": -4.27139}}, {"id": 3508503, "name": "El Alto Espino", "country": "DO", "coord": {"lon": -70.300003, "lat": 19.116671}}, {"id": 2518733, "name": "El Amparo", "country": "ES", "coord": {"lon": -16.714439, "lat": 28.353889}}, {"id": 3858918, "name": "El Amparo", "country": "AR", "coord": {"lon": -66.150002, "lat": -33.183331}}, {"id": 2498704, "name": "El Amria", "country": "DZ", "coord": {"lon": -1.01577, "lat": 35.524391}}, {"id": 3658379, "name": "El Angel", "country": "EC", "coord": {"lon": -77.933327, "lat": 0.61667}}, {"id": 3644279, "name": "El An\u00eds", "country": "VE", "coord": {"lon": -71.496521, "lat": 8.46526}}, {"id": 2498680, "name": "El Aouana", "country": "DZ", "coord": {"lon": 5.59993, "lat": 36.775131}}, {"id": 2473427, "name": "El Aouina", "country": "TN", "coord": {"lon": 10.25639, "lat": 36.848061}}, {"id": 2498667, "name": "El Aouinet", "country": "DZ", "coord": {"lon": 7.88672, "lat": 35.866909}}, {"id": 2518729, "name": "El Arahal", "country": "ES", "coord": {"lon": -5.5453, "lat": 37.26273}}, {"id": 3858909, "name": "El Aranado", "country": "AR", "coord": {"lon": -62.893219, "lat": -31.741199}}, {"id": 4011119, "name": "El Arenal", "country": "MX", "coord": {"lon": -103.699997, "lat": 20.783331}}, {"id": 3529437, "name": "El Arenal", "country": "MX", "coord": {"lon": -98.900002, "lat": 20.23333}}, {"id": 2167618, "name": "El Arish", "country": "AU", "coord": {"lon": 146, "lat": -17.816669}}, {"id": 3891940, "name": "El Array\u00e1n", "country": "CL", "coord": {"lon": -72.433327, "lat": -37.466671}}, {"id": 4564156, "name": "El Arrendado", "country": "PR", "coord": {"lon": -66.954071, "lat": 18.086349}}, {"id": 3658373, "name": "El Arroyo", "country": "EC", "coord": {"lon": -80.666672, "lat": -0.98333}}, {"id": 2518719, "name": "El Arroyo Aceituno", "country": "ES", "coord": {"lon": -2.06667, "lat": 37.349998}}, {"id": 3807086, "name": "El Aserradero", "country": "VE", "coord": {"lon": -61.132221, "lat": 4.55167}}, {"id": 3597587, "name": "El Asintal", "country": "GT", "coord": {"lon": -91.73333, "lat": 14.6}}, {"id": 3123667, "name": "El Astillero", "country": "ES", "coord": {"lon": -3.82051, "lat": 43.40094}}, {"id": 2498590, "name": "El Attaf", "country": "DZ", "coord": {"lon": 1.67187, "lat": 36.22393}}, {"id": 3620084, "name": "El Ayote", "country": "NI", "coord": {"lon": -85.287369, "lat": 12.19046}}, {"id": 3684945, "name": "El Bagre", "country": "CO", "coord": {"lon": -74.808578, "lat": 7.59272}}, {"id": 3612640, "name": "El Balsamo", "country": "HN", "coord": {"lon": -87.466667, "lat": 15.06667}}, {"id": 3684917, "name": "El Banco", "country": "CO", "coord": {"lon": -73.975807, "lat": 9.00114}}, {"id": 3684922, "name": "El Banco", "country": "CO", "coord": {"lon": -71.650002, "lat": 5.43333}}, {"id": 3807130, "name": "El Barajuste", "country": "VE", "coord": {"lon": -61.96722, "lat": 7.772778}}, {"id": 3644182, "name": "El Barbudo", "country": "VE", "coord": {"lon": -64.16893, "lat": 10.47659}}, {"id": 3123659, "name": "El Barco de Avila", "country": "ES", "coord": {"lon": -5.52365, "lat": 40.357101}}, {"id": 2498552, "name": "El Barga", "country": "DZ", "coord": {"lon": -2.24733, "lat": 31.617781}}, {"id": 2473823, "name": "El Battan", "country": "TN", "coord": {"lon": 9.84424, "lat": 36.80368}}, {"id": 379630, "name": "El Bauga", "country": "SD", "coord": {"lon": 33.908119, "lat": 18.261959}}, {"id": 3644163, "name": "El Baul", "country": "VE", "coord": {"lon": -68.29554, "lat": 8.96216}}, {"id": 2498543, "name": "El Bayadh", "country": "DZ", "coord": {"lon": 1.01927, "lat": 33.683182}}, {"id": 4010969, "name": "El Bedito", "country": "MX", "coord": {"lon": -109.76667, "lat": 22.98333}}, {"id": 3612581, "name": "El Benque", "country": "HN", "coord": {"lon": -86.466667, "lat": 14.03333}}, {"id": 6544483, "name": "El Bercial", "country": "ES", "coord": {"lon": -3.73587, "lat": 40.323639}}, {"id": 3858765, "name": "El Bolson", "country": "AR", "coord": {"lon": -71.51667, "lat": -41.966671}}, {"id": 2518684, "name": "El Bonillo", "country": "ES", "coord": {"lon": -2.54048, "lat": 38.950481}}, {"id": 3684860, "name": "El Bordo", "country": "CO", "coord": {"lon": -76.98214, "lat": 2.11696}}, {"id": 2550554, "name": "El Borj", "country": "MA", "coord": {"lon": -2.42292, "lat": 35.131279}}, {"id": 2473803, "name": "El Borma", "country": "TN", "coord": {"lon": 9.2062, "lat": 31.691719}}, {"id": 4564161, "name": "El Bosque", "country": "PR", "coord": {"lon": -66.989342, "lat": 18.249121}}, {"id": 2518682, "name": "El Bosque", "country": "ES", "coord": {"lon": -5.50535, "lat": 36.758282}}, {"id": 3529372, "name": "El Bosque", "country": "MX", "coord": {"lon": -92.73333, "lat": 17.066669}}, {"id": 2518677, "name": "El Bueno", "country": "ES", "coord": {"lon": -16.48506, "lat": 28.20784}}, {"id": 3123623, "name": "El Burgo de Ebro", "country": "ES", "coord": {"lon": -0.74128, "lat": 41.571571}}, {"id": 3123622, "name": "El Burgo de Osma", "country": "ES", "coord": {"lon": -3.06522, "lat": 41.586189}}, {"id": 4010897, "name": "El Burrion", "country": "MX", "coord": {"lon": -108.400002, "lat": 25.533331}}, {"id": 3123619, "name": "El Bustio", "country": "ES", "coord": {"lon": -4.5209, "lat": 43.376209}}, {"id": 3123617, "name": "El Cabaco", "country": "ES", "coord": {"lon": -6.12848, "lat": 40.565521}}, {"id": 3123615, "name": "El Cabezo", "country": "ES", "coord": {"lon": -1.21836, "lat": 41.786129}}, {"id": 2518667, "name": "El Cabo de Gata", "country": "ES", "coord": {"lon": -2.24198, "lat": 36.782341}}, {"id": 3508286, "name": "El Cacao", "country": "DO", "coord": {"lon": -70.295853, "lat": 18.527189}}, {"id": 3807315, "name": "El Cacho", "country": "VE", "coord": {"lon": -61.584999, "lat": 7.339444}}, {"id": 3508266, "name": "El Cach\u00f3n", "country": "DO", "coord": {"lon": -69.933327, "lat": 18.5}}, {"id": 3803449, "name": "El Cafetal", "country": "VE", "coord": {"lon": -66.830627, "lat": 10.46941}}, {"id": 3508234, "name": "El Caim\u00e1n", "country": "DO", "coord": {"lon": -70.288239, "lat": 19.61097}}, {"id": 3684785, "name": "El Cairo", "country": "CO", "coord": {"lon": -76.22226, "lat": 4.75909}}, {"id": 3529347, "name": "El Cajete", "country": "MX", "coord": {"lon": -99.316673, "lat": 23.066669}}, {"id": 5345529, "name": "El Cajon", "country": "US", "coord": {"lon": -116.962532, "lat": 32.794769}}, {"id": 3858677, "name": "El Calafate", "country": "AR", "coord": {"lon": -72.276817, "lat": -50.340752}}, {"id": 2518659, "name": "El Calguer\u00edn", "country": "ES", "coord": {"lon": -1.88428, "lat": 37.302219}}, {"id": 3508170, "name": "El Callej\u00f3n", "country": "DO", "coord": {"lon": -69.533333, "lat": 19.316669}}, {"id": 3684770, "name": "El Calvario", "country": "CO", "coord": {"lon": -73.711472, "lat": 4.35342}}, {"id": 3597509, "name": "El Calvario", "country": "GT", "coord": {"lon": -89.916672, "lat": 14.11667}}, {"id": 2518653, "name": "El Campamento", "country": "ES", "coord": {"lon": -5.38125, "lat": 36.17878}}, {"id": 4688506, "name": "El Campo", "country": "US", "coord": {"lon": -96.269691, "lat": 29.19664}}, {"id": 3561667, "name": "El Caney", "country": "CU", "coord": {"lon": -78.48333, "lat": 21.299999}}, {"id": 3711240, "name": "El Cano", "country": "PA", "coord": {"lon": -80.51667, "lat": 8.4}}, {"id": 3643962, "name": "El Canton", "country": "VE", "coord": {"lon": -71.295601, "lat": 7.47729}}, {"id": 3792386, "name": "El Canton de San Pablo", "country": "CO", "coord": {"lon": -76.731392, "lat": 5.33889}}, {"id": 3750856, "name": "El Card\u00f3n", "country": "VE", "coord": {"lon": -63.24778, "lat": 8.719167}}, {"id": 3918313, "name": "El Carmen", "country": "BO", "coord": {"lon": -63.216671, "lat": -17.85}}, {"id": 3658332, "name": "El Carmen", "country": "EC", "coord": {"lon": -80.01667, "lat": -1.31667}}, {"id": 6559781, "name": "El Carmen", "country": "PE", "coord": {"lon": -78.315002, "lat": -9.47056}}, {"id": 3684683, "name": "El Carmen", "country": "CO", "coord": {"lon": -73.447762, "lat": 8.51064}}, {"id": 3684689, "name": "El Carmen", "country": "CO", "coord": {"lon": -73.511162, "lat": 6.69736}}, {"id": 3684692, "name": "El Carmen", "country": "CO", "coord": {"lon": -75.164169, "lat": 5.88778}}, {"id": 3684666, "name": "El Carmen de Bolivar", "country": "CO", "coord": {"lon": -75.120232, "lat": 9.7174}}, {"id": 2518607, "name": "El Carpio", "country": "ES", "coord": {"lon": -4.49696, "lat": 37.940849}}, {"id": 2518606, "name": "El Carpio de Tajo", "country": "ES", "coord": {"lon": -4.45388, "lat": 39.887959}}, {"id": 3858553, "name": "El Carril", "country": "AR", "coord": {"lon": -65.491737, "lat": -25.0741}}, {"id": 3508083, "name": "El Carril", "country": "DO", "coord": {"lon": -70.027847, "lat": 18.449051}}, {"id": 4010589, "name": "El Carrizo", "country": "MX", "coord": {"lon": -106.881393, "lat": 24.02611}}, {"id": 2518597, "name": "El Casar", "country": "ES", "coord": {"lon": -5.92513, "lat": 38.530891}}, {"id": 3123579, "name": "El Casar de Escalona", "country": "ES", "coord": {"lon": -4.52507, "lat": 40.046398}}, {"id": 3123578, "name": "El Casar de Talamanca", "country": "ES", "coord": {"lon": -3.42541, "lat": 40.700211}}, {"id": 5345605, "name": "El Casco", "country": "US", "coord": {"lon": -117.11837, "lat": 33.981129}}, {"id": 6361491, "name": "El Castellar", "country": "ES", "coord": {"lon": -0.83619, "lat": 40.384521}}, {"id": 3123574, "name": "El Castellar", "country": "ES", "coord": {"lon": -0.81734, "lat": 40.365311}}, {"id": 3684662, "name": "El Castillo", "country": "CO", "coord": {"lon": -73.794884, "lat": 3.56363}}, {"id": 3529243, "name": "El Castillo", "country": "MX", "coord": {"lon": -96.849998, "lat": 19.533331}}, {"id": 8199578, "name": "El Castillo", "country": "MX", "coord": {"lon": -100.492973, "lat": 20.580721}}, {"id": 2518591, "name": "El Castillo de las Guardas", "country": "ES", "coord": {"lon": -6.31503, "lat": 37.693138}}, {"id": 3123564, "name": "El Castro", "country": "ES", "coord": {"lon": -7.91667, "lat": 42.366669}}, {"id": 4688520, "name": "El Cenizo", "country": "US", "coord": {"lon": -99.492538, "lat": 27.35224}}, {"id": 3783506, "name": "El Central", "country": "CO", "coord": {"lon": -75.830002, "lat": 8.82333}}, {"id": 5345609, "name": "El Centro", "country": "US", "coord": {"lon": -115.563049, "lat": 32.792}}, {"id": 3508010, "name": "El Cercado", "country": "DO", "coord": {"lon": -70.757782, "lat": 18.915119}}, {"id": 3684615, "name": "El Cerrito", "country": "CO", "coord": {"lon": -76.313721, "lat": 3.68549}}, {"id": 5345623, "name": "El Cerrito", "country": "US", "coord": {"lon": -122.311638, "lat": 37.91576}}, {"id": 5345624, "name": "El Cerrito", "country": "US", "coord": {"lon": -117.522827, "lat": 33.840569}}, {"id": 5466437, "name": "El Cerro", "country": "US", "coord": {"lon": -106.710861, "lat": 34.727001}}, {"id": 2518575, "name": "El Cerro de Andevalo", "country": "ES", "coord": {"lon": -6.93692, "lat": 37.735359}}, {"id": 3753626, "name": "El Chamita", "country": "VE", "coord": {"lon": -71.179726, "lat": 8.561389}}, {"id": 2518569, "name": "El Chaparral", "country": "ES", "coord": {"lon": -3.94203, "lat": 37.178028}}, {"id": 2518567, "name": "El Chaparral de Cartuja", "country": "ES", "coord": {"lon": -3.6563, "lat": 37.25568}}, {"id": 3485791, "name": "El Chaparro", "country": "VE", "coord": {"lon": -65.016876, "lat": 9.15177}}, {"id": 3684579, "name": "El Charco", "country": "CO", "coord": {"lon": -78.110489, "lat": 2.47691}}, {"id": 3612160, "name": "El Chichicaste", "country": "HN", "coord": {"lon": -86.300003, "lat": 14.06667}}, {"id": 3823414, "name": "El Chico", "country": "MX", "coord": {"lon": -96.83889, "lat": 19.461109}}, {"id": 3612138, "name": "El Chimbo", "country": "HN", "coord": {"lon": -87.116669, "lat": 14.13333}}, {"id": 4010399, "name": "El Chinal", "country": "MX", "coord": {"lon": -109.800003, "lat": 23.35}}, {"id": 2518551, "name": "El Chive", "country": "ES", "coord": {"lon": -2.0734, "lat": 37.177509}}, {"id": 3597301, "name": "El Chol", "country": "GT", "coord": {"lon": -90.48056, "lat": 14.96417}}, {"id": 4564175, "name": "El Cinco", "country": "PR", "coord": {"lon": -67.12101, "lat": 18.137739}}, {"id": 3612064, "name": "El Ciruelo", "country": "HN", "coord": {"lon": -88.5, "lat": 15.3}}, {"id": 4010311, "name": "El Coacoyul", "country": "MX", "coord": {"lon": -101.433327, "lat": 17.616671}}, {"id": 3561408, "name": "El Cobre", "country": "CU", "coord": {"lon": -75.946938, "lat": 20.048889}}, {"id": 3643620, "name": "El Cobre", "country": "VE", "coord": {"lon": -72.055511, "lat": 8.03566}}, {"id": 3643617, "name": "El Coche", "country": "VE", "coord": {"lon": -66.783333, "lat": 10.48333}}, {"id": 3711063, "name": "El Coco", "country": "PA", "coord": {"lon": -80.616669, "lat": 7.9}}, {"id": 3623846, "name": "El Coco", "country": "CR", "coord": {"lon": -84.220154, "lat": 9.98595}}, {"id": 3711056, "name": "El Coco", "country": "PA", "coord": {"lon": -79.815002, "lat": 8.87028}}, {"id": 3711059, "name": "El Coco", "country": "PA", "coord": {"lon": -80.349998, "lat": 8.4}}, {"id": 3684510, "name": "El Cocuy", "country": "CO", "coord": {"lon": -72.444641, "lat": 6.40784}}, {"id": 4010273, "name": "El Colomo", "country": "MX", "coord": {"lon": -104.25, "lat": 19.049999}}, {"id": 3434731, "name": "El Colorado", "country": "AR", "coord": {"lon": -59.37291, "lat": -26.308081}}, {"id": 4010260, "name": "El Colorado", "country": "MX", "coord": {"lon": -100.25, "lat": 20.566669}}, {"id": 3123535, "name": "El Comercio", "country": "ES", "coord": {"lon": -0.8191, "lat": 41.74369}}, {"id": 4010207, "name": "El Confital", "country": "MX", "coord": {"lon": -106.283333, "lat": 23.133329}}, {"id": 3643573, "name": "El Conflicto", "country": "VE", "coord": {"lon": -66.050003, "lat": 10.28333}}, {"id": 3586550, "name": "El Congo", "country": "SV", "coord": {"lon": -89.495827, "lat": 13.90889}}, {"id": 3643568, "name": "El Consejo", "country": "VE", "coord": {"lon": -67.2714, "lat": 10.23717}}, {"id": 3507852, "name": "El Consuelo", "country": "DO", "coord": {"lon": -70.074821, "lat": 18.739161}}, {"id": 2518524, "name": "El Convoy", "country": "ES", "coord": {"lon": -1.76278, "lat": 37.397251}}, {"id": 3711009, "name": "El Cope", "country": "PA", "coord": {"lon": -80.599998, "lat": 8.61667}}, {"id": 3684452, "name": "El Copey", "country": "CO", "coord": {"lon": -73.961403, "lat": 10.15031}}, {"id": 2518521, "name": "El Coronil", "country": "ES", "coord": {"lon": -5.6341, "lat": 37.07954}}, {"id": 3507810, "name": "El Corozal", "country": "DO", "coord": {"lon": -70.349998, "lat": 19.366671}}, {"id": 3611995, "name": "El Corozal", "country": "HN", "coord": {"lon": -88.616669, "lat": 15.06667}}, {"id": 3643531, "name": "El Corozo", "country": "VE", "coord": {"lon": -70.35778, "lat": 8.5675}}, {"id": 3611986, "name": "El Corpus", "country": "HN", "coord": {"lon": -88.916672, "lat": 14.7}}, {"id": 3123531, "name": "El Corrillo", "country": "ES", "coord": {"lon": -3.13333, "lat": 43.23333}}, {"id": 3710978, "name": "El Cortezo", "country": "PA", "coord": {"lon": -80.599998, "lat": 8.35}}, {"id": 6254790, "name": "El Cortijo", "country": "PE", "coord": {"lon": -77.274437, "lat": -11.55611}}, {"id": 6692439, "name": "El Cotillo", "country": "ES", "coord": {"lon": -14.00993, "lat": 28.68272}}, {"id": 4010155, "name": "El Coyote", "country": "MX", "coord": {"lon": -103.26667, "lat": 25.700001}}, {"id": 3710961, "name": "El Cristo", "country": "PA", "coord": {"lon": -80.616669, "lat": 8.25}}, {"id": 3507770, "name": "El Cruce", "country": "DO", "coord": {"lon": -70.199997, "lat": 18.450001}}, {"id": 3123528, "name": "El Crucero", "country": "ES", "coord": {"lon": -3.11667, "lat": 43.316669}}, {"id": 3891536, "name": "El Crucero", "country": "CL", "coord": {"lon": -72.800003, "lat": -40.416672}}, {"id": 3619853, "name": "El Crucero", "country": "NI", "coord": {"lon": -86.30954, "lat": 11.99008}}, {"id": 4012559, "name": "El Crucero de Santa Maria", "country": "MX", "coord": {"lon": -103.861313, "lat": 20.383169}}, {"id": 3123525, "name": "El Cuadr\u00f3n", "country": "ES", "coord": {"lon": -3.65724, "lat": 40.941261}}, {"id": 3611933, "name": "El Cubolero", "country": "HN", "coord": {"lon": -87.666672, "lat": 13.46667}}, {"id": 2518510, "name": "El Cuervo", "country": "ES", "coord": {"lon": -6.03785, "lat": 36.852982}}, {"id": 3123517, "name": "El Desierto", "country": "ES", "coord": {"lon": -2.98333, "lat": 43.299999}}, {"id": 3858204, "name": "El Destierro", "country": "AR", "coord": {"lon": -62.47662, "lat": -24.1}}, {"id": 3684319, "name": "El Diamante", "country": "CO", "coord": {"lon": -74.9534, "lat": 4.56798}}, {"id": 6301912, "name": "El Diario de Yaracuy", "country": "VE", "coord": {"lon": -68.732803, "lat": 10.34169}}, {"id": 3684293, "name": "El Dif\u00edcil", "country": "CO", "coord": {"lon": -74.236267, "lat": 9.84975}}, {"id": 3643361, "name": "El Dividive", "country": "VE", "coord": {"lon": -70.733849, "lat": 9.47447}}, {"id": 3684276, "name": "El Doncello", "country": "CO", "coord": {"lon": -75.28466, "lat": 1.67817}}, {"id": 4109785, "name": "El Dorado", "country": "US", "coord": {"lon": -92.666267, "lat": 33.20763}}, {"id": 4009984, "name": "El Dorado", "country": "MX", "coord": {"lon": -107.360283, "lat": 24.32028}}, {"id": 3858133, "name": "El Dorado", "country": "AR", "coord": {"lon": -61.58252, "lat": -34.650379}}, {"id": 3574604, "name": "El Dorado", "country": "TT", "coord": {"lon": -61.383331, "lat": 10.63333}}, {"id": 3733434, "name": "El Dorado", "country": "CO", "coord": {"lon": -72.86834, "lat": 2.77411}}, {"id": 4270863, "name": "El Dorado", "country": "US", "coord": {"lon": -96.862251, "lat": 37.817242}}, {"id": 5345659, "name": "El Dorado County", "country": "US", "coord": {"lon": -120.5177, "lat": 38.766571}}, {"id": 5345679, "name": "El Dorado Hills", "country": "US", "coord": {"lon": -121.082169, "lat": 38.685741}}, {"id": 4385317, "name": "El Dorado Springs", "country": "US", "coord": {"lon": -94.021332, "lat": 37.87698}}, {"id": 3684270, "name": "El Dor\u00e1n", "country": "CO", "coord": {"lon": -74.433327, "lat": 4.9}}, {"id": 3684266, "name": "El Dovio", "country": "CO", "coord": {"lon": -76.236191, "lat": 4.5079}}, {"id": 3643345, "name": "El Drago", "country": "VE", "coord": {"lon": -66.513786, "lat": 9.23652}}, {"id": 2518498, "name": "El Draguito", "country": "ES", "coord": {"lon": -16.565929, "lat": 28.11253}}, {"id": 60147, "name": "El Dubat", "country": "SO", "coord": {"lon": 49.083328, "lat": 9.51667}}, {"id": 3684257, "name": "El Ed\u00e9n", "country": "CO", "coord": {"lon": -75.76667, "lat": 4.46667}}, {"id": 2518494, "name": "El Ejido", "country": "ES", "coord": {"lon": -2.81456, "lat": 36.776291}}, {"id": 7544228, "name": "El Ejido", "country": "CO", "coord": {"lon": -76.92778, "lat": 1.19615}}, {"id": 3710923, "name": "El Ejido", "country": "PA", "coord": {"lon": -80.383331, "lat": 7.91667}}, {"id": 3528995, "name": "El Encanto", "country": "MX", "coord": {"lon": -92.433327, "lat": 18.5}}, {"id": 3814320, "name": "El Encinal", "country": "MX", "coord": {"lon": -98.216667, "lat": 20.05139}}, {"id": 3507662, "name": "El Ensanchito", "country": "DO", "coord": {"lon": -69.900002, "lat": 18.48333}}, {"id": 3710910, "name": "El Entradero", "country": "PA", "coord": {"lon": -80.216667, "lat": 8.56667}}, {"id": 3611844, "name": "El Escanito", "country": "HN", "coord": {"lon": -87.099998, "lat": 14.66667}}, {"id": 3611842, "name": "El Escano de Tepale", "country": "HN", "coord": {"lon": -87.066673, "lat": 14.75}}, {"id": 3123504, "name": "El Escorial", "country": "ES", "coord": {"lon": -4.12846, "lat": 40.582539}}, {"id": 4009879, "name": "El Espinal", "country": "MX", "coord": {"lon": -106.400002, "lat": 23.783331}}, {"id": 3528975, "name": "El Espinal", "country": "MX", "coord": {"lon": -94.066673, "lat": 16.33333}}, {"id": 3123499, "name": "El Espinar", "country": "ES", "coord": {"lon": -4.24724, "lat": 40.718842}}, {"id": 3123496, "name": "El Espino", "country": "ES", "coord": {"lon": -6.64987, "lat": 42.71862}}, {"id": 3684189, "name": "El Espino", "country": "CO", "coord": {"lon": -72.497177, "lat": 6.48277}}, {"id": 3710875, "name": "El Espino", "country": "PA", "coord": {"lon": -79.849998, "lat": 8.83944}}, {"id": 3710864, "name": "El Espino de Santa Rosa", "country": "PA", "coord": {"lon": -80.816673, "lat": 8.1}}, {"id": 3597078, "name": "El Estor", "country": "GT", "coord": {"lon": -89.349998, "lat": 15.53333}}, {"id": 2498392, "name": "El Eulma", "country": "DZ", "coord": {"lon": 5.69016, "lat": 36.152809}}, {"id": 3507628, "name": "El Factor", "country": "DO", "coord": {"lon": -69.888268, "lat": 19.31834}}, {"id": 2468285, "name": "El Fahs", "country": "TN", "coord": {"lon": 9.90651, "lat": 36.374191}}, {"id": 379555, "name": "El Fasher", "country": "SD", "coord": {"lon": 25.34936, "lat": 13.62793}}, {"id": 2550479, "name": "El Fa\u00efd", "country": "MA", "coord": {"lon": -8.21466, "lat": 30.61496}}, {"id": 3123488, "name": "El Franco", "country": "ES", "coord": {"lon": -6.8662, "lat": 43.555222}}, {"id": 4009788, "name": "El Fuerte", "country": "MX", "coord": {"lon": -108.619438, "lat": 26.41889}}, {"id": 295269, "name": "El Fureidis", "country": "IL", "coord": {"lon": 34.950001, "lat": 32.599998}}, {"id": 3857974, "name": "El Galpon", "country": "AR", "coord": {"lon": -64.652588, "lat": -25.38069}}, {"id": 3528941, "name": "El Gas", "country": "MX", "coord": {"lon": -99.166672, "lat": 19.466669}}, {"id": 2518455, "name": "El Gastor", "country": "ES", "coord": {"lon": -5.32334, "lat": 36.854778}}, {"id": 379303, "name": "El Geneina", "country": "SD", "coord": {"lon": 22.450001, "lat": 13.45}}, {"id": 3480942, "name": "El Genoves", "country": "VE", "coord": {"lon": -63.83601, "lat": 10.97536}}, {"id": 443868, "name": "El Ghadoora", "country": "SD", "coord": {"lon": 33.1394, "lat": 16.518}}, {"id": 3710808, "name": "El Giral", "country": "PA", "coord": {"lon": -79.69278, "lat": 9.24917}}, {"id": 2473486, "name": "El Golaa", "country": "TN", "coord": {"lon": 9.00678, "lat": 33.484852}}, {"id": 2498305, "name": "El Golea", "country": "DZ", "coord": {"lon": 2.88333, "lat": 30.566669}}, {"id": 6692512, "name": "El Gouna", "country": "EG", "coord": {"lon": 33.678249, "lat": 27.394171}}, {"id": 2498277, "name": "El Gourarir Zaouiet", "country": "DZ", "coord": {"lon": 6.83333, "lat": 33.400002}}, {"id": 3123475, "name": "El Grado", "country": "ES", "coord": {"lon": 0.22247, "lat": 42.151909}}, {"id": 4009710, "name": "El Gramal", "country": "MX", "coord": {"lon": -105.400002, "lat": 28.33333}}, {"id": 5345716, "name": "El Granada", "country": "US", "coord": {"lon": -122.469421, "lat": 37.50272}}, {"id": 4009697, "name": "El Grullo", "country": "MX", "coord": {"lon": -104.216667, "lat": 19.799999}}, {"id": 5466463, "name": "El Guacho", "country": "US", "coord": {"lon": -106.086967, "lat": 36.006691}}, {"id": 3684115, "name": "El Guamo", "country": "CO", "coord": {"lon": -74.97612, "lat": 10.03155}}, {"id": 3611720, "name": "El Guante", "country": "HN", "coord": {"lon": -87.099998, "lat": 14.55}}, {"id": 3611719, "name": "El Guantillo", "country": "HN", "coord": {"lon": -87.300003, "lat": 14.6}}, {"id": 3611718, "name": "El Guapinol", "country": "HN", "coord": {"lon": -87.466667, "lat": 13.76667}}, {"id": 3507461, "name": "El Guayabal", "country": "DO", "coord": {"lon": -70.836899, "lat": 18.749599}}, {"id": 3611699, "name": "El Guayabito", "country": "HN", "coord": {"lon": -86.033333, "lat": 14.83333}}, {"id": 2518435, "name": "El Guincho", "country": "ES", "coord": {"lon": -16.716669, "lat": 28.366671}}, {"id": 2473448, "name": "El Guithna", "country": "TN", "coord": {"lon": 8.12663, "lat": 33.925388}}, {"id": 2498183, "name": "El Hadjar", "country": "DZ", "coord": {"lon": 7.73684, "lat": 36.803768}}, {"id": 2498172, "name": "El Hadjira", "country": "DZ", "coord": {"lon": 5.51259, "lat": 32.613361}}, {"id": 2550252, "name": "El Hajeb", "country": "MA", "coord": {"lon": -5.371, "lat": 33.687859}}, {"id": 6546955, "name": "El Hajeb", "country": "MA", "coord": {"lon": -5.36835, "lat": 33.6828}}, {"id": 2473747, "name": "El Hamma", "country": "TN", "coord": {"lon": 9.79629, "lat": 33.891521}}, {"id": 2498113, "name": "El Hammadia", "country": "DZ", "coord": {"lon": 4.74742, "lat": 35.979221}}, {"id": 2473716, "name": "El Haouaria", "country": "TN", "coord": {"lon": 11.01442, "lat": 37.050018}}, {"id": 2498071, "name": "El Haouita", "country": "DZ", "coord": {"lon": 2.44905, "lat": 33.646671}}, {"id": 3643031, "name": "El Hatillo", "country": "VE", "coord": {"lon": -66.816101, "lat": 10.42994}}, {"id": 3597002, "name": "El Hato", "country": "GT", "coord": {"lon": -90.300003, "lat": 14.75}}, {"id": 279997, "name": "El Hermel", "country": "LB", "coord": {"lon": 36.38472, "lat": 34.394169}}, {"id": 3123461, "name": "El Herrad\u00f3n", "country": "ES", "coord": {"lon": -4.55921, "lat": 40.56485}}, {"id": 3528894, "name": "El Higo", "country": "MX", "coord": {"lon": -98.466667, "lat": 21.76667}}, {"id": 3611628, "name": "El Higuerito", "country": "HN", "coord": {"lon": -86.199997, "lat": 14.65}}, {"id": 3507304, "name": "El Hoyito", "country": "DO", "coord": {"lon": -69.966011, "lat": 19.416969}}, {"id": 3857887, "name": "El Hoyo", "country": "AR", "coord": {"lon": -63.231972, "lat": -27.028721}}, {"id": 3123455, "name": "El Hoyo de Pinares", "country": "ES", "coord": {"lon": -4.42357, "lat": 40.500839}}, {"id": 3857886, "name": "El Huaco", "country": "AR", "coord": {"lon": -67.099998, "lat": -29.16667}}, {"id": 3857879, "name": "El Huecu", "country": "AR", "coord": {"lon": -70.580063, "lat": -37.645222}}, {"id": 295267, "name": "El Huzaiyil", "country": "IL", "coord": {"lon": 34.75, "lat": 31.41667}}, {"id": 2498000, "name": "El Idrissia", "country": "DZ", "coord": {"lon": 2.52749, "lat": 34.445419}}, {"id": 3642982, "name": "El Infiernito", "country": "VE", "coord": {"lon": -66.900002, "lat": 10.566667}}, {"id": 3528862, "name": "El Infierno", "country": "MX", "coord": {"lon": -91.533333, "lat": 17.799999}}, {"id": 2550078, "name": "El Jadida", "country": "MA", "coord": {"lon": -8.50602, "lat": 33.254921}}, {"id": 3507247, "name": "El Jamo", "country": "DO", "coord": {"lon": -69.904984, "lat": 19.6318}}, {"id": 2518397, "name": "El Jau", "country": "ES", "coord": {"lon": -3.74102, "lat": 37.196289}}, {"id": 5420923, "name": "El Jebel", "country": "US", "coord": {"lon": -107.090332, "lat": 39.394981}}, {"id": 2473654, "name": "El Jem", "country": "TN", "coord": {"lon": 10.71667, "lat": 35.299999}}, {"id": 3596940, "name": "El Jicaro", "country": "GT", "coord": {"lon": -89.900002, "lat": 14.91667}}, {"id": 2518395, "name": "El Jinete", "country": "ES", "coord": {"lon": -1.998, "lat": 38.512699}}, {"id": 3683968, "name": "El Jord\u00e1n", "country": "CO", "coord": {"lon": -73.883331, "lat": 5}}, {"id": 3611481, "name": "El Juncal", "country": "HN", "coord": {"lon": -86.433327, "lat": 15.45}}, {"id": 3800563, "name": "El J\u00edcaro", "country": "MX", "coord": {"lon": -97.114723, "lat": 15.8975}}, {"id": 2497988, "name": "El Kala", "country": "DZ", "coord": {"lon": 8.44333, "lat": 36.895561}}, {"id": 2497978, "name": "El Kantara", "country": "DZ", "coord": {"lon": 6.63735, "lat": 36.369888}}, {"id": 2497972, "name": "El Karimia", "country": "DZ", "coord": {"lon": 1.55342, "lat": 36.113049}}, {"id": 2473634, "name": "El Kef", "country": "TN", "coord": {"lon": 8.70486, "lat": 36.17424}}, {"id": 2497849, "name": "El Khroub", "country": "DZ", "coord": {"lon": 6.69361, "lat": 36.263329}}, {"id": 2473466, "name": "El Ksar", "country": "TN", "coord": {"lon": 8.80399, "lat": 34.3992}}, {"id": 2497796, "name": "El Kseur", "country": "DZ", "coord": {"lon": 4.8555, "lat": 36.67942}}, {"id": 2549750, "name": "El Ksiba", "country": "MA", "coord": {"lon": -6.01947, "lat": 32.572861}}, {"id": 2473439, "name": "El Ksour", "country": "TN", "coord": {"lon": 8.88493, "lat": 35.896069}}, {"id": 6275364, "name": "El Ks\u00e2r", "country": "LB", "coord": {"lon": 35.689999, "lat": 33.962219}}, {"id": 4688582, "name": "El Lago", "country": "US", "coord": {"lon": -95.045212, "lat": 29.56356}}, {"id": 3642833, "name": "El Limon", "country": "VE", "coord": {"lon": -67.632118, "lat": 10.30589}}, {"id": 4009465, "name": "El Limon", "country": "MX", "coord": {"lon": -104.183327, "lat": 19.816669}}, {"id": 3814136, "name": "El Llano", "country": "MX", "coord": {"lon": -99.300003, "lat": 20.04722}}, {"id": 3507117, "name": "El Llano", "country": "DO", "coord": {"lon": -71.633331, "lat": 18.816669}}, {"id": 3611356, "name": "El Llano", "country": "HN", "coord": {"lon": -87.883331, "lat": 15.15}}, {"id": 3528788, "name": "El Llano", "country": "MX", "coord": {"lon": -99.300003, "lat": 20.049999}}, {"id": 3611352, "name": "El Lolo", "country": "HN", "coord": {"lon": -87.26667, "lat": 14.11667}}, {"id": 2473558, "name": "El Maamoura", "country": "TN", "coord": {"lon": 10.80612, "lat": 36.464989}}, {"id": 2497764, "name": "El Madania", "country": "DZ", "coord": {"lon": 3.06667, "lat": 36.75}}, {"id": 3857756, "name": "El Maiten", "country": "AR", "coord": {"lon": -71.166931, "lat": -42.04924}}, {"id": 2497714, "name": "El Malah", "country": "DZ", "coord": {"lon": -1.09238, "lat": 35.39138}}, {"id": 4564206, "name": "El Mango", "country": "PR", "coord": {"lon": -65.879608, "lat": 18.234119}}, {"id": 3528756, "name": "El Mante", "country": "MX", "coord": {"lon": -98.966667, "lat": 22.73333}}, {"id": 3891085, "name": "El Manzano", "country": "CL", "coord": {"lon": -71.400002, "lat": -34.183331}}, {"id": 3611319, "name": "El Maranon", "country": "HN", "coord": {"lon": -88.050003, "lat": 15.4}}, {"id": 6544426, "name": "El Mas Blau", "country": "ES", "coord": {"lon": 2.0737, "lat": 41.317699}}, {"id": 3117232, "name": "El Masnou", "country": "ES", "coord": {"lon": 2.3188, "lat": 41.479778}}, {"id": 379127, "name": "El Matama", "country": "SD", "coord": {"lon": 33.356499, "lat": 16.709499}}, {"id": 2497693, "name": "El Matmar", "country": "DZ", "coord": {"lon": 0.46159, "lat": 35.732361}}, {"id": 2518348, "name": "El Matorral", "country": "ES", "coord": {"lon": -13.86711, "lat": 28.432199}}, {"id": 2518347, "name": "El Mayordomo", "country": "ES", "coord": {"lon": -2.12111, "lat": 37.120258}}, {"id": 295249, "name": "El Mazraa", "country": "IL", "coord": {"lon": 35.09837, "lat": 32.983379}}, {"id": 6974754, "name": "El Mecaya", "country": "CO", "coord": {"lon": -75.186111, "lat": 0.47361}}, {"id": 2549626, "name": "El Menzeh", "country": "MA", "coord": {"lon": -5.54328, "lat": 33.896278}}, {"id": 4009252, "name": "El Mezquite", "country": "MX", "coord": {"lon": -100.866669, "lat": 20.633329}}, {"id": 2473514, "name": "El Mida", "country": "TN", "coord": {"lon": 10.85528, "lat": 36.725559}}, {"id": 3611270, "name": "El Milagro", "country": "HN", "coord": {"lon": -87.966667, "lat": 15.4}}, {"id": 3776374, "name": "El Mirador", "country": "CO", "coord": {"lon": -73.737221, "lat": 5.51333}}, {"id": 5293996, "name": "El Mirage", "country": "US", "coord": {"lon": -112.3246, "lat": 33.613091}}, {"id": 3123422, "name": "El Mir\u00f3n", "country": "ES", "coord": {"lon": -5.40552, "lat": 40.533218}}, {"id": 3611267, "name": "El Mochito", "country": "HN", "coord": {"lon": -88.083328, "lat": 14.86667}}, {"id": 2518338, "name": "El Moj\u00f3n", "country": "ES", "coord": {"lon": -13.51747, "lat": 29.06312}}, {"id": 3123421, "name": "El Molar", "country": "ES", "coord": {"lon": -3.57969, "lat": 40.732159}}, {"id": 2518328, "name": "El Molino", "country": "ES", "coord": {"lon": -3.87743, "lat": 36.76849}}, {"id": 3683778, "name": "El Molino", "country": "CO", "coord": {"lon": -72.924049, "lat": 10.65225}}, {"id": 2518325, "name": "El Molledo", "country": "ES", "coord": {"lon": -16.814951, "lat": 28.286039}}, {"id": 3683776, "name": "El Mono", "country": "CO", "coord": {"lon": -74.7948, "lat": 4.53288}}, {"id": 3890949, "name": "El Monte", "country": "CL", "coord": {"lon": -71.01667, "lat": -33.683331}}, {"id": 5345743, "name": "El Monte", "country": "US", "coord": {"lon": -118.027573, "lat": 34.068619}}, {"id": 2473569, "name": "El M\u00e2y", "country": "TN", "coord": {"lon": 10.88383, "lat": 33.801189}}, {"id": 3731909, "name": "El Naranjito", "country": "CO", "coord": {"lon": -73.48983, "lat": 7.1003}}, {"id": 3611185, "name": "El Naranjo", "country": "HN", "coord": {"lon": -86.800003, "lat": 13.43333}}, {"id": 3528643, "name": "El Naranjo", "country": "MX", "coord": {"lon": -98.599998, "lat": 21.466669}}, {"id": 3611150, "name": "El Negrito", "country": "HN", "coord": {"lon": -87.699997, "lat": 15.31667}}, {"id": 4564214, "name": "El Negro", "country": "PR", "coord": {"lon": -65.851273, "lat": 18.03747}}, {"id": 1713917, "name": "El Nido", "country": "PH", "coord": {"lon": 119.395561, "lat": 11.18583}}, {"id": 5345768, "name": "El Nido Mobile Home Estates", "country": "US", "coord": {"lon": -117.646988, "lat": 33.511139}}, {"id": 3611144, "name": "El Nispero", "country": "HN", "coord": {"lon": -88.333328, "lat": 14.76667}}, {"id": 3642415, "name": "El Norte", "country": "VE", "coord": {"lon": -72.166664, "lat": 10}}, {"id": 379003, "name": "El Obeid", "country": "SD", "coord": {"lon": 30.21669, "lat": 13.18421}}, {"id": 3611128, "name": "El Obraje", "country": "HN", "coord": {"lon": -86.433327, "lat": 14}}, {"id": 3611133, "name": "El Obraje", "country": "HN", "coord": {"lon": -87.130829, "lat": 13.15417}}, {"id": 3611088, "name": "El Ocote", "country": "HN", "coord": {"lon": -86.566673, "lat": 15.41667}}, {"id": 3528601, "name": "El Ocotito", "country": "MX", "coord": {"lon": -99.566673, "lat": 17.25}}, {"id": 3611069, "name": "El Ocoton", "country": "HN", "coord": {"lon": -88.883331, "lat": 15.03333}}, {"id": 4564216, "name": "El Ojo", "country": "PR", "coord": {"lon": -66.391563, "lat": 18.003851}}, {"id": 3611068, "name": "El Ojochal", "country": "HN", "coord": {"lon": -87.388893, "lat": 13.16528}}, {"id": 4008901, "name": "El Ojuelo", "country": "MX", "coord": {"lon": -100.900002, "lat": 25.533331}}, {"id": 3611040, "name": "El Olivar", "country": "HN", "coord": {"lon": -87.883331, "lat": 15.08333}}, {"id": 4008868, "name": "El Oro de Hidalgo", "country": "MX", "coord": {"lon": -100.133331, "lat": 19.799999}}, {"id": 3642386, "name": "El Oso", "country": "VE", "coord": {"lon": -61.166668, "lat": 5.3}}, {"id": 2497411, "name": "El Oued", "country": "DZ", "coord": {"lon": 6.86319, "lat": 33.356079}}, {"id": 3586204, "name": "El Paisnal", "country": "SV", "coord": {"lon": -89.218613, "lat": 13.97361}}, {"id": 3123388, "name": "El Palacio", "country": "ES", "coord": {"lon": -5.8035, "lat": 43.127682}}, {"id": 2518293, "name": "El Palmar", "country": "ES", "coord": {"lon": -0.31667, "lat": 39.299999}}, {"id": 3596644, "name": "El Palmar", "country": "GT", "coord": {"lon": -91.583328, "lat": 14.65}}, {"id": 3506719, "name": "El Palmar", "country": "DO", "coord": {"lon": -71.245583, "lat": 18.41139}}, {"id": 2518292, "name": "El Palmar de Troya", "country": "ES", "coord": {"lon": -5.80471, "lat": 37.061539}}, {"id": 3642292, "name": "El Palmer", "country": "VE", "coord": {"lon": -61.883331, "lat": 8.03333}}, {"id": 2518285, "name": "El Palomar", "country": "ES", "coord": {"lon": -2.97138, "lat": 37.957539}}, {"id": 3434509, "name": "El Palomar", "country": "AR", "coord": {"lon": -58.61528, "lat": -34.541672}}, {"id": 3857387, "name": "El Palomar", "country": "AR", "coord": {"lon": -64.596878, "lat": -26.88315}}, {"id": 3642282, "name": "El Palotal", "country": "VE", "coord": {"lon": -72.43988, "lat": 7.8547}}, {"id": 3642267, "name": "El Pantano", "country": "VE", "coord": {"lon": -71.083336, "lat": 8.7}}, {"id": 3642260, "name": "El Pao", "country": "VE", "coord": {"lon": -68.128838, "lat": 9.63752}}, {"id": 3619548, "name": "El Papalote", "country": "NI", "coord": {"lon": -86.547997, "lat": 12.24806}}, {"id": 3114403, "name": "El Papiol", "country": "ES", "coord": {"lon": 2.01667, "lat": 41.433331}}, {"id": 3642243, "name": "El Paradero", "country": "VE", "coord": {"lon": -70.61544, "lat": 9.77233}}, {"id": 3610965, "name": "El Paraiso", "country": "HN", "coord": {"lon": -86.550003, "lat": 13.86667}}, {"id": 3642212, "name": "El Pardillal", "country": "VE", "coord": {"lon": -63.373055, "lat": 8.405833}}, {"id": 3123381, "name": "El Pardo", "country": "ES", "coord": {"lon": -3.77253, "lat": 40.514542}}, {"id": 1713913, "name": "El Pardo", "country": "PH", "coord": {"lon": 123.4944, "lat": 9.66}}, {"id": 3683538, "name": "El Paso", "country": "CO", "coord": {"lon": -73.747231, "lat": 9.66057}}, {"id": 5520993, "name": "El Paso", "country": "US", "coord": {"lon": -106.486931, "lat": 31.75872}}, {"id": 2518277, "name": "El Paso", "country": "ES", "coord": {"lon": -17.88274, "lat": 28.65007}}, {"id": 4890813, "name": "El Paso", "country": "US", "coord": {"lon": -89.016457, "lat": 40.739201}}, {"id": 5420926, "name": "El Paso County", "country": "US", "coord": {"lon": -104.517189, "lat": 38.833328}}, {"id": 5521001, "name": "El Paso County", "country": "US", "coord": {"lon": -106.200539, "lat": 31.80011}}, {"id": 3683528, "name": "El Paujil", "country": "CO", "coord": {"lon": -75.328629, "lat": 1.57006}}, {"id": 3611008, "name": "El Pa\u00eds", "country": "HN", "coord": {"lon": -87.116669, "lat": 14.1}}, {"id": 3610912, "name": "El Pedernal", "country": "HN", "coord": {"lon": -87.116669, "lat": 14.7}}, {"id": 2518273, "name": "El Pedernoso", "country": "ES", "coord": {"lon": -2.74642, "lat": 39.485802}}, {"id": 3790028, "name": "El Pedregal", "country": "VE", "coord": {"lon": -71.66655, "lat": 10.65553}}, {"id": 2518272, "name": "El Pedrosillo", "country": "ES", "coord": {"lon": -6.34066, "lat": 37.661251}}, {"id": 3683508, "name": "El Penol", "country": "CO", "coord": {"lon": -77.445442, "lat": 1.45987}}, {"id": 3683497, "name": "El Penon", "country": "CO", "coord": {"lon": -73.94857, "lat": 8.98916}}, {"id": 3506630, "name": "El Penon", "country": "DO", "coord": {"lon": -71.184097, "lat": 18.296431}}, {"id": 3123364, "name": "El Perdig\u00f3n", "country": "ES", "coord": {"lon": -5.75277, "lat": 41.41267}}, {"id": 3808933, "name": "El Perico", "country": "VE", "coord": {"lon": -62.322224, "lat": 7.971667}}, {"id": 3610866, "name": "El Perico", "country": "HN", "coord": {"lon": -88.099998, "lat": 15.08333}}, {"id": 4008636, "name": "El Pescado", "country": "MX", "coord": {"lon": -102.133331, "lat": 21.65}}, {"id": 3890771, "name": "El Pe\u00f1\u00f3n", "country": "CL", "coord": {"lon": -71.219719, "lat": -30.13694}}, {"id": 3642045, "name": "El Pilar", "country": "VE", "coord": {"lon": -61.733334, "lat": 7.383333}}, {"id": 3642041, "name": "El Pilar", "country": "VE", "coord": {"lon": -63.83456, "lat": 10.99456}}, {"id": 3642042, "name": "El Pilar", "country": "VE", "coord": {"lon": -63.150002, "lat": 10.53333}}, {"id": 6357802, "name": "El Pina", "country": "ES", "coord": {"lon": -3.5527, "lat": 36.912708}}, {"id": 3506541, "name": "El Pino", "country": "DO", "coord": {"lon": -71.475403, "lat": 19.43536}}, {"id": 3610813, "name": "El Pino", "country": "HN", "coord": {"lon": -86.933327, "lat": 15.7}}, {"id": 3683463, "name": "El Pinon", "country": "CO", "coord": {"lon": -74.82415, "lat": 10.40283}}, {"id": 3857228, "name": "El Piquete", "country": "AR", "coord": {"lon": -60.716671, "lat": -31.566669}}, {"id": 3113349, "name": "El Pla de Santa Maria", "country": "ES", "coord": {"lon": 1.29152, "lat": 41.363361}}, {"id": 3528451, "name": "El Plan", "country": "MX", "coord": {"lon": -94.083328, "lat": 17.933331}}, {"id": 3610789, "name": "El Plan", "country": "HN", "coord": {"lon": -87.966667, "lat": 15.28333}}, {"id": 4564223, "name": "El Plantino", "country": "PR", "coord": {"lon": -66.210999, "lat": 18.42272}}, {"id": 3792399, "name": "El Playon", "country": "CO", "coord": {"lon": -73.203102, "lat": 7.47131}}, {"id": 3798450, "name": "El Playon", "country": "VE", "coord": {"lon": -69.049141, "lat": 9.09857}}, {"id": 3857216, "name": "El Plumerillo", "country": "AR", "coord": {"lon": -68.786484, "lat": -32.835411}}, {"id": 3683427, "name": "El Poblado", "country": "CO", "coord": {"lon": -75.572403, "lat": 6.21033}}, {"id": 3123342, "name": "El Pontico", "country": "ES", "coord": {"lon": -5.66667, "lat": 43.283329}}, {"id": 4154299, "name": "El Portal", "country": "US", "coord": {"lon": -80.1931, "lat": 25.85537}}, {"id": 3809055, "name": "El Porvenir", "country": "VE", "coord": {"lon": -61.855, "lat": 7.423889}}, {"id": 3610676, "name": "El Porvenir", "country": "HN", "coord": {"lon": -86.933327, "lat": 15.75}}, {"id": 3586081, "name": "El Porvenir", "country": "SV", "coord": {"lon": -89.533333, "lat": 13.85}}, {"id": 3610675, "name": "El Porvenir", "country": "HN", "coord": {"lon": -87.933327, "lat": 15.83333}}, {"id": 3610687, "name": "El Porvenir", "country": "HN", "coord": {"lon": -87.883331, "lat": 14.58333}}, {"id": 3610693, "name": "El Porvenir", "country": "HN", "coord": {"lon": -87.345833, "lat": 13.76167}}, {"id": 3710114, "name": "El Porvenir", "country": "PA", "coord": {"lon": -78.953331, "lat": 9.56528}}, {"id": 4008420, "name": "El Potos\u00ed", "country": "MX", "coord": {"lon": -100.316673, "lat": 24.85}}, {"id": 3641904, "name": "El Potrero", "country": "VE", "coord": {"lon": -68.610191, "lat": 9.67687}}, {"id": 3623811, "name": "El Prado", "country": "CR", "coord": {"lon": -84.050003, "lat": 9.93333}}, {"id": 3123329, "name": "El Prat de Llobregat", "country": "ES", "coord": {"lon": 2.09472, "lat": 41.327839}}, {"id": 4008326, "name": "El Presidio", "country": "MX", "coord": {"lon": -104.783333, "lat": 24.51667}}, {"id": 3610613, "name": "El Progreso", "country": "HN", "coord": {"lon": -87.800003, "lat": 15.4}}, {"id": 3658147, "name": "El Progreso", "country": "EC", "coord": {"lon": -89.547234, "lat": -0.89866}}, {"id": 3586066, "name": "El Progreso", "country": "SV", "coord": {"lon": -88.23333, "lat": 13.88333}}, {"id": 3596423, "name": "El Progreso", "country": "GT", "coord": {"lon": -89.849998, "lat": 14.35}}, {"id": 3710087, "name": "El Progreso", "country": "PA", "coord": {"lon": -79.116669, "lat": 9.26667}}, {"id": 2518224, "name": "El Provencio", "country": "ES", "coord": {"lon": -2.57448, "lat": 39.377399}}, {"id": 3754913, "name": "El Pr\u00f3ximo", "country": "CU", "coord": {"lon": -77.854721, "lat": 21.42333}}, {"id": 4008303, "name": "El Pueblito", "country": "MX", "coord": {"lon": -100.449997, "lat": 20.533331}}, {"id": 3857061, "name": "El Pueblito", "country": "AR", "coord": {"lon": -64.298599, "lat": -31.11578}}, {"id": 2518222, "name": "El Puente", "country": "ES", "coord": {"lon": -6.96667, "lat": 37.383331}}, {"id": 3610610, "name": "El Puente", "country": "HN", "coord": {"lon": -87.116669, "lat": 13.28333}}, {"id": 2518221, "name": "El Puente del Arzobispo", "country": "ES", "coord": {"lon": -5.17178, "lat": 39.801739}}, {"id": 2518213, "name": "El Puerto", "country": "ES", "coord": {"lon": -1.25639, "lat": 37.561378}}, {"id": 3506415, "name": "El Puerto", "country": "DO", "coord": {"lon": -69.466667, "lat": 18.783331}}, {"id": 2518207, "name": "El Puerto de Santa Maria", "country": "ES", "coord": {"lon": -6.23298, "lat": 36.593891}}, {"id": 3857012, "name": "El Quebrachal", "country": "AR", "coord": {"lon": -64.066673, "lat": -25.283331}}, {"id": 3596389, "name": "El Quetzal", "country": "GT", "coord": {"lon": -91.816673, "lat": 14.76667}}, {"id": 4008224, "name": "El Quince", "country": "MX", "coord": {"lon": -103.283333, "lat": 20.533331}}, {"id": 3890596, "name": "El Quisco", "country": "CL", "coord": {"lon": -71.699997, "lat": -33.400002}}, {"id": 3710066, "name": "El Quiteno", "country": "PA", "coord": {"lon": -82.400002, "lat": 8.46667}}, {"id": 2518193, "name": "El Raal", "country": "ES", "coord": {"lon": -1.01667, "lat": 38.033329}}, {"id": 3797470, "name": "El Raicero", "country": "VE", "coord": {"lon": -71.654999, "lat": 8.603889}}, {"id": 3610555, "name": "El Rancho", "country": "HN", "coord": {"lon": -87.949997, "lat": 15.66667}}, {"id": 3610558, "name": "El Rancho", "country": "HN", "coord": {"lon": -87.5, "lat": 14.68333}}, {"id": 5466517, "name": "El Rancho", "country": "US", "coord": {"lon": -106.07975, "lat": 35.889191}}, {"id": 3123304, "name": "El Raso", "country": "ES", "coord": {"lon": -5.33926, "lat": 40.17062}}, {"id": 3623810, "name": "El Real", "country": "CR", "coord": {"lon": -85.527039, "lat": 10.55523}}, {"id": 3486692, "name": "El Real", "country": "VE", "coord": {"lon": -69.99633, "lat": 8.43525}}, {"id": 3123303, "name": "El Real de San Vicente", "country": "ES", "coord": {"lon": -4.69095, "lat": 40.135609}}, {"id": 3619451, "name": "El Realejo", "country": "NI", "coord": {"lon": -87.164658, "lat": 12.54307}}, {"id": 2518184, "name": "El Realengo", "country": "ES", "coord": {"lon": -0.42308, "lat": 39.058609}}, {"id": 3641784, "name": "El Recreo", "country": "VE", "coord": {"lon": -66.883331, "lat": 10.5}}, {"id": 3641789, "name": "El Recreo", "country": "VE", "coord": {"lon": -72.216667, "lat": 7.8}}, {"id": 4008080, "name": "El Refugio", "country": "MX", "coord": {"lon": -103.73333, "lat": 20.66667}}, {"id": 3641775, "name": "El Regalo", "country": "VE", "coord": {"lon": -69.176697, "lat": 8.43455}}, {"id": 4535783, "name": "El Reno", "country": "US", "coord": {"lon": -97.955048, "lat": 35.532269}}, {"id": 2518181, "name": "El Repilado", "country": "ES", "coord": {"lon": -6.7694, "lat": 37.927731}}, {"id": 3890566, "name": "El Retamo", "country": "CL", "coord": {"lon": -70.716667, "lat": -33.450001}}, {"id": 3683233, "name": "El Reten", "country": "CO", "coord": {"lon": -74.268242, "lat": 10.61135}}, {"id": 3856839, "name": "El Retiro", "country": "AR", "coord": {"lon": -64.481903, "lat": -31.18046}}, {"id": 3670849, "name": "El Retiro", "country": "CO", "coord": {"lon": -75.503059, "lat": 6.05861}}, {"id": 3792387, "name": "El Retorno", "country": "CO", "coord": {"lon": -72.627647, "lat": 2.33022}}, {"id": 3683209, "name": "El Rhin", "country": "CO", "coord": {"lon": -74.718246, "lat": 7.0089}}, {"id": 3610487, "name": "El Rincon", "country": "HN", "coord": {"lon": -87.933327, "lat": 14.58333}}, {"id": 3710040, "name": "El Rincon", "country": "PA", "coord": {"lon": -80.615829, "lat": 8.12083}}, {"id": 3977395, "name": "El Rinc\u00f3n de los Pastores", "country": "MX", "coord": {"lon": -101.133331, "lat": 25.35}}, {"id": 5345844, "name": "El Rio", "country": "US", "coord": {"lon": -119.163834, "lat": 34.235779}}, {"id": 3683180, "name": "El Roble", "country": "CO", "coord": {"lon": -75.195084, "lat": 9.10194}}, {"id": 3710026, "name": "El Roble", "country": "PA", "coord": {"lon": -80.650002, "lat": 8.16667}}, {"id": 2518158, "name": "El Robledo", "country": "ES", "coord": {"lon": -4.28099, "lat": 39.218979}}, {"id": 2518157, "name": "El Roc\u00edo", "country": "ES", "coord": {"lon": -6.48485, "lat": 37.12994}}, {"id": 3856776, "name": "El Rodeo", "country": "AR", "coord": {"lon": -65.874199, "lat": -28.215179}}, {"id": 4007849, "name": "El Rodeo", "country": "MX", "coord": {"lon": -104.050003, "lat": 19.533331}}, {"id": 3596249, "name": "El Rodeo", "country": "GT", "coord": {"lon": -91.966667, "lat": 14.91667}}, {"id": 2518154, "name": "El Rodriguillo", "country": "ES", "coord": {"lon": -1.04759, "lat": 38.365452}}, {"id": 2518149, "name": "El Romero", "country": "ES", "coord": {"lon": -1.36974, "lat": 37.714142}}, {"id": 2518147, "name": "El Rompido", "country": "ES", "coord": {"lon": -7.12206, "lat": 37.217731}}, {"id": 2518146, "name": "El Ronquillo", "country": "ES", "coord": {"lon": -6.1762, "lat": 37.72628}}, {"id": 3890484, "name": "El Rosal", "country": "CL", "coord": {"lon": -72.333328, "lat": -35.916672}}, {"id": 3890485, "name": "El Rosal", "country": "CL", "coord": {"lon": -70.666672, "lat": -33.566669}}, {"id": 3683155, "name": "El Rosal", "country": "CO", "coord": {"lon": -74.259956, "lat": 4.85314}}, {"id": 3658124, "name": "El Rosal", "country": "EC", "coord": {"lon": -77.699997, "lat": 0.81667}}, {"id": 2518134, "name": "El Rosario", "country": "ES", "coord": {"lon": -16.366671, "lat": 28.450001}}, {"id": 3683149, "name": "El Rosario", "country": "CO", "coord": {"lon": -77.335197, "lat": 1.74173}}, {"id": 3610377, "name": "El Rosario", "country": "HN", "coord": {"lon": -87.76667, "lat": 14.8}}, {"id": 4007812, "name": "El Rosario", "country": "MX", "coord": {"lon": -107.182777, "lat": 24.25556}}, {"id": 3619420, "name": "El Rosario", "country": "NI", "coord": {"lon": -86.373741, "lat": 11.77756}}, {"id": 3586021, "name": "El Rosario", "country": "SV", "coord": {"lon": -89.029716, "lat": 13.49778}}, {"id": 3123282, "name": "El Royo", "country": "ES", "coord": {"lon": -2.64618, "lat": 41.90871}}, {"id": 2518129, "name": "El Rubio", "country": "ES", "coord": {"lon": -4.98896, "lat": 37.356171}}, {"id": 3610365, "name": "El Rusio", "country": "HN", "coord": {"lon": -86.366669, "lat": 14.46667}}, {"id": 3506235, "name": "El Sabroso", "country": "DO", "coord": {"lon": -70.244843, "lat": 19.494801}}, {"id": 4564236, "name": "El Saco", "country": "PR", "coord": {"lon": -66.796837, "lat": 18.411341}}, {"id": 3753605, "name": "El Salado", "country": "VE", "coord": {"lon": -71.224167, "lat": 8.56954}}, {"id": 3683115, "name": "El Salado", "country": "CO", "coord": {"lon": -72.500893, "lat": 7.93415}}, {"id": 2518120, "name": "El Saler", "country": "ES", "coord": {"lon": -0.33333, "lat": 39.383331}}, {"id": 3780941, "name": "El Salero", "country": "CO", "coord": {"lon": -75.661346, "lat": 2.65744}}, {"id": 3528166, "name": "El Salto", "country": "MX", "coord": {"lon": -99.25, "lat": 18.91667}}, {"id": 4007684, "name": "El Salto", "country": "MX", "coord": {"lon": -104.5, "lat": 20.33333}}, {"id": 3619394, "name": "El Salto", "country": "NI", "coord": {"lon": -85.386841, "lat": 12.1197}}, {"id": 3890441, "name": "El Salto", "country": "CL", "coord": {"lon": -71.51667, "lat": -33.049999}}, {"id": 4007676, "name": "El Salto", "country": "MX", "coord": {"lon": -105.383331, "lat": 23.383329}}, {"id": 3610331, "name": "El Salvador", "country": "HN", "coord": {"lon": -88.150002, "lat": 15.2}}, {"id": 1713911, "name": "El Salvador", "country": "PH", "coord": {"lon": 124.522499, "lat": 8.56306}}, {"id": 3798571, "name": "El Saman", "country": "VE", "coord": {"lon": -69.243332, "lat": 9.181111}}, {"id": 6544390, "name": "El Santiscal", "country": "ES", "coord": {"lon": -5.77992, "lat": 36.763851}}, {"id": 4007626, "name": "El Santuario", "country": "MX", "coord": {"lon": -100.783333, "lat": 20.98333}}, {"id": 3123278, "name": "El Sardinero", "country": "ES", "coord": {"lon": -3.78781, "lat": 43.47464}}, {"id": 3856659, "name": "El Sauce", "country": "AR", "coord": {"lon": -64.313744, "lat": -31.09746}}, {"id": 3610318, "name": "El Sauce", "country": "HN", "coord": {"lon": -87.666672, "lat": 14.53333}}, {"id": 3619382, "name": "El Sauce", "country": "NI", "coord": {"lon": -86.539032, "lat": 12.88687}}, {"id": 2518113, "name": "El Saucejo", "country": "ES", "coord": {"lon": -5.09818, "lat": 37.072369}}, {"id": 4007554, "name": "El Sauz", "country": "MX", "coord": {"lon": -100.099998, "lat": 20.466669}}, {"id": 4007503, "name": "El Sauzal", "country": "MX", "coord": {"lon": -116.683327, "lat": 31.9}}, {"id": 5345860, "name": "El Segundo", "country": "US", "coord": {"lon": -118.416473, "lat": 33.919182}}, {"id": 4007494, "name": "El Seris", "country": "MX", "coord": {"lon": -110.966667, "lat": 29.066669}}, {"id": 3804240, "name": "El Silencio", "country": "VE", "coord": {"lon": -66.965019, "lat": 10.358}}, {"id": 3641489, "name": "El Silencio", "country": "VE", "coord": {"lon": -61.966667, "lat": 7.75}}, {"id": 3641481, "name": "El Silencio", "country": "VE", "coord": {"lon": -66.916672, "lat": 10.5}}, {"id": 3434291, "name": "El Soberbio", "country": "AR", "coord": {"lon": -54.198769, "lat": -27.29846}}, {"id": 5345888, "name": "El Sobrante", "country": "US", "coord": {"lon": -122.29525, "lat": 37.97715}}, {"id": 3697193, "name": "El Socorro", "country": "PE", "coord": {"lon": -78.75, "lat": -8.41667}}, {"id": 3610278, "name": "El Socorro", "country": "HN", "coord": {"lon": -87.916672, "lat": 14.63333}}, {"id": 3641460, "name": "El Socorro", "country": "VE", "coord": {"lon": -65.74247, "lat": 8.99352}}, {"id": 3641440, "name": "El Sombrero", "country": "VE", "coord": {"lon": -67.058182, "lat": 9.3863}}, {"id": 3856575, "name": "El Suncho", "country": "AR", "coord": {"lon": -64.948463, "lat": -27.212299}}, {"id": 3610251, "name": "El Suyatal", "country": "HN", "coord": {"lon": -87.216667, "lat": 14.51667}}, {"id": 3682981, "name": "El Tablon", "country": "CO", "coord": {"lon": -77.096642, "lat": 1.43188}}, {"id": 3610232, "name": "El Tablon", "country": "HN", "coord": {"lon": -87.166672, "lat": 14.03333}}, {"id": 3890338, "name": "El Tabo", "country": "CL", "coord": {"lon": -71.666672, "lat": -33.450001}}, {"id": 3856562, "name": "El Taco", "country": "AR", "coord": {"lon": -65.594841, "lat": -28.699499}}, {"id": 4007424, "name": "El Tajito", "country": "MX", "coord": {"lon": -103.416672, "lat": 25.566669}}, {"id": 3856547, "name": "El Tala", "country": "AR", "coord": {"lon": -64.48333, "lat": -31.799999}}, {"id": 3856548, "name": "El Tala", "country": "AR", "coord": {"lon": -65.276428, "lat": -26.111759}}, {"id": 3434261, "name": "El Talar", "country": "AR", "coord": {"lon": -58.65086, "lat": -34.470901}}, {"id": 3682963, "name": "El Tambo", "country": "CO", "coord": {"lon": -76.810287, "lat": 2.45199}}, {"id": 3682965, "name": "El Tambo", "country": "CO", "coord": {"lon": -77.396782, "lat": 1.41814}}, {"id": 2497323, "name": "El Tarf", "country": "DZ", "coord": {"lon": 8.31377, "lat": 36.7672}}, {"id": 3738301, "name": "El Tarra", "country": "CO", "coord": {"lon": -73.094887, "lat": 8.57562}}, {"id": 3918049, "name": "El Tejar", "country": "BO", "coord": {"lon": -65.26667, "lat": -19.049999}}, {"id": 2518085, "name": "El Tejar", "country": "ES", "coord": {"lon": -4.5462, "lat": 37.237999}}, {"id": 3856511, "name": "El Tejar", "country": "AR", "coord": {"lon": -61.045658, "lat": -35.220951}}, {"id": 3596041, "name": "El Tejar", "country": "GT", "coord": {"lon": -90.792778, "lat": 14.64778}}, {"id": 3528046, "name": "El Tejar", "country": "MX", "coord": {"lon": -96.166672, "lat": 19.049999}}, {"id": 3585880, "name": "El Tempisque", "country": "SV", "coord": {"lon": -88.633331, "lat": 13.86667}}, {"id": 3682944, "name": "El Tendido", "country": "CO", "coord": {"lon": -72.988609, "lat": 5.73135}}, {"id": 3610139, "name": "El Terrero", "country": "HN", "coord": {"lon": -87.066673, "lat": 14.06667}}, {"id": 3123246, "name": "El Tiemblo", "country": "ES", "coord": {"lon": -4.50156, "lat": 40.415329}}, {"id": 3641359, "name": "El Tigre", "country": "VE", "coord": {"lon": -61.450001, "lat": 5.666667}}, {"id": 3641351, "name": "El Tigre", "country": "VE", "coord": {"lon": -64.245438, "lat": 8.88752}}, {"id": 3610118, "name": "El Tigre", "country": "HN", "coord": {"lon": -87.98333, "lat": 14.93333}}, {"id": 3856496, "name": "El Tio", "country": "AR", "coord": {"lon": -62.82938, "lat": -31.38357}}, {"id": 4007210, "name": "El Tobarito", "country": "MX", "coord": {"lon": -109.883331, "lat": 27.366671}}, {"id": 2518078, "name": "El Toboso", "country": "ES", "coord": {"lon": -2.99726, "lat": 39.513329}}, {"id": 3641275, "name": "El Tocuyo", "country": "VE", "coord": {"lon": -69.793701, "lat": 9.78734}}, {"id": 3123241, "name": "El Tormillo", "country": "ES", "coord": {"lon": -0.03239, "lat": 41.869961}}, {"id": 3641251, "name": "El Toro", "country": "VE", "coord": {"lon": -71.64843, "lat": 10.95423}}, {"id": 3781858, "name": "El Toronjo", "country": "CO", "coord": {"lon": -73.619019, "lat": 4.70131}}, {"id": 2565176, "name": "El Torviscal", "country": "ES", "coord": {"lon": -5.85628, "lat": 37.08419}}, {"id": 2518068, "name": "El Toscal", "country": "ES", "coord": {"lon": -16.281349, "lat": 28.482401}}, {"id": 3585856, "name": "El Transito", "country": "SV", "coord": {"lon": -88.349998, "lat": 13.35}}, {"id": 3610082, "name": "El Transito", "country": "HN", "coord": {"lon": -88.916672, "lat": 14.38333}}, {"id": 3856436, "name": "El Trebol", "country": "AR", "coord": {"lon": -61.701401, "lat": -32.200802}}, {"id": 3890212, "name": "El Trebolar", "country": "CL", "coord": {"lon": -71.150002, "lat": -33.25}}, {"id": 3585841, "name": "El Triunfo", "country": "SV", "coord": {"lon": -88.083328, "lat": 13.65}}, {"id": 3658053, "name": "El Triunfo", "country": "EC", "coord": {"lon": -79.966667, "lat": -1.93333}}, {"id": 3610060, "name": "El Triunfo", "country": "HN", "coord": {"lon": -87, "lat": 13.11667}}, {"id": 3610051, "name": "El Triunfo de la Cruz", "country": "HN", "coord": {"lon": -87.433327, "lat": 15.76667}}, {"id": 7020913, "name": "El Trompillo", "country": "BO", "coord": {"lon": -63.17049, "lat": -17.802771}}, {"id": 4007102, "name": "El Tuito", "country": "MX", "coord": {"lon": -105.316673, "lat": 20.316669}}, {"id": 3610046, "name": "El Tular", "country": "HN", "coord": {"lon": -87.515282, "lat": 13.46639}}, {"id": 3802287, "name": "El Tular", "country": "MX", "coord": {"lon": -93.349998, "lat": 18.158331}}, {"id": 3595929, "name": "El Tumbador", "country": "GT", "coord": {"lon": -91.933327, "lat": 14.86667}}, {"id": 3762887, "name": "El Valle", "country": "VE", "coord": {"lon": -62.409168, "lat": 8.105556}}, {"id": 3123229, "name": "El Valle", "country": "ES", "coord": {"lon": -5.81755, "lat": 43.159389}}, {"id": 6357795, "name": "El Valle", "country": "ES", "coord": {"lon": -3.60047, "lat": 36.927769}}, {"id": 3682788, "name": "El Valle", "country": "CO", "coord": {"lon": -81.349998, "lat": 13.35}}, {"id": 3506034, "name": "El Valle", "country": "DO", "coord": {"lon": -69.378273, "lat": 18.97567}}, {"id": 5466567, "name": "El Valle de Arroyo Seco", "country": "US", "coord": {"lon": -106.029472, "lat": 35.962799}}, {"id": 3641154, "name": "El Valle del Espiritu Santo", "country": "VE", "coord": {"lon": -63.883099, "lat": 10.98283}}, {"id": 6544365, "name": "El Varadero", "country": "ES", "coord": {"lon": -16.8379, "lat": 28.2262}}, {"id": 2518052, "name": "El Varadero", "country": "ES", "coord": {"lon": -3.52183, "lat": 36.725208}}, {"id": 3755700, "name": "El Vedero", "country": "VE", "coord": {"lon": -63.138889, "lat": 9.746389}}, {"id": 3123219, "name": "El Vellon", "country": "ES", "coord": {"lon": -3.57969, "lat": 40.76495}}, {"id": 4025177, "name": "El Venado", "country": "MX", "coord": {"lon": -101.030563, "lat": 19.808331}}, {"id": 3106180, "name": "El Vendrell", "country": "ES", "coord": {"lon": 1.53333, "lat": 41.216671}}, {"id": 3434189, "name": "El Verano", "country": "AR", "coord": {"lon": -58.542309, "lat": -37.740841}}, {"id": 5345916, "name": "El Verano", "country": "US", "coord": {"lon": -122.491653, "lat": 38.297691}}, {"id": 4006971, "name": "El Verde", "country": "MX", "coord": {"lon": -103.26667, "lat": 20.549999}}, {"id": 3619267, "name": "El Viejo", "country": "NI", "coord": {"lon": -87.167221, "lat": 12.6633}}, {"id": 3641099, "name": "El Vigia", "country": "VE", "coord": {"lon": -71.650558, "lat": 8.621944}}, {"id": 2518042, "name": "El Viso", "country": "ES", "coord": {"lon": -4.95, "lat": 38.48333}}, {"id": 3123206, "name": "El Viso de San Juan", "country": "ES", "coord": {"lon": -3.91817, "lat": 40.141541}}, {"id": 2518040, "name": "El Viso del Alcor", "country": "ES", "coord": {"lon": -5.71993, "lat": 37.39106}}, {"id": 2518039, "name": "El Vivero", "country": "ES", "coord": {"lon": 2.73333, "lat": 39.566669}}, {"id": 3641066, "name": "El Yaque", "country": "VE", "coord": {"lon": -63.950439, "lat": 10.89854}}, {"id": 3527920, "name": "El Zapotal", "country": "MX", "coord": {"lon": -92.716667, "lat": 16.6}}, {"id": 3609928, "name": "El Zapotal del Norte", "country": "HN", "coord": {"lon": -88.050003, "lat": 15.51667}}, {"id": 3801789, "name": "El Zapote", "country": "MX", "coord": {"lon": -96.263062, "lat": 15.77111}}, {"id": 3682682, "name": "El Zulia", "country": "CO", "coord": {"lon": -72.60125, "lat": 7.93248}}, {"id": 6694300, "name": "El entrego", "country": "ES", "coord": {"lon": -5.638, "lat": 43.287521}}, {"id": 2518759, "name": "El \u00c1guila", "country": "ES", "coord": {"lon": -5.01667, "lat": 38.299999}}, {"id": 375831, "name": "El \u2018Urdi", "country": "SD", "coord": {"lon": 30.450001, "lat": 19.16667}}, {"id": 6547296, "name": "El-Hajeb", "country": "MA", "coord": {"lon": -5.46119, "lat": 33.728828}}, {"id": 2550076, "name": "El-Jadida", "country": "MA", "coord": {"lon": -8.5, "lat": 32.900002}}, {"id": 357790, "name": "El-Qushl\u00e2q\u00e2t", "country": "EG", "coord": {"lon": 33.816669, "lat": 31.133329}}, {"id": 2072141, "name": "Elabbin", "country": "AU", "coord": {"lon": 118.133331, "lat": -31.23333}}, {"id": 2167625, "name": "Elaine", "country": "AU", "coord": {"lon": 144.033325, "lat": -37.783329}}, {"id": 736346, "name": "Elaiokhorion", "country": "GR", "coord": {"lon": 24.25, "lat": 40.816669}}, {"id": 1272084, "name": "Elamanchili", "country": "IN", "coord": {"lon": 82.866669, "lat": 17.549999}}, {"id": 3020310, "name": "Elancourt", "country": "FR", "coord": {"lon": 1.9552, "lat": 48.784199}}, {"id": 6362376, "name": "Elantxobe", "country": "ES", "coord": {"lon": -2.63981, "lat": 43.402802}}, {"id": 3123677, "name": "Elantxobe", "country": "ES", "coord": {"lon": -2.63912, "lat": 43.402431}}, {"id": 1005976, "name": "Elarduspark", "country": "ZA", "coord": {"lon": 28.255381, "lat": -25.831881}}, {"id": 262784, "name": "Elassona", "country": "GR", "coord": {"lon": 22.18861, "lat": 39.894718}}, {"id": 262776, "name": "Elateia", "country": "GR", "coord": {"lon": 22.76667, "lat": 38.633331}}, {"id": 7645731, "name": "Elato", "country": "FM", "coord": {"lon": 146.166, "lat": 7.502}}, {"id": 7626938, "name": "Elato Municipality", "country": "FM", "coord": {"lon": 146.162994, "lat": 7.502}}, {"id": 1272074, "name": "Elayirampannai", "country": "IN", "coord": {"lon": 77.833328, "lat": 9.26667}}, {"id": 315808, "name": "Elazig", "country": "TR", "coord": {"lon": 39.223209, "lat": 38.674309}}, {"id": 315807, "name": "Elaz\u0131\u011f", "country": "TR", "coord": {"lon": 39.17725, "lat": 38.73695}}, {"id": 4828081, "name": "Elba", "country": "US", "coord": {"lon": -86.067719, "lat": 31.41461}}, {"id": 783263, "name": "Elbasan", "country": "AL", "coord": {"lon": 20.08222, "lat": 41.112499}}, {"id": 6552409, "name": "Elbe", "country": "DE", "coord": {"lon": 10.2833, "lat": 52.083302}}, {"id": 3208598, "name": "Elbe", "country": "DE", "coord": {"lon": 10.28333, "lat": 52.083328}}, {"id": 6553378, "name": "Elben", "country": "DE", "coord": {"lon": 7.83333, "lat": 50.75}}, {"id": 2931288, "name": "Elben", "country": "DE", "coord": {"lon": 7.83333, "lat": 50.75}}, {"id": 2931283, "name": "Elbenau", "country": "DE", "coord": {"lon": 11.76667, "lat": 52.033329}}, {"id": 2931276, "name": "Elberfeld", "country": "DE", "coord": {"lon": 7.13333, "lat": 51.26667}}, {"id": 2931275, "name": "Elbergen", "country": "DE", "coord": {"lon": 7.3, "lat": 52.450001}}, {"id": 2931262, "name": "Elbersreuth", "country": "DE", "coord": {"lon": 11.56667, "lat": 50.25}}, {"id": 4060381, "name": "Elberta", "country": "US", "coord": {"lon": -87.597763, "lat": 30.41436}}, {"id": 4193099, "name": "Elberton", "country": "US", "coord": {"lon": -82.867081, "lat": 34.111221}}, {"id": 6454686, "name": "Elbeuf", "country": "FR", "coord": {"lon": 1, "lat": 49.283329}}, {"id": 3020307, "name": "Elbeuf", "country": "FR", "coord": {"lon": 1.00288, "lat": 49.28669}}, {"id": 315800, "name": "Elbeyli", "country": "TR", "coord": {"lon": 37.466671, "lat": 36.674171}}, {"id": 747630, "name": "Elbeyli", "country": "TR", "coord": {"lon": 29.72472, "lat": 40.486111}}, {"id": 7873684, "name": "Elbigenalp", "country": "AT", "coord": {"lon": 10.41259, "lat": 47.29607}}, {"id": 2780153, "name": "Elbigenalp", "country": "AT", "coord": {"lon": 10.43333, "lat": 47.299999}}, {"id": 3207702, "name": "Elbingen-M\u00e4hren", "country": "DE", "coord": {"lon": 7.91667, "lat": 50.533329}}, {"id": 6552384, "name": "Elbingerode", "country": "DE", "coord": {"lon": 10.2833, "lat": 51.650002}},