[{"id": 2943855, "name": "Broitzem", "country": "DE", "coord": {"lon": 10.47718, "lat": 52.234631}}, {"id": 6552934, "name": "Georgsdorf", "country": "DE", "coord": {"lon": 7.08333, "lat": 52.5667}}, {"id": 2921252, "name": "Georgsdorf", "country": "DE", "coord": {"lon": 7.08333, "lat": 52.566669}}, {"id": 2905215, "name": "Hettingen", "country": "DE", "coord": {"lon": 9.23169, "lat": 48.216011}}, {"id": 2919713, "name": "Gnadau", "country": "DE", "coord": {"lon": 11.78333, "lat": 51.98333}}, {"id": 2853397, "name": "Platkow", "country": "DE", "coord": {"lon": 14.32282, "lat": 52.584332}}, {"id": 2911987, "name": "Haidlfing", "country": "DE", "coord": {"lon": 12.71667, "lat": 48.73333}}, {"id": 2911250, "name": "Hamich", "country": "DE", "coord": {"lon": 6.31667, "lat": 50.783329}}, {"id": 2927958, "name": "Falkenhain", "country": "DE", "coord": {"lon": 13.6, "lat": 51.933331}}, {"id": 2882260, "name": "Kusey", "country": "DE", "coord": {"lon": 11.08333, "lat": 52.566669}}, {"id": 2862988, "name": "Niederpoyritz", "country": "DE", "coord": {"lon": 13.84058, "lat": 51.032269}}, {"id": 2883026, "name": "Kugelreuth", "country": "DE", "coord": {"lon": 12.11667, "lat": 50.333328}}, {"id": 6555455, "name": "Deggingen", "country": "DE", "coord": {"lon": 9.71882, "lat": 48.597191}}, {"id": 2938538, "name": "Deggingen", "country": "DE", "coord": {"lon": 9.71891, "lat": 48.597099}}, {"id": 6555879, "name": "Eimeldingen", "country": "DE", "coord": {"lon": 7.6, "lat": 47.633301}}, {"id": 2931827, "name": "Eimeldingen", "country": "DE", "coord": {"lon": 7.6, "lat": 47.633331}}, {"id": 2835481, "name": "Schwabisch Hall", "country": "DE", "coord": {"lon": 9.73908, "lat": 49.111271}}, {"id": 2859615, "name": "Oberndorf", "country": "DE", "coord": {"lon": 7.81667, "lat": 49.716671}}, {"id": 2925170, "name": "Freidorf", "country": "DE", "coord": {"lon": 13.7, "lat": 52.066669}}, {"id": 2907667, "name": "Heilbrunn", "country": "DE", "coord": {"lon": 12.56587, "lat": 49.046589}}, {"id": 6556694, "name": "Thalmassing", "country": "DE", "coord": {"lon": 12.1667, "lat": 48.916698}}, {"id": 2823045, "name": "Thalmassing", "country": "DE", "coord": {"lon": 12.155, "lat": 48.911671}}, {"id": 2859690, "name": "Obernau", "country": "DE", "coord": {"lon": 7.61667, "lat": 50.783329}}, {"id": 2803723, "name": "Zulpich", "country": "DE", "coord": {"lon": 6.65, "lat": 50.700001}}, {"id": 2807594, "name": "Wipperfurth", "country": "DE", "coord": {"lon": 7.4, "lat": 51.116669}}, {"id": 2848621, "name": "Reisbach", "country": "DE", "coord": {"lon": 12.63333, "lat": 48.566669}}, {"id": 2810728, "name": "Wertach", "country": "DE", "coord": {"lon": 10.4, "lat": 47.599998}}, {"id": 2923396, "name": "Gadenstedt", "country": "DE", "coord": {"lon": 10.21634, "lat": 52.246281}}, {"id": 6554249, "name": "M\u00fcschenbach", "country": "DE", "coord": {"lon": 7.78333, "lat": 50.6833}}, {"id": 2867402, "name": "Muschenbach", "country": "DE", "coord": {"lon": 7.78333, "lat": 50.683331}}, {"id": 2903818, "name": "Hirnstetten", "country": "DE", "coord": {"lon": 11.28333, "lat": 48.966671}}, {"id": 2875626, "name": "Lubbecke", "country": "DE", "coord": {"lon": 8.61667, "lat": 52.299999}}, {"id": 2920186, "name": "Glasbach", "country": "DE", "coord": {"lon": 8.3, "lat": 48.049999}}, {"id": 6555255, "name": "Appenheim", "country": "DE", "coord": {"lon": 8.03333, "lat": 49.93}}, {"id": 2955732, "name": "Appenheim", "country": "DE", "coord": {"lon": 8.03333, "lat": 49.93}}, {"id": 6554252, "name": "Niederahr", "country": "DE", "coord": {"lon": 7.85, "lat": 50.483299}}, {"id": 2863678, "name": "Niederahr", "country": "DE", "coord": {"lon": 7.85, "lat": 50.48333}}, {"id": 6553531, "name": "Rehborn", "country": "DE", "coord": {"lon": 7.68333, "lat": 49.733299}}, {"id": 2849386, "name": "Rehborn", "country": "DE", "coord": {"lon": 7.68333, "lat": 49.73333}}, {"id": 2953535, "name": "Bad Bruckenau", "country": "DE", "coord": {"lon": 9.78985, "lat": 50.308529}}, {"id": 2825916, "name": "Strelow", "country": "DE", "coord": {"lon": 12.96421, "lat": 54.047401}}, {"id": 6557056, "name": "Euerbach", "country": "DE", "coord": {"lon": 10.1333, "lat": 50.0667}}, {"id": 2928520, "name": "Euerbach", "country": "DE", "coord": {"lon": 10.13695, "lat": 50.061989}}, {"id": 3221012, "name": "Landkreis Goslar", "country": "DE", "coord": {"lon": 10.41806, "lat": 51.909721}}, {"id": 2814549, "name": "Wallmoden", "country": "DE", "coord": {"lon": 10.26667, "lat": 52.01667}}, {"id": 2947105, "name": "Bodenstein", "country": "DE", "coord": {"lon": 10.22346, "lat": 51.997459}}, {"id": 2882334, "name": "Kurort Jonsdorf", "country": "DE", "coord": {"lon": 14.7, "lat": 50.849998}}, {"id": 6552926, "name": "Walchum", "country": "DE", "coord": {"lon": 7.28333, "lat": 52.9333}}, {"id": 2815218, "name": "Walchum", "country": "DE", "coord": {"lon": 7.28325, "lat": 52.92717}}, {"id": 2867986, "name": "M\u00fchlheim", "country": "DE", "coord": {"lon": 8.28333, "lat": 49.700001}}, {"id": 2959847, "name": "Abenheim", "country": "DE", "coord": {"lon": 8.28111, "lat": 49.677219}}, {"id": 2860205, "name": "Oberholzg\u00fcnz", "country": "DE", "coord": {"lon": 10.26667, "lat": 48.01667}}, {"id": 2928754, "name": "E\u00dfleben", "country": "DE", "coord": {"lon": 11.46667, "lat": 51.150002}}, {"id": 3208692, "name": "Ganzow", "country": "DE", "coord": {"lon": 12.36667, "lat": 53.216671}}, {"id": 6553512, "name": "Mandel", "country": "DE", "coord": {"lon": 7.76667, "lat": 49.849998}}, {"id": 2873989, "name": "Mandel", "country": "DE", "coord": {"lon": 7.76667, "lat": 49.849998}}, {"id": 2806914, "name": "Wolfenbuttel", "country": "DE", "coord": {"lon": 10.55, "lat": 52.166672}}, {"id": 2841375, "name": "Sasbachwalden", "country": "DE", "coord": {"lon": 8.13333, "lat": 48.616669}}, {"id": 6555781, "name": "Fischerbach", "country": "DE", "coord": {"lon": 8.11667, "lat": 48.283298}}, {"id": 2926557, "name": "Fischerbach", "country": "DE", "coord": {"lon": 8.11667, "lat": 48.316669}}, {"id": 2803768, "name": "Zuckelhausen", "country": "DE", "coord": {"lon": 12.45, "lat": 51.299999}}, {"id": 6552993, "name": "Ostercappeln", "country": "DE", "coord": {"lon": 8.23333, "lat": 52.349998}}, {"id": 2856629, "name": "Ostercappeln", "country": "DE", "coord": {"lon": 8.23333, "lat": 52.349998}}, {"id": 6552674, "name": "Deutsch Evern", "country": "DE", "coord": {"lon": 10.4333, "lat": 53.200001}}, {"id": 2937809, "name": "Deutsch Evern", "country": "DE", "coord": {"lon": 10.43333, "lat": 53.200001}}, {"id": 3208999, "name": "Audenhain", "country": "DE", "coord": {"lon": 12.85, "lat": 51.5}}, {"id": 2871649, "name": "Mesenich", "country": "DE", "coord": {"lon": 6.51667, "lat": 49.73333}}, {"id": 2848773, "name": "Reinhartshausen", "country": "DE", "coord": {"lon": 10.73333, "lat": 48.25}}, {"id": 2855231, "name": "P\u00e4tz", "country": "DE", "coord": {"lon": 13.65, "lat": 52.23333}}, {"id": 6548544, "name": "Theuma", "country": "DE", "coord": {"lon": 12.2167, "lat": 50.466702}}, {"id": 2822822, "name": "Theuma", "country": "DE", "coord": {"lon": 12.22195, "lat": 50.47007}}, {"id": 2835587, "name": "Schuttorf", "country": "DE", "coord": {"lon": 7.23333, "lat": 52.316669}}, {"id": 2896279, "name": "Immenhausen", "country": "DE", "coord": {"lon": 9.48017, "lat": 51.427631}}, {"id": 2948194, "name": "Bisten", "country": "DE", "coord": {"lon": 6.7, "lat": 49.25}}, {"id": 2843617, "name": "Retz", "country": "DE", "coord": {"lon": 12.53333, "lat": 49.349998}}, {"id": 6551764, "name": "Probsteierhagen", "country": "DE", "coord": {"lon": 10.2833, "lat": 54.366699}}, {"id": 2851946, "name": "Probsteierhagen", "country": "DE", "coord": {"lon": 10.28333, "lat": 54.366669}}, {"id": 6553015, "name": "Spiekeroog", "country": "DE", "coord": {"lon": 7.69593, "lat": 53.7705}}, {"id": 2830534, "name": "Spiekeroog", "country": "DE", "coord": {"lon": 7.7, "lat": 53.76667}}, {"id": 2958505, "name": "Algershofen", "country": "DE", "coord": {"lon": 9.62836, "lat": 48.2295}}, {"id": 6555729, "name": "Auggen", "country": "DE", "coord": {"lon": 7.6, "lat": 47.783298}}, {"id": 2954197, "name": "Auggen", "country": "DE", "coord": {"lon": 7.6, "lat": 47.783329}}, {"id": 2939443, "name": "Dahlem", "country": "DE", "coord": {"lon": 6.68333, "lat": 49.98333}}, {"id": 6553124, "name": "Augustdorf", "country": "DE", "coord": {"lon": 8.7473, "lat": 51.910999}}, {"id": 2954164, "name": "Augustdorf", "country": "DE", "coord": {"lon": 8.73173, "lat": 51.909439}}, {"id": 2941739, "name": "Bult", "country": "DE", "coord": {"lon": 9.68333, "lat": 53.116669}}, {"id": 2899289, "name": "Hooksiel", "country": "DE", "coord": {"lon": 8.01667, "lat": 53.633331}}, {"id": 6554659, "name": "Rockeskyll", "country": "DE", "coord": {"lon": 6.7, "lat": 50.25}}, {"id": 2846209, "name": "Rockeskyll", "country": "DE", "coord": {"lon": 6.7, "lat": 50.25}}, {"id": 6552537, "name": "Warmsen", "country": "DE", "coord": {"lon": 8.85097, "lat": 52.4548}}, {"id": 2814066, "name": "Warmsen", "country": "DE", "coord": {"lon": 8.84949, "lat": 52.456951}}, {"id": 2944939, "name": "Brede", "country": "DE", "coord": {"lon": 8.85, "lat": 52.333328}}, {"id": 6556865, "name": "Gremsdorf", "country": "DE", "coord": {"lon": 10.83389, "lat": 49.697948}}, {"id": 2917714, "name": "Gremsdorf", "country": "DE", "coord": {"lon": 10.83218, "lat": 49.695061}}, {"id": 6555688, "name": "Enzkl\u00f6sterle", "country": "DE", "coord": {"lon": 8.48333, "lat": 48.666698}}, {"id": 2929892, "name": "Enzklosterle", "country": "DE", "coord": {"lon": 8.48333, "lat": 48.666672}}, {"id": 2806134, "name": "Wormsthal", "country": "DE", "coord": {"lon": 9.26667, "lat": 52.25}}, {"id": 2952960, "name": "Bandenitz", "country": "DE", "coord": {"lon": 11.28333, "lat": 53.48333}}, {"id": 2829116, "name": "Stegh", "country": "DE", "coord": {"lon": 6.11667, "lat": 50.933331}}, {"id": 6549937, "name": "Niederdorla", "country": "DE", "coord": {"lon": 10.45, "lat": 51.150002}}, {"id": 2863516, "name": "Niederdorla", "country": "DE", "coord": {"lon": 10.45, "lat": 51.150002}}, {"id": 2916893, "name": "Gro\u00dfburgwedel", "country": "DE", "coord": {"lon": 9.85757, "lat": 52.49271}}, {"id": 6553109, "name": "Nordwalde", "country": "DE", "coord": {"lon": 7.48333, "lat": 52.083302}}, {"id": 2861847, "name": "Nordwalde", "country": "DE", "coord": {"lon": 7.48333, "lat": 52.083328}}, {"id": 2930580, "name": "Emerkam", "country": "DE", "coord": {"lon": 12.43333, "lat": 48.283329}}, {"id": 2821420, "name": "Trebs", "country": "DE", "coord": {"lon": 11.11667, "lat": 53.283329}}, {"id": 2923371, "name": "Gagelow", "country": "DE", "coord": {"lon": 11.89639, "lat": 53.685581}}, {"id": 2866238, "name": "Neubau", "country": "DE", "coord": {"lon": 11.85, "lat": 50.01667}}, {"id": 2900182, "name": "Holteyberg", "country": "DE", "coord": {"lon": 7.1, "lat": 51.416672}}, {"id": 2940447, "name": "Byfang", "country": "DE", "coord": {"lon": 7.1, "lat": 51.400002}}, {"id": 2853961, "name": "Pfreimd", "country": "DE", "coord": {"lon": 12.17944, "lat": 49.4925}}, {"id": 6553222, "name": "Greifenstein", "country": "DE", "coord": {"lon": 8.3, "lat": 50.616699}}, {"id": 2917793, "name": "Greifenstein", "country": "DE", "coord": {"lon": 8.3, "lat": 50.616669}}, {"id": 2899859, "name": "Holzham", "country": "DE", "coord": {"lon": 12.16667, "lat": 48.116669}}, {"id": 2916604, "name": "Gro\u00dfenlupnitz", "country": "DE", "coord": {"lon": 10.41667, "lat": 51}}, {"id": 2832240, "name": "Siglhof", "country": "DE", "coord": {"lon": 12.56667, "lat": 48.549999}}, {"id": 6554881, "name": "Wallertheim", "country": "DE", "coord": {"lon": 8.05139, "lat": 49.835602}}, {"id": 2814591, "name": "Wallertheim", "country": "DE", "coord": {"lon": 8.05139, "lat": 49.83556}}, {"id": 2865844, "name": "Neue M\u00fchle", "country": "DE", "coord": {"lon": 14.01667, "lat": 52.200001}}, {"id": 6557100, "name": "Theilheim", "country": "DE", "coord": {"lon": 10.0333, "lat": 49.75}}, {"id": 2822903, "name": "Theilheim", "country": "DE", "coord": {"lon": 10.03333, "lat": 49.75}}, {"id": 2855445, "name": "Parchen", "country": "DE", "coord": {"lon": 12.1, "lat": 52.349998}}, {"id": 6548578, "name": "Gornsdorf", "country": "DE", "coord": {"lon": 12.8833, "lat": 50.700001}}, {"id": 2918951, "name": "Gornsdorf", "country": "DE", "coord": {"lon": 12.88333, "lat": 50.700001}}, {"id": 6547810, "name": "Bartow", "country": "DE", "coord": {"lon": 13.35, "lat": 53.8167}}, {"id": 2952345, "name": "Bartow", "country": "DE", "coord": {"lon": 13.35, "lat": 53.816669}}, {"id": 2898077, "name": "Hude", "country": "DE", "coord": {"lon": 10.45, "lat": 53.816669}}, {"id": 2916290, "name": "Gro\u00dfer Kamp", "country": "DE", "coord": {"lon": 8.63333, "lat": 53.283329}}, {"id": 2882093, "name": "Laasow", "country": "DE", "coord": {"lon": 14.08333, "lat": 51.716671}}, {"id": 2867571, "name": "Munnerstadt", "country": "DE", "coord": {"lon": 10.18333, "lat": 50.25}}, {"id": 2854966, "name": "Penk", "country": "DE", "coord": {"lon": 12.11667, "lat": 48.400002}}, {"id": 6548348, "name": "Ganzlin", "country": "DE", "coord": {"lon": 12.25, "lat": 53.383301}}, {"id": 2922610, "name": "Ganzlin", "country": "DE", "coord": {"lon": 12.25, "lat": 53.383331}}, {"id": 2913224, "name": "Haag an der Amper", "country": "DE", "coord": {"lon": 11.83333, "lat": 48.466671}}, {"id": 2899264, "name": "Hopen", "country": "DE", "coord": {"lon": 9.13333, "lat": 54}}, {"id": 6550377, "name": "Lindig", "country": "DE", "coord": {"lon": 11.6, "lat": 50.783298}}, {"id": 2877158, "name": "Lindig", "country": "DE", "coord": {"lon": 11.6, "lat": 50.783329}}, {"id": 3205518, "name": "Burgrain", "country": "DE", "coord": {"lon": 11.1, "lat": 47.51667}}, {"id": 2846824, "name": "Riethberg", "country": "DE", "coord": {"lon": 11.66667, "lat": 52.883331}}, {"id": 6552715, "name": "Basdahl", "country": "DE", "coord": {"lon": 9, "lat": 53.450001}}, {"id": 2952304, "name": "Basdahl", "country": "DE", "coord": {"lon": 9.00025, "lat": 53.445019}}, {"id": 2959179, "name": "Ahlsen", "country": "DE", "coord": {"lon": 8.66667, "lat": 52.299999}}, {"id": 2877098, "name": "Lindwerder", "country": "DE", "coord": {"lon": 13.03333, "lat": 51.833328}}, {"id": 2869100, "name": "Moschelm\u00fchle", "country": "DE", "coord": {"lon": 7.63333, "lat": 49.283329}}, {"id": 2829339, "name": "Stauf", "country": "DE", "coord": {"lon": 8.0275, "lat": 49.551109}}, {"id": 2851523, "name": "Quakenbruck", "country": "DE", "coord": {"lon": 7.95, "lat": 52.683331}}, {"id": 3232585, "name": "Hansaland", "country": "DE", "coord": {"lon": 10.76667, "lat": 54.066669}}, {"id": 6548783, "name": "Beilrode", "country": "DE", "coord": {"lon": 13.0667, "lat": 51.5667}}, {"id": 2951352, "name": "Beilrode", "country": "DE", "coord": {"lon": 13.06667, "lat": 51.566669}}, {"id": 6552143, "name": "S\u00fclfeld", "country": "DE", "coord": {"lon": 10.2333, "lat": 53.799999}}, {"id": 2824907, "name": "Sulfeld", "country": "DE", "coord": {"lon": 10.23333, "lat": 53.799999}}, {"id": 6555520, "name": "Ittlingen", "country": "DE", "coord": {"lon": 8.93083, "lat": 49.1908}}, {"id": 2895574, "name": "Ittlingen", "country": "DE", "coord": {"lon": 8.93083, "lat": 49.19083}}, {"id": 6552956, "name": "Nortmoor", "country": "DE", "coord": {"lon": 7.56667, "lat": 53.233299}}, {"id": 2861807, "name": "Nortmoor", "country": "DE", "coord": {"lon": 7.56667, "lat": 53.23333}}, {"id": 6555536, "name": "W\u00fcstenrot", "country": "DE", "coord": {"lon": 9.4661, "lat": 49.096199}}, {"id": 2805497, "name": "Wustenrot", "country": "DE", "coord": {"lon": 9.46056, "lat": 49.08083}}, {"id": 2885020, "name": "Kr\u00e4ft", "country": "DE", "coord": {"lon": 10.6, "lat": 49.450001}}, {"id": 6553034, "name": "Rheurdt", "country": "DE", "coord": {"lon": 6.46667, "lat": 51.466702}}, {"id": 2847586, "name": "Rheurdt", "country": "DE", "coord": {"lon": 6.46667, "lat": 51.466671}}, {"id": 6559318, "name": "Greimerath", "country": "DE", "coord": {"lon": 6.69401, "lat": 49.59362}}, {"id": 2917776, "name": "Greimerath", "country": "DE", "coord": {"lon": 6.68333, "lat": 49.566669}}, {"id": 6556654, "name": "Etzenricht", "country": "DE", "coord": {"lon": 12.1, "lat": 49.633301}}, {"id": 2928564, "name": "Etzenricht", "country": "DE", "coord": {"lon": 12.1, "lat": 49.633331}}, {"id": 2924406, "name": "Friesack", "country": "DE", "coord": {"lon": 12.57969, "lat": 52.73764}}, {"id": 6554136, "name": "Hartenfels", "country": "DE", "coord": {"lon": 7.78333, "lat": 50.583302}}, {"id": 2910181, "name": "Hartenfels", "country": "DE", "coord": {"lon": 7.78333, "lat": 50.583328}}, {"id": 2813110, "name": "Weida", "country": "DE", "coord": {"lon": 12.06667, "lat": 50.76667}}, {"id": 2937531, "name": "Diefenbach", "country": "DE", "coord": {"lon": 6.53333, "lat": 50.48333}}, {"id": 2876846, "name": "Lissa", "country": "DE", "coord": {"lon": 12.28333, "lat": 51.5}}, {"id": 2943238, "name": "Brunken", "country": "DE", "coord": {"lon": 7.76667, "lat": 50.73333}}, {"id": 2832982, "name": "Senzig", "country": "DE", "coord": {"lon": 13.66667, "lat": 52.283329}}, {"id": 2837447, "name": "Schneeren", "country": "DE", "coord": {"lon": 9.33333, "lat": 52.533329}}, {"id": 6554068, "name": "Mudershausen", "country": "DE", "coord": {"lon": 8.03333, "lat": 50.283298}}, {"id": 2868851, "name": "Mudershausen", "country": "DE", "coord": {"lon": 8.03333, "lat": 50.283329}}, {"id": 6548763, "name": "Gro\u00dfp\u00f6sna", "country": "DE", "coord": {"lon": 12.5, "lat": 51.266701}}, {"id": 2915173, "name": "Grossposna", "country": "DE", "coord": {"lon": 12.5, "lat": 51.26667}}, {"id": 6552021, "name": "Grundhof", "country": "DE", "coord": {"lon": 9.65, "lat": 54.783298}}, {"id": 2914347, "name": "Grundhof", "country": "DE", "coord": {"lon": 9.65, "lat": 54.783329}}, {"id": 6547805, "name": "Wittenbeck", "country": "DE", "coord": {"lon": 11.7833, "lat": 54.116699}}, {"id": 2807355, "name": "Wittenbeck", "country": "DE", "coord": {"lon": 11.78333, "lat": 54.116669}}, {"id": 6555906, "name": "Dettighofen", "country": "DE", "coord": {"lon": 8.48333, "lat": 47.616699}}, {"id": 2937906, "name": "Dettighofen", "country": "DE", "coord": {"lon": 8.48333, "lat": 47.616669}}, {"id": 2924307, "name": "Frohlinde", "country": "DE", "coord": {"lon": 7.35, "lat": 51.533329}}, {"id": 6555662, "name": "Heddesbach", "country": "DE", "coord": {"lon": 8.82806, "lat": 49.480301}}, {"id": 2908400, "name": "Heddesbach", "country": "DE", "coord": {"lon": 8.82806, "lat": 49.480282}}, {"id": 6554725, "name": "Damflos", "country": "DE", "coord": {"lon": 6.98333, "lat": 49.666698}}, {"id": 2939214, "name": "Damflos", "country": "DE", "coord": {"lon": 6.98333, "lat": 49.666672}}, {"id": 2951070, "name": "Benken", "country": "DE", "coord": {"lon": 12.46667, "lat": 52.166672}}, {"id": 2807452, "name": "Wissel", "country": "DE", "coord": {"lon": 6.28333, "lat": 51.76667}}, {"id": 6554887, "name": "Altleiningen", "country": "DE", "coord": {"lon": 8.07333, "lat": 49.5075}}, {"id": 2957040, "name": "Altleiningen", "country": "DE", "coord": {"lon": 8.07333, "lat": 49.5075}}, {"id": 6553623, "name": "Oberhambach", "country": "DE", "coord": {"lon": 7.16667, "lat": 49.6833}}, {"id": 2860488, "name": "Oberhambach", "country": "DE", "coord": {"lon": 7.16667, "lat": 49.683331}}, {"id": 2856958, "name": "Orxhausen", "country": "DE", "coord": {"lon": 9.96667, "lat": 51.866669}}, {"id": 2957688, "name": "Altenfurt", "country": "DE", "coord": {"lon": 11.28333, "lat": 48.549999}}, {"id": 2832104, "name": "Sildemow", "country": "DE", "coord": {"lon": 12.13333, "lat": 54.049999}}, {"id": 6548718, "name": "Lau\u00dfnitz", "country": "DE", "coord": {"lon": 13.8833, "lat": 51.25}}, {"id": 2880001, "name": "Laussnitz", "country": "DE", "coord": {"lon": 13.88333, "lat": 51.25}}, {"id": 2807345, "name": "Landkreis Wittenberg", "country": "DE", "coord": {"lon": 12.80528, "lat": 51.812222}}, {"id": 6548946, "name": "Kl\u00f6den", "country": "DE", "coord": {"lon": 12.8333, "lat": 51.766701}}, {"id": 2887599, "name": "Kloden", "country": "DE", "coord": {"lon": 12.83169, "lat": 51.76178}}, {"id": 2856075, "name": "Ottensen", "country": "DE", "coord": {"lon": 9.91667, "lat": 53.549999}}, {"id": 2880205, "name": "Laudenbach", "country": "DE", "coord": {"lon": 9.92833, "lat": 49.45472}}, {"id": 2918925, "name": "Gorsleben", "country": "DE", "coord": {"lon": 11.75, "lat": 51.533329}}, {"id": 6553513, "name": "Martinstein", "country": "DE", "coord": {"lon": 7.53333, "lat": 49.799999}}, {"id": 2873108, "name": "Martinstein", "country": "DE", "coord": {"lon": 7.53333, "lat": 49.799999}}, {"id": 6548676, "name": "Hainewalde", "country": "DE", "coord": {"lon": 14.7, "lat": 50.916698}}, {"id": 2911833, "name": "Hainewalde", "country": "DE", "coord": {"lon": 14.7, "lat": 50.916672}}, {"id": 2810431, "name": "Westerbeverstedt", "country": "DE", "coord": {"lon": 8.75, "lat": 53.433331}}, {"id": 6555965, "name": "Asselfingen", "country": "DE", "coord": {"lon": 10.19154, "lat": 48.529652}}, {"id": 2955025, "name": "Asselfingen", "country": "DE", "coord": {"lon": 10.19166, "lat": 48.529591}}, {"id": 2867863, "name": "Mulda", "country": "DE", "coord": {"lon": 13.41667, "lat": 50.799999}}, {"id": 6552957, "name": "Ostrhauderfehn", "country": "DE", "coord": {"lon": 7.61667, "lat": 53.133301}}, {"id": 2856213, "name": "Ostrhauderfehn", "country": "DE", "coord": {"lon": 7.61667, "lat": 53.133331}}, {"id": 2814765, "name": "Waldthurn", "country": "DE", "coord": {"lon": 12.32919, "lat": 49.672211}}, {"id": 2895285, "name": "Jahnsdorf", "country": "DE", "coord": {"lon": 13.18333, "lat": 50.716671}}, {"id": 2954989, "name": "Asten", "country": "DE", "coord": {"lon": 12.11667, "lat": 47.700001}}, {"id": 2840049, "name": "Scheibe", "country": "DE", "coord": {"lon": 13.21667, "lat": 50.650002}}, {"id": 6555842, "name": "Gunningen", "country": "DE", "coord": {"lon": 8.7, "lat": 48.049999}}, {"id": 2913631, "name": "Gunningen", "country": "DE", "coord": {"lon": 8.7, "lat": 48.049999}}, {"id": 2814841, "name": "Waldorf", "country": "DE", "coord": {"lon": 6.61667, "lat": 50.383331}}, {"id": 6553774, "name": "Nickenich", "country": "DE", "coord": {"lon": 7.33333, "lat": 50.416698}}, {"id": 2863732, "name": "Nickenich", "country": "DE", "coord": {"lon": 7.32728, "lat": 50.414211}}, {"id": 6557148, "name": "Nordendorf", "country": "DE", "coord": {"lon": 10.8333, "lat": 48.599998}}, {"id": 2862106, "name": "Nordendorf", "country": "DE", "coord": {"lon": 10.8, "lat": 48.599998}}, {"id": 2853278, "name": "Plech", "country": "DE", "coord": {"lon": 11.46667, "lat": 49.650002}}, {"id": 2904600, "name": "Hiltpoltstein", "country": "DE", "coord": {"lon": 11.31667, "lat": 49.666672}}, {"id": 2895746, "name": "Irsching", "country": "DE", "coord": {"lon": 11.58333, "lat": 48.76667}}, {"id": 2928957, "name": "Esebeck", "country": "DE", "coord": {"lon": 9.85, "lat": 51.566669}}, {"id": 6555538, "name": "Bretzfeld", "country": "DE", "coord": {"lon": 9.43833, "lat": 49.179401}}, {"id": 2944178, "name": "Bretzfeld", "country": "DE", "coord": {"lon": 9.43833, "lat": 49.17944}}, {"id": 2865913, "name": "Neu D\u00f6tzingen", "country": "DE", "coord": {"lon": 11.05, "lat": 53.150002}}, {"id": 2891041, "name": "Kienitz", "country": "DE", "coord": {"lon": 14.43887, "lat": 52.6731}}, {"id": 2818658, "name": "Unterspiesheim", "country": "DE", "coord": {"lon": 10.26667, "lat": 49.950001}}, {"id": 2950457, "name": "Bergh\u00e4user", "country": "DE", "coord": {"lon": 12.33333, "lat": 50.299999}}, {"id": 2888900, "name": "Kleinfreden", "country": "DE", "coord": {"lon": 9.9, "lat": 51.933331}}, {"id": 2923946, "name": "Fuchshain", "country": "DE", "coord": {"lon": 12.53333, "lat": 51.283329}}, {"id": 6554549, "name": "Harspelt", "country": "DE", "coord": {"lon": 6.16667, "lat": 50.133301}}, {"id": 2910273, "name": "Harspelt", "country": "DE", "coord": {"lon": 6.16667, "lat": 50.133331}}, {"id": 6547404, "name": "Gr\u00f6den", "country": "DE", "coord": {"lon": 13.5667, "lat": 51.400002}}, {"id": 2917194, "name": "Groden", "country": "DE", "coord": {"lon": 13.56667, "lat": 51.400002}}, {"id": 6551743, "name": "Kletkamp", "country": "DE", "coord": {"lon": 10.6333, "lat": 54.25}}, {"id": 2887858, "name": "Kletkamp", "country": "DE", "coord": {"lon": 10.63333, "lat": 54.25}}, {"id": 6553420, "name": "Nauroth", "country": "DE", "coord": {"lon": 7.86667, "lat": 50.700001}}, {"id": 2866851, "name": "Nauroth", "country": "DE", "coord": {"lon": 7.86667, "lat": 50.700001}}, {"id": 6554477, "name": "Niederweis", "country": "DE", "coord": {"lon": 6.46667, "lat": 49.866699}}, {"id": 2862741, "name": "Niederweis", "country": "DE", "coord": {"lon": 6.46717, "lat": 49.869968}}, {"id": 2846987, "name": "Riemke", "country": "DE", "coord": {"lon": 7.83333, "lat": 51.383331}}, {"id": 2805182, "name": "Zaschendorf", "country": "DE", "coord": {"lon": 13.91391, "lat": 51.017429}}, {"id": 2852582, "name": "Porstendorf", "country": "DE", "coord": {"lon": 11.93333, "lat": 50.76667}}, {"id": 6555529, "name": "Offenau", "country": "DE", "coord": {"lon": 9.16056, "lat": 49.2458}}, {"id": 2857810, "name": "Offenau", "country": "DE", "coord": {"lon": 9.16056, "lat": 49.245831}}, {"id": 6552493, "name": "Coppengrave", "country": "DE", "coord": {"lon": 9.73333, "lat": 51.983299}}, {"id": 2939860, "name": "Coppengrave", "country": "DE", "coord": {"lon": 9.73333, "lat": 51.98333}}, {"id": 2953769, "name": "Babenried", "country": "DE", "coord": {"lon": 11.16667, "lat": 48.166672}}, {"id": 2865381, "name": "Neu Fahrland", "country": "DE", "coord": {"lon": 13.05, "lat": 52.450001}}, {"id": 2859991, "name": "Oberlaindern", "country": "DE", "coord": {"lon": 11.74001, "lat": 47.875542}}, {"id": 2913890, "name": "Gudensberg", "country": "DE", "coord": {"lon": 9.36667, "lat": 51.183331}}, {"id": 2820211, "name": "Ulsenheim", "country": "DE", "coord": {"lon": 10.3, "lat": 50.566669}}, {"id": 6548234, "name": "Zierow", "country": "DE", "coord": {"lon": 11.3667, "lat": 53.9333}}, {"id": 2804285, "name": "Zierow", "country": "DE", "coord": {"lon": 11.36667, "lat": 53.933331}}, {"id": 2943879, "name": "Broich", "country": "DE", "coord": {"lon": 6.18333, "lat": 50.849998}}, {"id": 2813719, "name": "Wassermungenau", "country": "DE", "coord": {"lon": 10.88333, "lat": 49.216671}}, {"id": 2959855, "name": "Abenberg", "country": "DE", "coord": {"lon": 10.96401, "lat": 49.242821}}, {"id": 6553671, "name": "Bullay", "country": "DE", "coord": {"lon": 7.13333, "lat": 50.0667}}, {"id": 2941826, "name": "Bullay", "country": "DE", "coord": {"lon": 7.13333, "lat": 50.066669}}, {"id": 2864398, "name": "Neuoelsa", "country": "DE", "coord": {"lon": 13.66667, "lat": 50.950001}}, {"id": 2955269, "name": "Aschara", "country": "DE", "coord": {"lon": 10.68333, "lat": 51.049999}}, {"id": 6553160, "name": "Rimbach", "country": "DE", "coord": {"lon": 8.76306, "lat": 49.625}}, {"id": 2846754, "name": "Rimbach", "country": "DE", "coord": {"lon": 8.76306, "lat": 49.625}}, {"id": 2954168, "name": "Augsdorf", "country": "DE", "coord": {"lon": 11.56667, "lat": 51.599998}}, {"id": 2834663, "name": "Schwatzen", "country": "DE", "coord": {"lon": 9.73333, "lat": 47.599998}}, {"id": 2848199, "name": "Rennebaum", "country": "DE", "coord": {"lon": 7.3, "lat": 51.349998}}, {"id": 2824285, "name": "Tambach-Dietharz", "country": "DE", "coord": {"lon": 10.61667, "lat": 50.799999}}, {"id": 2853035, "name": "Pogez", "country": "DE", "coord": {"lon": 10.93333, "lat": 53.76667}}, {"id": 6550399, "name": "Rothenstein", "country": "DE", "coord": {"lon": 11.6, "lat": 50.849998}}, {"id": 2843978, "name": "Rothenstein", "country": "DE", "coord": {"lon": 11.6, "lat": 50.849998}}, {"id": 6552538, "name": "Warpe", "country": "DE", "coord": {"lon": 9.10518, "lat": 52.740398}}, {"id": 2814031, "name": "Warpe", "country": "DE", "coord": {"lon": 9.1, "lat": 52.73333}}, {"id": 2894958, "name": "Jessenitz", "country": "DE", "coord": {"lon": 11.08744, "lat": 53.26963}}, {"id": 2813480, "name": "Weddersleben", "country": "DE", "coord": {"lon": 11.08333, "lat": 51.76667}}, {"id": 2839394, "name": "Schierlhof", "country": "DE", "coord": {"lon": 12.65, "lat": 48.799999}}, {"id": 2847835, "name": "Reute", "country": "DE", "coord": {"lon": 9.21667, "lat": 47.883331}}, {"id": 2845903, "name": "Rodt", "country": "DE", "coord": {"lon": 6.58333, "lat": 49.549999}}, {"id": 6553212, "name": "Rockenberg", "country": "DE", "coord": {"lon": 8.73333, "lat": 50.4333}}, {"id": 2846235, "name": "Rockenberg", "country": "DE", "coord": {"lon": 8.73688, "lat": 50.4305}}, {"id": 2816062, "name": "Vormwald", "country": "DE", "coord": {"lon": 9.26667, "lat": 50.066669}}, {"id": 6551780, "name": "Stoltenberg", "country": "DE", "coord": {"lon": 10.35, "lat": 54.349998}}, {"id": 2826511, "name": "Stoltenberg", "country": "DE", "coord": {"lon": 10.35, "lat": 54.349998}}, {"id": 2868789, "name": "Muhl", "country": "DE", "coord": {"lon": 7.05, "lat": 49.683331}}, {"id": 6556547, "name": "Kollnburg", "country": "DE", "coord": {"lon": 12.8667, "lat": 49.049999}}, {"id": 2886285, "name": "Kollnburg", "country": "DE", "coord": {"lon": 12.86121, "lat": 49.046638}}, {"id": 6555341, "name": "Merzalben", "country": "DE", "coord": {"lon": 7.73333, "lat": 49.25}}, {"id": 2871703, "name": "Merzalben", "country": "DE", "coord": {"lon": 7.73077, "lat": 49.244671}}, {"id": 6553601, "name": "Hettenrodt", "country": "DE", "coord": {"lon": 7.25, "lat": 49.733299}}, {"id": 2905225, "name": "Hettenrodt", "country": "DE", "coord": {"lon": 7.25, "lat": 49.73333}}, {"id": 2820517, "name": "\u00dcckesdorf", "country": "DE", "coord": {"lon": 7.08333, "lat": 50.700001}}, {"id": 2953502, "name": "Badenborn", "country": "DE", "coord": {"lon": 6.52262, "lat": 49.90691}}, {"id": 6555816, "name": "Villingendorf", "country": "DE", "coord": {"lon": 8.58333, "lat": 48.200001}}, {"id": 2817222, "name": "Villingendorf", "country": "DE", "coord": {"lon": 8.58333, "lat": 48.200001}}, {"id": 6557116, "name": "Merching", "country": "DE", "coord": {"lon": 10.9833, "lat": 48.25}}, {"id": 2871835, "name": "Merching", "country": "DE", "coord": {"lon": 10.9853, "lat": 48.245941}}, {"id": 2880189, "name": "Lauenau", "country": "DE", "coord": {"lon": 9.36928, "lat": 52.27393}}, {"id": 2863635, "name": "Niederau\u00dfem", "country": "DE", "coord": {"lon": 6.66667, "lat": 50.98333}}, {"id": 2843554, "name": "Rubenow", "country": "DE", "coord": {"lon": 13.547, "lat": 53.732059}}, {"id": 2852269, "name": "Preilack", "country": "DE", "coord": {"lon": 14.41667, "lat": 51.883331}}, {"id": 6554977, "name": "Ramsen", "country": "DE", "coord": {"lon": 8.01333, "lat": 49.5369}}, {"id": 2850566, "name": "Ramsen", "country": "DE", "coord": {"lon": 8.01333, "lat": 49.536942}}, {"id": 2851491, "name": "Quassel", "country": "DE", "coord": {"lon": 11.08333, "lat": 53.333328}}, {"id": 2818539, "name": "Unterth\u00fcrheim", "country": "DE", "coord": {"lon": 10.71667, "lat": 48.599998}}, {"id": 2870805, "name": "Mittelberg", "country": "DE", "coord": {"lon": 7.25, "lat": 51.083328}}, {"id": 3302158, "name": "Jerichower Land", "country": "DE", "coord": {"lon": 12.06806, "lat": 52.334171}}, {"id": 6549333, "name": "Biederitz", "country": "DE", "coord": {"lon": 11.7365, "lat": 52.145401}}, {"id": 2949221, "name": "Biederitz", "country": "DE", "coord": {"lon": 11.71667, "lat": 52.150002}}, {"id": 2808436, "name": "Wilsdruff", "country": "DE", "coord": {"lon": 13.53333, "lat": 51.049999}}, {"id": 6556841, "name": "Gerolfingen", "country": "DE", "coord": {"lon": 10.5167, "lat": 49.049999}}, {"id": 2920969, "name": "Gerolfingen", "country": "DE", "coord": {"lon": 10.51667, "lat": 49.049999}}, {"id": 6557312, "name": "Ofterschwang", "country": "DE", "coord": {"lon": 10.2333, "lat": 47.5}}, {"id": 2857753, "name": "Ofterschwang", "country": "DE", "coord": {"lon": 10.23333, "lat": 47.5}}, {"id": 2953520, "name": "Bad Durrheim", "country": "DE", "coord": {"lon": 8.53333, "lat": 48.01667}}, {"id": 6553483, "name": "Dorsheim", "country": "DE", "coord": {"lon": 7.86667, "lat": 49.916698}}, {"id": 2935535, "name": "Dorsheim", "country": "DE", "coord": {"lon": 7.86667, "lat": 49.916672}}, {"id": 2872824, "name": "Mauel", "country": "DE", "coord": {"lon": 6.51667, "lat": 50.566669}}, {"id": 6556473, "name": "Hinterschmiding", "country": "DE", "coord": {"lon": 13.6, "lat": 48.8167}}, {"id": 2903991, "name": "Hinterschmiding", "country": "DE", "coord": {"lon": 13.6, "lat": 48.816669}}, {"id": 6555661, "name": "Eschelbronn", "country": "DE", "coord": {"lon": 8.86528, "lat": 49.319401}}, {"id": 2929112, "name": "Eschelbronn", "country": "DE", "coord": {"lon": 8.86528, "lat": 49.319439}}, {"id": 6553921, "name": "Lautzenhausen", "country": "DE", "coord": {"lon": 7.26667, "lat": 49.9333}}, {"id": 2879861, "name": "Lautzenhausen", "country": "DE", "coord": {"lon": 7.26667, "lat": 49.933331}}, {"id": 2838201, "name": "Schluchtern", "country": "DE", "coord": {"lon": 9.52532, "lat": 50.348911}}, {"id": 2852608, "name": "Porbitz-Poppitz", "country": "DE", "coord": {"lon": 12.06667, "lat": 51.299999}}, {"id": 2891599, "name": "Kenoden", "country": "DE", "coord": {"lon": 12.75, "lat": 48.51667}}, {"id": 6553044, "name": "H\u00fcnxe", "country": "DE", "coord": {"lon": 6.78333, "lat": 51.650002}}, {"id": 2897283, "name": "Hunxe", "country": "DE", "coord": {"lon": 6.78333, "lat": 51.650002}}, {"id": 6552896, "name": "Hilkenbrook", "country": "DE", "coord": {"lon": 7.7, "lat": 52.983299}}, {"id": 2904735, "name": "Hilkenbrook", "country": "DE", "coord": {"lon": 7.7, "lat": 52.98333}}, {"id": 6552027, "name": "H\u00fcrup", "country": "DE", "coord": {"lon": 9.53333, "lat": 54.75}}, {"id": 2897211, "name": "Hurup", "country": "DE", "coord": {"lon": 9.53333, "lat": 54.75}}, {"id": 6554987, "name": "Stahlberg", "country": "DE", "coord": {"lon": 7.78333, "lat": 49.666698}}, {"id": 2829678, "name": "Stahlberg", "country": "DE", "coord": {"lon": 7.78333, "lat": 49.666672}}, {"id": 2829673, "name": "Stahle", "country": "DE", "coord": {"lon": 9.42919, "lat": 51.834721}}, {"id": 6556432, "name": "Huglfing", "country": "DE", "coord": {"lon": 11.1667, "lat": 47.766701}}, {"id": 2897991, "name": "Huglfing", "country": "DE", "coord": {"lon": 11.16667, "lat": 47.76667}}, {"id": 2943978, "name": "Brockhagen", "country": "DE", "coord": {"lon": 8.35, "lat": 51.98333}}, {"id": 6551659, "name": "Ratekau", "country": "DE", "coord": {"lon": 10.7333, "lat": 53.950001}}, {"id": 2850235, "name": "Ratekau", "country": "DE", "coord": {"lon": 10.73333, "lat": 53.950001}}, {"id": 6555676, "name": "Reilingen", "country": "DE", "coord": {"lon": 8.5649, "lat": 49.292252}}, {"id": 2848867, "name": "Reilingen", "country": "DE", "coord": {"lon": 8.56417, "lat": 49.298328}}, {"id": 2875107, "name": "Lunen", "country": "DE", "coord": {"lon": 7.51667, "lat": 51.616669}}, {"id": 6556129, "name": "Reichersbeuern", "country": "DE", "coord": {"lon": 11.6333, "lat": 47.766701}}, {"id": 2849047, "name": "Reichersbeuern", "country": "DE", "coord": {"lon": 11.63333, "lat": 47.76667}}, {"id": 6551899, "name": "Osterr\u00f6nfeld", "country": "DE", "coord": {"lon": 9.7018, "lat": 54.283699}}, {"id": 2856390, "name": "Osterronfeld", "country": "DE", "coord": {"lon": 9.7, "lat": 54.283329}}, {"id": 2913838, "name": "Guglingen", "country": "DE", "coord": {"lon": 8.99444, "lat": 49.069721}}, {"id": 2949289, "name": "Bickenriede", "country": "DE", "coord": {"lon": 10.35, "lat": 51.25}}, {"id": 2809411, "name": "Wierenkamp", "country": "DE", "coord": {"lon": 9.96667, "lat": 53.883331}}, {"id": 6553278, "name": "Oberaula", "country": "DE", "coord": {"lon": 9.4559, "lat": 50.856499}}, {"id": 2861358, "name": "Oberaula", "country": "DE", "coord": {"lon": 9.46667, "lat": 50.849998}}, {"id": 2871128, "name": "Mildstedthof", "country": "DE", "coord": {"lon": 9.1, "lat": 54.466671}}, {"id": 2875983, "name": "Lonnerstadt", "country": "DE", "coord": {"lon": 10.76667, "lat": 49.700001}}, {"id": 2862893, "name": "Niederschona", "country": "DE", "coord": {"lon": 13.41667, "lat": 50.966671}}, {"id": 2874993, "name": "L\u00fcsse", "country": "DE", "coord": {"lon": 12.66667, "lat": 52.150002}}, {"id": 2948306, "name": "Bischofferode", "country": "DE", "coord": {"lon": 9.76667, "lat": 51.133331}}, {"id": 2898341, "name": "Hovestadt", "country": "DE", "coord": {"lon": 8.15, "lat": 51.666672}}, {"id": 2926328, "name": "Fleckl", "country": "DE", "coord": {"lon": 11.81667, "lat": 50.01667}}, {"id": 6550010, "name": "Fambach", "country": "DE", "coord": {"lon": 10.3601, "lat": 50.754799}}, {"id": 2927850, "name": "Fambach", "country": "DE", "coord": {"lon": 10.36667, "lat": 50.73333}}, {"id": 2886849, "name": "K\u00f6ddingen", "country": "DE", "coord": {"lon": 9.2, "lat": 50.616669}}, {"id": 2828277, "name": "Steindamm", "country": "DE", "coord": {"lon": 10.56667, "lat": 54}}, {"id": 6554788, "name": "Riveris", "country": "DE", "coord": {"lon": 6.76667, "lat": 49.716702}}, {"id": 2846307, "name": "Riveris", "country": "DE", "coord": {"lon": 6.76667, "lat": 49.716671}}, {"id": 2873481, "name": "Marienthal", "country": "DE", "coord": {"lon": 13.27852, "lat": 53.05468}}, {"id": 2890412, "name": "Kirchmatting", "country": "DE", "coord": {"lon": 12.61145, "lat": 48.81218}}, {"id": 2828121, "name": "Steinfels", "country": "DE", "coord": {"lon": 12, "lat": 49.666672}}, {"id": 6554729, "name": "Fell", "country": "DE", "coord": {"lon": 6.78333, "lat": 49.766701}}, {"id": 2927273, "name": "Fell", "country": "DE", "coord": {"lon": 6.78333, "lat": 49.76667}}, {"id": 6556780, "name": "Effeltrich", "country": "DE", "coord": {"lon": 11.0908, "lat": 49.662201}}, {"id": 2933287, "name": "Effeltrich", "country": "DE", "coord": {"lon": 11.09319, "lat": 49.65929}}, {"id": 2947817, "name": "Bleischmelz", "country": "DE", "coord": {"lon": 6.7, "lat": 49.833328}}, {"id": 2925943, "name": "Folge", "country": "DE", "coord": {"lon": 14.65, "lat": 50.950001}}, {"id": 2888635, "name": "Kleinkorbetha", "country": "DE", "coord": {"lon": 12.05, "lat": 51.25}}, {"id": 6555539, "name": "D\u00f6rzbach", "country": "DE", "coord": {"lon": 9.70715, "lat": 49.383461}}, {"id": 2935488, "name": "Dorzbach", "country": "DE", "coord": {"lon": 9.70732, "lat": 49.383549}}, {"id": 2921522, "name": "Gelenau", "country": "DE", "coord": {"lon": 12.98333, "lat": 50.700001}}, {"id": 2959330, "name": "Afholderbach", "country": "DE", "coord": {"lon": 8.13333, "lat": 50.933331}}, {"id": 6557133, "name": "Emersacker", "country": "DE", "coord": {"lon": 10.6667, "lat": 48.5}}, {"id": 2930575, "name": "Emersacker", "country": "DE", "coord": {"lon": 10.66667, "lat": 48.5}}, {"id": 2949452, "name": "Beyersdorf", "country": "DE", "coord": {"lon": 12.18333, "lat": 51.599998}}, {"id": 6555376, "name": "Kleinsteinhausen", "country": "DE", "coord": {"lon": 7.46667, "lat": 49.200001}}, {"id": 2888172, "name": "Kleinsteinhausen", "country": "DE", "coord": {"lon": 7.46667, "lat": 49.200001}}, {"id": 6553771, "name": "M\u00fcnk", "country": "DE", "coord": {"lon": 7.03333, "lat": 50.299999}}, {"id": 2867583, "name": "Munk", "country": "DE", "coord": {"lon": 7.03333, "lat": 50.299999}}, {"id": 2804689, "name": "Zetta", "country": "DE", "coord": {"lon": 13.33333, "lat": 51.116669}}, {"id": 6555212, "name": "Ramberg", "country": "DE", "coord": {"lon": 8.00833, "lat": 49.2603}}, {"id": 2850722, "name": "Ramberg", "country": "DE", "coord": {"lon": 8.00833, "lat": 49.260281}}, {"id": 2911965, "name": "Haig", "country": "DE", "coord": {"lon": 11.27644, "lat": 50.281551}}, {"id": 2921346, "name": "Genholt", "country": "DE", "coord": {"lon": 6.18333, "lat": 51.25}}, {"id": 6548748, "name": "Zschepplin", "country": "DE", "coord": {"lon": 12.6, "lat": 51.5}}, {"id": 2803827, "name": "Zschepplin", "country": "DE", "coord": {"lon": 12.6, "lat": 51.5}}, {"id": 6552659, "name": "Wulfsen", "country": "DE", "coord": {"lon": 10.15, "lat": 53.299999}}, {"id": 2805891, "name": "Wulfsen", "country": "DE", "coord": {"lon": 10.15, "lat": 53.299999}}, {"id": 6551532, "name": "Bondelum", "country": "DE", "coord": {"lon": 9.26667, "lat": 54.5667}}, {"id": 2946488, "name": "Bondelum", "country": "DE", "coord": {"lon": 9.26667, "lat": 54.566669}}, {"id": 2805086, "name": "Zeestow", "country": "DE", "coord": {"lon": 12.95923, "lat": 52.573009}}, {"id": 3220802, "name": "Landkreis Neustadt an der Aisch-Bad Windsheim", "country": "DE", "coord": {"lon": 10.47722, "lat": 49.569172}}, {"id": 6556901, "name": "Ergersheim", "country": "DE", "coord": {"lon": 10.3333, "lat": 49.516701}}, {"id": 2929658, "name": "Ergersheim", "country": "DE", "coord": {"lon": 10.33333, "lat": 49.51667}}, {"id": 6555956, "name": "Ratshausen", "country": "DE", "coord": {"lon": 8.79511, "lat": 48.193642}}, {"id": 2850165, "name": "Ratshausen", "country": "DE", "coord": {"lon": 8.7952, "lat": 48.193729}}, {"id": 2882366, "name": "Kueps Oberfranken", "country": "DE", "coord": {"lon": 11.28333, "lat": 50.200001}}, {"id": 2851791, "name": "Puch", "country": "DE", "coord": {"lon": 11.21667, "lat": 48.183331}}, {"id": 6554132, "name": "Girod", "country": "DE", "coord": {"lon": 7.91667, "lat": 50.450001}}, {"id": 2920291, "name": "Girod", "country": "DE", "coord": {"lon": 7.91667, "lat": 50.450001}}, {"id": 6555256, "name": "Aspisheim", "country": "DE", "coord": {"lon": 7.98333, "lat": 49.900002}}, {"id": 2955053, "name": "Aspisheim", "country": "DE", "coord": {"lon": 7.98333, "lat": 49.900002}}, {"id": 2807992, "name": "Winkelhaid", "country": "DE", "coord": {"lon": 10.83333, "lat": 49.23333}}, {"id": 6553245, "name": "Flieden", "country": "DE", "coord": {"lon": 9.5649, "lat": 50.417099}}, {"id": 2926226, "name": "Flieden", "country": "DE", "coord": {"lon": 9.5666, "lat": 50.423889}}, {"id": 6551967, "name": "Idstedt", "country": "DE", "coord": {"lon": 9.51667, "lat": 54.583302}}, {"id": 2896739, "name": "Idstedt", "country": "DE", "coord": {"lon": 9.51667, "lat": 54.583328}}, {"id": 6557216, "name": "Jengen", "country": "DE", "coord": {"lon": 10.7333, "lat": 48}}, {"id": 2895034, "name": "Jengen", "country": "DE", "coord": {"lon": 10.72575, "lat": 47.99934}}, {"id": 6551902, "name": "Owschlag", "country": "DE", "coord": {"lon": 9.6, "lat": 54.383301}}, {"id": 2855820, "name": "Owschlag", "country": "DE", "coord": {"lon": 9.6, "lat": 54.383331}}, {"id": 2835359, "name": "Schwalheim", "country": "DE", "coord": {"lon": 8.76667, "lat": 50.349998}}, {"id": 2844434, "name": "Rotenburg an der Fulda", "country": "DE", "coord": {"lon": 9.71667, "lat": 50.98333}}, {"id": 2941150, "name": "Burgstadt", "country": "DE", "coord": {"lon": 12.81667, "lat": 50.916672}}, {"id": 2867996, "name": "Muhlhausen", "country": "DE", "coord": {"lon": 10.45, "lat": 51.216671}}, {"id": 2858017, "name": "\u00d6dinghausen", "country": "DE", "coord": {"lon": 7.55, "lat": 50.900002}}, {"id": 6554878, "name": "Vendersheim", "country": "DE", "coord": {"lon": 8.06861, "lat": 49.866402}}, {"id": 2817659, "name": "Vendersheim", "country": "DE", "coord": {"lon": 8.06861, "lat": 49.86639}}, {"id": 6555658, "name": "Br\u00fchl", "country": "DE", "coord": {"lon": 8.5381, "lat": 49.402699}}, {"id": 2943321, "name": "Bruhl", "country": "DE", "coord": {"lon": 8.53361, "lat": 49.397221}}, {"id": 6553173, "name": "B\u00fcttelborn", "country": "DE", "coord": {"lon": 8.5216, "lat": 49.903301}}, {"id": 2940633, "name": "Buttelborn", "country": "DE", "coord": {"lon": 8.52333, "lat": 49.903332}}, {"id": 2827988, "name": "Steinheim am der Murr", "country": "DE", "coord": {"lon": 9.28333, "lat": 48.966671}}, {"id": 6553038, "name": "J\u00fcchen", "country": "DE", "coord": {"lon": 6.5095, "lat": 51.099098}}, {"id": 2894637, "name": "Juchen", "country": "DE", "coord": {"lon": 6.5, "lat": 51.099998}}, {"id": 2930205, "name": "Engelthal", "country": "DE", "coord": {"lon": 11.39943, "lat": 49.471809}}, {"id": 2874768, "name": "Lutzelbach", "country": "DE", "coord": {"lon": 8.7675, "lat": 49.7425}}, {"id": 2812497, "name": "Weilmunster", "country": "DE", "coord": {"lon": 8.36667, "lat": 50.433331}}, {"id": 2820256, "name": "Ulm", "country": "DE", "coord": {"lon": 9.99155, "lat": 48.398411}}, {"id": 2812799, "name": "Weiher", "country": "DE", "coord": {"lon": 12.66667, "lat": 49.26667}}, {"id": 2857217, "name": "Oos", "country": "DE", "coord": {"lon": 6.58333, "lat": 50.23333}}, {"id": 6548768, "name": "Belgershain", "country": "DE", "coord": {"lon": 12.55, "lat": 51.233299}}, {"id": 2951254, "name": "Belgershain", "country": "DE", "coord": {"lon": 12.55, "lat": 51.23333}}, {"id": 2953398, "name": "Bad Munstereifel", "country": "DE", "coord": {"lon": 6.76667, "lat": 50.549999}}, {"id": 2841674, "name": "Sankt Alban", "country": "DE", "coord": {"lon": 7.86667, "lat": 49.683331}}, {"id": 2936974, "name": "Dillingen an der Donau", "country": "DE", "coord": {"lon": 10.48333, "lat": 48.566669}}, {"id": 2846181, "name": "Roda", "country": "DE", "coord": {"lon": 11.45, "lat": 50.549999}}, {"id": 2843395, "name": "Rudesheim am Rhein", "country": "DE", "coord": {"lon": 7.92183, "lat": 49.978409}}, {"id": 2918143, "name": "Gramschatz", "country": "DE", "coord": {"lon": 9.97139, "lat": 49.928059}}, {"id": 2876185, "name": "Lohne", "country": "DE", "coord": {"lon": 8.23333, "lat": 52.666672}}, {"id": 2933210, "name": "Egenried", "country": "DE", "coord": {"lon": 11.23333, "lat": 47.76667}}, {"id": 2811111, "name": "Wenigm\u00fcnchen", "country": "DE", "coord": {"lon": 11.21667, "lat": 48.26667}}, {"id": 2905504, "name": "Herzberg", "country": "DE", "coord": {"lon": 13.22016, "lat": 51.68692}}, {"id": 2927316, "name": "Feldolling", "country": "DE", "coord": {"lon": 11.85571, "lat": 47.894939}}, {"id": 2819401, "name": "Unterhausen", "country": "DE", "coord": {"lon": 11.15, "lat": 47.866669}}, {"id": 2881650, "name": "Landau an der Isar", "country": "DE", "coord": {"lon": 12.69316, "lat": 48.672489}}, {"id": 2928729, "name": "Esterhofen", "country": "DE", "coord": {"lon": 11.45, "lat": 48.366669}}, {"id": 6548287, "name": "Loissin", "country": "DE", "coord": {"lon": 13.5333, "lat": 54.116699}}, {"id": 2876065, "name": "Loissin", "country": "DE", "coord": {"lon": 13.53333, "lat": 54.116669}}, {"id": 2820643, "name": "Twistringen", "country": "DE", "coord": {"lon": 8.65, "lat": 52.799999}}, {"id": 2818736, "name": "Untersch\u00f6neberg", "country": "DE", "coord": {"lon": 10.58413, "lat": 48.445492}}, {"id": 6556620, "name": "K\u00fcmmersbruck", "country": "DE", "coord": {"lon": 11.8883, "lat": 49.419201}}, {"id": 2882529, "name": "Kummersbruck", "country": "DE", "coord": {"lon": 11.88833, "lat": 49.41917}}, {"id": 2807446, "name": "Wisselsdorf", "country": "DE", "coord": {"lon": 12.81667, "lat": 48.666672}}, {"id": 2815421, "name": "Wahles", "country": "DE", "coord": {"lon": 10.38333, "lat": 50.76667}}, {"id": 2950622, "name": "Bergen", "country": "DE", "coord": {"lon": 9.96374, "lat": 52.808369}}, {"id": 2890479, "name": "Kirchheim bei Muenchen", "country": "DE", "coord": {"lon": 11.75563, "lat": 48.176559}}, {"id": 6552069, "name": "Freienwill", "country": "DE", "coord": {"lon": 9.5, "lat": 54.733299}}, {"id": 2925134, "name": "Freienwill", "country": "DE", "coord": {"lon": 9.5, "lat": 54.73333}}, {"id": 2810777, "name": "Wernsdorf", "country": "DE", "coord": {"lon": 13.71667, "lat": 52.366669}}, {"id": 2911960, "name": "Haigerloch", "country": "DE", "coord": {"lon": 8.80357, "lat": 48.366138}}, {"id": 6556094, "name": "Sauldorf", "country": "DE", "coord": {"lon": 9.1, "lat": 47.9333}}, {"id": 2841128, "name": "Sauldorf", "country": "DE", "coord": {"lon": 9.1, "lat": 47.933331}}, {"id": 2882439, "name": "Kunzelsau", "country": "DE", "coord": {"lon": 9.68889, "lat": 49.28194}}, {"id": 2956787, "name": "Altusried", "country": "DE", "coord": {"lon": 10.21667, "lat": 47.799999}}, {"id": 2814463, "name": "Walsm\u00fchlen", "country": "DE", "coord": {"lon": 11.26667, "lat": 53.566669}}, {"id": 2898461, "name": "H\u00f6sseringen", "country": "DE", "coord": {"lon": 10.41658, "lat": 52.859081}}, {"id": 2878484, "name": "Lessien", "country": "DE", "coord": {"lon": 10.8, "lat": 52.566669}}, {"id": 2866698, "name": "Neermoor", "country": "DE", "coord": {"lon": 7.43333, "lat": 53.299999}}, {"id": 2947053, "name": "Boekzetelerfehn", "country": "DE", "coord": {"lon": 7.51667, "lat": 53.333328}}, {"id": 2806971, "name": "Wold", "country": "DE", "coord": {"lon": 7.6, "lat": 53.650002}}, {"id": 6552953, "name": "Jemgum", "country": "DE", "coord": {"lon": 7.38333, "lat": 53.266701}}, {"id": 2895051, "name": "Jemgum", "country": "DE", "coord": {"lon": 7.38333, "lat": 53.26667}}, {"id": 2949926, "name": "Berolzheim", "country": "DE", "coord": {"lon": 9.54, "lat": 49.474998}}, {"id": 6555621, "name": "Oberhausen-Rheinhausen", "country": "DE", "coord": {"lon": 8.47167, "lat": 49.273899}}, {"id": 2860400, "name": "Oberhausen-Rheinhausen", "country": "DE", "coord": {"lon": 8.47167, "lat": 49.273891}}, {"id": 2877871, "name": "Liedering", "country": "DE", "coord": {"lon": 12.33333, "lat": 48.01667}}, {"id": 6556269, "name": "P\u00fcrgen", "country": "DE", "coord": {"lon": 10.9167, "lat": 48.033298}}, {"id": 2851664, "name": "Purgen", "country": "DE", "coord": {"lon": 10.92213, "lat": 48.024719}}, {"id": 2867726, "name": "Munchberg", "country": "DE", "coord": {"lon": 11.78333, "lat": 50.200001}}, {"id": 6555664, "name": "Heiligkreuzsteinach", "country": "DE", "coord": {"lon": 8.795, "lat": 49.483299}}, {"id": 2907501, "name": "Heiligkreuzsteinach", "country": "DE", "coord": {"lon": 8.795, "lat": 49.48333}}, {"id": 6555503, "name": "Pl\u00fcderhausen", "country": "DE", "coord": {"lon": 9.5946, "lat": 48.799301}}, {"id": 2853107, "name": "Pluderhausen", "country": "DE", "coord": {"lon": 9.59587, "lat": 48.798752}}, {"id": 6552841, "name": "D\u00f6rverden", "country": "DE", "coord": {"lon": 9.2711, "lat": 52.845901}}, {"id": 2935491, "name": "Dorverden", "country": "DE", "coord": {"lon": 9.23333, "lat": 52.849998}}, {"id": 2890114, "name": "Klagebach", "country": "DE", "coord": {"lon": 7.53333, "lat": 51.23333}}, {"id": 2872306, "name": "Meiersberg", "country": "DE", "coord": {"lon": 7.26667, "lat": 51.049999}}, {"id": 2886159, "name": "Kolonie Kienitz", "country": "DE", "coord": {"lon": 13.50675, "lat": 52.853951}}, {"id": 2918321, "name": "Grafenhainichen", "country": "DE", "coord": {"lon": 12.45, "lat": 51.73333}}, {"id": 2892623, "name": "Kartzow", "country": "DE", "coord": {"lon": 12.98333, "lat": 52.5}}, {"id": 6552142, "name": "Stuvenborn", "country": "DE", "coord": {"lon": 10.1333, "lat": 53.849998}}, {"id": 2825266, "name": "Stuvenborn", "country": "DE", "coord": {"lon": 10.13333, "lat": 53.849998}}, {"id": 2905348, "name": "Hesseldorf", "country": "DE", "coord": {"lon": 9.30765, "lat": 50.270691}}, {"id": 6554133, "name": "Goddert", "country": "DE", "coord": {"lon": 7.73333, "lat": 50.549999}}, {"id": 2919598, "name": "Goddert", "country": "DE", "coord": {"lon": 7.73333, "lat": 50.549999}}, {"id": 2904709, "name": "Hillensberg", "country": "DE", "coord": {"lon": 5.91644, "lat": 50.981529}}, {"id": 2875417, "name": "Ludinghausen", "country": "DE", "coord": {"lon": 7.46667, "lat": 51.76667}}, {"id": 6557275, "name": "Deiningen", "country": "DE", "coord": {"lon": 10.5667, "lat": 48.866699}}, {"id": 2938439, "name": "Deiningen", "country": "DE", "coord": {"lon": 10.56667, "lat": 48.866669}}, {"id": 2942073, "name": "Budingen", "country": "DE", "coord": {"lon": 9.11667, "lat": 50.299999}}, {"id": 3272461, "name": "Linkenheim-Hochstetten", "country": "DE", "coord": {"lon": 8.41244, "lat": 49.131969}}, {"id": 2868998, "name": "Motrich", "country": "DE", "coord": {"lon": 11.68333, "lat": 53.033329}}, {"id": 2953348, "name": "Bad Schwalbach", "country": "DE", "coord": {"lon": 8.06667, "lat": 50.133331}}, {"id": 2863711, "name": "Nideggen", "country": "DE", "coord": {"lon": 6.48333, "lat": 50.700001}}, {"id": 2929804, "name": "Erbach", "country": "DE", "coord": {"lon": 9.88752, "lat": 48.328411}}, {"id": 2852566, "name": "Porz am Rhein", "country": "DE", "coord": {"lon": 7.05, "lat": 50.883331}}, {"id": 2867542, "name": "Munster", "country": "DE", "coord": {"lon": 10.08333, "lat": 52.98333}}, {"id": 2933429, "name": "Edenb\u00fcttel", "country": "DE", "coord": {"lon": 8.61667, "lat": 53.150002}}, {"id": 6552392, "name": "Edemissen", "country": "DE", "coord": {"lon": 10.2667, "lat": 52.383301}}, {"id": 2933442, "name": "Edemissen", "country": "DE", "coord": {"lon": 10.2614, "lat": 52.38702}}, {"id": 2943408, "name": "Bruckmuhl", "country": "DE", "coord": {"lon": 11.91667, "lat": 47.883331}}, {"id": 2843771, "name": "Rottau", "country": "DE", "coord": {"lon": 12.41667, "lat": 47.799999}}, {"id": 2920070, "name": "Glaslern", "country": "DE", "coord": {"lon": 11.93333, "lat": 48.383331}}, {"id": 6556409, "name": "Reit im Winkl", "country": "DE", "coord": {"lon": 12.5281, "lat": 47.658699}}, {"id": 2848382, "name": "Reit im Winkl", "country": "DE", "coord": {"lon": 12.47086, "lat": 47.677292}}, {"id": 2874695, "name": "Lychen", "country": "DE", "coord": {"lon": 13.3, "lat": 53.200001}}, {"id": 2842835, "name": "Rutenberg", "country": "DE", "coord": {"lon": 13.30676, "lat": 53.251759}}, {"id": 2805176, "name": "Zaschwitz", "country": "DE", "coord": {"lon": 11.81667, "lat": 51.583328}}, {"id": 6556695, "name": "Wenzenbach", "country": "DE", "coord": {"lon": 12.1942, "lat": 49.0756}}, {"id": 2811013, "name": "Wenzenbach", "country": "DE", "coord": {"lon": 12.19417, "lat": 49.075562}}, {"id": 2888435, "name": "Klein Nordsee", "country": "DE", "coord": {"lon": 9.96667, "lat": 54.316669}}, {"id": 2900236, "name": "Holtdorf", "country": "DE", "coord": {"lon": 9.73333, "lat": 54.183331}}, {"id": 6552785, "name": "Beckdorf", "country": "DE", "coord": {"lon": 9.61667, "lat": 53.416698}}, {"id": 2951725, "name": "Beckdorf", "country": "DE", "coord": {"lon": 9.61667, "lat": 53.416672}}, {"id": 2891981, "name": "Keelbek", "country": "DE", "coord": {"lon": 9.41667, "lat": 54.650002}}, {"id": 2947047, "name": "B\u00f6elschuby", "country": "DE", "coord": {"lon": 9.68333, "lat": 54.650002}}, {"id": 2919763, "name": "Gluckstadt", "country": "DE", "coord": {"lon": 9.41667, "lat": 53.783329}}, {"id": 2875542, "name": "Luchow", "country": "DE", "coord": {"lon": 11.15, "lat": 52.966671}}, {"id": 2844012, "name": "Rothenkirchen", "country": "DE", "coord": {"lon": 12.5, "lat": 50.533329}}, {"id": 2955456, "name": "Arnsdorf", "country": "DE", "coord": {"lon": 13.86667, "lat": 51.433331}}, {"id": 2817469, "name": "Viehbig", "country": "DE", "coord": {"lon": 14.58333, "lat": 51.01667}}, {"id": 2922264, "name": "Gaulis", "country": "DE", "coord": {"lon": 12.4, "lat": 51.183331}}, {"id": 2872619, "name": "Mechelgr\u00fcn", "country": "DE", "coord": {"lon": 12.23333, "lat": 50.48333}}, {"id": 2807678, "name": "Winterstein", "country": "DE", "coord": {"lon": 10.45, "lat": 50.883331}}, {"id": 2888926, "name": "Kleinfahner", "country": "DE", "coord": {"lon": 10.85, "lat": 51.033329}}, {"id": 6550460, "name": "Oppurg", "country": "DE", "coord": {"lon": 11.65117, "lat": 50.710918}}, {"id": 2857134, "name": "Oppurg", "country": "DE", "coord": {"lon": 11.65289, "lat": 50.710651}}, {"id": 2884767, "name": "Kranich", "country": "DE", "coord": {"lon": 12, "lat": 50.683331}}, {"id": 2902768, "name": "Hof", "country": "DE", "coord": {"lon": 11.91667, "lat": 50.316669}}, {"id": 2936642, "name": "D\u00f6berein", "country": "DE", "coord": {"lon": 11.88333, "lat": 49.916672}}, {"id": 2809606, "name": "Wiedenbr\u00fcck", "country": "DE", "coord": {"lon": 8.31667, "lat": 51.833328}}, {"id": 2803564, "name": "Zwesten", "country": "DE", "coord": {"lon": 9.18333, "lat": 51.049999}}, {"id": 2815524, "name": "Wagenfeld", "country": "DE", "coord": {"lon": 8.58333, "lat": 52.549999}}, {"id": 2815523, "name": "Wagenfeld", "country": "DE", "coord": {"lon": 8.58333, "lat": 52.549999}}, {"id": 2935326, "name": "Dransfeld", "country": "DE", "coord": {"lon": 9.76667, "lat": 51.5}}, {"id": 6553145, "name": "Erndtebr\u00fcck", "country": "DE", "coord": {"lon": 8.26667, "lat": 50.983299}}, {"id": 2929370, "name": "Erndtebruck", "country": "DE", "coord": {"lon": 8.26667, "lat": 50.98333}}, {"id": 3207806, "name": "Mulheim-Karlich", "country": "DE", "coord": {"lon": 7.5, "lat": 50.383331}}, {"id": 2867843, "name": "M\u00fclheim", "country": "DE", "coord": {"lon": 7.5, "lat": 50.383331}}, {"id": 2803468, "name": "Zyfflich", "country": "DE", "coord": {"lon": 5.96667, "lat": 51.816669}}, {"id": 2879210, "name": "Leinach", "country": "DE", "coord": {"lon": 10.41667, "lat": 50.23333}}, {"id": 6557101, "name": "Th\u00fcngersheim", "country": "DE", "coord": {"lon": 9.84917, "lat": 49.8783}}, {"id": 2822563, "name": "Thungersheim", "country": "DE", "coord": {"lon": 9.84917, "lat": 49.87833}}, {"id": 6557085, "name": "G\u00fcntersleben", "country": "DE", "coord": {"lon": 9.905, "lat": 49.869701}}, {"id": 2913587, "name": "Guntersleben", "country": "DE", "coord": {"lon": 9.905, "lat": 49.86972}}, {"id": 2857484, "name": "Olbernhau", "country": "DE", "coord": {"lon": 13.33333, "lat": 50.666672}}, {"id": 2861158, "name": "Oberb\u00fcrg", "country": "DE", "coord": {"lon": 11.15, "lat": 49.466671}}, {"id": 2923471, "name": "Gabelbach", "country": "DE", "coord": {"lon": 10.56782, "lat": 48.379971}}, {"id": 6555689, "name": "Gechingen", "country": "DE", "coord": {"lon": 8.82957, "lat": 48.695438}}, {"id": 2922136, "name": "Gechingen", "country": "DE", "coord": {"lon": 8.82915, "lat": 48.695271}}, {"id": 2925189, "name": "Freiberg am Neckar", "country": "DE", "coord": {"lon": 9.2024, "lat": 48.931961}}, {"id": 2882091, "name": "Bad Laasphe", "country": "DE", "coord": {"lon": 8.4, "lat": 50.933331}}, {"id": 2845186, "name": "R\u00f6ppisch", "country": "DE", "coord": {"lon": 11.68333, "lat": 50.51667}}, {"id": 6555078, "name": "B\u00f6rsborn", "country": "DE", "coord": {"lon": 7.4, "lat": 49.4333}}, {"id": 2946025, "name": "Borsborn", "country": "DE", "coord": {"lon": 7.4, "lat": 49.433331}}, {"id": 2944743, "name": "Breiten", "country": "DE", "coord": {"lon": 7.16667, "lat": 49.466671}}, {"id": 2860447, "name": "Oberhatzkofen", "country": "DE", "coord": {"lon": 12, "lat": 48.700001}}, {"id": 6552975, "name": "Bad Essen", "country": "DE", "coord": {"lon": 8.413, "lat": 52.317501}}, {"id": 2953464, "name": "Bad Essen", "country": "DE", "coord": {"lon": 8.33333, "lat": 52.316669}}, {"id": 2878676, "name": "Leopoldshafen", "country": "DE", "coord": {"lon": 8.39999, "lat": 49.096241}}, {"id": 2935042, "name": "Drensteinfurt", "country": "DE", "coord": {"lon": 7.73815, "lat": 51.795349}}, {"id": 6547410, "name": "Hohenbucko", "country": "DE", "coord": {"lon": 13.4667, "lat": 51.766701}}, {"id": 2901861, "name": "Hohenbucko", "country": "DE", "coord": {"lon": 13.46667, "lat": 51.76667}}, {"id": 6551557, "name": "Horstedt", "country": "DE", "coord": {"lon": 9.06667, "lat": 54.533298}}, {"id": 2898607, "name": "Horstedt", "country": "DE", "coord": {"lon": 9.06667, "lat": 54.533329}}, {"id": 2936886, "name": "Dinkelsbuhl", "country": "DE", "coord": {"lon": 10.31985, "lat": 49.06942}}, {"id": 6553099, "name": "Senden", "country": "DE", "coord": {"lon": 7.5, "lat": 51.849998}}, {"id": 2833079, "name": "Senden", "country": "DE", "coord": {"lon": 7.5, "lat": 51.849998}}, {"id": 6554078, "name": "Oberneisen", "country": "DE", "coord": {"lon": 8.08333, "lat": 50.3167}}, {"id": 2859593, "name": "Oberneisen", "country": "DE", "coord": {"lon": 8.08333, "lat": 50.316669}}, {"id": 2822924, "name": "Theener", "country": "DE", "coord": {"lon": 7.3, "lat": 53.666672}}, {"id": 2946286, "name": "B\u00f6rgerwald", "country": "DE", "coord": {"lon": 7.53662, "lat": 52.973042}}, {"id": 6552942, "name": "Quendorf", "country": "DE", "coord": {"lon": 7.18333, "lat": 52.333302}}, {"id": 3204963, "name": "Quendorf", "country": "DE", "coord": {"lon": 7.18333, "lat": 52.333328}}, {"id": 6554544, "name": "Gransdorf", "country": "DE", "coord": {"lon": 6.68333, "lat": 50.016701}}, {"id": 2918091, "name": "Gransdorf", "country": "DE", "coord": {"lon": 6.68333, "lat": 50.01667}}, {"id": 6554662, "name": "Saxler", "country": "DE", "coord": {"lon": 6.9, "lat": 50.133301}}, {"id": 2841050, "name": "Saxler", "country": "DE", "coord": {"lon": 6.9, "lat": 50.133331}}, {"id": 6557143, "name": "Kutzenhausen", "country": "DE", "coord": {"lon": 10.7, "lat": 48.333302}}, {"id": 2882192, "name": "Kutzenhausen", "country": "DE", "coord": {"lon": 10.7, "lat": 48.333328}}, {"id": 2838629, "name": "Schlettach", "country": "DE", "coord": {"lon": 10.86667, "lat": 50.26667}}, {"id": 2879032, "name": "Leitersdorf", "country": "DE", "coord": {"lon": 12.31667, "lat": 48.75}}, {"id": 2952977, "name": "Bamling", "country": "DE", "coord": {"lon": 12.88333, "lat": 48.716671}}, {"id": 2890388, "name": "Kirchsch\u00f6nbach", "country": "DE", "coord": {"lon": 10.38333, "lat": 49.816669}}, {"id": 2911360, "name": "Hambach", "country": "DE", "coord": {"lon": 6.45, "lat": 50.900002}}, {"id": 2843923, "name": "Rothhausen", "country": "DE", "coord": {"lon": 10.33333, "lat": 50.183331}}, {"id": 6555450, "name": "Bad \u00dcberkingen", "country": "DE", "coord": {"lon": 9.79624, "lat": 48.599941}}, {"id": 2953322, "name": "Bad Uberkingen", "country": "DE", "coord": {"lon": 9.79586, "lat": 48.599911}}, {"id": 6555310, "name": "Zornheim", "country": "DE", "coord": {"lon": 8.22472, "lat": 49.889999}}, {"id": 2803882, "name": "Zornheim", "country": "DE", "coord": {"lon": 8.22472, "lat": 49.889999}}, {"id": 2865705, "name": "Neuenha\u00dflau", "country": "DE", "coord": {"lon": 9.09101, "lat": 50.162048}}, {"id": 2927516, "name": "Feil", "country": "DE", "coord": {"lon": 7.8, "lat": 49.76667}}, {"id": 6554845, "name": "Flonheim", "country": "DE", "coord": {"lon": 8.04, "lat": 49.785}}, {"id": 2926135, "name": "Flonheim", "country": "DE", "coord": {"lon": 8.04, "lat": 49.785}}, {"id": 2815417, "name": "Wahlheimer Hof", "country": "DE", "coord": {"lon": 8.23333, "lat": 49.866669}}, {"id": 2957012, "name": "Altmannsdorf", "country": "DE", "coord": {"lon": 10.43333, "lat": 49.933331}}, {"id": 2956234, "name": "Anderbeck", "country": "DE", "coord": {"lon": 10.93333, "lat": 51.98333}}, {"id": 2871077, "name": "Miltern", "country": "DE", "coord": {"lon": 11.93321, "lat": 52.558609}}, {"id": 2811326, "name": "Wenddorf", "country": "DE", "coord": {"lon": 11.75, "lat": 52.383331}}, {"id": 2915511, "name": "Grossheubach", "country": "DE", "coord": {"lon": 9.22528, "lat": 49.727219}}, {"id": 2953389, "name": "Bad Neustadt an der Saale", "country": "DE", "coord": {"lon": 10.21667, "lat": 50.333328}}, {"id": 6556972, "name": "Bastheim", "country": "DE", "coord": {"lon": 10.2, "lat": 50.400002}}, {"id": 2952238, "name": "Bastheim", "country": "DE", "coord": {"lon": 10.2, "lat": 50.400002}}, {"id": 2923901, "name": "Fuchsstadt", "country": "DE", "coord": {"lon": 9.97, "lat": 49.698891}}, {"id": 2947573, "name": "Blume", "country": "DE", "coord": {"lon": 9.66667, "lat": 51.416672}}, {"id": 2892357, "name": "Katlenburg-Duhm", "country": "DE", "coord": {"lon": 10.1, "lat": 51.683331}}, {"id": 2826737, "name": "St\u00f6ckheim", "country": "DE", "coord": {"lon": 9.93333, "lat": 51.75}}, {"id": 6552513, "name": "Kirchbrak", "country": "DE", "coord": {"lon": 9.58333, "lat": 51.966702}}, {"id": 2890635, "name": "Kirchbrak", "country": "DE", "coord": {"lon": 9.5751, "lat": 51.965851}}, {"id": 6555410, "name": "Altenriet", "country": "DE", "coord": {"lon": 9.22171, "lat": 48.591358}}, {"id": 2957499, "name": "Altenriet", "country": "DE", "coord": {"lon": 9.22186, "lat": 48.5914}}, {"id": 2816553, "name": "Vollochhof", "country": "DE", "coord": {"lon": 9.56667, "lat": 48.066669}}, {"id": 2899200, "name": "Hopferbach", "country": "DE", "coord": {"lon": 9.61667, "lat": 48}}, {"id": 2920924, "name": "Gershasen", "country": "DE", "coord": {"lon": 7.95, "lat": 50.566669}}, {"id": 2927647, "name": "Fechenbach", "country": "DE", "coord": {"lon": 9.34278, "lat": 49.772221}}, {"id": 6557027, "name": "M\u00f6mlingen", "country": "DE", "coord": {"lon": 9.0912, "lat": 49.846199}}, {"id": 2869934, "name": "Momlingen", "country": "DE", "coord": {"lon": 9.08333, "lat": 49.859718}}, {"id": 2816671, "name": "Volkersbrunn", "country": "DE", "coord": {"lon": 9.26833, "lat": 49.896389}}, {"id": 6557055, "name": "Donnersdorf", "country": "DE", "coord": {"lon": 10.4167, "lat": 49.966702}}, {"id": 2936210, "name": "Donnersdorf", "country": "DE", "coord": {"lon": 10.41667, "lat": 49.966671}}, {"id": 2804865, "name": "Zell am Main", "country": "DE", "coord": {"lon": 9.86972, "lat": 49.810001}}, {"id": 2864836, "name": "Neuh\u00fcckeswagen", "country": "DE", "coord": {"lon": 7.35, "lat": 51.150002}}, {"id": 6553092, "name": "S\u00fcdlohn", "country": "DE", "coord": {"lon": 6.86667, "lat": 51.9333}}, {"id": 2824998, "name": "Sudlohn", "country": "DE", "coord": {"lon": 6.86667, "lat": 51.933331}}, {"id": 2845833, "name": "Rogglfing", "country": "DE", "coord": {"lon": 12.06667, "lat": 48.283329}}, {"id": 2842816, "name": "Ruthen", "country": "DE", "coord": {"lon": 8.43596, "lat": 51.490898}}, {"id": 2907609, "name": "Heiligenborn", "country": "DE", "coord": {"lon": 13.01667, "lat": 51.066669}}, {"id": 2941202, "name": "Burg Layen", "country": "DE", "coord": {"lon": 7.86518, "lat": 49.929901}}, {"id": 2881835, "name": "Laimering", "country": "DE", "coord": {"lon": 11.08701, "lat": 48.388889}}, {"id": 2845366, "name": "Romatsried", "country": "DE", "coord": {"lon": 10.51667, "lat": 47.900002}}, {"id": 2894575, "name": "J\u00fchnsdorf", "country": "DE", "coord": {"lon": 13.38333, "lat": 52.299999}}, {"id": 3305812, "name": "Landkreis S\u00e4chsische Schweiz", "country": "DE", "coord": {"lon": 14.08056, "lat": 50.950562}}, {"id": 6548705, "name": "Dorfhain", "country": "DE", "coord": {"lon": 13.5667, "lat": 50.9333}}, {"id": 2936089, "name": "Dorfhain", "country": "DE", "coord": {"lon": 13.56667, "lat": 50.933331}}, {"id": 2928856, "name": "Espenscheid", "country": "DE", "coord": {"lon": 7.9, "lat": 50.116669}}, {"id": 6552928, "name": "Werpeloh", "country": "DE", "coord": {"lon": 7.5, "lat": 52.883301}}, {"id": 2810763, "name": "Werpeloh", "country": "DE", "coord": {"lon": 7.5, "lat": 52.883331}}, {"id": 2863772, "name": "Neu Zittau", "country": "DE", "coord": {"lon": 13.75, "lat": 52.366669}}, {"id": 6552592, "name": "Kirchwistedt", "country": "DE", "coord": {"lon": 8.9, "lat": 53.416698}}, {"id": 2890330, "name": "Kirchwistedt", "country": "DE", "coord": {"lon": 8.89043, "lat": 53.4235}}, {"id": 6552577, "name": "Cadenberge", "country": "DE", "coord": {"lon": 9.0679, "lat": 53.764999}}, {"id": 2940430, "name": "Cadenberge", "country": "DE", "coord": {"lon": 9.06269, "lat": 53.76926}}, {"id": 2857148, "name": "Oppershofen", "country": "DE", "coord": {"lon": 8.74512, "lat": 50.41782}}, {"id": 6547548, "name": "Friedrichswalde", "country": "DE", "coord": {"lon": 13.7167, "lat": 53.033298}}, {"id": 2924443, "name": "Friedrichswalde", "country": "DE", "coord": {"lon": 13.70682, "lat": 53.02919}}, {"id": 2891564, "name": "Kerkow", "country": "DE", "coord": {"lon": 13.98834, "lat": 53.037289}}, {"id": 2954742, "name": "Aubenham", "country": "DE", "coord": {"lon": 12.38333, "lat": 48.299999}}, {"id": 6555053, "name": "Oberarnbach", "country": "DE", "coord": {"lon": 7.58333, "lat": 49.383301}}, {"id": 2861407, "name": "Oberarnbach", "country": "DE", "coord": {"lon": 7.58333, "lat": 49.383331}}, {"id": 2868979, "name": "Motzen", "country": "DE", "coord": {"lon": 8.56667, "lat": 53.166672}}, {"id": 6555323, "name": "Geiselberg", "country": "DE", "coord": {"lon": 7.7, "lat": 49.333302}}, {"id": 2921746, "name": "Geiselberg", "country": "DE", "coord": {"lon": 7.7, "lat": 49.333328}}, {"id": 2900216, "name": "Holtendorf", "country": "DE", "coord": {"lon": 14.9, "lat": 51.150002}}, {"id": 6554877, "name": "Udenheim", "country": "DE", "coord": {"lon": 8.17167, "lat": 49.8647}}, {"id": 2820499, "name": "Udenheim", "country": "DE", "coord": {"lon": 8.17167, "lat": 49.864719}}, {"id": 2943049, "name": "Brunsbuttel", "country": "DE", "coord": {"lon": 9.15, "lat": 53.900002}}, {"id": 2893529, "name": "Kaltensondheim", "country": "DE", "coord": {"lon": 10.08854, "lat": 49.729469}}, {"id": 2821326, "name": "Trennewurth", "country": "DE", "coord": {"lon": 9.01667, "lat": 54.01667}}, {"id": 2821330, "name": "Trennewurth", "country": "DE", "coord": {"lon": 9.03333, "lat": 54}}, {"id": 6552789, "name": "Deinste", "country": "DE", "coord": {"lon": 9.43333, "lat": 53.533298}}, {"id": 2938430, "name": "Deinste", "country": "DE", "coord": {"lon": 9.43333, "lat": 53.533329}}, {"id": 2953809, "name": "Baalborn", "country": "DE", "coord": {"lon": 7.83333, "lat": 49.5}}, {"id": 2826315, "name": "Straberg", "country": "DE", "coord": {"lon": 6.762, "lat": 51.093391}}, {"id": 6548453, "name": "Glasow", "country": "DE", "coord": {"lon": 14.2667, "lat": 53.383301}}, {"id": 2920063, "name": "Glasow", "country": "DE", "coord": {"lon": 14.26667, "lat": 53.383331}}, {"id": 2804009, "name": "Ziswingen", "country": "DE", "coord": {"lon": 10.58704, "lat": 48.78606}}, {"id": 2853057, "name": "Podelsatz", "country": "DE", "coord": {"lon": 11.7, "lat": 50.883331}}, {"id": 6554312, "name": "Eckfeld", "country": "DE", "coord": {"lon": 6.85, "lat": 50.116699}}, {"id": 2933587, "name": "Eckfeld", "country": "DE", "coord": {"lon": 6.85, "lat": 50.116669}}, {"id": 2938956, "name": "Danstedt", "country": "DE", "coord": {"lon": 10.88333, "lat": 51.900002}}, {"id": 6548554, "name": "Gr\u00fcnhainichen", "country": "DE", "coord": {"lon": 13.1667, "lat": 50.766701}}, {"id": 2914186, "name": "Grunhainichen", "country": "DE", "coord": {"lon": 13.16667, "lat": 50.76667}}, {"id": 6552705, "name": "Hambergen", "country": "DE", "coord": {"lon": 8.83333, "lat": 53.3167}}, {"id": 2911322, "name": "Hambergen", "country": "DE", "coord": {"lon": 8.83333, "lat": 53.316669}}, {"id": 2923658, "name": "Furstenau", "country": "DE", "coord": {"lon": 7.71667, "lat": 52.51667}}, {"id": 2956185, "name": "Andervenne Oberdorf", "country": "DE", "coord": {"lon": 7.58333, "lat": 52.51667}}, {"id": 2881276, "name": "Langen", "country": "DE", "coord": {"lon": 8.59509, "lat": 53.605541}}, {"id": 2841910, "name": "Sandbostel", "country": "DE", "coord": {"lon": 9.1293, "lat": 53.409328}}, {"id": 2924618, "name": "Friedrichsfehn", "country": "DE", "coord": {"lon": 8.11667, "lat": 53.116669}}, {"id": 2845235, "name": "R\u00f6nnebeck", "country": "DE", "coord": {"lon": 8.55, "lat": 53.183331}}, {"id": 2829999, "name": "Sprockhof", "country": "DE", "coord": {"lon": 9.71689, "lat": 52.60857}}, {"id": 2936937, "name": "Dingelbe", "country": "DE", "coord": {"lon": 10.13386, "lat": 52.173409}}, {"id": 6552772, "name": "Grethem", "country": "DE", "coord": {"lon": 9.58333, "lat": 52.716702}}, {"id": 2917596, "name": "Grethem", "country": "DE", "coord": {"lon": 9.57253, "lat": 52.727139}}, {"id": 2915540, "name": "Gro\u00df H\u00e4uslingen", "country": "DE", "coord": {"lon": 9.3976, "lat": 52.804321}}, {"id": 6552553, "name": "Eicklingen", "country": "DE", "coord": {"lon": 10.1867, "lat": 52.5462}}, {"id": 2931985, "name": "Eicklingen", "country": "DE", "coord": {"lon": 10.18333, "lat": 52.549999}}, {"id": 2810296, "name": "Westerhusen", "country": "DE", "coord": {"lon": 7.18333, "lat": 53.416672}}, {"id": 2957192, "name": "Altgaude", "country": "DE", "coord": {"lon": 7.56667, "lat": 53.583328}}, {"id": 2945861, "name": "B\u00f6singhausen", "country": "DE", "coord": {"lon": 10.06667, "lat": 51.566669}}, {"id": 6552299, "name": "Adenb\u00fcttel", "country": "DE", "coord": {"lon": 10.45, "lat": 52.383301}}, {"id": 2959482, "name": "Adenbuttel", "country": "DE", "coord": {"lon": 10.45, "lat": 52.383331}}, {"id": 2809630, "name": "Wiedelah", "country": "DE", "coord": {"lon": 10.58333, "lat": 51.966671}}, {"id": 2813498, "name": "Weddel", "country": "DE", "coord": {"lon": 10.61667, "lat": 52.26667}}, {"id": 2852751, "name": "Pommoissel", "country": "DE", "coord": {"lon": 10.86737, "lat": 53.164059}}, {"id": 6552665, "name": "Zernien", "country": "DE", "coord": {"lon": 10.8833, "lat": 53.0667}}, {"id": 2804729, "name": "Zernien", "country": "DE", "coord": {"lon": 10.88325, "lat": 53.068451}}, {"id": 2879276, "name": "Leiferde", "country": "DE", "coord": {"lon": 10.50842, "lat": 52.204449}}, {"id": 2826749, "name": "St\u00f6ckheim", "country": "DE", "coord": {"lon": 10.52216, "lat": 52.210548}}, {"id": 2939983, "name": "Clenze", "country": "DE", "coord": {"lon": 10.95, "lat": 52.933331}}, {"id": 2949512, "name": "Bevenrode", "country": "DE", "coord": {"lon": 10.58333, "lat": 52.333328}}, {"id": 2804860, "name": "Zellberg", "country": "DE", "coord": {"lon": 10.53333, "lat": 52.383331}}, {"id": 2933733, "name": "Eckardtsheim", "country": "DE", "coord": {"lon": 8.56667, "lat": 51.933331}}, {"id": 6552995, "name": "Voltlage", "country": "DE", "coord": {"lon": 7.75, "lat": 52.4333}}, {"id": 2816527, "name": "Voltlage", "country": "DE", "coord": {"lon": 7.75, "lat": 52.433331}}, {"id": 6552461, "name": "Stemshorn", "country": "DE", "coord": {"lon": 8.36667, "lat": 52.450001}}, {"id": 2827481, "name": "Stemshorn", "country": "DE", "coord": {"lon": 8.36667, "lat": 52.450001}}, {"id": 2810316, "name": "Westerholte", "country": "DE", "coord": {"lon": 7.86667, "lat": 52.5}}, {"id": 6552438, "name": "Brockum", "country": "DE", "coord": {"lon": 8.41667, "lat": 52.466702}}, {"id": 2943945, "name": "Brockum", "country": "DE", "coord": {"lon": 8.41667, "lat": 52.466671}}, {"id": 2927226, "name": "Felsberg", "country": "DE", "coord": {"lon": 9.41667, "lat": 51.133331}}, {"id": 6553265, "name": "Fuldabr\u00fcck", "country": "DE", "coord": {"lon": 9.48333, "lat": 51.266701}}, {"id": 2923820, "name": "Fuldabruck", "country": "DE", "coord": {"lon": 9.48333, "lat": 51.26667}}, {"id": 2952039, "name": "Baumbach", "country": "DE", "coord": {"lon": 9.66667, "lat": 51.033329}}, {"id": 2917362, "name": "Grifte", "country": "DE", "coord": {"lon": 9.45, "lat": 51.216671}}, {"id": 2931826, "name": "Eimelrod", "country": "DE", "coord": {"lon": 8.7, "lat": 51.299999}}, {"id": 2866673, "name": "Negast", "country": "DE", "coord": {"lon": 13.03047, "lat": 54.255951}}, {"id": 2915358, "name": "Gro\u00df Kussewitz", "country": "DE", "coord": {"lon": 12.26667, "lat": 54.116669}}, {"id": 2856193, "name": "Ostseebad Kuhlungsborn", "country": "DE", "coord": {"lon": 11.75, "lat": 54.150002}}, {"id": 2937545, "name": "Diedrichshagen", "country": "DE", "coord": {"lon": 12.03333, "lat": 54.166672}}, {"id": 2814055, "name": "Warnemuende", "country": "DE", "coord": {"lon": 12.08402, "lat": 54.176701}}, {"id": 2809111, "name": "Wiethagen", "country": "DE", "coord": {"lon": 12.23688, "lat": 54.184738}}, {"id": 2925488, "name": "Franzburg", "country": "DE", "coord": {"lon": 12.88333, "lat": 54.183331}}, {"id": 6548117, "name": "Gransebieth", "country": "DE", "coord": {"lon": 12.8833, "lat": 54.0667}}, {"id": 2918090, "name": "Gransebieth", "country": "DE", "coord": {"lon": 12.88267, "lat": 54.064781}}, {"id": 6548337, "name": "Banzkow", "country": "DE", "coord": {"lon": 11.5167, "lat": 53.533298}}, {"id": 2952857, "name": "Banzkow", "country": "DE", "coord": {"lon": 11.51667, "lat": 53.533329}}, {"id": 2907960, "name": "Heidekaten", "country": "DE", "coord": {"lon": 11.53333, "lat": 53.98333}}, {"id": 2939739, "name": "Crivitz", "country": "DE", "coord": {"lon": 11.65, "lat": 53.583328}}, {"id": 2938300, "name": "Demern", "country": "DE", "coord": {"lon": 10.98333, "lat": 53.73333}}, {"id": 6548362, "name": "Karrenzin", "country": "DE", "coord": {"lon": 11.8, "lat": 53.333302}}, {"id": 2892668, "name": "Karrenzin", "country": "DE", "coord": {"lon": 11.8, "lat": 53.333328}}, {"id": 6551491, "name": "Rondeshagen", "country": "DE", "coord": {"lon": 10.6333, "lat": 53.75}}, {"id": 2845258, "name": "Rondeshagen", "country": "DE", "coord": {"lon": 10.63333, "lat": 53.75}}, {"id": 6552281, "name": "M\u00f6nkhagen", "country": "DE", "coord": {"lon": 10.55, "lat": 53.900002}}, {"id": 2869775, "name": "Monkhagen", "country": "DE", "coord": {"lon": 10.55, "lat": 53.900002}}, {"id": 2851594, "name": "Puttgarden", "country": "DE", "coord": {"lon": 11.21667, "lat": 54.5}}, {"id": 2862592, "name": "Niendorf", "country": "DE", "coord": {"lon": 11.21667, "lat": 54.466671}}, {"id": 6551489, "name": "Ritzerau", "country": "DE", "coord": {"lon": 10.5667, "lat": 53.666698}}, {"id": 2846333, "name": "Ritzerau", "country": "DE", "coord": {"lon": 10.56667, "lat": 53.666672}}, {"id": 6551496, "name": "Schiphorst", "country": "DE", "coord": {"lon": 10.4667, "lat": 53.700001}}, {"id": 2839102, "name": "Schiphorst", "country": "DE", "coord": {"lon": 10.46667, "lat": 53.700001}}, {"id": 6551426, "name": "Duvensee", "country": "DE", "coord": {"lon": 10.5667, "lat": 53.700001}}, {"id": 2934167, "name": "Duvensee", "country": "DE", "coord": {"lon": 10.56667, "lat": 53.700001}}, {"id": 2875399, "name": "Ludwigsaue", "country": "DE", "coord": {"lon": 12.99923, "lat": 52.8456}}, {"id": 6552279, "name": "L\u00fctjensee", "country": "DE", "coord": {"lon": 10.3667, "lat": 53.650002}}, {"id": 2874902, "name": "Lutjensee", "country": "DE", "coord": {"lon": 10.36667, "lat": 53.650002}}, {"id": 6551748, "name": "Laboe", "country": "DE", "coord": {"lon": 10.2299, "lat": 54.400249}}, {"id": 2882059, "name": "Laboe", "country": "DE", "coord": {"lon": 10.21667, "lat": 54.400002}}, {"id": 2875924, "name": "Lopshop", "country": "DE", "coord": {"lon": 9.21667, "lat": 54.299999}}, {"id": 6551601, "name": "Schwabstedt", "country": "DE", "coord": {"lon": 9.18333, "lat": 54.400002}}, {"id": 2835467, "name": "Schwabstedt", "country": "DE", "coord": {"lon": 9.18646, "lat": 54.397049}}, {"id": 6551594, "name": "Ramstedt", "country": "DE", "coord": {"lon": 9.16667, "lat": 54.400002}}, {"id": 2850544, "name": "Ramstedt", "country": "DE", "coord": {"lon": 9.16667, "lat": 54.400002}}, {"id": 6551829, "name": "Elsdorf-Westerm\u00fchlen", "country": "DE", "coord": {"lon": 9.51667, "lat": 54.266701}}, {"id": 2930771, "name": "Elsdorf-Westermuhlen", "country": "DE", "coord": {"lon": 9.51667, "lat": 54.26667}}, {"id": 6551308, "name": "Bunsoh", "country": "DE", "coord": {"lon": 9.33333, "lat": 54.166698}}, {"id": 2941628, "name": "Bunsoh", "country": "DE", "coord": {"lon": 9.33333, "lat": 54.166672}}, {"id": 6551815, "name": "Breiholz", "country": "DE", "coord": {"lon": 9.53333, "lat": 54.200001}}, {"id": 2944812, "name": "Breiholz", "country": "DE", "coord": {"lon": 9.53333, "lat": 54.200001}}, {"id": 6551616, "name": "Tetenb\u00fcll", "country": "DE", "coord": {"lon": 8.83333, "lat": 54.349998}}, {"id": 2823403, "name": "Tetenbull", "country": "DE", "coord": {"lon": 8.82794, "lat": 54.352139}}, {"id": 6551398, "name": "Wrohm", "country": "DE", "coord": {"lon": 9.4, "lat": 54.216702}}, {"id": 2805988, "name": "Wrohm", "country": "DE", "coord": {"lon": 9.4, "lat": 54.216671}}, {"id": 6551831, "name": "Emkendorf", "country": "DE", "coord": {"lon": 9.85, "lat": 54.266701}}, {"id": 2930550, "name": "Emkendorf", "country": "DE", "coord": {"lon": 9.85, "lat": 54.26667}}, {"id": 6552148, "name": "Travenhorst", "country": "DE", "coord": {"lon": 10.45, "lat": 54.016701}}, {"id": 2821478, "name": "Travenhorst", "country": "DE", "coord": {"lon": 10.45, "lat": 54.01667}}, {"id": 6551913, "name": "Schierensee", "country": "DE", "coord": {"lon": 9.98333, "lat": 54.25}}, {"id": 2839413, "name": "Schierensee", "country": "DE", "coord": {"lon": 9.98333, "lat": 54.25}}, {"id": 6551927, "name": "Techelsdorf", "country": "DE", "coord": {"lon": 10.05, "lat": 54.216702}}, {"id": 2823740, "name": "Techelsdorf", "country": "DE", "coord": {"lon": 10.05, "lat": 54.216671}}, {"id": 6551768, "name": "Rendsw\u00fchren", "country": "DE", "coord": {"lon": 10.1833, "lat": 54.083302}}, {"id": 2848243, "name": "Rendswuhren", "country": "DE", "coord": {"lon": 10.18333, "lat": 54.083328}}, {"id": 6551918, "name": "Seefeld", "country": "DE", "coord": {"lon": 9.46667, "lat": 54.099998}}, {"id": 2833859, "name": "Seefeld", "country": "DE", "coord": {"lon": 9.46667, "lat": 54.099998}}, {"id": 6552655, "name": "Vierh\u00f6fen", "country": "DE", "coord": {"lon": 10.2167, "lat": 53.266701}}, {"id": 2817346, "name": "Vierhofen", "country": "DE", "coord": {"lon": 10.21667, "lat": 53.26667}}, {"id": 6551698, "name": "Langeln", "country": "DE", "coord": {"lon": 9.85, "lat": 53.799999}}, {"id": 2881301, "name": "Langeln", "country": "DE", "coord": {"lon": 9.85, "lat": 53.799999}}, {"id": 6552043, "name": "Nordhackstedt", "country": "DE", "coord": {"lon": 9.16667, "lat": 54.733299}}, {"id": 2861996, "name": "Nordhackstedt", "country": "DE", "coord": {"lon": 9.16667, "lat": 54.73333}}, {"id": 2820396, "name": "Uhleb\u00fcll", "country": "DE", "coord": {"lon": 8.85, "lat": 54.799999}}, {"id": 6551977, "name": "L\u00fcrschau", "country": "DE", "coord": {"lon": 9.5, "lat": 54.549999}}, {"id": 2875027, "name": "Lurschau", "country": "DE", "coord": {"lon": 9.5, "lat": 54.549999}}, {"id": 6551971, "name": "Klappholz", "country": "DE", "coord": {"lon": 9.55, "lat": 54.616699}}, {"id": 2890066, "name": "Klappholz", "country": "DE", "coord": {"lon": 9.55, "lat": 54.616669}}, {"id": 2846933, "name": "Riesbriek", "country": "DE", "coord": {"lon": 9.1, "lat": 54.700001}}, {"id": 2810683, "name": "Weseby", "country": "DE", "coord": {"lon": 9.71667, "lat": 54.5}}, {"id": 2940530, "name": "B\u00fcttjeb\u00fcll", "country": "DE", "coord": {"lon": 8.9, "lat": 54.650002}}, {"id": 2886333, "name": "Kollerup", "country": "DE", "coord": {"lon": 9.56667, "lat": 54.716671}}, {"id": 2887651, "name": "Klintum", "country": "DE", "coord": {"lon": 8.95, "lat": 54.75}}, {"id": 6552061, "name": "Tarp", "country": "DE", "coord": {"lon": 9.4, "lat": 54.666698}}, {"id": 2823978, "name": "Tarp", "country": "DE", "coord": {"lon": 9.4, "lat": 54.666672}}, {"id": 6551529, "name": "Bargum", "country": "DE", "coord": {"lon": 8.95, "lat": 54.700001}}, {"id": 2952630, "name": "Bargum", "country": "DE", "coord": {"lon": 8.95, "lat": 54.700001}}, {"id": 2830916, "name": "S\u00f6rupholz", "country": "DE", "coord": {"lon": 9.7, "lat": 54.700001}}, {"id": 6551628, "name": "Westre", "country": "DE", "coord": {"lon": 8.98333, "lat": 54.849998}}, {"id": 2810058, "name": "Westre", "country": "DE", "coord": {"lon": 8.98333, "lat": 54.849998}}, {"id": 6551621, "name": "Utersum", "country": "DE", "coord": {"lon": 8.4, "lat": 54.716702}}, {"id": 2818066, "name": "Utersum", "country": "DE", "coord": {"lon": 8.40609, "lat": 54.71431}}, {"id": 2856525, "name": "Osterholm", "country": "DE", "coord": {"lon": 9.76667, "lat": 54.75}}, {"id": 6551947, "name": "Bollingstedt", "country": "DE", "coord": {"lon": 9.41667, "lat": 54.599998}}, {"id": 2946610, "name": "Bollingstedt", "country": "DE", "coord": {"lon": 9.41667, "lat": 54.599998}}, {"id": 2922758, "name": "Gammellund", "country": "DE", "coord": {"lon": 9.45, "lat": 54.583328}}, {"id": 7602403, "name": "\u00dclsby", "country": "DE", "coord": {"lon": 9.6, "lat": 54.633331}}, {"id": 2820214, "name": "Ulsby", "country": "DE", "coord": {"lon": 9.6, "lat": 54.633331}}, {"id": 2946720, "name": "Boldixum", "country": "DE", "coord": {"lon": 8.55595, "lat": 54.69492}}, {"id": 2881982, "name": "Ladelundfeld", "country": "DE", "coord": {"lon": 9.01667, "lat": 54.849998}}, {"id": 2847417, "name": "Riddorf", "country": "DE", "coord": {"lon": 8.98333, "lat": 54.616669}}, {"id": 6551572, "name": "Lexgaard", "country": "DE", "coord": {"lon": 8.93333, "lat": 54.833302}}, {"id": 2878204, "name": "Lexgaard", "country": "DE", "coord": {"lon": 8.93333, "lat": 54.833328}}, {"id": 6551637, "name": "Galmsb\u00fcll", "country": "DE", "coord": {"lon": 8.75, "lat": 54.75}}, {"id": 3208545, "name": "Galmsbull", "country": "DE", "coord": {"lon": 8.75, "lat": 54.75}}, {"id": 2821756, "name": "Torsballig", "country": "DE", "coord": {"lon": 9.55, "lat": 54.666672}}, {"id": 2874675, "name": "Maasb\u00fcll", "country": "DE", "coord": {"lon": 8.81667, "lat": 54.75}}, {"id": 3208571, "name": "Sylt-Ost", "country": "DE", "coord": {"lon": 8.35, "lat": 54.883331}}, {"id": 2820714, "name": "Tuszshing", "country": "DE", "coord": {"lon": 12.6, "lat": 48.216671}}, {"id": 6556399, "name": "Grabenst\u00e4tt", "country": "DE", "coord": {"lon": 12.5475, "lat": 47.842201}}, {"id": 2918434, "name": "Grabenstatt", "country": "DE", "coord": {"lon": 12.55, "lat": 47.849998}}, {"id": 6556107, "name": "Unterneukirchen", "country": "DE", "coord": {"lon": 12.6167, "lat": 48.166698}}, {"id": 2818999, "name": "Unterneukirchen", "country": "DE", "coord": {"lon": 12.61667, "lat": 48.166672}}, {"id": 2944780, "name": "Breitbrunn am Chiemsee", "country": "DE", "coord": {"lon": 12.40039, "lat": 47.88953}}, {"id": 2852396, "name": "Poxau", "country": "DE", "coord": {"lon": 12.55, "lat": 48.566669}}, {"id": 2954898, "name": "Atting", "country": "DE", "coord": {"lon": 12.11667, "lat": 48.349998}}, {"id": 2841270, "name": "Sattlern", "country": "DE", "coord": {"lon": 12.86667, "lat": 48.583328}}, {"id": 2923389, "name": "Gadham", "country": "DE", "coord": {"lon": 13.31667, "lat": 48.5}}, {"id": 2858770, "name": "Obertrennbach", "country": "DE", "coord": {"lon": 12.56667, "lat": 48.48333}}, {"id": 2918658, "name": "Gottfriedingerschwaige", "country": "DE", "coord": {"lon": 12.53333, "lat": 48.650002}}, {"id": 6556477, "name": "Mauth", "country": "DE", "coord": {"lon": 13.5833, "lat": 48.883301}}, {"id": 2872697, "name": "Mauth", "country": "DE", "coord": {"lon": 13.58459, "lat": 48.889721}}, {"id": 2885302, "name": "Chostlarn", "country": "DE", "coord": {"lon": 13.11667, "lat": 48.366669}}, {"id": 2931511, "name": "Eisenbernreut", "country": "DE", "coord": {"lon": 13.45, "lat": 48.76667}}, {"id": 2839587, "name": "Scheuereck", "country": "DE", "coord": {"lon": 13.31667, "lat": 48.533329}}, {"id": 2847313, "name": "Ried", "country": "DE", "coord": {"lon": 12.25, "lat": 48.783329}}, {"id": 6556671, "name": "Alteglofsheim", "country": "DE", "coord": {"lon": 12.2, "lat": 48.916698}}, {"id": 2957938, "name": "Alteglofsheim", "country": "DE", "coord": {"lon": 12.2, "lat": 48.916672}}, {"id": 6556676, "name": "Brennberg", "country": "DE", "coord": {"lon": 12.4, "lat": 49.0667}}, {"id": 2944288, "name": "Brennberg", "country": "DE", "coord": {"lon": 12.4, "lat": 49.066669}}, {"id": 6556703, "name": "Guteneck", "country": "DE", "coord": {"lon": 12.2833, "lat": 49.450001}}, {"id": 2913394, "name": "Guteneck", "country": "DE", "coord": {"lon": 12.28333, "lat": 49.450001}}, {"id": 2957640, "name": "Altenhammer", "country": "DE", "coord": {"lon": 12.31667, "lat": 49.400002}}, {"id": 2904671, "name": "Hillohe", "country": "DE", "coord": {"lon": 11.9, "lat": 49.033329}}, {"id": 2880597, "name": "Langquaid", "country": "DE", "coord": {"lon": 12.05, "lat": 48.816669}}, {"id": 6556680, "name": "Hagelstadt", "country": "DE", "coord": {"lon": 12.2167, "lat": 48.900002}}, {"id": 2912646, "name": "Hagelstadt", "country": "DE", "coord": {"lon": 12.21667, "lat": 48.900002}}, {"id": 2947439, "name": "Bobrach", "country": "DE", "coord": {"lon": 12.88333, "lat": 48.933331}}, {"id": 2876841, "name": "Lissenthau", "country": "DE", "coord": {"lon": 12.13333, "lat": 49.450001}}, {"id": 2872908, "name": "Mattenkofen", "country": "DE", "coord": {"lon": 12.73599, "lat": 48.780972}}, {"id": 2890544, "name": "Kirchenlamitz", "country": "DE", "coord": {"lon": 11.95, "lat": 50.150002}}, {"id": 2835019, "name": "Schwarzenbach am Wald", "country": "DE", "coord": {"lon": 11.61667, "lat": 50.283329}}, {"id": 2918767, "name": "Gossweinstein", "country": "DE", "coord": {"lon": 11.33333, "lat": 49.76667}}, {"id": 2929783, "name": "Erbendorf", "country": "DE", "coord": {"lon": 12.04472, "lat": 49.840279}}, {"id": 2818825, "name": "Unterr\u00f6slau", "country": "DE", "coord": {"lon": 11.98333, "lat": 50.083328}}, {"id": 2864020, "name": "Neusteinreuth", "country": "DE", "coord": {"lon": 11.93333, "lat": 49.883331}}, {"id": 2930751, "name": "Elsenberg", "country": "DE", "coord": {"lon": 11.11667, "lat": 49.700001}}, {"id": 6556838, "name": "Diebach", "country": "DE", "coord": {"lon": 10.1833, "lat": 49.299999}}, {"id": 2937632, "name": "Diebach", "country": "DE", "coord": {"lon": 10.18333, "lat": 49.299999}}, {"id": 2903013, "name": "Hochstadt am Main", "country": "DE", "coord": {"lon": 11.17116, "lat": 50.150089}}, {"id": 2807021, "name": "Wohnbach", "country": "DE", "coord": {"lon": 10.25, "lat": 49.299999}}, {"id": 2914655, "name": "Grub am Forst", "country": "DE", "coord": {"lon": 11.01667, "lat": 50.23333}}, {"id": 2817740, "name": "Veitsaurach", "country": "DE", "coord": {"lon": 10.88333, "lat": 49.299999}}, {"id": 2873302, "name": "Marktgraitz", "country": "DE", "coord": {"lon": 11.2, "lat": 50.183331}}, {"id": 2808144, "name": "Windischletten", "country": "DE", "coord": {"lon": 10.99319, "lat": 49.99659}}, {"id": 2888745, "name": "Kleinh\u00f6bing", "country": "DE", "coord": {"lon": 11.3, "lat": 49.066669}}, {"id": 2885091, "name": "Kotzendorf", "country": "DE", "coord": {"lon": 11.18333, "lat": 49.933331}}, {"id": 2911301, "name": "Hamb\u00fchl", "country": "DE", "coord": {"lon": 10.53333, "lat": 49.616669}}, {"id": 2810813, "name": "Wernfels", "country": "DE", "coord": {"lon": 10.86667, "lat": 49.200001}}, {"id": 2809201, "name": "Wiesentfels", "country": "DE", "coord": {"lon": 11.21667, "lat": 49.950001}}, {"id": 2827264, "name": "Stettberg", "country": "DE", "coord": {"lon": 10.33333, "lat": 49.383331}}, {"id": 2841481, "name": "Sankt Quirin", "country": "DE", "coord": {"lon": 11.74816, "lat": 47.727661}}, {"id": 6556224, "name": "Kottgeisering", "country": "DE", "coord": {"lon": 11.1333, "lat": 48.116699}}, {"id": 3208350, "name": "Kottgeisering", "country": "DE", "coord": {"lon": 11.13333, "lat": 48.116669}}, {"id": 6556217, "name": "Egenhofen", "country": "DE", "coord": {"lon": 11.1667, "lat": 48.283298}}, {"id": 2933212, "name": "Egenhofen", "country": "DE", "coord": {"lon": 11.16667, "lat": 48.283329}}, {"id": 6556233, "name": "Sch\u00f6ngeising", "country": "DE", "coord": {"lon": 11.2, "lat": 48.133301}}, {"id": 2836615, "name": "Schongeising", "country": "DE", "coord": {"lon": 11.2, "lat": 48.133331}}, {"id": 2956814, "name": "Altstetten", "country": "DE", "coord": {"lon": 11.28333, "lat": 48.299999}}, {"id": 2828090, "name": "Steingaden", "country": "DE", "coord": {"lon": 10.33333, "lat": 47.666672}}, {"id": 2852444, "name": "Pottenau", "country": "DE", "coord": {"lon": 11.96667, "lat": 48.433331}}, {"id": 6556351, "name": "P\u00f6rnbach", "country": "DE", "coord": {"lon": 11.4667, "lat": 48.616699}}, {"id": 2852599, "name": "Pornbach", "country": "DE", "coord": {"lon": 11.46667, "lat": 48.616669}}, {"id": 2875377, "name": "Ludwigshafen", "country": "DE", "coord": {"lon": 9.06667, "lat": 47.816669}}, {"id": 2895553, "name": "Itzlishofen", "country": "DE", "coord": {"lon": 10.66667, "lat": 48.26667}}, {"id": 2839767, "name": "Schempach", "country": "DE", "coord": {"lon": 10.65, "lat": 48.366669}}, {"id": 6557281, "name": "Hainsfarth", "country": "DE", "coord": {"lon": 10.6167, "lat": 48.966702}}, {"id": 2911769, "name": "Hainsfarth", "country": "DE", "coord": {"lon": 10.61667, "lat": 48.966671}}, {"id": 2958813, "name": "Aislingen", "country": "DE", "coord": {"lon": 10.45778, "lat": 48.506481}}, {"id": 2899811, "name": "Holzhausen", "country": "DE", "coord": {"lon": 10.81667, "lat": 48.433331}}, {"id": 2819281, "name": "Unterjoch", "country": "DE", "coord": {"lon": 10.43333, "lat": 47.549999}}, {"id": 2899633, "name": "Holzleute", "country": "DE", "coord": {"lon": 10, "lat": 47.599998}}, {"id": 2874582, "name": "Maderhalm", "country": "DE", "coord": {"lon": 10.26667, "lat": 47.450001}}, {"id": 2943358, "name": "Brugg", "country": "DE", "coord": {"lon": 9.98333, "lat": 47.650002}}, {"id": 6555983, "name": "Oberdischingen", "country": "DE", "coord": {"lon": 9.83333, "lat": 48.299999}}, {"id": 2861094, "name": "Oberdischingen", "country": "DE", "coord": {"lon": 9.83333, "lat": 48.299999}}, {"id": 2829647, "name": "Staig", "country": "DE", "coord": {"lon": 9.8, "lat": 47.783329}}, {"id": 2824545, "name": "Sussen", "country": "DE", "coord": {"lon": 9.75534, "lat": 48.67934}}, {"id": 2888147, "name": "Kleins\u00fc\u00dfen", "country": "DE", "coord": {"lon": 9.76539, "lat": 48.683929}}, {"id": 2951985, "name": "Baumgarten", "country": "DE", "coord": {"lon": 9.5, "lat": 47.799999}}, {"id": 6556031, "name": "Ummendorf", "country": "DE", "coord": {"lon": 9.83333, "lat": 48.0667}}, {"id": 2820179, "name": "Ummendorf", "country": "DE", "coord": {"lon": 9.83333, "lat": 48.066669}}, {"id": 6556012, "name": "Erlenmoos", "country": "DE", "coord": {"lon": 9.98333, "lat": 48.0667}}, {"id": 2929452, "name": "Erlenmoos", "country": "DE", "coord": {"lon": 9.98333, "lat": 48.066669}}, {"id": 6555839, "name": "Egesheim", "country": "DE", "coord": {"lon": 8.86667, "lat": 48.116699}}, {"id": 2933190, "name": "Egesheim", "country": "DE", "coord": {"lon": 8.86667, "lat": 48.116669}}, {"id": 6555897, "name": "Utzenfeld", "country": "DE", "coord": {"lon": 7.91667, "lat": 47.799999}}, {"id": 2817996, "name": "Utzenfeld", "country": "DE", "coord": {"lon": 7.91667, "lat": 47.799999}}, {"id": 6555876, "name": "B\u00f6llen", "country": "DE", "coord": {"lon": 7.85, "lat": 47.799999}}, {"id": 2946679, "name": "Bollen", "country": "DE", "coord": {"lon": 7.8413, "lat": 47.799999}}, {"id": 6555774, "name": "Weisweil", "country": "DE", "coord": {"lon": 7.67798, "lat": 48.19968}}, {"id": 2811691, "name": "Weisweil", "country": "DE", "coord": {"lon": 7.67713, "lat": 48.19939}}, {"id": 6555910, "name": "H\u00e4usern", "country": "DE", "coord": {"lon": 8.1738, "lat": 47.753601}}, {"id": 2908796, "name": "Hausern", "country": "DE", "coord": {"lon": 8.16667, "lat": 47.75}}, {"id": 2913274, "name": "Haaberg", "country": "DE", "coord": {"lon": 8.18333, "lat": 48.683331}}, {"id": 2807304, "name": "Wittenweier", "country": "DE", "coord": {"lon": 7.75, "lat": 48.333328}}, {"id": 2939752, "name": "Criesbach", "country": "DE", "coord": {"lon": 9.63475, "lat": 49.30545}}, {"id": 2930303, "name": "Engelfangen", "country": "DE", "coord": {"lon": 6.88333, "lat": 49.283329}}, {"id": 2832723, "name": "Siebenborn", "country": "DE", "coord": {"lon": 7, "lat": 49.933331}}, {"id": 2873461, "name": "Maring", "country": "DE", "coord": {"lon": 7, "lat": 49.933331}}, {"id": 6554623, "name": "Bleckhausen", "country": "DE", "coord": {"lon": 6.78333, "lat": 50.133301}}, {"id": 2947887, "name": "Bleckhausen", "country": "DE", "coord": {"lon": 6.78333, "lat": 50.133331}}, {"id": 2828712, "name": "Steinbachweier", "country": "DE", "coord": {"lon": 6.66667, "lat": 49.633331}}, {"id": 6554319, "name": "Gielert", "country": "DE", "coord": {"lon": 7, "lat": 49.766701}}, {"id": 2920630, "name": "Gielert", "country": "DE", "coord": {"lon": 7, "lat": 49.76667}}, {"id": 6553579, "name": "Bundenbach", "country": "DE", "coord": {"lon": 7.41667, "lat": 49.833302}}, {"id": 2941692, "name": "Bundenbach", "country": "DE", "coord": {"lon": 7.41667, "lat": 49.833328}}, {"id": 2856956, "name": "Osann", "country": "DE", "coord": {"lon": 6.95, "lat": 49.916672}}, {"id": 6554497, "name": "Sankt Thomas", "country": "DE", "coord": {"lon": 6.6, "lat": 50.0667}}, {"id": 2841474, "name": "Sankt Thomas", "country": "DE", "coord": {"lon": 6.6, "lat": 50.066669}}, {"id": 6554601, "name": "Seiwerath", "country": "DE", "coord": {"lon": 6.5, "lat": 50.150002}}, {"id": 2833298, "name": "Seiwerath", "country": "DE", "coord": {"lon": 6.5, "lat": 50.150002}}, {"id": 2881731, "name": "Lammersdorf", "country": "DE", "coord": {"lon": 6.68333, "lat": 50.26667}}, {"id": 2892174, "name": "Katzenloch", "country": "DE", "coord": {"lon": 7.21667, "lat": 49.76667}}, {"id": 6555030, "name": "Eulenbis", "country": "DE", "coord": {"lon": 7.63333, "lat": 49.5}}, {"id": 2928464, "name": "Eulenbis", "country": "DE", "coord": {"lon": 7.63333, "lat": 49.5}}, {"id": 6555108, "name": "Hohen\u00f6llen", "country": "DE", "coord": {"lon": 7.63333, "lat": 49.616699}}, {"id": 2901578, "name": "Hohenollen", "country": "DE", "coord": {"lon": 7.63333, "lat": 49.616669}}, {"id": 6555041, "name": "Kindsbach", "country": "DE", "coord": {"lon": 7.61667, "lat": 49.416698}}, {"id": 2890854, "name": "Kindsbach", "country": "DE", "coord": {"lon": 7.61667, "lat": 49.416672}}, {"id": 6555034, "name": "Gerhardsbrunn", "country": "DE", "coord": {"lon": 7.51667, "lat": 49.349998}}, {"id": 2921123, "name": "Gerhardsbrunn", "country": "DE", "coord": {"lon": 7.51667, "lat": 49.349998}}, {"id": 6554963, "name": "Lohnsfeld", "country": "DE", "coord": {"lon": 7.85, "lat": 49.549999}}, {"id": 2876161, "name": "Lohnsfeld", "country": "DE", "coord": {"lon": 7.85, "lat": 49.549999}}, {"id": 2900909, "name": "H\u00f6hm\u00fchlbach", "country": "DE", "coord": {"lon": 7.51667, "lat": 49.25}}, {"id": 2846927, "name": "Rieschweiler", "country": "DE", "coord": {"lon": 7.5, "lat": 49.25}}, {"id": 6555046, "name": "Mackenbach", "country": "DE", "coord": {"lon": 7.58333, "lat": 49.466702}}, {"id": 2874621, "name": "Mackenbach", "country": "DE", "coord": {"lon": 7.58333, "lat": 49.466671}}, {"id": 2937049, "name": "Dietschweiler", "country": "DE", "coord": {"lon": 7.43333, "lat": 49.433331}}, {"id": 6554940, "name": "D\u00f6rrmoschel", "country": "DE", "coord": {"lon": 7.75, "lat": 49.616699}}, {"id": 2935553, "name": "Dorrmoschel", "country": "DE", "coord": {"lon": 7.75, "lat": 49.616669}}, {"id": 2931666, "name": "Einsiedlerhof", "country": "DE", "coord": {"lon": 7.66667, "lat": 49.433331}}, {"id": 2926011, "name": "Fockenberg-Limbach", "country": "DE", "coord": {"lon": 7.5, "lat": 49.5}}, {"id": 6555049, "name": "Mittelbrunn", "country": "DE", "coord": {"lon": 7.55, "lat": 49.366699}}, {"id": 2870780, "name": "Mittelbrunn", "country": "DE", "coord": {"lon": 7.55, "lat": 49.366669}}, {"id": 2958723, "name": "Albersbach", "country": "DE", "coord": {"lon": 7.55, "lat": 49.5}}, {"id": 2873106, "name": "Martinsthal", "country": "DE", "coord": {"lon": 8.11667, "lat": 50.049999}}, {"id": 6554826, "name": "Armsheim", "country": "DE", "coord": {"lon": 8.05667, "lat": 49.8097}}, {"id": 2955542, "name": "Armsheim", "country": "DE", "coord": {"lon": 8.05667, "lat": 49.809719}}, {"id": 2953702, "name": "Bacharach", "country": "DE", "coord": {"lon": 7.76667, "lat": 50.066669}}, {"id": 6553870, "name": "Badenhard", "country": "DE", "coord": {"lon": 7.63333, "lat": 50.116699}}, {"id": 2953494, "name": "Badenhard", "country": "DE", "coord": {"lon": 7.63333, "lat": 50.116669}}, {"id": 6554048, "name": "Kamp-Bornhofen", "country": "DE", "coord": {"lon": 7.61667, "lat": 50.216702}}, {"id": 2893307, "name": "Kamp-Bornhofen", "country": "DE", "coord": {"lon": 7.61667, "lat": 50.216671}}, {"id": 6553540, "name": "Schweppenhausen", "country": "DE", "coord": {"lon": 7.8, "lat": 49.916698}}, {"id": 2834293, "name": "Schweppenhausen", "country": "DE", "coord": {"lon": 7.8, "lat": 49.916672}}, {"id": 6553168, "name": "M\u00fcnster", "country": "DE", "coord": {"lon": 8.8777, "lat": 49.918999}}, {"id": 2867548, "name": "Munster", "country": "DE", "coord": {"lon": 8.86778, "lat": 49.922779}}, {"id": 6555269, "name": "Essenheim", "country": "DE", "coord": {"lon": 8.15556, "lat": 49.930599}}, {"id": 2928793, "name": "Essenheim", "country": "DE", "coord": {"lon": 8.15556, "lat": 49.930561}}, {"id": 6556948, "name": "Heimbuchenthal", "country": "DE", "coord": {"lon": 9.29556, "lat": 49.889198}}, {"id": 2907416, "name": "Heimbuchenthal", "country": "DE", "coord": {"lon": 9.29556, "lat": 49.889172}}, {"id": 6557000, "name": "Kirchlauter", "country": "DE", "coord": {"lon": 10.7167, "lat": 50.049999}}, {"id": 2890429, "name": "Kirchlauter", "country": "DE", "coord": {"lon": 10.71667, "lat": 50.049999}}, {"id": 6556960, "name": "Weibersbrunn", "country": "DE", "coord": {"lon": 9.3758, "lat": 49.9277}}, {"id": 2813176, "name": "Weibersbrunn", "country": "DE", "coord": {"lon": 9.36611, "lat": 49.930828}}]