[{"id": 2763672, "name": "Thorl", "country": "AT", "coord": {"lon": 15.21667, "lat": 47.51667}}, {"id": 2822637, "name": "Thorlingen", "country": "DE", "coord": {"lon": 7.53333, "lat": 50.133331}}, {"id": 2636005, "name": "Thornaby-on-Tees", "country": "GB", "coord": {"lon": -1.3, "lat": 54.533329}}, {"id": 2636001, "name": "Thornbury", "country": "GB", "coord": {"lon": -2.55, "lat": 52.23333}}, {"id": 7294533, "name": "Thornbury", "country": "GB", "coord": {"lon": -2.55531, "lat": 52.237991}}, {"id": 2636002, "name": "Thornbury", "country": "GB", "coord": {"lon": -2.52028, "lat": 51.608891}}, {"id": 4561716, "name": "Thorndale", "country": "US", "coord": {"lon": -75.745216, "lat": 39.992882}}, {"id": 4736681, "name": "Thorndale", "country": "US", "coord": {"lon": -97.205551, "lat": 30.61381}}, {"id": 7300410, "name": "Thorne", "country": "GB", "coord": {"lon": -0.92887, "lat": 53.621189}}, {"id": 2635997, "name": "Thorne", "country": "GB", "coord": {"lon": -0.96308, "lat": 53.611221}}, {"id": 2635996, "name": "Thorner", "country": "GB", "coord": {"lon": -1.42676, "lat": 53.860931}}, {"id": 2635994, "name": "Thorney", "country": "GB", "coord": {"lon": -0.10815, "lat": 52.621471}}, {"id": 2635988, "name": "Thorngumbald", "country": "GB", "coord": {"lon": -0.17175, "lat": 53.721001}}, {"id": 2635983, "name": "Thornhaugh", "country": "GB", "coord": {"lon": -0.42418, "lat": 52.592522}}, {"id": 6165683, "name": "Thornhill", "country": "CA", "coord": {"lon": -79.416298, "lat": 43.80011}}, {"id": 2635981, "name": "Thornhill", "country": "GB", "coord": {"lon": -3.76667, "lat": 55.23333}}, {"id": 2822633, "name": "Thornich", "country": "DE", "coord": {"lon": 6.83333, "lat": 49.833328}}, {"id": 2146782, "name": "Thornlands", "country": "AU", "coord": {"lon": 153.266663, "lat": -27.549999}}, {"id": 2146780, "name": "Thornleigh", "country": "AU", "coord": {"lon": 151.078949, "lat": -33.732281}}, {"id": 2635978, "name": "Thornley", "country": "GB", "coord": {"lon": -1.43333, "lat": 54.75}}, {"id": 4526284, "name": "Thornport", "country": "US", "coord": {"lon": -82.410988, "lat": 39.91312}}, {"id": 2146777, "name": "Thornton", "country": "AU", "coord": {"lon": 151.633331, "lat": -32.783329}}, {"id": 896662, "name": "Thornton", "country": "ZM", "coord": {"lon": 31.133329, "lat": -10.21667}}, {"id": 5441492, "name": "Thornton", "country": "US", "coord": {"lon": -104.971916, "lat": 39.868038}}, {"id": 2635969, "name": "Thornton", "country": "GB", "coord": {"lon": -3.15, "lat": 56.166672}}, {"id": 2635971, "name": "Thornton", "country": "GB", "coord": {"lon": -0.85, "lat": 53.900002}}, {"id": 2635974, "name": "Thornton", "country": "GB", "coord": {"lon": -3, "lat": 53.5}}, {"id": 4913605, "name": "Thornton", "country": "US", "coord": {"lon": -87.608101, "lat": 41.568089}}, {"id": 5093630, "name": "Thornton", "country": "US", "coord": {"lon": -71.675911, "lat": 43.892849}}, {"id": 5402388, "name": "Thornton", "country": "US", "coord": {"lon": -121.424667, "lat": 38.226028}}, {"id": 2635964, "name": "Thornton Dale", "country": "GB", "coord": {"lon": -0.71667, "lat": 54.23333}}, {"id": 5532286, "name": "Thorntonville", "country": "US", "coord": {"lon": -102.920708, "lat": 31.582911}}, {"id": 4927194, "name": "Thorntown", "country": "US", "coord": {"lon": -86.606667, "lat": 40.129478}}, {"id": 5140895, "name": "Thornwood", "country": "US", "coord": {"lon": -73.779022, "lat": 41.123428}}, {"id": 6165719, "name": "Thorold", "country": "CA", "coord": {"lon": -79.199577, "lat": 43.116821}}, {"id": 5275704, "name": "Thorp", "country": "US", "coord": {"lon": -90.799858, "lat": 44.961079}}, {"id": 2635955, "name": "Thorp Arch", "country": "GB", "coord": {"lon": -1.34282, "lat": 53.910809}}, {"id": 2146767, "name": "Thorpdale", "country": "AU", "coord": {"lon": 146.183334, "lat": -38.283329}}, {"id": 2146766, "name": "Thorpdale South", "country": "AU", "coord": {"lon": 146.166672, "lat": -38.299999}}, {"id": 6615542, "name": "Thorpe Hamlet", "country": "GB", "coord": {"lon": 1.31337, "lat": 52.630322}}, {"id": 4093619, "name": "Thorsby", "country": "US", "coord": {"lon": -86.71582, "lat": 32.91568}}, {"id": 2822630, "name": "Thorstorf", "country": "DE", "coord": {"lon": 11.21667, "lat": 53.900002}}, {"id": 1282675, "name": "Those", "country": "NP", "coord": {"lon": 86.25, "lat": 27.583332}}, {"id": 2972697, "name": "Thouarce", "country": "FR", "coord": {"lon": -0.50186, "lat": 47.267342}}, {"id": 6435333, "name": "Thouarc\u00e9", "country": "FR", "coord": {"lon": -0.5, "lat": 47.26667}}, {"id": 2972696, "name": "Thouare-sur-Loire", "country": "FR", "coord": {"lon": -1.43834, "lat": 47.268929}}, {"id": 6454751, "name": "Thouars", "country": "FR", "coord": {"lon": -0.21667, "lat": 46.966671}}, {"id": 2972695, "name": "Thouars", "country": "FR", "coord": {"lon": -0.21507, "lat": 46.976021}}, {"id": 6434549, "name": "Thouar\u00e9-sur-Loire", "country": "FR", "coord": {"lon": -1.45, "lat": 47.26667}}, {"id": 1254570, "name": "Thoubal", "country": "IN", "coord": {"lon": 94.01667, "lat": 24.633329}}, {"id": 252891, "name": "Thouria", "country": "GR", "coord": {"lon": 22.049999, "lat": 37.083328}}, {"id": 6438997, "name": "Thourotte", "country": "FR", "coord": {"lon": 2.88333, "lat": 49.48333}}, {"id": 2972684, "name": "Thourotte", "country": "FR", "coord": {"lon": 2.8821, "lat": 49.47591}}, {"id": 5402405, "name": "Thousand Oaks", "country": "US", "coord": {"lon": -118.837593, "lat": 34.170559}}, {"id": 5402415, "name": "Thousand Palms", "country": "US", "coord": {"lon": -116.390289, "lat": 33.820019}}, {"id": 252889, "name": "Thrapsanon", "country": "GR", "coord": {"lon": 25.28091, "lat": 35.187981}}, {"id": 2635937, "name": "Thrapston", "country": "GB", "coord": {"lon": -0.5392, "lat": 52.396751}}, {"id": 2146760, "name": "Thredbo Village", "country": "AU", "coord": {"lon": 148.316666, "lat": -36.5}}, {"id": 6165800, "name": "Three Bridges", "country": "CA", "coord": {"lon": -81.054733, "lat": 43.04179}}, {"id": 5610054, "name": "Three Creek", "country": "US", "coord": {"lon": -115.1595, "lat": 42.071301}}, {"id": 5548429, "name": "Three Forks", "country": "US", "coord": {"lon": -110.49514, "lat": 37.991379}}, {"id": 5548441, "name": "Three Forks", "country": "US", "coord": {"lon": -110.957108, "lat": 39.974682}}, {"id": 5682364, "name": "Three Forks", "country": "US", "coord": {"lon": -111.552193, "lat": 45.892429}}, {"id": 6165875, "name": "Three Hills", "country": "CA", "coord": {"lon": -113.268631, "lat": 51.700119}}, {"id": 4175296, "name": "Three Lakes", "country": "US", "coord": {"lon": -80.398392, "lat": 25.64205}}, {"id": 5813459, "name": "Three Lakes", "country": "US", "coord": {"lon": -122.01152, "lat": 47.94482}}, {"id": 2635927, "name": "Three Legged Cross", "country": "GB", "coord": {"lon": -1.88333, "lat": 50.849998}}, {"id": 4175298, "name": "Three Oaks", "country": "US", "coord": {"lon": -81.793968, "lat": 26.470079}}, {"id": 5012197, "name": "Three Oaks", "country": "US", "coord": {"lon": -86.61058, "lat": 41.798649}}, {"id": 5317377, "name": "Three Points", "country": "US", "coord": {"lon": -111.313713, "lat": 32.07674}}, {"id": 5840981, "name": "Three River Junction", "country": "US", "coord": {"lon": -110.89299, "lat": 44.289101}}, {"id": 2635925, "name": "Three Rivers", "country": "GB", "coord": {"lon": -0.45095, "lat": 51.6702}}, {"id": 949049, "name": "Three Rivers", "country": "ZA", "coord": {"lon": 27.97621, "lat": -26.65406}}, {"id": 4736721, "name": "Three Rivers", "country": "US", "coord": {"lon": -98.18251, "lat": 28.46027}}, {"id": 5012194, "name": "Three Rivers", "country": "US", "coord": {"lon": -85.632492, "lat": 41.943939}}, {"id": 5280975, "name": "Three Rivers", "country": "US", "coord": {"lon": -72.360641, "lat": 42.181198}}, {"id": 5550366, "name": "Three Rivers", "country": "US", "coord": {"lon": -118.904541, "lat": 36.438839}}, {"id": 5756628, "name": "Three Rivers", "country": "US", "coord": {"lon": -121.469193, "lat": 43.820122}}, {"id": 7839643, "name": "Three Springs", "country": "AU", "coord": {"lon": 115.631577, "lat": -29.513861}}, {"id": 2060275, "name": "Three Springs", "country": "AU", "coord": {"lon": 115.75, "lat": -29.533331}}, {"id": 4662587, "name": "Three Way", "country": "US", "coord": {"lon": -88.859497, "lat": 35.775902}}, {"id": 2635929, "name": "Threekingham", "country": "GB", "coord": {"lon": -0.38057, "lat": 52.912472}}, {"id": 2822617, "name": "Threna", "country": "DE", "coord": {"lon": 12.53333, "lat": 51.25}}, {"id": 4736741, "name": "Throckmorton", "country": "US", "coord": {"lon": -99.177582, "lat": 33.178719}}, {"id": 6166067, "name": "Throne", "country": "CA", "coord": {"lon": -111.285027, "lat": 52.050129}}, {"id": 5215611, "name": "Throop", "country": "US", "coord": {"lon": -75.611847, "lat": 41.451469}}, {"id": 2635907, "name": "Thruxton", "country": "GB", "coord": {"lon": -2.81667, "lat": 52}}, {"id": 1565022, "name": "Thu Dau Mot", "country": "VN", "coord": {"lon": 106.650002, "lat": 10.96667}}, {"id": 2146707, "name": "Thuddungra", "country": "AU", "coord": {"lon": 148.116669, "lat": -34.150002}}, {"id": 2972673, "name": "Thuellin", "country": "FR", "coord": {"lon": 5.5072, "lat": 45.638329}}, {"id": 6425866, "name": "Thueyts", "country": "FR", "coord": {"lon": 4.21667, "lat": 44.683331}}, {"id": 2972670, "name": "Thueyts", "country": "FR", "coord": {"lon": 4.21916, "lat": 44.67828}}, {"id": 2785518, "name": "Thuin", "country": "BE", "coord": {"lon": 4.28484, "lat": 50.339489}}, {"id": 2785517, "name": "Thuin", "country": "BE", "coord": {"lon": 4.28604, "lat": 50.339329}}, {"id": 6552923, "name": "Thuine", "country": "DE", "coord": {"lon": 7.4933, "lat": 52.498901}}, {"id": 2822607, "name": "Thuine", "country": "DE", "coord": {"lon": 7.48333, "lat": 52.5}}, {"id": 6441045, "name": "Thuir", "country": "FR", "coord": {"lon": 2.75, "lat": 42.633331}}, {"id": 2972665, "name": "Thuir", "country": "FR", "coord": {"lon": 2.75471, "lat": 42.6329}}, {"id": 1282673, "name": "Thukla", "country": "NP", "coord": {"lon": 86.800003, "lat": 27.916668}}, {"id": 1163414, "name": "Thul", "country": "PK", "coord": {"lon": 68.775879, "lat": 28.240339}}, {"id": 949026, "name": "Thulamahashi", "country": "ZA", "coord": {"lon": 31.19939, "lat": -24.72459}}, {"id": 2822604, "name": "Thulba", "country": "DE", "coord": {"lon": 9.91667, "lat": 50.183331}}, {"id": 6547802, "name": "Thulendorf", "country": "DE", "coord": {"lon": 12.3, "lat": 54.099998}}, {"id": 2822599, "name": "Thulendorf", "country": "DE", "coord": {"lon": 12.3, "lat": 54.099998}}, {"id": 2146702, "name": "Thulimbah", "country": "AU", "coord": {"lon": 151.949997, "lat": -28.549999}}, {"id": 6254841, "name": "Thulobeshi", "country": "NP", "coord": {"lon": 84.419167, "lat": 28.333889}}, {"id": 1282671, "name": "Thulop\u0101t\u0101l", "country": "NP", "coord": {"lon": 86.166664, "lat": 27.6}}, {"id": 2822595, "name": "Thum", "country": "DE", "coord": {"lon": 12.96667, "lat": 50.683331}}, {"id": 6551929, "name": "Thumby", "country": "DE", "coord": {"lon": 9.91667, "lat": 54.583302}}, {"id": 2822589, "name": "Thumby", "country": "DE", "coord": {"lon": 9.91667, "lat": 54.583328}}, {"id": 6438521, "name": "Thumeries", "country": "FR", "coord": {"lon": 3.05, "lat": 50.48333}}, {"id": 2972658, "name": "Thumeries", "country": "FR", "coord": {"lon": 3.055, "lat": 50.47662}}, {"id": 2822577, "name": "Thumsenreuth", "country": "DE", "coord": {"lon": 12.1, "lat": 49.849998}}, {"id": 2658377, "name": "Thun", "country": "CH", "coord": {"lon": 7.62166, "lat": 46.751179}}, {"id": 7287306, "name": "Thun", "country": "CH", "coord": {"lon": 7.62217, "lat": 46.746578}}, {"id": 6438522, "name": "Thun-Saint-Amand", "country": "FR", "coord": {"lon": 3.4595, "lat": 50.480099}}, {"id": 2972655, "name": "Thun-Saint-Amand", "country": "FR", "coord": {"lon": 3.45116, "lat": 50.472759}}, {"id": 6166142, "name": "Thunder Bay", "country": "CA", "coord": {"lon": -89.316833, "lat": 48.400101}}, {"id": 4226499, "name": "Thunderbolt", "country": "US", "coord": {"lon": -81.049828, "lat": 32.033539}}, {"id": 2658376, "name": "Thundorf", "country": "CH", "coord": {"lon": 8.96358, "lat": 47.54594}}, {"id": 2822571, "name": "Thundorf in Unterfranken", "country": "DE", "coord": {"lon": 10.31667, "lat": 50.200001}}, {"id": 6957685, "name": "Thung Chang", "country": "TH", "coord": {"lon": 100.876198, "lat": 19.387859}}, {"id": 1605355, "name": "Thung Fon", "country": "TH", "coord": {"lon": 103.26033, "lat": 17.47167}}, {"id": 1154329, "name": "Thung Hua Chang", "country": "TH", "coord": {"lon": 99.027802, "lat": 18.00301}}, {"id": 7510988, "name": "Thung Khao Luang", "country": "TH", "coord": {"lon": 103.86264, "lat": 15.99397}}, {"id": 7026999, "name": "Thung Khru", "country": "TH", "coord": {"lon": 100.509644, "lat": 13.62875}}, {"id": 1117344, "name": "Thung Sai", "country": "TH", "coord": {"lon": 99.832672, "lat": 16.31489}}, {"id": 1150089, "name": "Thung Saliam", "country": "TH", "coord": {"lon": 99.560921, "lat": 17.32106}}, {"id": 7511011, "name": "Thung Si Udom", "country": "TH", "coord": {"lon": 104.908974, "lat": 14.73303}}, {"id": 1150085, "name": "Thung Song", "country": "TH", "coord": {"lon": 99.680389, "lat": 8.16453}}, {"id": 1150081, "name": "Thung Tako", "country": "TH", "coord": {"lon": 99.083061, "lat": 10.11022}}, {"id": 1154190, "name": "Thung Wa", "country": "TH", "coord": {"lon": 99.755859, "lat": 7.10957}}, {"id": 1150076, "name": "Thung Yai", "country": "TH", "coord": {"lon": 99.366096, "lat": 8.30119}}, {"id": 1941204, "name": "Thung Yang Daeng", "country": "TH", "coord": {"lon": 101.426498, "lat": 6.61822}}, {"id": 7510919, "name": "Thung Yang Daeng", "country": "TH", "coord": {"lon": 101.426498, "lat": 6.61822}}, {"id": 2822564, "name": "Thungen", "country": "DE", "coord": {"lon": 9.85944, "lat": 49.942219}}, {"id": 2822563, "name": "Thungersheim", "country": "DE", "coord": {"lon": 9.84917, "lat": 49.87833}}, {"id": 7287308, "name": "Thunstetten", "country": "CH", "coord": {"lon": 7.74645, "lat": 47.205471}}, {"id": 2822556, "name": "Thur", "country": "DE", "coord": {"lon": 7.28333, "lat": 50.349998}}, {"id": 2972651, "name": "Thure", "country": "FR", "coord": {"lon": 0.45797, "lat": 46.832218}}, {"id": 6440253, "name": "Thuret", "country": "FR", "coord": {"lon": 3.26667, "lat": 45.966671}}, {"id": 2972647, "name": "Thuret", "country": "FR", "coord": {"lon": 3.25988, "lat": 45.970119}}, {"id": 2763658, "name": "Thuringen", "country": "AT", "coord": {"lon": 9.76667, "lat": 47.200001}}, {"id": 2822541, "name": "Thuringenhausen", "country": "DE", "coord": {"lon": 10.8, "lat": 51.26667}}, {"id": 6441802, "name": "Thurins", "country": "FR", "coord": {"lon": 4.63333, "lat": 45.683331}}, {"id": 2972644, "name": "Thurins", "country": "FR", "coord": {"lon": 4.63968, "lat": 45.680931}}, {"id": 2822536, "name": "Thurkow", "country": "DE", "coord": {"lon": 12.56667, "lat": 53.833328}}, {"id": 2822535, "name": "Thurland", "country": "DE", "coord": {"lon": 12.21667, "lat": 51.716671}}, {"id": 2961214, "name": "Thurles", "country": "IE", "coord": {"lon": -7.80222, "lat": 52.681938}}, {"id": 2822533, "name": "Thurm", "country": "DE", "coord": {"lon": 12.55, "lat": 50.76667}}, {"id": 2822531, "name": "Thurmannsbang", "country": "DE", "coord": {"lon": 13.31667, "lat": 48.76667}}, {"id": 7291632, "name": "Thurmaston", "country": "GB", "coord": {"lon": -1.09283, "lat": 52.67701}}, {"id": 4495078, "name": "Thurmond", "country": "US", "coord": {"lon": -80.928413, "lat": 36.36652}}, {"id": 4371334, "name": "Thurmont", "country": "US", "coord": {"lon": -77.41082, "lat": 39.623711}}, {"id": 2822523, "name": "Thurn", "country": "DE", "coord": {"lon": 11.01667, "lat": 49.683331}}, {"id": 2763653, "name": "Thurn", "country": "AT", "coord": {"lon": 12.76667, "lat": 46.849998}}, {"id": 3217418, "name": "Thurn", "country": "AT", "coord": {"lon": 12.76861, "lat": 46.850559}}, {"id": 2822522, "name": "Thurnau", "country": "DE", "coord": {"lon": 11.38333, "lat": 50.01667}}, {"id": 2611742, "name": "Thuro By", "country": "DK", "coord": {"lon": 10.66385, "lat": 55.047401}}, {"id": 6166224, "name": "Thurso", "country": "CA", "coord": {"lon": -75.249313, "lat": 45.600101}}, {"id": 2635881, "name": "Thurso", "country": "GB", "coord": {"lon": -3.52594, "lat": 58.592709}}, {"id": 2635877, "name": "Thurston", "country": "GB", "coord": {"lon": 0.80749, "lat": 52.252441}}, {"id": 5813521, "name": "Thurston County", "country": "US", "coord": {"lon": -122.817909, "lat": 46.916489}}, {"id": 6427517, "name": "Thury-Harcourt", "country": "FR", "coord": {"lon": -0.48333, "lat": 48.98333}}, {"id": 2972640, "name": "Thury-Harcourt", "country": "FR", "coord": {"lon": -0.4752, "lat": 48.984341}}, {"id": 6614029, "name": "Thur\u00e9", "country": "FR", "coord": {"lon": 0.45, "lat": 46.833328}}, {"id": 7287310, "name": "Thusis", "country": "CH", "coord": {"lon": 9.43282, "lat": 46.688541}}, {"id": 2658371, "name": "Thusis", "country": "CH", "coord": {"lon": 9.43938, "lat": 46.697239}}, {"id": 2635871, "name": "Thwing", "country": "GB", "coord": {"lon": -0.3895, "lat": 54.115471}}, {"id": 7996820, "name": "Thyanboche", "country": "NP", "coord": {"lon": 86.768822, "lat": 27.837379}}, {"id": 2611738, "name": "Thyboron", "country": "DK", "coord": {"lon": 8.21238, "lat": 56.69846}}, {"id": 6443061, "name": "Thyez", "country": "FR", "coord": {"lon": 6.53841, "lat": 46.082401}}, {"id": 2972633, "name": "Thyez", "country": "FR", "coord": {"lon": 6.53777, "lat": 46.082489}}, {"id": 252927, "name": "Thymiana", "country": "GR", "coord": {"lon": 26.13361, "lat": 38.314999}}, {"id": 923652, "name": "Thyolo", "country": "MW", "coord": {"lon": 35.140461, "lat": -16.067751}}, {"id": 930283, "name": "Thyolo District", "country": "MW", "coord": {"lon": 35.1506, "lat": -16.105829}}, {"id": 2146677, "name": "Thyra", "country": "AU", "coord": {"lon": 144.649994, "lat": -35.849998}}, {"id": 2611731, "name": "Thyregod", "country": "DK", "coord": {"lon": 9.26217, "lat": 55.909039}}, {"id": 2822484, "name": "Thyrnau", "country": "DE", "coord": {"lon": 13.53333, "lat": 48.616669}}, {"id": 6556535, "name": "Thyrnau", "country": "DE", "coord": {"lon": 13.5333, "lat": 48.616699}}, {"id": 1282670, "name": "Thy\u0101ngboche", "country": "NP", "coord": {"lon": 86.76667, "lat": 27.833332}}, {"id": 1581297, "name": "Th\u00e0nh Ph\u1ed1 H\u1ea3i Ph\u00f2ng", "country": "VN", "coord": {"lon": 106.583328, "lat": 20.83333}}, {"id": 1580578, "name": "Th\u00e0nh ph\u1ed1 H\u1ed3 Ch\u00ed Minh", "country": "VN", "coord": {"lon": 106.666672, "lat": 10.83333}}, {"id": 2972993, "name": "Th\u00e8des", "country": "FR", "coord": {"lon": 3.02542, "lat": 45.737259}}, {"id": 6437890, "name": "Th\u00e9ding", "country": "FR", "coord": {"lon": 6.9, "lat": 49.133331}}, {"id": 6439909, "name": "Th\u00e9lus", "country": "FR", "coord": {"lon": 2.8, "lat": 50.349998}}, {"id": 6428154, "name": "Th\u00e9nac", "country": "FR", "coord": {"lon": -0.65, "lat": 45.666672}}, {"id": 6444246, "name": "Th\u00e9nezay", "country": "FR", "coord": {"lon": -0.03333, "lat": 46.716671}}, {"id": 6425686, "name": "Th\u00e9oule-sur-Mer", "country": "FR", "coord": {"lon": 6.93333, "lat": 43.5}}, {"id": 252952, "name": "Th\u00e9rissos", "country": "GR", "coord": {"lon": 25.116671, "lat": 35.333328}}, {"id": 6439910, "name": "Th\u00e9rouanne", "country": "FR", "coord": {"lon": 2.25, "lat": 50.633331}}, {"id": 6434143, "name": "Th\u00e9s\u00e9e", "country": "FR", "coord": {"lon": 1.31667, "lat": 47.333328}}, {"id": 6441044, "name": "Th\u00e9za", "country": "FR", "coord": {"lon": 2.95, "lat": 42.633331}}, {"id": 6614352, "name": "Th\u00e9zan-l\u00e8s-B\u00e9ziers", "country": "FR", "coord": {"lon": 3.16667, "lat": 43.416672}}, {"id": 1565681, "name": "Th\u00f4n Chi\u1ebft Bi Ha", "country": "VN", "coord": {"lon": 107.716667, "lat": 16.4}}, {"id": 1565654, "name": "Th\u00f4n \u00d0i\u1ec1n H\u1ea1", "country": "VN", "coord": {"lon": 109.183327, "lat": 12.25}}, {"id": 6454674, "name": "Th\u00f4nes", "country": "FR", "coord": {"lon": 6.32572, "lat": 45.881229}}, {"id": 7287304, "name": "Th\u00f4nex", "country": "CH", "coord": {"lon": 6.20463, "lat": 46.196049}}, {"id": 1565593, "name": "Th\u00f4ng T\u00e2y H\u1ed9i", "country": "VN", "coord": {"lon": 106.650002, "lat": 10.83333}}, {"id": 2822653, "name": "Th\u00f6nse", "country": "DE", "coord": {"lon": 9.90246, "lat": 52.494019}}, {"id": 2822642, "name": "Th\u00f6rey", "country": "DE", "coord": {"lon": 10.95, "lat": 50.883331}}, {"id": 2658378, "name": "Th\u00f6rishaus", "country": "CH", "coord": {"lon": 7.35131, "lat": 46.893871}}, {"id": 7873344, "name": "Th\u00f6rl", "country": "AT", "coord": {"lon": 15.21624, "lat": 47.548698}}, {"id": 6553972, "name": "Th\u00f6rlingen", "country": "DE", "coord": {"lon": 7.53333, "lat": 50.133301}}, {"id": 6554799, "name": "Th\u00f6rnich", "country": "DE", "coord": {"lon": 6.83333, "lat": 49.833302}}, {"id": 2822601, "name": "Th\u00fcle", "country": "DE", "coord": {"lon": 8.58333, "lat": 51.716671}}, {"id": 2822576, "name": "Th\u00fcnahof", "country": "DE", "coord": {"lon": 11.38333, "lat": 50.5}}, {"id": 6557101, "name": "Th\u00fcngersheim", "country": "DE", "coord": {"lon": 9.84917, "lat": 49.8783}}, {"id": 6553784, "name": "Th\u00fcr", "country": "DE", "coord": {"lon": 7.28333, "lat": 50.349998}}, {"id": 7872652, "name": "Th\u00fcringen", "country": "AT", "coord": {"lon": 9.76248, "lat": 47.19931}}, {"id": 6549986, "name": "Th\u00fcringenhausen", "country": "DE", "coord": {"lon": 10.8, "lat": 51.266701}}, {"id": 6547908, "name": "Th\u00fcrkow", "country": "DE", "coord": {"lon": 12.5667, "lat": 53.833302}}, {"id": 2822494, "name": "Th\u00fcsdorf", "country": "DE", "coord": {"lon": 11.5, "lat": 51.099998}}, {"id": 1282684, "name": "Th\u0101nkot", "country": "NP", "coord": {"lon": 85.183334, "lat": 27.683332}}, {"id": 1282679, "name": "Th\u0101re P\u0101ti", "country": "NP", "coord": {"lon": 85.5, "lat": 28.016666}}, {"id": 1581129, "name": "Th\u1ee7 \u00d0\u00f4 H\u00e0 N\u1ed9i", "country": "VN", "coord": {"lon": 105.883331, "lat": 21.116671}}, {"id": 3740016, "name": "Ti Port-de-Paix", "country": "HT", "coord": {"lon": -72.833328, "lat": 19.933331}}, {"id": 2527825, "name": "Ti n\u2019 Salah", "country": "MA", "coord": {"lon": -9.33218, "lat": 30.23579}}, {"id": 3626302, "name": "Tia Juana", "country": "VE", "coord": {"lon": -71.368652, "lat": 10.25838}}, {"id": 665199, "name": "Tia Mare", "country": "RO", "coord": {"lon": 24.633329, "lat": 43.866669}}, {"id": 2244786, "name": "Tiadiaye", "country": "SN", "coord": {"lon": -16.700001, "lat": 14.41667}}, {"id": 2510486, "name": "Tiagua", "country": "ES", "coord": {"lon": -13.6307, "lat": 29.0527}}, {"id": 3903046, "name": "Tiahuanaco", "country": "BO", "coord": {"lon": -68.699997, "lat": -16.549999}}, {"id": 6541369, "name": "Tiana", "country": "IT", "coord": {"lon": 9.14733, "lat": 40.068451}}, {"id": 3165692, "name": "Tiana", "country": "IT", "coord": {"lon": 9.14733, "lat": 40.068451}}, {"id": 3108110, "name": "Tiana", "country": "ES", "coord": {"lon": 2.26702, "lat": 41.482021}}, {"id": 7690197, "name": "Tianbao", "country": "CN", "coord": {"lon": 114.761131, "lat": 28.530081}}, {"id": 1793016, "name": "Tianbu", "country": "CN", "coord": {"lon": 121.120453, "lat": 31.93066}}, {"id": 1793017, "name": "Tianbu", "country": "CN", "coord": {"lon": 116.190773, "lat": 26.395411}}, {"id": 1805563, "name": "Tianchang", "country": "CN", "coord": {"lon": 114.015556, "lat": 37.998058}}, {"id": 1793013, "name": "Tiancheng", "country": "CN", "coord": {"lon": 114.04155, "lat": 29.54022}}, {"id": 1793010, "name": "Tianchi", "country": "CN", "coord": {"lon": 107.311546, "lat": 36.236389}}, {"id": 1793011, "name": "Tianchi", "country": "CN", "coord": {"lon": 105.02346, "lat": 30.28112}}, {"id": 1792999, "name": "Tiandeng", "country": "CN", "coord": {"lon": 107.093689, "lat": 23.126579}}, {"id": 1940868, "name": "Tiandian", "country": "CN", "coord": {"lon": 113.44841, "lat": 31.029449}}, {"id": 1792997, "name": "Tiandiba", "country": "CN", "coord": {"lon": 103.248062, "lat": 27.70178}}, {"id": 1792993, "name": "Tiandu", "country": "CN", "coord": {"lon": 107.962067, "lat": 34.49229}}, {"id": 1792994, "name": "Tiandu", "country": "CN", "coord": {"lon": 109.582321, "lat": 18.284599}}, {"id": 611669, "name": "Tianeti", "country": "GE", "coord": {"lon": 44.96389, "lat": 42.10833}}, {"id": 1887870, "name": "Tianfen", "country": "CN", "coord": {"lon": 121.54158, "lat": 32.06308}}, {"id": 1999297, "name": "Tianfu", "country": "CN", "coord": {"lon": 108.59417, "lat": 34.264439}}, {"id": 7579467, "name": "Tiang", "country": "ID", "coord": {"lon": 111.888298, "lat": -8.0015}}, {"id": 3386449, "name": "Tiangua", "country": "BR", "coord": {"lon": -40.991669, "lat": -3.73222}}, {"id": 3515679, "name": "Tianguistenco", "country": "MX", "coord": {"lon": -99.470558, "lat": 19.17972}}, {"id": 7898414, "name": "Tianhe", "country": "CN", "coord": {"lon": 114.214279, "lat": 30.8039}}, {"id": 7636852, "name": "Tianhong", "country": "CN", "coord": {"lon": 116.43811, "lat": 29.684561}}, {"id": 7638315, "name": "Tianhu", "country": "CN", "coord": {"lon": 118.596863, "lat": 30.91674}}, {"id": 7517817, "name": "Tianjiacheng", "country": "CN", "coord": {"lon": 107.864021, "lat": 36.008438}}, {"id": 7446489, "name": "Tianjiahe", "country": "CN", "coord": {"lon": 103.941368, "lat": 35.061909}}, {"id": 8054116, "name": "Tianjiao", "country": "CN", "coord": {"lon": 109.999527, "lat": 39.825531}}, {"id": 1792949, "name": "Tianjiazhuang", "country": "CN", "coord": {"lon": 107.475952, "lat": 34.51516}}, {"id": 1792947, "name": "Tianjin", "country": "CN", "coord": {"lon": 117.176666, "lat": 39.14222}}, {"id": 1792943, "name": "Tianjin Shi", "country": "CN", "coord": {"lon": 117.199997, "lat": 39.133331}}, {"id": 1925393, "name": "Tianjingyuan", "country": "CN", "coord": {"lon": 116.647301, "lat": 27.53171}}, {"id": 1792934, "name": "Tianlou", "country": "CN", "coord": {"lon": 119.599998, "lat": 34.25}}, {"id": 1925260, "name": "Tiannan", "country": "CN", "coord": {"lon": 115.109848, "lat": 28.123541}}, {"id": 1925261, "name": "Tiannan", "country": "CN", "coord": {"lon": 115.107269, "lat": 28.10676}}, {"id": 1792919, "name": "Tianning", "country": "CN", "coord": {"lon": 120.800568, "lat": 30.89604}}, {"id": 1806095, "name": "Tianning", "country": "CN", "coord": {"lon": 112.16053, "lat": 37.547218}}, {"id": 1792916, "name": "Tianpeng", "country": "CN", "coord": {"lon": 103.939331, "lat": 30.986641}}, {"id": 1792910, "name": "Tianqian", "country": "CN", "coord": {"lon": 115.502579, "lat": 22.7279}}, {"id": 1998381, "name": "Tianqiao", "country": "CN", "coord": {"lon": 108.5625, "lat": 34.051941}}, {"id": 2034461, "name": "Tianqiaoling", "country": "CN", "coord": {"lon": 129.629745, "lat": 43.590069}}, {"id": 1548797, "name": "Tianshan", "country": "CN", "coord": {"lon": 119.243607, "lat": 32.632778}}, {"id": 2034460, "name": "Tianshan", "country": "CN", "coord": {"lon": 120.093361, "lat": 43.88736}}, {"id": 7735261, "name": "Tianshengjie", "country": "CN", "coord": {"lon": 120.112297, "lat": 30.877831}}, {"id": 1792898, "name": "Tianshi", "country": "CN", "coord": {"lon": 109.428139, "lat": 34.62212}}, {"id": 2034457, "name": "Tianshifu", "country": "CN", "coord": {"lon": 124.353127, "lat": 41.25563}}, {"id": 1792895, "name": "Tianshui", "country": "CN", "coord": {"lon": 106.780563, "lat": 37.146671}}, {"id": 1792892, "name": "Tianshuijun", "country": "CN", "coord": {"lon": 105.68972, "lat": 34.543892}}, {"id": 7658309, "name": "Tiantai", "country": "CN", "coord": {"lon": 114.019478, "lat": 27.82976}}, {"id": 1792889, "name": "Tiantai Chengguanzhen", "country": "CN", "coord": {"lon": 121.029579, "lat": 29.13633}}, {"id": 7658361, "name": "Tiantaishan", "country": "CN", "coord": {"lon": 114.000839, "lat": 27.88534}}, {"id": 1810921, "name": "Tiantan", "country": "CN", "coord": {"lon": 111.841667, "lat": 35.96611}}, {"id": 1792881, "name": "Tiantang", "country": "CN", "coord": {"lon": 107.550789, "lat": 34.919521}}, {"id": 1792882, "name": "Tiantang", "country": "CN", "coord": {"lon": 116.349998, "lat": 30.85}}, {"id": 6422000, "name": "Tiantang", "country": "CN", "coord": {"lon": 111.886391, "lat": 25.55167}}, {"id": 1792864, "name": "Tianwang", "country": "CN", "coord": {"lon": 107.469566, "lat": 34.301361}}, {"id": 1792852, "name": "Tianxin", "country": "CN", "coord": {"lon": 114.603958, "lat": 28.135639}}, {"id": 1792857, "name": "Tianxin", "country": "CN", "coord": {"lon": 115.504318, "lat": 25.39805}}, {"id": 7903964, "name": "Tianxing", "country": "CN", "coord": {"lon": 114.414558, "lat": 30.669001}}, {"id": 1801350, "name": "Tianya", "country": "CN", "coord": {"lon": 109.326759, "lat": 18.30835}}, {"id": 2034452, "name": "Tianyi", "country": "CN", "coord": {"lon": 119.333328, "lat": 41.566669}}, {"id": 7685361, "name": "Tianyu", "country": "CN", "coord": {"lon": 115.053368, "lat": 27.1408}}, {"id": 1881436, "name": "Tianyuan", "country": "CN", "coord": {"lon": 121.181549, "lat": 30.199699}}, {"id": 1917185, "name": "Tianyuan", "country": "CN", "coord": {"lon": 114.418808, "lat": 24.188129}}, {"id": 1922279, "name": "Tianyuan", "country": "CN", "coord": {"lon": 116.845047, "lat": 26.0543}}, {"id": 7745074, "name": "Tianzhen", "country": "CN", "coord": {"lon": 115.471741, "lat": 29.867201}}, {"id": 1792841, "name": "Tianzhou", "country": "CN", "coord": {"lon": 106.897179, "lat": 23.77861}}, {"id": 2034449, "name": "Tianzhu", "country": "CN", "coord": {"lon": 116.556107, "lat": 40.066669}}, {"id": 7062006, "name": "Tianzhuang", "country": "CN", "coord": {"lon": 113.353722, "lat": 33.567471}}, {"id": 2034447, "name": "Tianzhuangtai", "country": "CN", "coord": {"lon": 122.138023, "lat": 40.839142}}, {"id": 7526978, "name": "Tianzhutang", "country": "CN", "coord": {"lon": 121.006638, "lat": 30.712641}}, {"id": 1941116, "name": "Tianzishan", "country": "CN", "coord": {"lon": 110.436432, "lat": 29.409719}}, {"id": 1885287, "name": "Tiaolou", "country": "CN", "coord": {"lon": 109.535027, "lat": 19.93877}}, {"id": 1682442, "name": "Tiaong", "country": "PH", "coord": {"lon": 121.316109, "lat": 13.95361}}, {"id": 2528867, "name": "Tiaouanine", "country": "MA", "coord": {"lon": -4.95748, "lat": 31.689171}}, {"id": 2597172, "name": "Tiapoum", "country": "CI", "coord": {"lon": -3.02308, "lat": 5.13622}}, {"id": 4033356, "name": "Tiarei", "country": "PF", "coord": {"lon": -149.333328, "lat": -17.533331}}, {"id": 2476897, "name": "Tiaret", "country": "DZ", "coord": {"lon": 1.31699, "lat": 35.371029}}, {"id": 3165691, "name": "Tiarno di Sopra", "country": "IT", "coord": {"lon": 10.66947, "lat": 45.888401}}, {"id": 2146669, "name": "Tiaro", "country": "AU", "coord": {"lon": 152.583328, "lat": -25.73333}}, {"id": 2510485, "name": "Tias", "country": "ES", "coord": {"lon": -13.64502, "lat": 28.961081}}, {"id": 2280761, "name": "Tiassale", "country": "CI", "coord": {"lon": -4.82833, "lat": 5.89833}}, {"id": 3792406, "name": "Tibacuy", "country": "CO", "coord": {"lon": -72.45639, "lat": 4.35111}}, {"id": 3446550, "name": "Tibagi", "country": "BR", "coord": {"lon": -50.413609, "lat": -24.509439}}, {"id": 1682428, "name": "Tibagon", "country": "PH", "coord": {"lon": 125.862801, "lat": 7.2327}}, {"id": 7089416, "name": "Tibakisa", "country": "ID", "coord": {"lon": 121.305397, "lat": -8.7393}}, {"id": 7570034, "name": "Tibakisa", "country": "ID", "coord": {"lon": 121.178802, "lat": -8.7571}}, {"id": 3667218, "name": "Tibana", "country": "CO", "coord": {"lon": -73.396553, "lat": 5.31728}}, {"id": 665196, "name": "Tibana", "country": "RO", "coord": {"lon": 27.33333, "lat": 46.98333}}, {"id": 1682421, "name": "Tibanbang", "country": "PH", "coord": {"lon": 126.105476, "lat": 6.63153}}, {"id": 665193, "name": "Tibanesti", "country": "RO", "coord": {"lon": 27.33333, "lat": 46.916672}}, {"id": 3667211, "name": "Tibasosa", "country": "CO", "coord": {"lon": -73, "lat": 5.75}}, {"id": 2221530, "name": "Tibati", "country": "CM", "coord": {"lon": 12.63333, "lat": 6.46667}}, {"id": 3386446, "name": "Tibau", "country": "BR", "coord": {"lon": -37.252499, "lat": -4.83722}}, {"id": 293322, "name": "Tiberias", "country": "IL", "coord": {"lon": 35.531239, "lat": 32.792198}}, {"id": 1279685, "name": "Tibet Autonomous Region", "country": "CN", "coord": {"lon": 90, "lat": 32}}, {"id": 6355502, "name": "Tibi", "country": "ES", "coord": {"lon": -0.59557, "lat": 38.532372}}, {"id": 2510484, "name": "Tibi", "country": "ES", "coord": {"lon": -0.57776, "lat": 38.53072}}, {"id": 1682405, "name": "Tibiao", "country": "PH", "coord": {"lon": 122.035408, "lat": 11.29152}}, {"id": 1681182, "name": "Tibigan", "country": "PH", "coord": {"lon": 123.962196, "lat": 9.9518}}, {"id": 2438774, "name": "Tibiri", "country": "NE", "coord": {"lon": 7.04848, "lat": 13.56271}}, {"id": 1682393, "name": "Tiblawan", "country": "PH", "coord": {"lon": 126.108276, "lat": 6.47834}}, {"id": 246522, "name": "Tibnah", "country": "JO", "coord": {"lon": 35.728439, "lat": 32.475552}}, {"id": 2146661, "name": "Tibooburra", "country": "AU", "coord": {"lon": 142.016663, "lat": -29.433331}}, {"id": 714816, "name": "Tibrik", "country": "HU", "coord": {"lon": 20.383329, "lat": 47.900002}}, {"id": 2669118, "name": "Tibro", "country": "SE", "coord": {"lon": 14.16162, "lat": 58.42453}}, {"id": 2669117, "name": "Tibro Kommun", "country": "SE", "coord": {"lon": 14.2, "lat": 58.416672}}, {"id": 2635864, "name": "Tibshelf", "country": "GB", "coord": {"lon": -1.34056, "lat": 53.14436}}, {"id": 3667202, "name": "Tibu", "country": "CO", "coord": {"lon": -72.735832, "lat": 8.63896}}, {"id": 665182, "name": "Tibucani", "country": "RO", "coord": {"lon": 26.533331, "lat": 47.099998}}, {"id": 7410822, "name": "Tibulakasasak", "country": "ID", "coord": {"lon": 115.630898, "lat": -8.4234}}, {"id": 3716619, "name": "Tiburon", "country": "HT", "coord": {"lon": -74.400002, "lat": 18.33333}}, {"id": 5402535, "name": "Tiburon", "country": "US", "coord": {"lon": -122.456642, "lat": 37.873539}}, {"id": 7456056, "name": "Tibutana", "country": "ID", "coord": {"lon": 119.425903, "lat": -9.6337}}, {"id": 1682122, "name": "Ticala-an", "country": "PH", "coord": {"lon": 124.620827, "lat": 8.03528}}, {"id": 4175319, "name": "Tice", "country": "US", "coord": {"lon": -81.815079, "lat": 26.674789}}, {"id": 3165684, "name": "Ticengo", "country": "IT", "coord": {"lon": 9.82766, "lat": 45.36927}}, {"id": 6460538, "name": "Ticha", "country": "BG", "coord": {"lon": 26.433331, "lat": 42.966671}}, {"id": 726461, "name": "Ticha", "country": "BG", "coord": {"lon": 26.433331, "lat": 42.966671}}, {"id": 3064226, "name": "Ticha", "country": "CZ", "coord": {"lon": 18.221479, "lat": 49.569988}}, {"id": 2146656, "name": "Tichborne", "country": "AU", "coord": {"lon": 148.116669, "lat": -33.216671}}, {"id": 6166289, "name": "Tichborne", "country": "CA", "coord": {"lon": -76.682709, "lat": 44.666809}}, {"id": 2635861, "name": "Tichborne", "country": "GB", "coord": {"lon": -1.18712, "lat": 51.069019}}, {"id": 6439324, "name": "Ticheville", "country": "FR", "coord": {"lon": 0.26436, "lat": 48.908741}}, {"id": 2972625, "name": "Ticheville", "country": "FR", "coord": {"lon": 0.26402, "lat": 48.908569}}, {"id": 5275760, "name": "Tichigan", "country": "US", "coord": {"lon": -88.197594, "lat": 42.828899}}, {"id": 665176, "name": "Tichilesti", "country": "RO", "coord": {"lon": 27.9, "lat": 45.116669}}, {"id": 3165683, "name": "Ticineto", "country": "IT", "coord": {"lon": 8.55174, "lat": 45.096161}}, {"id": 3834459, "name": "Ticino", "country": "AR", "coord": {"lon": -63.436062, "lat": -32.693501}}, {"id": 2635860, "name": "Tickencote", "country": "GB", "coord": {"lon": -0.53696, "lat": 52.67503}}, {"id": 2635859, "name": "Tickhill", "country": "GB", "coord": {"lon": -1.10859, "lat": 53.431938}}, {"id": 665168, "name": "Ticleni", "country": "RO", "coord": {"lon": 23.4, "lat": 44.883331}}, {"id": 5141002, "name": "Ticonderoga", "country": "US", "coord": {"lon": -73.423447, "lat": 43.848671}}, {"id": 3616064, "name": "Ticuantepe", "country": "NI", "coord": {"lon": -86.204933, "lat": 12.02263}}, {"id": 3515665, "name": "Ticul", "country": "MX", "coord": {"lon": -89.533333, "lat": 20.4}}, {"id": 3515663, "name": "Ticum\u00e1n", "country": "MX", "coord": {"lon": -99.116669, "lat": 18.75}}, {"id": 665155, "name": "Ticvaniu Mare", "country": "RO", "coord": {"lon": 21.63806, "lat": 45.135281}}, {"id": 2669113, "name": "Tidaholm", "country": "SE", "coord": {"lon": 13.95824, "lat": 58.180351}}, {"id": 2669112, "name": "Tidaholms Kommun", "country": "SE", "coord": {"lon": 13.93333, "lat": 58.200001}}, {"id": 6552325, "name": "Tiddische", "country": "DE", "coord": {"lon": 10.8, "lat": 52.516701}}, {"id": 2822471, "name": "Tiddische", "country": "DE", "coord": {"lon": 10.8, "lat": 52.51667}}, {"id": 2635851, "name": "Tideswell", "country": "GB", "coord": {"lon": -1.77292, "lat": 53.278069}}, {"id": 2565258, "name": "Tidili Mesfioua", "country": "MA", "coord": {"lon": -7.61199, "lat": 31.46586}}, {"id": 2376193, "name": "Tidjikja", "country": "MR", "coord": {"lon": -11.42715, "lat": 18.55644}}, {"id": 1682321, "name": "Tidman", "country": "PH", "coord": {"lon": 126.33889, "lat": 8.29861}}, {"id": 2637310, "name": "Tidworth", "country": "GB", "coord": {"lon": -1.66324, "lat": 51.231419}}, {"id": 7330781, "name": "Tieba", "country": "CN", "coord": {"lon": 104.617302, "lat": 33.36245}}, {"id": 3108106, "name": "Tiebas", "country": "ES", "coord": {"lon": -1.63969, "lat": 42.69389}}, {"id": 6359775, "name": "Tiebas-Muruarte de Reta", "country": "ES", "coord": {"lon": -1.64894, "lat": 42.685631}}, {"id": 1792814, "name": "Tiebiancheng", "country": "CN", "coord": {"lon": 107.847954, "lat": 36.98991}}, {"id": 2280743, "name": "Tiebissou", "country": "CI", "coord": {"lon": -5.22566, "lat": 7.15738}}, {"id": 2244616, "name": "Tiebo", "country": "SN", "coord": {"lon": -16.23333, "lat": 14.63333}}, {"id": 1792811, "name": "Tiechang", "country": "CN", "coord": {"lon": 115.489326, "lat": 24.16345}}, {"id": 1921609, "name": "Tiechang", "country": "CN", "coord": {"lon": 116.39547, "lat": 25.931761}}, {"id": 1532368, "name": "Tiechanggou", "country": "CN", "coord": {"lon": 87.783333, "lat": 43.916672}}, {"id": 6362285, "name": "Tiedra", "country": "ES", "coord": {"lon": -5.25055, "lat": 41.654282}}, {"id": 3108105, "name": "Tiedra", "country": "ES", "coord": {"lon": -5.26688, "lat": 41.65239}}, {"id": 2822448, "name": "Tiefenbach", "country": "DE", "coord": {"lon": 11.83333, "lat": 47.76667}}, {"id": 6553973, "name": "Tiefenbach", "country": "DE", "coord": {"lon": 7.55, "lat": 49.950001}}, {"id": 2822432, "name": "Tiefenbach", "country": "DE", "coord": {"lon": 7.55, "lat": 49.950001}}, {"id": 6551289, "name": "Tiefenbach", "country": "DE", "coord": {"lon": 12.5833, "lat": 49.4333}}, {"id": 2822434, "name": "Tiefenbach", "country": "DE", "coord": {"lon": 12.58333, "lat": 49.433331}}, {"id": 2822436, "name": "Tiefenbach", "country": "DE", "coord": {"lon": 12.33333, "lat": 49.183331}}, {"id": 6556536, "name": "Tiefenbach", "country": "DE", "coord": {"lon": 13.4, "lat": 48.616699}}, {"id": 2822442, "name": "Tiefenbach", "country": "DE", "coord": {"lon": 13.4, "lat": 48.616669}}, {"id": 6556514, "name": "Tiefenbach", "country": "DE", "coord": {"lon": 12.1, "lat": 48.5}}, {"id": 2822443, "name": "Tiefenbach", "country": "DE", "coord": {"lon": 12.1, "lat": 48.5}}, {"id": 6556030, "name": "Tiefenbach", "country": "DE", "coord": {"lon": 9.65, "lat": 48.083302}}, {"id": 2822447, "name": "Tiefenbach", "country": "DE", "coord": {"lon": 9.65, "lat": 48.083328}}, {"id": 6555711, "name": "Tiefenbronn", "country": "DE", "coord": {"lon": 8.8, "lat": 48.833302}}, {"id": 2822401, "name": "Tiefenbronn", "country": "DE", "coord": {"lon": 8.8, "lat": 48.833328}}, {"id": 7287311, "name": "Tiefencastel", "country": "CH", "coord": {"lon": 9.61312, "lat": 46.644981}}, {"id": 2658365, "name": "Tiefencastel", "country": "CH", "coord": {"lon": 9.57883, "lat": 46.660141}}, {"id": 2822388, "name": "Tiefenellern", "country": "DE", "coord": {"lon": 11.07285, "lat": 49.918289}}, {"id": 2822383, "name": "Tiefengruben", "country": "DE", "coord": {"lon": 9.64788, "lat": 50.473679}}, {"id": 2822373, "name": "Tiefenlauter", "country": "DE", "coord": {"lon": 10.96667, "lat": 50.333328}}, {"id": 6549897, "name": "Tiefenort", "country": "DE", "coord": {"lon": 10.1667, "lat": 50.833302}}, {"id": 2822368, "name": "Tiefenort", "country": "DE", "coord": {"lon": 10.16667, "lat": 50.833328}}, {"id": 2822359, "name": "Tiefensee", "country": "DE", "coord": {"lon": 13.83565, "lat": 52.67997}}, {"id": 2822321, "name": "Tiefenthal", "country": "DE", "coord": {"lon": 9.43333, "lat": 49.700001}}, {"id": 6553549, "name": "Tiefenthal", "country": "DE", "coord": {"lon": 7.9, "lat": 49.75}}, {"id": 2822320, "name": "Tiefenthal", "country": "DE", "coord": {"lon": 7.9, "lat": 49.75}}, {"id": 6554922, "name": "Tiefenthal", "country": "DE", "coord": {"lon": 8.10389, "lat": 49.538601}}, {"id": 2822323, "name": "Tiefenthal", "country": "DE", "coord": {"lon": 8.10389, "lat": 49.538609}}, {"id": 2763615, "name": "Tiefgraben", "country": "AT", "coord": {"lon": 13.33333, "lat": 47.866669}}, {"id": 2763614, "name": "Tiefgraben", "country": "AT", "coord": {"lon": 13.35, "lat": 47.883331}}, {"id": 2822282, "name": "Tiefstadt", "country": "DE", "coord": {"lon": 12.76667, "lat": 48.400002}}, {"id": 2822281, "name": "Tiefthal", "country": "DE", "coord": {"lon": 10.95, "lat": 51.01667}}, {"id": 7643676, "name": "Tiehe", "country": "CN", "coord": {"lon": 115.971031, "lat": 29.027031}}, {"id": 5876206, "name": "Tiekel (historical)", "country": "US", "coord": {"lon": -145.308609, "lat": 61.326111}}, {"id": 2746331, "name": "Tiel", "country": "NL", "coord": {"lon": 5.42917, "lat": 51.886669}}, {"id": 6552004, "name": "Tielen", "country": "DE", "coord": {"lon": 9.33333, "lat": 54.283298}}, {"id": 2822269, "name": "Tielen", "country": "DE", "coord": {"lon": 9.33333, "lat": 54.283329}}, {"id": 2034440, "name": "Tieli", "country": "CN", "coord": {"lon": 128.050003, "lat": 46.950001}}, {"id": 2034439, "name": "Tieling", "country": "CN", "coord": {"lon": 123.841393, "lat": 42.29306}}, {"id": 6359365, "name": "Tielmes", "country": "ES", "coord": {"lon": -3.30071, "lat": 40.23587}}, {"id": 3108104, "name": "Tielmes", "country": "ES", "coord": {"lon": -3.31461, "lat": 40.246521}}, {"id": 1917284, "name": "Tielong", "country": "CN", "coord": {"lon": 113.692223, "lat": 24.505831}}, {"id": 1899351, "name": "Tielou", "country": "CN", "coord": {"lon": 104.464447, "lat": 32.906651}}, {"id": 2785478, "name": "Tielt", "country": "BE", "coord": {"lon": 3.36718, "lat": 51.00375}}, {"id": 2785476, "name": "Tielt", "country": "BE", "coord": {"lon": 3.32707, "lat": 50.99931}}, {"id": 2785479, "name": "Tielt-Winge", "country": "BE", "coord": {"lon": 4.8848, "lat": 50.917751}}, {"id": 1792785, "name": "Tielu", "country": "CN", "coord": {"lon": 109.443169, "lat": 34.39399}}, {"id": 7640676, "name": "Tielu", "country": "CN", "coord": {"lon": 116.708794, "lat": 29.608259}}, {"id": 7685343, "name": "Tielu", "country": "CN", "coord": {"lon": 115.788109, "lat": 27.87229}}, {"id": 6355838, "name": "Tiemblo (El)", "country": "ES", "coord": {"lon": -4.47659, "lat": 40.39455}}, {"id": 2785471, "name": "Tienen", "country": "BE", "coord": {"lon": 4.94179, "lat": 50.807671}}, {"id": 2785470, "name": "Tienen", "country": "BE", "coord": {"lon": 4.9378, "lat": 50.807442}}, {"id": 2822259, "name": "Tiengen", "country": "DE", "coord": {"lon": 7.71667, "lat": 47.98333}}, {"id": 1682315, "name": "Tiep", "country": "PH", "coord": {"lon": 119.860901, "lat": 16.238199}}, {"id": 1919641, "name": "Tiepu", "country": "CN", "coord": {"lon": 116.755318, "lat": 23.612379}}, {"id": 2972620, "name": "Tierce", "country": "FR", "coord": {"lon": -0.46609, "lat": 47.615871}}, {"id": 6435334, "name": "Tierc\u00e9", "country": "FR", "coord": {"lon": -0.46667, "lat": 47.616669}}, {"id": 2822236, "name": "Tiergarten", "country": "DE", "coord": {"lon": 13.2, "lat": 52.76667}}, {"id": 2822234, "name": "Tiergarten", "country": "DE", "coord": {"lon": 13.36667, "lat": 52.51667}}, {"id": 6930555, "name": "Tieri", "country": "AU", "coord": {"lon": 148.344635, "lat": -23.03829}}, {"id": 2669098, "name": "Tierp", "country": "SE", "coord": {"lon": 17.51812, "lat": 60.34269}}, {"id": 5494507, "name": "Tierra Amarilla", "country": "US", "coord": {"lon": -106.549759, "lat": 36.700291}}, {"id": 3927548, "name": "Tierra Amarilla", "country": "PE", "coord": {"lon": -76.433327, "lat": -12.13333}}, {"id": 3801276, "name": "Tierra Blanca", "country": "MX", "coord": {"lon": -96.347778, "lat": 18.45722}}, {"id": 3600800, "name": "Tierra Blanca", "country": "HN", "coord": {"lon": -88.583328, "lat": 14.58333}}, {"id": 5402570, "name": "Tierra Buena", "country": "US", "coord": {"lon": -121.666908, "lat": 39.148781}}, {"id": 3515643, "name": "Tierra Colorada", "country": "MX", "coord": {"lon": -99.583328, "lat": 17.16667}}, {"id": 4175331, "name": "Tierra Verde", "country": "US", "coord": {"lon": -82.723427, "lat": 27.691971}}, {"id": 3667158, "name": "Tierralta", "country": "CO", "coord": {"lon": -76.059174, "lat": 8.17361}}, {"id": 3108098, "name": "Tierrantona", "country": "ES", "coord": {"lon": 0.27183, "lat": 42.36964}}, {"id": 3981652, "name": "Tierranueva", "country": "MX", "coord": {"lon": -100.566673, "lat": 21.683331}}, {"id": 4568399, "name": "Tierras Nuevas Poniente", "country": "PR", "coord": {"lon": -66.488503, "lat": 18.461889}}, {"id": 6358425, "name": "Tierz", "country": "ES", "coord": {"lon": -0.35197, "lat": 42.132301}}, {"id": 3108097, "name": "Tierz", "country": "ES", "coord": {"lon": -0.35489, "lat": 42.13356}}, {"id": 6358035, "name": "Tierzo", "country": "ES", "coord": {"lon": -1.91568, "lat": 40.751709}}, {"id": 3108096, "name": "Tierzo", "country": "ES", "coord": {"lon": -1.93069, "lat": 40.749249}}, {"id": 7872492, "name": "Tieschen", "country": "AT", "coord": {"lon": 15.945, "lat": 46.785519}}, {"id": 2763609, "name": "Tieschen", "country": "AT", "coord": {"lon": 15.94222, "lat": 46.78611}}, {"id": 1792767, "name": "Tieshan", "country": "CN", "coord": {"lon": 113.529709, "lat": 33.333241}}, {"id": 1792772, "name": "Tieshan", "country": "CN", "coord": {"lon": 118.926109, "lat": 27.39917}}, {"id": 1924191, "name": "Tieshan", "country": "CN", "coord": {"lon": 118.095039, "lat": 28.215281}}, {"id": 1792768, "name": "Tieshanlong", "country": "CN", "coord": {"lon": 115.511368, "lat": 25.7335}}, {"id": 3446539, "name": "Tiete", "country": "BR", "coord": {"lon": -47.714722, "lat": -23.10194}}, {"id": 5813532, "name": "Tieton", "country": "US", "coord": {"lon": -120.755348, "lat": 46.702068}}, {"id": 2000711, "name": "Tiewang", "country": "CN", "coord": {"lon": 108.572502, "lat": 34.916672}}, {"id": 1916188, "name": "Tieyong", "country": "CN", "coord": {"lon": 114.834137, "lat": 22.72459}}, {"id": 665151, "name": "Tifesti", "country": "RO", "coord": {"lon": 27.1, "lat": 45.849998}}, {"id": 6445246, "name": "Tiffauges", "country": "FR", "coord": {"lon": -1.1, "lat": 47.01667}}, {"id": 2972613, "name": "Tiffauges", "country": "FR", "coord": {"lon": -1.10999, "lat": 47.010799}}, {"id": 5173930, "name": "Tiffin", "country": "US", "coord": {"lon": -83.177971, "lat": 41.114498}}, {"id": 4878585, "name": "Tiffin", "country": "US", "coord": {"lon": -91.662949, "lat": 41.705849}}, {"id": 2528659, "name": "Tiflet", "country": "MA", "coord": {"lon": -6.3065, "lat": 33.894691}}, {"id": 6546939, "name": "Tiflet", "country": "MA", "coord": {"lon": -6.31519, "lat": 33.895168}}, {"id": 2528650, "name": "Tifni", "country": "MA", "coord": {"lon": -6.94093, "lat": 31.627769}}, {"id": 4226538, "name": "Tift County", "country": "US", "coord": {"lon": -83.50016, "lat": 31.45019}}, {"id": 4226552, "name": "Tifton", "country": "US", "coord": {"lon": -83.508499, "lat": 31.45046}}, {"id": 1623930, "name": "Tigaherang", "country": "ID", "coord": {"lon": 108.445198, "lat": -7.1296}}, {"id": 7104230, "name": "Tigakorang", "country": "ID", "coord": {"lon": 100.6427, "lat": -0.80359}}, {"id": 665145, "name": "Tiganasi", "country": "RO", "coord": {"lon": 27.466669, "lat": 47.333328}}, {"id": 665140, "name": "Tiganesti", "country": "RO", "coord": {"lon": 25.366671, "lat": 43.900002}}, {"id": 1682304, "name": "Tigao", "country": "PH", "coord": {"lon": 126.176109, "lat": 9.20889}}, {"id": 1682301, "name": "Tigaon", "country": "PH", "coord": {"lon": 123.496803, "lat": 13.6331}}, {"id": 5756758, "name": "Tigard", "country": "US", "coord": {"lon": -122.771492, "lat": 45.431229}}, {"id": 7743546, "name": "Tigarunggu", "country": "ID", "coord": {"lon": 98.722603, "lat": 2.8965}}, {"id": 1682262, "name": "Tigbao", "country": "PH", "coord": {"lon": 123.338898, "lat": 12.5546}}, {"id": 1682275, "name": "Tigbao", "country": "PH", "coord": {"lon": 122.327499, "lat": 7.42833}}, {"id": 1682250, "name": "Tigbauan", "country": "PH", "coord": {"lon": 122.377602, "lat": 10.67466}}, {"id": 1682263, "name": "Tigbaw", "country": "PH", "coord": {"lon": 123.590897, "lat": 12.1483}}, {"id": 1682219, "name": "Tigbinan", "country": "PH", "coord": {"lon": 122.469231, "lat": 14.18648}}, {"id": 4175363, "name": "Tiger Point", "country": "US", "coord": {"lon": -87.055519, "lat": 30.378531}}, {"id": 4598650, "name": "Tigerville", "country": "US", "coord": {"lon": -82.368446, "lat": 35.068451}}, {"id": 6446213, "name": "Tigery", "country": "FR", "coord": {"lon": 2.5, "lat": 48.633331}}, {"id": 2972611, "name": "Tigery", "country": "FR", "coord": {"lon": 2.50779, "lat": 48.64257}}, {"id": 2522934, "name": "Tiggiano", "country": "IT", "coord": {"lon": 18.364429, "lat": 39.905819}}, {"id": 2476700, "name": "Tighenif", "country": "DZ", "coord": {"lon": 0.32982, "lat": 35.417221}}, {"id": 2120612, "name": "Tigil", "country": "RU", "coord": {"lon": 158.666672, "lat": 57.799999}}, {"id": 1682196, "name": "Tiglauigan", "country": "PH", "coord": {"lon": 123.358063, "lat": 10.95389}}, {"id": 3165672, "name": "Tiglieto", "country": "IT", "coord": {"lon": 8.61925, "lat": 44.523239}}, {"id": 6534860, "name": "Tigliole", "country": "IT", "coord": {"lon": 8.07663, "lat": 44.88625}}, {"id": 1682182, "name": "Tignapalan", "country": "PH", "coord": {"lon": 124.574722, "lat": 8.26389}}, {"id": 2221513, "name": "Tignere", "country": "CM", "coord": {"lon": 12.65, "lat": 7.36667}}, {"id": 6442912, "name": "Tignes", "country": "FR", "coord": {"lon": 6.9137, "lat": 45.4725}}, {"id": 2972607, "name": "Tignes", "country": "FR", "coord": {"lon": 6.92463, "lat": 45.49604}}, {"id": 6433430, "name": "Tignieu-Jameyzieu", "country": "FR", "coord": {"lon": 5.18333, "lat": 45.73333}}, {"id": 2972605, "name": "Tignieu-Jameyzieu", "country": "FR", "coord": {"lon": 5.18046, "lat": 45.735641}}, {"id": 6166454, "name": "Tignish", "country": "CA", "coord": {"lon": -64.032021, "lat": 46.950142}}, {"id": 1682180, "name": "Tignoan", "country": "PH", "coord": {"lon": 121.61972, "lat": 14.56472}}, {"id": 1957566, "name": "Tigpalay", "country": "PH", "coord": {"lon": 122.343063, "lat": 7.49389}}, {"id": 444187, "name": "Tigray Kilil", "country": "ET", "coord": {"lon": 38.833328, "lat": 14.16667}}, {"id": 3427761, "name": "Tigre", "country": "AR", "coord": {"lon": -58.57962, "lat": -34.426029}}, {"id": 1682171, "name": "Tigtabon", "country": "PH", "coord": {"lon": 122.166939, "lat": 6.89556}}, {"id": 1958342, "name": "Tiguha", "country": "PH", "coord": {"lon": 123.211388, "lat": 7.70444}}, {"id": 1682166, "name": "Tigui", "country": "PH", "coord": {"lon": 122.041496, "lat": 13.2681}}, {"id": 1682164, "name": "Tiguib", "country": "PH", "coord": {"lon": 123.135201, "lat": 9.8008}}, {"id": 1682155, "name": "Tiguion", "country": "PH", "coord": {"lon": 121.861, "lat": 13.3347}}, {"id": 1682151, "name": "Tiguisan", "country": "PH", "coord": {"lon": 121.460518, "lat": 12.83941}}, {"id": 1682146, "name": "Tigum", "country": "PH", "coord": {"lon": 122.566673, "lat": 10.78333}}, {"id": 665113, "name": "Tigveni", "country": "RO", "coord": {"lon": 24.58333, "lat": 45.133331}}, {"id": 6434744, "name": "Tigy", "country": "FR", "coord": {"lon": 2.2, "lat": 47.799999}}, {"id": 2972600, "name": "Tigy", "country": "FR", "coord": {"lon": 2.19766, "lat": 47.793652}}, {"id": 2476660, "name": "Tigzirt", "country": "DZ", "coord": {"lon": 4.11984, "lat": 36.888561}}, {"id": 665110, "name": "Tiha Bargaului", "country": "RO", "coord": {"lon": 24.76667, "lat": 47.23333}}, {"id": 2785456, "name": "Tihange", "country": "BE", "coord": {"lon": 5.26176, "lat": 50.529739}}, {"id": 3043927, "name": "Tihany", "country": "HU", "coord": {"lon": 17.889179, "lat": 46.913689}}, {"id": 588301, "name": "Tiheda", "country": "EE", "coord": {"lon": 26.959999, "lat": 58.791111}}, {"id": 3515603, "name": "Tihuatlan", "country": "MX", "coord": {"lon": -97.533333, "lat": 20.716669}}, {"id": 7647293, "name": "Tiilim\u00e4ki", "country": "FI", "coord": {"lon": 21.778851, "lat": 61.47543}}, {"id": 1254538, "name": "Tijara", "country": "IN", "coord": {"lon": 76.849998, "lat": 27.933331}}, {"id": 6534197, "name": "Tijarafe", "country": "ES", "coord": {"lon": -17.95542, "lat": 28.708981}}, {"id": 2510468, "name": "Tijarafe", "country": "ES", "coord": {"lon": -17.950001, "lat": 28.700001}}, {"id": 3700620, "name": "Tijera", "country": "PA", "coord": {"lon": -82.550003, "lat": 8.46667}}, {"id": 3189120, "name": "Tijesno", "country": "HR", "coord": {"lon": 15.64333, "lat": 43.804169}}, {"id": 2746304, "name": "Tijnje", "country": "NL", "coord": {"lon": 5.99193, "lat": 53.030579}}, {"id": 2510463, "name": "Tijola", "country": "ES", "coord": {"lon": -2.43326, "lat": 37.346062}}, {"id": 3981609, "name": "Tijuana", "country": "MX", "coord": {"lon": -117.01667, "lat": 32.533329}}, {"id": 3446500, "name": "Tijucas", "country": "BR", "coord": {"lon": -48.63361, "lat": -27.24139}}, {"id": 1254536, "name": "Tikaitnagar", "country": "IN", "coord": {"lon": 81.583336, "lat": 26.950001}}, {"id": 3588369, "name": "Tikal", "country": "GT", "coord": {"lon": -89.613327, "lat": 17.225}}, {"id": 1254534, "name": "Tikamgarh", "country": "IN", "coord": {"lon": 78.833298, "lat": 24.745001}}, {"id": 1282666, "name": "Tikapur", "country": "NP", "coord": {"lon": 81.133331, "lat": 28.5}}, {"id": 483059, "name": "Tikhonikha", "country": "RU", "coord": {"lon": 43, "lat": 60}}, {"id": 483039, "name": "Tikhonovo", "country": "RU", "coord": {"lon": 40.266666, "lat": 55.549999}}, {"id": 483029, "name": "Tikhoretsk", "country": "RU", "coord": {"lon": 40.125278, "lat": 45.854721}}, {"id": 483020, "name": "Tikhtozero", "country": "RU", "coord": {"lon": 30.533333, "lat": 65.533333}}, {"id": 483019, "name": "Tikhvin", "country": "RU", "coord": {"lon": 33.529369, "lat": 59.645111}}, {"id": 1682118, "name": "Tikiw", "country": "PH", "coord": {"lon": 120.859398, "lat": 15.311}}, {"id": 2221504, "name": "Tiko", "country": "CM", "coord": {"lon": 9.3699, "lat": 4.0745}}, {"id": 1282665, "name": "Tikoli", "country": "NP", "coord": {"lon": 84.5, "lat": 27.633333}}, {"id": 1254513, "name": "Tikri", "country": "IN", "coord": {"lon": 77.349998, "lat": 29.23333}}, {"id": 90150, "name": "Tikrit", "country": "IQ", "coord": {"lon": 43.678219, "lat": 34.607121}}, {"id": 483001, "name": "Tiksha", "country": "RU", "coord": {"lon": 32.383331, "lat": 64.150002}}, {"id": 2015306, "name": "Tiksi", "country": "RU", "coord": {"lon": 128.869446, "lat": 71.687218}}, {"id": 1213459, "name": "Tiku", "country": "ID", "coord": {"lon": 99.923073, "lat": -0.3958}}, {"id": 3515600, "name": "Tila", "country": "MX", "coord": {"lon": -92.48333, "lat": 17.4}}, {"id": 1623890, "name": "Tilamuta", "country": "ID", "coord": {"lon": 122.346298, "lat": 0.5273}}, {"id": 7426809, "name": "Tilang", "country": "ID", "coord": {"lon": 122.122803, "lat": -8.7006}}, {"id": 3621278, "name": "Tilaran", "country": "CR", "coord": {"lon": -84.967087, "lat": 10.47029}}, {"id": 2146628, "name": "Tilba Tilba", "country": "AU", "coord": {"lon": 150.050003, "lat": -36.316669}}, {"id": 2746301, "name": "Tilburg", "country": "NL", "coord": {"lon": 5.0913, "lat": 51.555511}}, {"id": 6166510, "name": "Tilbury", "country": "CA", "coord": {"lon": -82.433113, "lat": 42.266788}}, {"id": 2635836, "name": "Tilbury", "country": "GB", "coord": {"lon": 0.35856, "lat": 51.462479}}, {"id": 3834403, "name": "Tilcara", "country": "AR", "coord": {"lon": -65.350899, "lat": -23.57757}}, {"id": 4736889, "name": "Tilden", "country": "US", "coord": {"lon": -98.549179, "lat": 28.461941}}, {"id": 665104, "name": "Tileagd", "country": "RO", "coord": {"lon": 22.200001, "lat": 47.066669}}, {"id": 7292723, "name": "Tilehurst", "country": "GB", "coord": {"lon": -1.04711, "lat": 51.45789}}, {"id": 2635833, "name": "Tilehurst", "country": "GB", "coord": {"lon": -1.0437, "lat": 51.45647}}, {"id": 6434005, "name": "Tilh", "country": "FR", "coord": {"lon": -0.83333, "lat": 43.583328}}, {"id": 2972598, "name": "Tilh", "country": "FR", "coord": {"lon": -0.83658, "lat": 43.575699}}, {"id": 1254481, "name": "Tilhar", "country": "IN", "coord": {"lon": 79.73333, "lat": 27.98333}}, {"id": 2120591, "name": "Tilichiki", "country": "RU", "coord": {"lon": 166.100006, "lat": 60.466671}}, {"id": 1682100, "name": "Tilik", "country": "PH", "coord": {"lon": 120.200218, "lat": 13.81436}}, {"id": 482992, "name": "Tiliktino", "country": "RU", "coord": {"lon": 36.599998, "lat": 56.099998}}, {"id": 300635, "name": "Tililan", "country": "TR", "coord": {"lon": 42.03389, "lat": 37.377781}}, {"id": 1682098, "name": "Tiling", "country": "PH", "coord": {"lon": 122.654404, "lat": 9.9736}}, {"id": 3834397, "name": "Tilisarao", "country": "AR", "coord": {"lon": -65.291092, "lat": -32.732922}}, {"id": 665101, "name": "Tilisca", "country": "RO", "coord": {"lon": 23.85, "lat": 45.799999}}, {"id": 252864, "name": "Tilisos", "country": "GR", "coord": {"lon": 25.015869, "lat": 35.29607}}, {"id": 2822188, "name": "Till", "country": "DE", "coord": {"lon": 6.25, "lat": 51.76667}}, {"id": 281674, "name": "Till", "country": "PS", "coord": {"lon": 35.212929, "lat": 32.20068}}, {"id": 2438678, "name": "Tillaberi", "country": "NE", "coord": {"lon": 1.45306, "lat": 14.21167}}, {"id": 2595293, "name": "Tillab\u00e9ri", "country": "NE", "coord": {"lon": 2.08333, "lat": 14.33333}}, {"id": 5756777, "name": "Tillamook", "country": "US", "coord": {"lon": -123.844009, "lat": 45.456219}}, {"id": 2669086, "name": "Tillberga", "country": "SE", "coord": {"lon": 16.616671, "lat": 59.683331}}, {"id": 2972594, "name": "Tille", "country": "FR", "coord": {"lon": 2.11038, "lat": 49.464149}}, {"id": 2785444, "name": "Tillesse", "country": "BE", "coord": {"lon": 5.36667, "lat": 50.48333}}, {"id": 6166542, "name": "Tilley", "country": "CA", "coord": {"lon": -111.651772, "lat": 50.450111}}, {"id": 2635829, "name": "Tillicoultry", "country": "GB", "coord": {"lon": -3.74015, "lat": 56.152512}}, {"id": 2972584, "name": "Tillieres", "country": "FR", "coord": {"lon": -1.16334, "lat": 47.14397}}, {"id": 2972583, "name": "Tillieres-sur-Avre", "country": "FR", "coord": {"lon": 1.05388, "lat": 48.755859}}, {"id": 6435335, "name": "Tilli\u00e8res", "country": "FR", "coord": {"lon": -1.16667, "lat": 47.150002}}, {"id": 6430662, "name": "Tilli\u00e8res-sur-Avre", "country": "FR", "coord": {"lon": 1.06667, "lat": 48.76667}}, {"id": 4553073, "name": "Tillman County", "country": "US", "coord": {"lon": -98.917023, "lat": 34.366749}}, {"id": 4093753, "name": "Tillmans Corner", "country": "US", "coord": {"lon": -88.170837, "lat": 30.590191}}, {"id": 2972571, "name": "Tilloy-les-Mofflaines", "country": "FR", "coord": {"lon": 2.81456, "lat": 50.275188}}, {"id": 6439915, "name": "Tilloy-l\u00e8s-Mofflaines", "country": "FR", "coord": {"lon": 2.8169, "lat": 50.276699}}, {"id": 5141025, "name": "Tillson", "country": "US", "coord": {"lon": -74.068481, "lat": 41.828979}}, {"id": 6166580, "name": "Tillsonburg", "country": "CA", "coord": {"lon": -80.726173, "lat": 42.859859}}, {"id": 6427520, "name": "Tilly-sur-Seulles", "country": "FR", "coord": {"lon": -0.61667, "lat": 49.183331}}, {"id": 2972560, "name": "Tilly-sur-Seulles", "country": "FR", "coord": {"lon": -0.62605, "lat": 49.17598}}, {"id": 6439000, "name": "Till\u00e9", "country": "FR", "coord": {"lon": 2.11667, "lat": 49.466671}}, {"id": 2528258, "name": "Tilmi", "country": "MA", "coord": {"lon": -5.76812, "lat": 31.81794}}, {"id": 2146616, "name": "Tilpa", "country": "AU", "coord": {"lon": 144.399994, "lat": -30.950001}}, {"id": 6439917, "name": "Tilques", "country": "FR", "coord": {"lon": 2.2049, "lat": 50.7771}}, {"id": 2972559, "name": "Tilques", "country": "FR", "coord": {"lon": 2.19948, "lat": 50.777119}}, {"id": 3869821, "name": "Tiltil", "country": "CL", "coord": {"lon": -70.933327, "lat": -33.083328}}, {"id": 4913666, "name": "Tilton", "country": "US", "coord": {"lon": -87.647522, "lat": 40.09531}}, {"id": 5093669, "name": "Tilton", "country": "US", "coord": {"lon": -71.588959, "lat": 43.442299}}, {"id": 7257640, "name": "Tilton-Northfield", "country": "US", "coord": {"lon": -71.593643, "lat": 43.443001}}, {"id": 5173962, "name": "Tiltonsville", "country": "US", "coord": {"lon": -80.699799, "lat": 40.16674}}, {"id": 2635808, "name": "Tilty", "country": "GB", "coord": {"lon": 0.31878, "lat": 51.914101}}, {"id": 3515570, "name": "Tilzapotla", "country": "MX", "coord": {"lon": -99.26667, "lat": 18.48333}}, {"id": 2449661, "name": "Til\u00e8ya", "country": "ML", "coord": {"lon": -1.51733, "lat": 15.18771}}, {"id": 482986, "name": "Tim", "country": "RU", "coord": {"lon": 37.124439, "lat": 51.622219}}, {"id": 2611718, "name": "Tim", "country": "DK", "coord": {"lon": 8.30785, "lat": 56.195629}}, {"id": 6609438, "name": "Timagino", "country": "RU", "coord": {"lon": 42.611111, "lat": 56.725555}}, {"id": 2961208, "name": "Timahoe", "country": "IE", "coord": {"lon": -6.83861, "lat": 53.334999}}, {"id": 6609459, "name": "Timakovo", "country": "RU", "coord": {"lon": 42.737778, "lat": 56.679722}}, {"id": 3667082, "name": "Timana", "country": "CO", "coord": {"lon": -75.931229, "lat": 1.97136}}, {"id": 2181133, "name": "Timaru", "country": "NZ", "coord": {"lon": 171.25, "lat": -44.400002}}, {"id": 2181134, "name": "Timaru District", "country": "NZ", "coord": {"lon": 171.216675, "lat": -44.400002}}, {"id": 482965, "name": "Timashevsk", "country": "RU", "coord": {"lon": 38.945278, "lat": 45.616943}}, {"id": 179204, "name": "Timau", "country": "KE", "coord": {"lon": 37.241371, "lat": 0.08904}}, {"id": 7377267, "name": "Timba Lauk", "country": "ID", "coord": {"lon": 116.444603, "lat": -8.621}}, {"id": 7086310, "name": "Timba Timuk", "country": "ID", "coord": {"lon": 116.557098, "lat": -8.6648}}, {"id": 7766567, "name": "Timbang", "country": "ID", "coord": {"lon": 105.981888, "lat": -6.3866}}, {"id": 1623866, "name": "Timbang Satu", "country": "ID", "coord": {"lon": 108.672997, "lat": -7.2076}}, {"id": 3386396, "name": "Timbauba", "country": "BR", "coord": {"lon": -35.318329, "lat": -7.50528}}, {"id": 5769772, "name": "Timber Lake", "country": "US", "coord": {"lon": -101.074028, "lat": 45.42915}}, {"id": 4175391, "name": "Timber Pines", "country": "US", "coord": {"lon": -82.603157, "lat": 28.47028}}, {"id": 4598678, "name": "Timber Ridge", "country": "US", "coord": {"lon": -78.724739, "lat": 33.806011}}, {"id": 4789648, "name": "Timberlake", "country": "US", "coord": {"lon": -79.25753, "lat": 37.320702}}, {"id": 2635806, "name": "Timberland", "country": "GB", "coord": {"lon": -0.32912, "lat": 53.11203}}, {"id": 4343659, "name": "Timberlane", "country": "US", "coord": {"lon": -90.032021, "lat": 29.87743}}, {"id": 4789655, "name": "Timberville", "country": "US", "coord": {"lon": -78.773911, "lat": 38.639011}}, {"id": 4736922, "name": "Timberwood Park", "country": "US", "coord": {"lon": -98.478348, "lat": 29.70578}}, {"id": 3667070, "name": "Timbiqui", "country": "CO", "coord": {"lon": -77.665359, "lat": 2.7717}}, {"id": 3386372, "name": "Timbiras", "country": "BR", "coord": {"lon": -43.940559, "lat": -4.25528}}, {"id": 1226494, "name": "Timbirigasyaya", "country": "LK", "coord": {"lon": 79.865501, "lat": 6.8888}}, {"id": 3446465, "name": "Timbo", "country": "BR", "coord": {"lon": -49.271671, "lat": -26.82333}}, {"id": 2146594, "name": "Timboon", "country": "AU", "coord": {"lon": 142.983337, "lat": -38.48333}}, {"id": 8070954, "name": "Timbrangan", "country": "ID", "coord": {"lon": 111.487198, "lat": -6.8598}}, {"id": 2449067, "name": "Timbuktu", "country": "ML", "coord": {"lon": -3.00742, "lat": 16.773479}}, {"id": 8025917, "name": "Timbulsari", "country": "ID", "coord": {"lon": 108.151001, "lat": -7.1925}}, {"id": 3446448, "name": "Timburi", "country": "BR", "coord": {"lon": -49.60667, "lat": -23.20528}}, {"id": 3446472, "name": "Timb\u00e9", "country": "BR", "coord": {"lon": -49.849998, "lat": -28.816669}}, {"id": 3386370, "name": "Timb\u00f3", "country": "BR", "coord": {"lon": -35.150002, "lat": -6.08333}}, {"id": 7872176, "name": "Timelkam", "country": "AT", "coord": {"lon": 13.61064, "lat": 48.003719}}, {"id": 2763595, "name": "Timelkam", "country": "AT", "coord": {"lon": 13.6076, "lat": 48.003941}}, {"id": 1917571, "name": "Timeng", "country": "CN", "coord": {"lon": 110.012459, "lat": 18.569059}}, {"id": 482960, "name": "Timenka", "country": "RU", "coord": {"lon": 41.810833, "lat": 56.748333}}, {"id": 2528130, "name": "Timezgadiouine", "country": "MA", "coord": {"lon": -9.04548, "lat": 30.883659}}, {"id": 2528129, "name": "Timezgana", "country": "MA", "coord": {"lon": -4.73, "lat": 34.580002}}, {"id": 3519909, "name": "Timilpan", "country": "MX", "coord": {"lon": -99.733887, "lat": 19.874439}}, {"id": 2476403, "name": "Timimoun", "country": "DZ", "coord": {"lon": 0.23098, "lat": 29.26388}}, {"id": 1523843, "name": "Timiryazevo", "country": "KZ", "coord": {"lon": 76.97583, "lat": 53.07111}}, {"id": 1518009, "name": "Timiryazevo", "country": "KZ", "coord": {"lon": 66.520561, "lat": 53.74194}}, {"id": 1540853, "name": "Timiryazevskiy", "country": "RU", "coord": {"lon": 60.762501, "lat": 54.929169}}, {"id": 6419699, "name": "Timiryazevskiy", "country": "RU", "coord": {"lon": 131.95639, "lat": 43.855556}}, {"id": 1489597, "name": "Timiryazevskoye", "country": "RU", "coord": {"lon": 84.876938, "lat": 56.490002}}, {"id": 665089, "name": "Timisesti", "country": "RO", "coord": {"lon": 26.549999, "lat": 47.23333}}, {"id": 665087, "name": "Timisoara", "country": "RO", "coord": {"lon": 21.227221, "lat": 45.749439}}, {"id": 2476396, "name": "Timizart", "country": "DZ", "coord": {"lon": 4.26667, "lat": 36.799999}}, {"id": 482919, "name": "Timkovo", "country": "RU", "coord": {"lon": 38.61861, "lat": 55.930832}}, {"id": 2015391, "name": "Timlyuy", "country": "RU", "coord": {"lon": 106.612778, "lat": 52.00111}}, {"id": 6551930, "name": "Timmaspe", "country": "DE", "coord": {"lon": 9.88333, "lat": 54.133301}}, {"id": 2822168, "name": "Timmaspe", "country": "DE", "coord": {"lon": 9.88333, "lat": 54.133331}}, {"id": 2822163, "name": "Timmel", "country": "DE", "coord": {"lon": 7.53333, "lat": 53.366669}}, {"id": 6551666, "name": "Timmendorfer Strand", "country": "DE", "coord": {"lon": 10.7744, "lat": 53.985802}}, {"id": 2822160, "name": "Timmendorfer Strand", "country": "DE", "coord": {"lon": 10.78333, "lat": 54}}, {"id": 2822159, "name": "Timmenrode", "country": "DE", "coord": {"lon": 11.00624, "lat": 51.77113}}, {"id": 2822155, "name": "Timmerhorn", "country": "DE", "coord": {"lon": 10.21667, "lat": 53.716671}}, {"id": 2146588, "name": "Timmering", "country": "AU", "coord": {"lon": 144.916672, "lat": -36.366669}}, {"id": 2669057, "name": "Timmernabben", "country": "SE", "coord": {"lon": 16.433331, "lat": 56.966671}}, {"id": 6166739, "name": "Timmins", "country": "CA", "coord": {"lon": -81.333122, "lat": 48.466862}}, {"id": 4598692, "name": "Timmonsville", "country": "US", "coord": {"lon": -79.939789, "lat": 34.13488}}, {"id": 482893, "name": "Timokhino", "country": "RU", "coord": {"lon": 41.083332, "lat": 54.933334}}, {"id": 482890, "name": "Timokhino", "country": "RU", "coord": {"lon": 39.266666, "lat": 55.283333}}, {"id": 482886, "name": "Timokhovo", "country": "RU", "coord": {"lon": 36.866669, "lat": 55.683334}}, {"id": 2961207, "name": "Timoleague", "country": "IE", "coord": {"lon": -8.77306, "lat": 51.64222}}, {"id": 2961206, "name": "Timolin", "country": "IE", "coord": {"lon": -6.81167, "lat": 52.982498}}, {"id": 3386361, "name": "Timon", "country": "BR", "coord": {"lon": -42.83667, "lat": -5.09417}}, {"id": 1682048, "name": "Timonan", "country": "PH", "coord": {"lon": 123.068199, "lat": 8.2117}}, {"id": 482879, "name": "Timonino", "country": "RU", "coord": {"lon": 38.190556, "lat": 55.476391}}, {"id": 4371420, "name": "Timonium", "country": "US", "coord": {"lon": -76.61969, "lat": 39.43705}}, {"id": 482864, "name": "Timonovo", "country": "RU", "coord": {"lon": 39.416668, "lat": 55.316666}}, {"id": 3446445, "name": "Timoteo", "country": "BR", "coord": {"lon": -42.64444, "lat": -19.5825}}, {"id": 3626237, "name": "Timotes", "country": "VE", "coord": {"lon": -70.739258, "lat": 8.98224}}, {"id": 2528013, "name": "Timoulilt", "country": "MA", "coord": {"lon": -6.4666, "lat": 32.203678}}, {"id": 1682044, "name": "Timpas", "country": "PH", "coord": {"lon": 122.732399, "lat": 11.479}}, {"id": 4736933, "name": "Timpson", "country": "US", "coord": {"lon": -94.395203, "lat": 31.90378}}, {"id": 2669047, "name": "Timra", "country": "SE", "coord": {"lon": 17.325701, "lat": 62.48703}}, {"id": 293310, "name": "Timrat", "country": "IL", "coord": {"lon": 35.226669, "lat": 32.703609}}, {"id": 2669046, "name": "Timr\u00e5 Kommun", "country": "SE", "coord": {"lon": 17.30694, "lat": 62.477779}}, {"id": 6166764, "name": "Tims Harbour", "country": "CA", "coord": {"lon": -54.481419, "lat": 49.449921}}, {"id": 2635801, "name": "Timsbury", "country": "GB", "coord": {"lon": -2.47917, "lat": 51.32444}}, {"id": 482810, "name": "Timshino", "country": "RU", "coord": {"lon": 39.016666, "lat": 55.25}}, {"id": 3515567, "name": "Timucuy", "country": "MX", "coord": {"lon": -89.51667, "lat": 20.816669}}, {"id": 7086467, "name": "Timukpeken", "country": "ID", "coord": {"lon": 116.526398, "lat": -8.7217}}, {"id": 1111188, "name": "Timurgara", "country": "PK", "coord": {"lon": 71.841492, "lat": 34.826359}}, {"id": 7665618, "name": "Timurjaya", "country": "ID", "coord": {"lon": 106.285088, "lat": -5.81409}}, {"id": 1254447, "name": "Timurn\u012b", "country": "IN", "coord": {"lon": 77.216667, "lat": 22.366671}}, {"id": 2146567, "name": "Tin Can Bay", "country": "AU", "coord": {"lon": 153, "lat": -25.91667}}, {"id": 5876265, "name": "Tin City", "country": "US", "coord": {"lon": -167.948059, "lat": 65.558609}}, {"id": 6166916, "name": "Tin Town", "country": "CA", "coord": {"lon": -98.194618, "lat": 50.167221}}, {"id": 1682026, "name": "Tinaan", "country": "PH", "coord": {"lon": 123.75, "lat": 11.26667}}, {"id": 1623822, "name": "Tinabogan", "country": "ID", "coord": {"lon": 120.526398, "lat": 0.7823}}, {"id": 3626235, "name": "Tinaco", "country": "VE", "coord": {"lon": -68.433479, "lat": 9.69871}}, {"id": 1681997, "name": "Tinagacan", "country": "PH", "coord": {"lon": 125.229439, "lat": 6.19917}}, {"id": 1681980, "name": "Tinago", "country": "PH", "coord": {"lon": 123.650002, "lat": 13.18333}}, {"id": 2961204, "name": "Tinahely", "country": "IE", "coord": {"lon": -6.46333, "lat": 52.796669}}, {"id": 6357536, "name": "Tinajas", "country": "ES", "coord": {"lon": -2.57347, "lat": 40.342251}}, {"id": 3108092, "name": "Tinajas", "country": "ES", "coord": {"lon": -2.58228, "lat": 40.32547}}, {"id": 6360199, "name": "Tinajo", "country": "ES", "coord": {"lon": -13.7081, "lat": 29.07876}}, {"id": 2510455, "name": "Tinajo", "country": "ES", "coord": {"lon": -13.67647, "lat": 29.063259}}, {"id": 1681943, "name": "Tinalmud", "country": "PH", "coord": {"lon": 122.877998, "lat": 13.5941}}, {"id": 2146577, "name": "Tinamba", "country": "AU", "coord": {"lon": 146.891388, "lat": -37.962502}}, {"id": 1681936, "name": "Tinambac", "country": "PH", "coord": {"lon": 123.326103, "lat": 13.8164}}, {"id": 1681934, "name": "Tinambacan", "country": "PH", "coord": {"lon": 124.502502, "lat": 12.09278}}, {"id": 1681931, "name": "Tinamnan", "country": "PH", "coord": {"lon": 121.581673, "lat": 14.09694}}, {"id": 1681927, "name": "Tinampo", "country": "PH", "coord": {"lon": 123.509438, "lat": 13.23028}}, {"id": 1681920, "name": "Tinang", "country": "PH", "coord": {"lon": 120.653427, "lat": 15.37626}}, {"id": 1681907, "name": "Tinaogan", "country": "PH", "coord": {"lon": 123.150299, "lat": 9.7791}}, {"id": 3626219, "name": "Tinaquillo", "country": "VE", "coord": {"lon": -68.304718, "lat": 9.91861}}, {"id": 1681887, "name": "Tinawagan", "country": "PH", "coord": {"lon": 123.48333, "lat": 13.65}}, {"id": 2972558, "name": "Tincave", "country": "FR", "coord": {"lon": 6.65608, "lat": 45.45179}}, {"id": 6439325, "name": "Tinchebray", "country": "FR", "coord": {"lon": -0.73333, "lat": 48.76667}}, {"id": 2972555, "name": "Tinchebray", "country": "FR", "coord": {"lon": -0.73333, "lat": 48.76437}}, {"id": 2510452, "name": "Tindaya", "country": "ES", "coord": {"lon": -13.98082, "lat": 28.583879}}, {"id": 149512, "name": "Tinde", "country": "TZ", "coord": {"lon": 33.200001, "lat": -3.88333}}, {"id": 2146562, "name": "Tinderbox", "country": "AU", "coord": {"lon": 147.316666, "lat": -43.049999}}, {"id": 1254444, "name": "Tindivanam", "country": "IN", "coord": {"lon": 79.650002, "lat": 12.25}}, {"id": 1681873, "name": "Tindog", "country": "PH", "coord": {"lon": 124.011803, "lat": 11.1247}}, {"id": 2476301, "name": "Tindouf", "country": "DZ", "coord": {"lon": -8.14744, "lat": 27.67111}}, {"id": 1254442, "name": "Tindwari", "country": "IN", "coord": {"lon": 80.533333, "lat": 25.616671}}, {"id": 2527915, "name": "Tineghir", "country": "MA", "coord": {"lon": -5.53428, "lat": 31.515711}}, {"id": 6359974, "name": "Tineo", "country": "ES", "coord": {"lon": -6.47303, "lat": 43.341068}}, {"id": 3108087, "name": "Tineo", "country": "ES", "coord": {"lon": -6.41452, "lat": 43.33765}}, {"id": 3981517, "name": "Tingambato", "country": "MX", "coord": {"lon": -101.866669, "lat": 19.5}}, {"id": 1792752, "name": "Tingdong", "country": "CN", "coord": {"lon": 108.612503, "lat": 25.82444}}, {"id": 6374022, "name": "Tinggarmalang", "country": "ID", "coord": {"lon": 109.198891, "lat": -7.5975}}, {"id": 6385689, "name": "Tinggarwangi", "country": "ID", "coord": {"lon": 109.12278, "lat": -7.52389}}, {"id": 2146547, "name": "Tingha", "country": "AU", "coord": {"lon": 151.216675, "lat": -29.950001}}, {"id": 877384, "name": "Tingi", "country": "TZ", "coord": {"lon": 35.033329, "lat": -11.3}}, {"id": 1792749, "name": "Tingjiang", "country": "CN", "coord": {"lon": 119.507217, "lat": 26.073059}}, {"id": 1681846, "name": "Tinglayan", "country": "PH", "coord": {"lon": 121.162498, "lat": 17.27611}}, {"id": 2611684, "name": "Tinglev", "country": "DK", "coord": {"lon": 9.25243, "lat": 54.930988}}, {"id": 1681843, "name": "Tingloy", "country": "PH", "coord": {"lon": 120.871101, "lat": 13.66091}}, {"id": 3691348, "name": "Tingo Maria", "country": "PE", "coord": {"lon": -76.008759, "lat": -9.28951}}, {"id": 2146544, "name": "Tingoora", "country": "AU", "coord": {"lon": 151.816666, "lat": -26.366671}}, {"id": 1792738, "name": "Tingpang", "country": "CN", "coord": {"lon": 121.338638, "lat": 29.040751}}, {"id": 1792733, "name": "Tingsiqiao", "country": "CN", "coord": {"lon": 114.166908, "lat": 29.816681}}, {"id": 2669019, "name": "Tingsryd", "country": "SE", "coord": {"lon": 14.97902, "lat": 56.5247}}, {"id": 2510450, "name": "Tinguat\u00f3n", "country": "ES", "coord": {"lon": -13.69572, "lat": 29.04472}}, {"id": 3981516, "name": "Tinguindin", "country": "MX", "coord": {"lon": -102.48333, "lat": 19.75}}, {"id": 3134599, "name": "Tingvatn", "country": "NO", "coord": {"lon": 7.2197, "lat": 58.375702}}, {"id": 3207861, "name": "Tingvoll", "country": "NO", "coord": {"lon": 8.20526, "lat": 62.913181}}, {"id": 1553826, "name": "Tingxi", "country": "CN", "coord": {"lon": 118.610321, "lat": 30.60655}}, {"id": 1792727, "name": "Tingxiandu", "country": "CN", "coord": {"lon": 111.625137, "lat": 29.587799}}, {"id": 1290920, "name": "Tingyaung", "country": "MM", "coord": {"lon": 94.449997, "lat": 16.383329}}, {"id": 1792725, "name": "Tingzhou", "country": "CN", "coord": {"lon": 116.329643, "lat": 25.82856}}, {"id": 4041650, "name": "Tinian Municipality", "country": "MP", "coord": {"lon": 145.615997, "lat": 15.029}}, {"id": 5215664, "name": "Tinicum", "country": "US", "coord": {"lon": -75.107674, "lat": 40.448441}}, {"id": 1681820, "name": "Tiniguiban", "country": "PH", "coord": {"lon": 119.504898, "lat": 11.3574}}, {"id": 3269932, "name": "Tinje", "country": "BA", "coord": {"lon": 18.18417, "lat": 43.521671}}, {"id": 5141037, "name": "Tinker Tavern Corner", "country": "US", "coord": {"lon": -76.127983, "lat": 43.506741}}, {"id": 4913723, "name": "Tinley Park", "country": "US", "coord": {"lon": -87.784492, "lat": 41.573372}}, {"id": 2972547, "name": "Tinlhat", "country": "FR", "coord": {"lon": 3.30614, "lat": 45.731812}}, {"id": 2786426, "name": "Tinlot", "country": "BE", "coord": {"lon": 5.37841, "lat": 50.475151}}, {"id": 2785427, "name": "Tinlot", "country": "BE", "coord": {"lon": 5.37755, "lat": 50.47493}}, {"id": 1254436, "name": "Tinnanur", "country": "IN", "coord": {"lon": 80.026108, "lat": 13.11139}}, {"id": 6551617, "name": "Tinningstedt", "country": "DE", "coord": {"lon": 8.93333, "lat": 54.8167}}, {"id": 2822121, "name": "Tinningstedt", "country": "DE", "coord": {"lon": 8.93333, "lat": 54.816669}}, {"id": 2822118, "name": "Tinnum", "country": "DE", "coord": {"lon": 8.33476, "lat": 54.899319}}, {"id": 3165657, "name": "Tinnura", "country": "IT", "coord": {"lon": 8.54952, "lat": 40.270149}}, {"id": 3834361, "name": "Tinogasta", "country": "AR", "coord": {"lon": -67.56488, "lat": -28.06319}}, {"id": 1681798, "name": "Tinogboc", "country": "PH", "coord": {"lon": 121.412209, "lat": 12.00737}}, {"id": 2146535, "name": "Tinonee", "country": "AU", "coord": {"lon": 152.416672, "lat": -31.933331}}, {"id": 1681766, "name": "Tinongan", "country": "PH", "coord": {"lon": 123.035278, "lat": 10.215}}, {"id": 252854, "name": "Tinos", "country": "GR", "coord": {"lon": 25.163429, "lat": 37.537529}}, {"id": 3108082, "name": "Tinosillos", "country": "ES", "coord": {"lon": -4.72767, "lat": 40.933998}}, {"id": 665061, "name": "Tinosu", "country": "RO", "coord": {"lon": 26.01667, "lat": 44.816669}}, {"id": 1681782, "name": "Tinoto", "country": "PH", "coord": {"lon": 125.070557, "lat": 5.88667}}, {"id": 2146532, "name": "Tinpot", "country": "AU", "coord": {"lon": 149.866669, "lat": -36.216671}}, {"id": 6436048, "name": "Tinqueux", "country": "FR", "coord": {"lon": 3.98333, "lat": 49.25}}, {"id": 2972546, "name": "Tinqueux", "country": "FR", "coord": {"lon": 3.98333, "lat": 49.25}}, {"id": 1489571, "name": "Tinskoy", "country": "RU", "coord": {"lon": 96.916107, "lat": 56.1525}}, {"id": 1254432, "name": "Tinsukia", "country": "IN", "coord": {"lon": 95.366669, "lat": 27.5}}, {"id": 3927441, "name": "Tinta", "country": "PE", "coord": {"lon": -71.406937, "lat": -14.145}}, {"id": 2403407, "name": "Tintafor", "country": "SL", "coord": {"lon": -13.215, "lat": 8.62667}}, {"id": 2146527, "name": "Tintaldra", "country": "AU", "coord": {"lon": 147.933334, "lat": -36.049999}}, {"id": 2146526, "name": "Tintenbar", "country": "AU", "coord": {"lon": 153.516663, "lat": -28.799999}}, {"id": 2972544, "name": "Tinteniac", "country": "FR", "coord": {"lon": -1.8363, "lat": 48.328602}}, {"id": 6620349, "name": "Tintern", "country": "GB", "coord": {"lon": -2.68142, "lat": 51.69677}}, {"id": 665050, "name": "Tintesti", "country": "RO", "coord": {"lon": 26.866671, "lat": 45.066669}}, {"id": 2785423, "name": "Tintigny", "country": "BE", "coord": {"lon": 5.51667, "lat": 49.683331}}, {"id": 2785422, "name": "Tintigny", "country": "BE", "coord": {"lon": 5.51349, "lat": 49.683262}}, {"id": 3834352, "name": "Tintina", "country": "AR", "coord": {"lon": -62.716671, "lat": -27.033331}}, {"id": 2146523, "name": "Tintinara", "country": "AU", "coord": {"lon": 140.056458, "lat": -35.8871}}, {"id": 2146522, "name": "Tintinhull", "country": "AU", "coord": {"lon": 151.016663, "lat": -31.1}}, {"id": 5105433, "name": "Tinton Falls", "country": "US", "coord": {"lon": -74.100418, "lat": 40.304279}}, {"id": 2822113, "name": "Tintrup", "country": "DE", "coord": {"lon": 9.0566, "lat": 51.914101}}, {"id": 6432879, "name": "Tint\u00e9niac", "country": "FR", "coord": {"lon": -1.8343, "lat": 48.329102}}, {"id": 1681777, "name": "Tinubuan", "country": "PH", "coord": {"lon": 124.007797, "lat": 11.186}}, {"id": 7036202, "name": "Tinumpuk", "country": "ID", "coord": {"lon": 111.685699, "lat": -7.2118}}, {"id": 1681759, "name": "Tinutulan", "country": "PH", "coord": {"lon": 124.650002, "lat": 7.1}}, {"id": 2181108, "name": "Tinwald", "country": "NZ", "coord": {"lon": 171.716675, "lat": -43.916672}}, {"id": 2635787, "name": "Tinwell", "country": "GB", "coord": {"lon": -0.51498, "lat": 52.64629}}, {"id": 6312678, "name": "Tiny", "country": "RU", "coord": {"lon": 96.893333, "lat": 56.11861}}, {"id": 3927420, "name": "Tinyahuarco", "country": "PE", "coord": {"lon": -76.300003, "lat": -10.75}}, {"id": 3834339, "name": "Tio Pujio", "country": "AR", "coord": {"lon": -63.35598, "lat": -32.287899}}, {"id": 2244460, "name": "Tiofak", "country": "SN", "coord": {"lon": -16.049999, "lat": 14.16667}}, {"id": 5692590, "name": "Tioga", "country": "US", "coord": {"lon": -102.93824, "lat": 48.39724}}, {"id": 5141045, "name": "Tioga County", "country": "US", "coord": {"lon": -76.266319, "lat": 42.16674}}, {"id": 3165650, "name": "Tione degli Abruzzi", "country": "IT", "coord": {"lon": 13.6357, "lat": 42.20393}}, {"id": 3165649, "name": "Tione di Trento", "country": "IT", "coord": {"lon": 10.72637, "lat": 46.035999}}, {"id": 5215696, "name": "Tionesta", "country": "US", "coord": {"lon": -79.455879, "lat": 41.495338}}, {"id": 2244436, "name": "Tionk Essil", "country": "SN", "coord": {"lon": -16.521669, "lat": 12.78556}}, {"id": 2527749, "name": "Tiouli", "country": "MA", "coord": {"lon": -1.83705, "lat": 34.366791}}, {"id": 2527695, "name": "Tiout", "country": "MA", "coord": {"lon": -8.69572, "lat": 30.3887}}, {"id": 3667044, "name": "Tipacoque", "country": "CO", "coord": {"lon": -72.691841, "lat": 6.42031}}, {"id": 6373749, "name": "Tipar", "country": "ID", "coord": {"lon": 109.148064, "lat": -7.50528}}, {"id": 1681745, "name": "Tiparak", "country": "PH", "coord": {"lon": 123.528801, "lat": 8.0341}}, {"id": 2476028, "name": "Tipasa", "country": "DZ", "coord": {"lon": 2.4475, "lat": 36.589722}}, {"id": 1681743, "name": "Tipaz", "country": "PH", "coord": {"lon": 121.428886, "lat": 13.83083}}, {"id": 3616035, "name": "Tipitapa", "country": "NI", "coord": {"lon": -86.097061, "lat": 12.19732}}, {"id": 1681715, "name": "Tipo-Tipo", "country": "PH", "coord": {"lon": 122.179443, "lat": 6.58139}}, {"id": 1681730, "name": "Tipolo", "country": "PH", "coord": {"lon": 124.514397, "lat": 10.0196}}, {"id": 4526365, "name": "Tipp City", "country": "US", "coord": {"lon": -84.172157, "lat": 39.958389}}, {"id": 4448467, "name": "Tippah County", "country": "US", "coord": {"lon": -88.926453, "lat": 34.776482}}, {"id": 4927230, "name": "Tippecanoe County", "country": "US", "coord": {"lon": -86.890556, "lat": 40.417259}}, {"id": 2961192, "name": "Tipperary", "country": "IE", "coord": {"lon": -8.15583, "lat": 52.473331}}, {"id": 3314579, "name": "Tipperkevin", "country": "IE", "coord": {"lon": -6.61028, "lat": 53.167221}}, {"id": 327694, "name": "Tippi", "country": "ET", "coord": {"lon": 35.450001, "lat": 7.2}}, {"id": 4878643, "name": "Tipton", "country": "US", "coord": {"lon": -91.127937, "lat": 41.769741}}, {"id": 2635785, "name": "Tipton", "country": "GB", "coord": {"lon": -2.06773, "lat": 52.52956}}, {"id": 4411809, "name": "Tipton", "country": "US", "coord": {"lon": -92.779922, "lat": 38.655579}}, {"id": 4927242, "name": "Tipton", "country": "US", "coord": {"lon": -86.0411, "lat": 40.282261}}, {"id": 5215715, "name": "Tipton", "country": "US", "coord": {"lon": -78.295853, "lat": 40.635899}}, {"id": 5402740, "name": "Tipton", "country": "US", "coord": {"lon": -119.312057, "lat": 36.059399}}, {"id": 4662809, "name": "Tiptonville", "country": "US", "coord": {"lon": -89.472023, "lat": 36.378399}}, {"id": 2635783, "name": "Tiptree", "country": "GB", "coord": {"lon": 0.74887, "lat": 51.812592}}, {"id": 1254420, "name": "Tiptur", "country": "IN", "coord": {"lon": 76.478333, "lat": 13.25861}}, {"id": 3981505, "name": "Tiquicheo", "country": "MX", "coord": {"lon": -100.73333, "lat": 18.883329}}, {"id": 3792380, "name": "Tiquisio", "country": "CO", "coord": {"lon": -74.266937, "lat": 8.55972}}, {"id": 1122408, "name": "Tir Pul", "country": "AF", "coord": {"lon": 61.268951, "lat": 34.594311}}, {"id": 1254415, "name": "Tira Sujanpur", "country": "IN", "coord": {"lon": 76.5, "lat": 31.83333}}, {"id": 3446420, "name": "Tiradentes", "country": "BR", "coord": {"lon": -44.178059, "lat": -21.110279}}, {"id": 3386329, "name": "Tiradentes", "country": "BR", "coord": {"lon": -39.283329, "lat": -7.23333}}, {"id": 295127, "name": "Tirah", "country": "IL", "coord": {"lon": 34.95023, "lat": 32.2341}}, {"id": 3183875, "name": "Tirana", "country": "AL", "coord": {"lon": 19.81889, "lat": 41.327499}}, {"id": 6434458, "name": "Tiranges", "country": "FR", "coord": {"lon": 3.98333, "lat": 45.299999}}, {"id": 2972540, "name": "Tiranges", "country": "FR", "coord": {"lon": 3.98824, "lat": 45.304131}}, {"id": 6539619, "name": "Tirano", "country": "IT", "coord": {"lon": 10.16786, "lat": 46.215401}}, {"id": 3165647, "name": "Tirano", "country": "IT", "coord": {"lon": 10.16786, "lat": 46.215401}}, {"id": 6359776, "name": "Tirapu", "country": "ES", "coord": {"lon": -1.69252, "lat": 42.64727}}, {"id": 3108071, "name": "Tirapu", "country": "ES", "coord": {"lon": -1.70263, "lat": 42.657398}}, {"id": 617239, "name": "Tiraspol", "country": "MD", "coord": {"lon": 29.64333, "lat": 46.840279}}, {"id": 617053, "name": "Tiraspolul Nou", "country": "MD", "coord": {"lon": 29.57667, "lat": 46.83194}}, {"id": 293308, "name": "Tirat Karmel", "country": "IL", "coord": {"lon": 34.971939, "lat": 32.761669}}, {"id": 293304, "name": "Tirat \u1e94evi", "country": "IL", "coord": {"lon": 35.524441, "lat": 32.421669}}, {"id": 2181100, "name": "Tirau", "country": "NZ", "coord": {"lon": 175.75, "lat": -37.98333}}, {"id": 299137, "name": "Tire", "country": "TR", "coord": {"lon": 27.735081, "lat": 38.088772}}, {"id": 665027, "name": "Tiream", "country": "RO", "coord": {"lon": 22.466669, "lat": 47.616669}}, {"id": 738753, "name": "Tirebolu", "country": "TR", "coord": {"lon": 38.813889, "lat": 41.006939}}, {"id": 454848, "name": "Tireli", "country": "LV", "coord": {"lon": 23.58902, "lat": 56.839909}}, {"id": 8060707, "name": "Tireman Timur", "country": "ID", "coord": {"lon": 111.371696, "lat": -6.7058}}, {"id": 8140999, "name": "Tiremenggal", "country": "ID", "coord": {"lon": 112.4263, "lat": -6.9979}}, {"id": 3492367, "name": "Tireo Arriba", "country": "DO", "coord": {"lon": -70.688499, "lat": 18.935369}}, {"id": 6435678, "name": "Tirepied", "country": "FR", "coord": {"lon": -1.26667, "lat": 48.716671}}, {"id": 2972537, "name": "Tirepied", "country": "FR", "coord": {"lon": -1.26427, "lat": 48.709911}}, {"id": 3165645, "name": "Tires", "country": "IT", "coord": {"lon": 11.52768, "lat": 46.468319}}, {"id": 6359132, "name": "Tirgo", "country": "ES", "coord": {"lon": -2.9386, "lat": 42.54607}}, {"id": 3108069, "name": "Tirgo", "country": "ES", "coord": {"lon": -2.9494, "lat": 42.545872}}, {"id": 2527645, "name": "Tirhanimine", "country": "MA", "coord": {"lon": -3.95453, "lat": 35.236191}}, {"id": 1681699, "name": "Tiring", "country": "PH", "coord": {"lon": 122.511002, "lat": 10.8527}}, {"id": 6541308, "name": "Tiriolo", "country": "IT", "coord": {"lon": 16.508301, "lat": 38.943291}}, {"id": 2522930, "name": "Tiriolo", "country": "IT", "coord": {"lon": 16.508301, "lat": 38.943291}}, {"id": 3386320, "name": "Tirirical", "country": "BR", "coord": {"lon": -44.23333, "lat": -2.56667}}, {"id": 2635779, "name": "Tirley", "country": "GB", "coord": {"lon": -2.23758, "lat": 51.955292}}, {"id": 482761, "name": "Tirlyanskiy", "country": "RU", "coord": {"lon": 58.580601, "lat": 54.210899}}, {"id": 2475921, "name": "Tirmitine", "country": "DZ", "coord": {"lon": 3.98143, "lat": 36.653931}}, {"id": 1215957, "name": "Tirmiz", "country": "UZ", "coord": {"lon": 67.278328, "lat": 37.224171}}, {"id": 1254400, "name": "Tirodi", "country": "IN", "coord": {"lon": 79.699997, "lat": 21.683331}}, {"id": 2763586, "name": "Tirol", "country": "AT", "coord": {"lon": 11.33333, "lat": 47.25}}, {"id": 3411457, "name": "Tirol", "country": "BR", "coord": {"lon": -35.200001, "lat": -5.79167}}, {"id": 6536018, "name": "Tirolo - Tirol", "country": "IT", "coord": {"lon": 11.15427, "lat": 46.691021}}, {"id": 6534790, "name": "Tirolo - Tirol", "country": "IT", "coord": {"lon": 11.15427, "lat": 46.691021}}, {"id": 8183645, "name": "Tiron", "country": "ID", "coord": {"lon": 111.453697, "lat": -8.03}}, {"id": 3446406, "name": "Tiros", "country": "BR", "coord": {"lon": -45.964439, "lat": -19.003889}}, {"id": 6548545, "name": "Tirpersdorf", "country": "DE", "coord": {"lon": 12.25, "lat": 50.4333}}, {"id": 2822104, "name": "Tirpersdorf", "country": "DE", "coord": {"lon": 12.25, "lat": 50.433331}}, {"id": 3165639, "name": "Tirrenia", "country": "IT", "coord": {"lon": 10.29204, "lat": 43.62719}}, {"id": 2146508, "name": "Tirroan", "country": "AU", "coord": {"lon": 151.933334, "lat": -25.01667}}, {"id": 3222060, "name": "Tirsb\u00e6k", "country": "DK", "coord": {"lon": 9.65, "lat": 55.716671}}, {"id": 2822101, "name": "Tirschendorf", "country": "DE", "coord": {"lon": 12.23259, "lat": 50.40398}}, {"id": 2822100, "name": "Tirschenreuth", "country": "DE", "coord": {"lon": 12.33306, "lat": 49.8825}}, {"id": 1254396, "name": "Tirthahalli", "country": "IN", "coord": {"lon": 75.23333, "lat": 13.7}}, {"id": 7084161, "name": "Tirtopuro", "country": "ID", "coord": {"lon": 114.357002, "lat": -8.1805}}, {"id": 7051752, "name": "Tirtoyudo", "country": "ID", "coord": {"lon": 112.816002, "lat": -8.2446}}, {"id": 1254390, "name": "Tiruchchendur", "country": "IN", "coord": {"lon": 78.116669, "lat": 8.48333}}, {"id": 1254388, "name": "Tiruchchirappalli", "country": "IN", "coord": {"lon": 78.683327, "lat": 10.81667}}, {"id": 1254385, "name": "Tiruchengode", "country": "IN", "coord": {"lon": 77.933327, "lat": 11.38333}}, {"id": 1254377, "name": "Tirukkoyilur", "country": "IN", "coord": {"lon": 79.199997, "lat": 11.95}}, {"id": 1254374, "name": "Tirumakudal Narsipur", "country": "IN", "coord": {"lon": 76.906387, "lat": 12.21}}, {"id": 1254373, "name": "Tirumala", "country": "IN", "coord": {"lon": 79.349998, "lat": 13.68333}}, {"id": 1254367, "name": "Tirumullaivasal", "country": "IN", "coord": {"lon": 79.833328, "lat": 11.23333}}, {"id": 1254361, "name": "Tirunelveli", "country": "IN", "coord": {"lon": 77.699997, "lat": 8.73333}}, {"id": 1254360, "name": "Tirupati", "country": "IN", "coord": {"lon": 79.416672, "lat": 13.65}}, {"id": 1254356, "name": "Tirupparangunram", "country": "IN", "coord": {"lon": 78.066673, "lat": 9.86667}}, {"id": 1254348, "name": "Tiruppur", "country": "IN", "coord": {"lon": 77.349998, "lat": 11.1}}, {"id": 1254347, "name": "Tiruppuvanam", "country": "IN", "coord": {"lon": 78.26667, "lat": 9.83333}}, {"id": 1254346, "name": "Tirur", "country": "IN", "coord": {"lon": 75.916672, "lat": 10.9}}, {"id": 1254343, "name": "Tiruttangal", "country": "IN", "coord": {"lon": 77.833328, "lat": 9.48333}}, {"id": 1254335, "name": "Tiruvalla", "country": "IN", "coord": {"lon": 76.566673, "lat": 9.38333}}, {"id": 1254331, "name": "Tiruvallur", "country": "IN", "coord": {"lon": 79.916672, "lat": 13.15}}, {"id": 1254327, "name": "Tiruvannamalai", "country": "IN", "coord": {"lon": 79.066673, "lat": 12.21667}}, {"id": 1254328, "name": "Tiruv\u0101nmiy\u016br", "country": "IN", "coord": {"lon": 80.25972, "lat": 12.98333}}, {"id": 1254317, "name": "Tisaiyanvilai", "country": "IN", "coord": {"lon": 77.883331, "lat": 8.33333}}, {"id": 664922, "name": "Tisau", "country": "RO", "coord": {"lon": 26.51667, "lat": 45.166672}}, {"id": 2635774, "name": "Tisbury", "country": "GB", "coord": {"lon": -2.08058, "lat": 51.062832}}, {"id": 6166987, "name": "Tisdale", "country": "CA", "coord": {"lon": -104.050957, "lat": 52.850021}}, {"id": 797047, "name": "Tishakovka", "country": "RU", "coord": {"lon": 40.330555, "lat": 48.637779}}, {"id": 482742, "name": "Tishchenskoye", "country": "RU", "coord": {"lon": 41.67382, "lat": 45.46056}}, {"id": 482714, "name": "Tishkovo", "country": "RU", "coord": {"lon": 37.733334, "lat": 56.083332}}, {"id": 4553126, "name": "Tishomingo", "country": "US", "coord": {"lon": -96.678612, "lat": 34.23621}}, {"id": 620853, "name": "Tishovka", "country": "BY", "coord": {"lon": 30.283333, "lat": 53.883331}}, {"id": 3064213, "name": "Tisice", "country": "CZ", "coord": {"lon": 14.55411, "lat": 50.269798}}, {"id": 3189098, "name": "Tisina", "country": "SI", "coord": {"lon": 16.091669, "lat": 46.658058}}, {"id": 3616028, "name": "Tisma", "country": "NI", "coord": {"lon": -86.017387, "lat": 12.08194}}, {"id": 664910, "name": "Tismana", "country": "RO", "coord": {"lon": 22.966669, "lat": 45.049999}}, {"id": 3064211, "name": "Tisnov", "country": "CZ", "coord": {"lon": 16.424379, "lat": 49.348721}}, {"id": 3057197, "name": "Tisovec", "country": "SK", "coord": {"lon": 19.94364, "lat": 48.67738}}, {"id": 6550415, "name": "Tissa", "country": "DE", "coord": {"lon": 11.75, "lat": 50.849998}}, {"id": 2822088, "name": "Tissa", "country": "DE", "coord": {"lon": 11.75, "lat": 50.849998}}, {"id": 2527366, "name": "Tissa", "country": "MA", "coord": {"lon": -4.66372, "lat": 34.28791}}, {"id": 2475860, "name": "Tissemsilt", "country": "DZ", "coord": {"lon": 1.81081, "lat": 35.60722}}, {"id": 3165633, "name": "Tissi", "country": "IT", "coord": {"lon": 8.55917, "lat": 40.678612}}, {"id": 2262673, "name": "Tissoaria", "country": "PT", "coord": {"lon": -8.52834, "lat": 39.86491}}, {"id": 7406748, "name": "Tista", "country": "ID", "coord": {"lon": 114.921097, "lat": -8.3525}}, {"id": 7087203, "name": "Tistagede", "country": "ID", "coord": {"lon": 115.609001, "lat": -8.3792}}, {"id": 6552756, "name": "Tiste", "country": "DE", "coord": {"lon": 9.53333, "lat": 53.283298}}, {"id": 2822087, "name": "Tiste", "country": "DE", "coord": {"lon": 9.53333, "lat": 53.283329}}, {"id": 2611652, "name": "Tistrup Stationsby", "country": "DK", "coord": {"lon": 8.6043, "lat": 55.717178}}, {"id": 1489554, "name": "Tisul", "country": "RU", "coord": {"lon": 88.312218, "lat": 55.761108}}, {"id": 3338787, "name": "Tiszaalpar", "country": "HU", "coord": {"lon": 19.998409, "lat": 46.81279}}, {"id": 714793, "name": "Tiszabercel", "country": "HU", "coord": {"lon": 21.65, "lat": 48.150002}}, {"id": 714791, "name": "Tiszabezded", "country": "HU", "coord": {"lon": 22.15, "lat": 48.366669}}, {"id": 714789, "name": "Tiszabo", "country": "HU", "coord": {"lon": 20.48333, "lat": 47.299999}}, {"id": 714787, "name": "Tiszabura", "country": "HU", "coord": {"lon": 20.466669, "lat": 47.450001}}, {"id": 714785, "name": "Tiszacsege", "country": "HU", "coord": {"lon": 21, "lat": 47.700001}}, {"id": 714782, "name": "Tiszadada", "country": "HU", "coord": {"lon": 21.25, "lat": 48.033329}}, {"id": 714779, "name": "Tiszadob", "country": "HU", "coord": {"lon": 21.16667, "lat": 48.01667}}, {"id": 714776, "name": "Tiszaeszlar", "country": "HU", "coord": {"lon": 21.466669, "lat": 48.049999}}, {"id": 714774, "name": "Tiszafoldvar", "country": "HU", "coord": {"lon": 20.25, "lat": 46.98333}}, {"id": 714772, "name": "Tiszafured", "country": "HU", "coord": {"lon": 20.76667, "lat": 47.616669}}, {"id": 790035, "name": "Tiszahegyes", "country": "RS", "coord": {"lon": 20.316111, "lat": 45.828892}}, {"id": 714756, "name": "Tiszakarad", "country": "HU", "coord": {"lon": 21.716669, "lat": 48.200001}}, {"id": 714754, "name": "Tiszakecske", "country": "HU", "coord": {"lon": 20.103491, "lat": 46.932621}}, {"id": 714751, "name": "Tiszakeszi", "country": "HU", "coord": {"lon": 21, "lat": 47.783329}}, {"id": 714742, "name": "Tiszalok", "country": "HU", "coord": {"lon": 21.383329, "lat": 48.01667}}, {"id": 714739, "name": "Tiszaluc", "country": "HU", "coord": {"lon": 21.08333, "lat": 48.033329}}, {"id": 714736, "name": "Tiszanagyfalu", "country": "HU", "coord": {"lon": 21.48333, "lat": 48.099998}}, {"id": 714734, "name": "Tiszanana", "country": "HU", "coord": {"lon": 20.533331, "lat": 47.566669}}, {"id": 714724, "name": "Tiszapuspoki", "country": "HU", "coord": {"lon": 20.316669, "lat": 47.216671}}, {"id": 714721, "name": "Tiszaroff", "country": "HU", "coord": {"lon": 20.450001, "lat": 47.400002}}, {"id": 714718, "name": "Tiszasuly", "country": "HU", "coord": {"lon": 20.4, "lat": 47.383331}}, {"id": 714714, "name": "Tiszaszentimre", "country": "HU", "coord": {"lon": 20.73333, "lat": 47.48333}}, {"id": 714697, "name": "Tiszaujvaros", "country": "HU", "coord": {"lon": 21.08333, "lat": 47.933331}}, {"id": 714692, "name": "Tiszavasvari", "country": "HU", "coord": {"lon": 21.35, "lat": 47.966671}}, {"id": 3043895, "name": "Tisztvisel\u0151telep", "country": "HU", "coord": {"lon": 18.01667, "lat": 47.033329}}, {"id": 2527271, "name": "Tit Mellil", "country": "MA", "coord": {"lon": -7.48647, "lat": 33.558079}}, {"id": 7406814, "name": "Titab", "country": "ID", "coord": {"lon": 114.958603, "lat": -8.2701}}, {"id": 1254310, "name": "Titabar", "country": "IN", "coord": {"lon": 94.199997, "lat": 26.6}}, {"id": 1254309, "name": "Titagarh", "country": "IN", "coord": {"lon": 88.373611, "lat": 22.736389}}, {"id": 6362106, "name": "Titaguas", "country": "ES", "coord": {"lon": -1.08067, "lat": 39.850368}}, {"id": 2510430, "name": "Titaguas", "country": "ES", "coord": {"lon": -1.08333, "lat": 39.866669}}, {"id": 1122402, "name": "Titan", "country": "AF", "coord": {"lon": 63.863609, "lat": 33.690319}}, {"id": 482702, "name": "Titan", "country": "RU", "coord": {"lon": 33.629459, "lat": 67.560081}}, {"id": 2354349, "name": "Titao", "country": "BF", "coord": {"lon": -2.06667, "lat": 13.76667}}, {"id": 1681689, "name": "Titay", "country": "PH", "coord": {"lon": 122.534439, "lat": 7.8125}}, {"id": 785062, "name": "Titel", "country": "RS", "coord": {"lon": 20.294439, "lat": 45.206108}}, {"id": 664902, "name": "Titesti", "country": "RO", "coord": {"lon": 25, "lat": 45.01667}}, {"id": 6232280, "name": "Titirangi", "country": "NZ", "coord": {"lon": 174.655838, "lat": -36.937538}}, {"id": 2181063, "name": "Titirangi North", "country": "NZ", "coord": {"lon": 174.662796, "lat": -36.92519}}, {"id": 3667023, "name": "Titiribi", "country": "CO", "coord": {"lon": -75.793701, "lat": 6.06276}}, {"id": 2822084, "name": "Titisee", "country": "DE", "coord": {"lon": 8.15168, "lat": 47.901348}}, {"id": 2822083, "name": "Titisee-Neustadt", "country": "DE", "coord": {"lon": 8.16667, "lat": 47.900002}}, {"id": 1254304, "name": "Titlagarh", "country": "IN", "coord": {"lon": 83.150002, "lat": 20.299999}}, {"id": 3165627, "name": "Tito", "country": "IT", "coord": {"lon": 15.67546, "lat": 40.583618}}, {"id": 3189076, "name": "Titova Korenica", "country": "HR", "coord": {"lon": 15.70972, "lat": 44.743889}}, {"id": 620851, "name": "Titovka", "country": "BY", "coord": {"lon": 29.299999, "lat": 53.133331}}, {"id": 482655, "name": "Titovo", "country": "RU", "coord": {"lon": 37.957222, "lat": 55.548332}}, {"id": 6658576, "name": "Titovo", "country": "RU", "coord": {"lon": 35.719807, "lat": 56.46217}}, {"id": 482654, "name": "Titovo", "country": "RU", "coord": {"lon": 39.116669, "lat": 55.583332}},