[{"id": 712228, "name": "Besh Terek", "country": "UA", "coord": {"lon": 34.233334, "lat": 45.016666}}, {"id": 1222139, "name": "Besh-Tepa", "country": "TJ", "coord": {"lon": 68.783333, "lat": 38.533329}}, {"id": 712236, "name": "Besharan\u2019", "country": "UA", "coord": {"lon": 34.766666, "lat": 45.450001}}, {"id": 1514382, "name": "Beshariq", "country": "UZ", "coord": {"lon": 70.610283, "lat": 40.435829}}, {"id": 1217703, "name": "Beshkent", "country": "UZ", "coord": {"lon": 65.653061, "lat": 38.821388}}, {"id": 1346487, "name": "Beshkent Shahri", "country": "UZ", "coord": {"lon": 65.642464, "lat": 38.811069}}, {"id": 576712, "name": "Beshpagir", "country": "RU", "coord": {"lon": 42.380829, "lat": 45.021671}}, {"id": 1514369, "name": "Beshrabot", "country": "UZ", "coord": {"lon": 65.335281, "lat": 40.197609}}, {"id": 712223, "name": "Beshuyskiye Kopi", "country": "UA", "coord": {"lon": 34.183334, "lat": 44.650002}}, {"id": 2949803, "name": "Besigheim", "country": "DE", "coord": {"lon": 9.13333, "lat": 48.98333}}, {"id": 750735, "name": "Besikduzu", "country": "TR", "coord": {"lon": 39.228439, "lat": 41.051991}}, {"id": 321360, "name": "Besiri", "country": "TR", "coord": {"lon": 41.2924, "lat": 37.918381}}, {"id": 7581933, "name": "Besisora", "country": "ID", "coord": {"lon": 116.827698, "lat": -8.8579}}, {"id": 6547921, "name": "Besitz", "country": "DE", "coord": {"lon": 10.8667, "lat": 53.349998}}, {"id": 2949802, "name": "Besitz", "country": "DE", "coord": {"lon": 10.85913, "lat": 53.342972}}, {"id": 3128085, "name": "Besi\u00e1ns", "country": "ES", "coord": {"lon": 0.35433, "lat": 42.282108}}, {"id": 792651, "name": "Beska", "country": "RS", "coord": {"lon": 20.066111, "lat": 45.129719}}, {"id": 776214, "name": "Besko", "country": "PL", "coord": {"lon": 21.952921, "lat": 49.58757}}, {"id": 576699, "name": "Beskudnikovo", "country": "RU", "coord": {"lon": 37.560001, "lat": 55.860001}}, {"id": 576697, "name": "Beslan", "country": "RU", "coord": {"lon": 44.543129, "lat": 43.192169}}, {"id": 576695, "name": "Besleney", "country": "RU", "coord": {"lon": 41.738701, "lat": 44.240501}}, {"id": 6449472, "name": "Beslon", "country": "FR", "coord": {"lon": -1.15, "lat": 48.849998}}, {"id": 3033113, "name": "Beslon", "country": "FR", "coord": {"lon": -1.15155, "lat": 48.84893}}, {"id": 3182112, "name": "Besnate", "country": "IT", "coord": {"lon": 8.76773, "lat": 45.69767}}, {"id": 3033108, "name": "Besne", "country": "FR", "coord": {"lon": -2.08976, "lat": 47.400002}}, {"id": 6449473, "name": "Besneville", "country": "FR", "coord": {"lon": -1.63333, "lat": 49.366669}}, {"id": 3033107, "name": "Besneville", "country": "FR", "coord": {"lon": -1.62726, "lat": 49.367741}}, {"id": 321337, "name": "Besni", "country": "TR", "coord": {"lon": 37.861111, "lat": 37.69278}}, {"id": 7410050, "name": "Beson", "country": "ID", "coord": {"lon": 116.376198, "lat": -8.6739}}, {"id": 2234353, "name": "Besongabang", "country": "CM", "coord": {"lon": 9.29875, "lat": 5.70735}}, {"id": 8074744, "name": "Besowo", "country": "ID", "coord": {"lon": 111.6558, "lat": -6.8508}}, {"id": 3182111, "name": "Besozzo", "country": "IT", "coord": {"lon": 8.66923, "lat": 45.851978}}, {"id": 321327, "name": "Bespinar", "country": "TR", "coord": {"lon": 41.604439, "lat": 37.843891}}, {"id": 576680, "name": "Bespyatovo", "country": "RU", "coord": {"lon": 38.91, "lat": 54.740002}}, {"id": 2742248, "name": "Bessada", "country": "PT", "coord": {"lon": -8.58861, "lat": 41.002232}}, {"id": 3033099, "name": "Bessan", "country": "FR", "coord": {"lon": 3.42288, "lat": 43.361961}}, {"id": 3033098, "name": "Bessancourt", "country": "FR", "coord": {"lon": 2.20936, "lat": 49.037651}}, {"id": 610307, "name": "Bessay", "country": "KZ", "coord": {"lon": 54.566666, "lat": 49.466667}}, {"id": 6446517, "name": "Bessay-sur-Allier", "country": "FR", "coord": {"lon": 3.36667, "lat": 46.433331}}, {"id": 3033088, "name": "Bessay-sur-Allier", "country": "FR", "coord": {"lon": 3.36248, "lat": 46.44352}}, {"id": 6613716, "name": "Besse", "country": "FR", "coord": {"lon": 2.35, "lat": 45.099998}}, {"id": 3033085, "name": "Besse", "country": "FR", "coord": {"lon": 2.34994, "lat": 45.095379}}, {"id": 2949800, "name": "Besse", "country": "DE", "coord": {"lon": 9.38333, "lat": 51.216671}}, {"id": 6617309, "name": "Besse-et-Saint-Anastaise", "country": "FR", "coord": {"lon": 2.9339, "lat": 45.513}}, {"id": 3033074, "name": "Besse-et-Saint-Anastaise", "country": "FR", "coord": {"lon": 2.93333, "lat": 45.51667}}, {"id": 3033066, "name": "Besse-sur-Braye", "country": "FR", "coord": {"lon": 0.75, "lat": 47.833328}}, {"id": 3033065, "name": "Besse-sur-Issole", "country": "FR", "coord": {"lon": 6.17759, "lat": 43.349571}}, {"id": 3033073, "name": "Besseges", "country": "FR", "coord": {"lon": 4.0966, "lat": 44.292301}}, {"id": 4048023, "name": "Bessemer", "country": "US", "coord": {"lon": -86.954437, "lat": 33.401779}}, {"id": 4985785, "name": "Bessemer", "country": "US", "coord": {"lon": -90.052948, "lat": 46.481339}}, {"id": 5180106, "name": "Bessemer", "country": "US", "coord": {"lon": -80.493683, "lat": 40.974781}}, {"id": 4455080, "name": "Bessemer City", "country": "US", "coord": {"lon": -81.283974, "lat": 35.284859}}, {"id": 3033071, "name": "Bessenay", "country": "FR", "coord": {"lon": 4.55376, "lat": 45.77721}}, {"id": 6451397, "name": "Bessens", "country": "FR", "coord": {"lon": 1.26667, "lat": 43.883331}}, {"id": 3033070, "name": "Bessens", "country": "FR", "coord": {"lon": 1.25381, "lat": 43.87859}}, {"id": 3033068, "name": "Besses", "country": "FR", "coord": {"lon": 3.69541, "lat": 45.169842}}, {"id": 2176024, "name": "Bessiebelle", "country": "AU", "coord": {"lon": 141.966675, "lat": -38.150002}}, {"id": 3033056, "name": "Bessieres", "country": "FR", "coord": {"lon": 1.60624, "lat": 43.798611}}, {"id": 3033053, "name": "Bessines", "country": "FR", "coord": {"lon": -0.51294, "lat": 46.302071}}, {"id": 3033052, "name": "Bessines-sur-Gartempe", "country": "FR", "coord": {"lon": 1.36865, "lat": 46.10799}}, {"id": 576672, "name": "Besskorbnaya", "country": "RU", "coord": {"lon": 41.311001, "lat": 44.644699}}, {"id": 576663, "name": "Bessonovka", "country": "RU", "coord": {"lon": 45.040691, "lat": 53.309681}}, {"id": 576666, "name": "Bessonovka", "country": "RU", "coord": {"lon": 36.301071, "lat": 50.52644}}, {"id": 3182107, "name": "Bessude", "country": "IT", "coord": {"lon": 8.72672, "lat": 40.555359}}, {"id": 2759040, "name": "Best", "country": "NL", "coord": {"lon": 5.39028, "lat": 51.5075}}, {"id": 7084629, "name": "Bestala", "country": "ID", "coord": {"lon": 114.977798, "lat": -8.246}}, {"id": 608739, "name": "Bestau", "country": "KZ", "coord": {"lon": 53.053059, "lat": 51.271671}}, {"id": 6547560, "name": "Bestensee", "country": "DE", "coord": {"lon": 13.65, "lat": 52.25}}, {"id": 2949777, "name": "Bestensee", "country": "DE", "coord": {"lon": 13.65, "lat": 52.25}}, {"id": 610301, "name": "Besterk", "country": "KZ", "coord": {"lon": 50.033333, "lat": 49.933334}}, {"id": 1525376, "name": "Bestobe", "country": "KZ", "coord": {"lon": 73.097504, "lat": 52.499439}}, {"id": 3209381, "name": "Bestovje", "country": "HR", "coord": {"lon": 15.81667, "lat": 45.808331}}, {"id": 576644, "name": "Bestuzhevo", "country": "RU", "coord": {"lon": 39.860001, "lat": 54.029999}}, {"id": 6553137, "name": "Bestwig", "country": "DE", "coord": {"lon": 8.3716, "lat": 51.356201}}, {"id": 2949773, "name": "Bestwig", "country": "DE", "coord": {"lon": 8.4, "lat": 51.366669}}, {"id": 3103656, "name": "Bestwina", "country": "PL", "coord": {"lon": 19.05776, "lat": 49.897121}}, {"id": 3103655, "name": "Bestwinka", "country": "PL", "coord": {"lon": 19.06694, "lat": 49.93272}}, {"id": 7347327, "name": "Besuk Selatan", "country": "ID", "coord": {"lon": 113.114799, "lat": -8.1539}}, {"id": 7375707, "name": "Besukan", "country": "ID", "coord": {"lon": 113.237701, "lat": -8.1696}}, {"id": 1648918, "name": "Besuki", "country": "ID", "coord": {"lon": 113.697853, "lat": -7.73379}}, {"id": 7375727, "name": "Besukrejo", "country": "ID", "coord": {"lon": 113.239304, "lat": -8.1858}}, {"id": 1276419, "name": "Beswan", "country": "IN", "coord": {"lon": 77.883331, "lat": 27.65}}, {"id": 630131, "name": "Besyady", "country": "BY", "coord": {"lon": 27.570641, "lat": 54.230591}}, {"id": 295475, "name": "Bet Dagan", "country": "IL", "coord": {"lon": 34.83028, "lat": 32.001389}}, {"id": 295439, "name": "Bet Qama", "country": "IL", "coord": {"lon": 34.761848, "lat": 31.44553}}, {"id": 295435, "name": "Bet Shean", "country": "IL", "coord": {"lon": 35.5, "lat": 32.5}}, {"id": 295432, "name": "Bet Shemesh", "country": "IL", "coord": {"lon": 34.98877, "lat": 31.74959}}, {"id": 295424, "name": "Bet Yizhaq", "country": "IL", "coord": {"lon": 34.888779, "lat": 32.327511}}, {"id": 295471, "name": "Bet \u2018Ezra", "country": "IL", "coord": {"lon": 34.655941, "lat": 31.736059}}, {"id": 5413571, "name": "Beta", "country": "US", "coord": {"lon": -102.690468, "lat": 38.086121}}, {"id": 1066514, "name": "Betafo", "country": "MG", "coord": {"lon": 46.849998, "lat": -19.83333}}, {"id": 1066512, "name": "Betahitra", "country": "MG", "coord": {"lon": 49.299999, "lat": -12.35}}, {"id": 1276416, "name": "Betamcherla", "country": "IN", "coord": {"lon": 78.166672, "lat": 15.46667}}, {"id": 6360177, "name": "Betancuria", "country": "ES", "coord": {"lon": -14.09884, "lat": 28.4417}}, {"id": 3688855, "name": "Betania", "country": "CO", "coord": {"lon": -75.977654, "lat": 5.746}}, {"id": 6357279, "name": "Betanzos", "country": "ES", "coord": {"lon": -8.22956, "lat": 43.27478}}, {"id": 3128071, "name": "Betanzos", "country": "ES", "coord": {"lon": -8.21467, "lat": 43.280418}}, {"id": 3923145, "name": "Betanzos", "country": "BO", "coord": {"lon": -65.453331, "lat": -19.55056}}, {"id": 2234339, "name": "Betare Oya", "country": "CM", "coord": {"lon": 14.08333, "lat": 5.6}}, {"id": 6359603, "name": "Betelu", "country": "ES", "coord": {"lon": -1.97467, "lat": 43.01495}}, {"id": 3128068, "name": "Betelu", "country": "ES", "coord": {"lon": -1.98029, "lat": 43.025551}}, {"id": 2520968, "name": "Betera", "country": "ES", "coord": {"lon": -0.45, "lat": 39.583328}}, {"id": 2395127, "name": "Beterou", "country": "BJ", "coord": {"lon": 2.25855, "lat": 9.19916}}, {"id": 6357394, "name": "Beteta", "country": "ES", "coord": {"lon": -2.00487, "lat": 40.556992}}, {"id": 3128066, "name": "Beteta", "country": "ES", "coord": {"lon": -2.07588, "lat": 40.571911}}, {"id": 1019760, "name": "Bethal", "country": "ZA", "coord": {"lon": 29.46553, "lat": -26.457939}}, {"id": 4233662, "name": "Bethalto", "country": "US", "coord": {"lon": -90.040657, "lat": 38.90921}}, {"id": 2176012, "name": "Bethanga", "country": "AU", "coord": {"lon": 147.100006, "lat": -36.116669}}, {"id": 2176011, "name": "Bethania Junction", "country": "AU", "coord": {"lon": 153.166672, "lat": -27.683331}}, {"id": 3358416, "name": "Bethanie", "country": "NA", "coord": {"lon": 17.15, "lat": -26.48333}}, {"id": 2076703, "name": "Bethany", "country": "AU", "coord": {"lon": 138.966675, "lat": -34.533329}}, {"id": 5899156, "name": "Bethany", "country": "CA", "coord": {"lon": -78.566254, "lat": 44.183418}}, {"id": 4605705, "name": "Bethany", "country": "US", "coord": {"lon": -85.854149, "lat": 35.706459}}, {"id": 4530372, "name": "Bethany", "country": "US", "coord": {"lon": -97.632263, "lat": 35.518669}}, {"id": 5713759, "name": "Bethany", "country": "US", "coord": {"lon": -122.867599, "lat": 45.557892}}, {"id": 4233670, "name": "Bethany", "country": "US", "coord": {"lon": -88.738129, "lat": 39.645592}}, {"id": 5054079, "name": "Bethany", "country": "US", "coord": {"lon": -94.02829, "lat": 40.26833}}, {"id": 5280084, "name": "Bethany", "country": "US", "coord": {"lon": -80.55674, "lat": 40.205631}}, {"id": 4141435, "name": "Bethany Beach", "country": "US", "coord": {"lon": -75.055183, "lat": 38.539558}}, {"id": 6548935, "name": "Bethau", "country": "DE", "coord": {"lon": 13, "lat": 51.666698}}, {"id": 2949767, "name": "Bethau", "country": "DE", "coord": {"lon": 13, "lat": 51.666672}}, {"id": 684956, "name": "Bethausen", "country": "RO", "coord": {"lon": 21.95278, "lat": 45.833061}}, {"id": 4182260, "name": "Bethel", "country": "US", "coord": {"lon": -81.354828, "lat": 32.413799}}, {"id": 5457268, "name": "Bethel", "country": "US", "coord": {"lon": -103.474678, "lat": 34.228691}}, {"id": 4182259, "name": "Bethel", "country": "US", "coord": {"lon": -82.881531, "lat": 31.466311}}, {"id": 4605756, "name": "Bethel", "country": "US", "coord": {"lon": -87.433899, "lat": 36.62949}}, {"id": 5880568, "name": "Bethel", "country": "US", "coord": {"lon": -161.755829, "lat": 60.792221}}, {"id": 4455171, "name": "Bethel", "country": "US", "coord": {"lon": -77.37886, "lat": 35.807098}}, {"id": 4506308, "name": "Bethel", "country": "US", "coord": {"lon": -84.080772, "lat": 38.96368}}, {"id": 4506309, "name": "Bethel", "country": "US", "coord": {"lon": -83.393532, "lat": 39.730339}}, {"id": 4958084, "name": "Bethel", "country": "US", "coord": {"lon": -70.790619, "lat": 44.404228}}, {"id": 5282297, "name": "Bethel", "country": "US", "coord": {"lon": -73.414009, "lat": 41.371208}}, {"id": 5787076, "name": "Bethel", "country": "US", "coord": {"lon": -122.631248, "lat": 47.49398}}, {"id": 4530396, "name": "Bethel Acres", "country": "US", "coord": {"lon": -97.025581, "lat": 35.308681}}, {"id": 5880573, "name": "Bethel Census Area", "country": "US", "coord": {"lon": -160.500565, "lat": 60.750561}}, {"id": 4101456, "name": "Bethel Heights", "country": "US", "coord": {"lon": -94.129372, "lat": 36.214241}}, {"id": 5327951, "name": "Bethel Island", "country": "US", "coord": {"lon": -121.640511, "lat": 38.014919}}, {"id": 5180199, "name": "Bethel Park", "country": "US", "coord": {"lon": -80.039497, "lat": 40.327572}}, {"id": 3491381, "name": "Bethel Town", "country": "JM", "coord": {"lon": -77.951118, "lat": 18.29504}}, {"id": 6552473, "name": "Betheln", "country": "DE", "coord": {"lon": 9.8, "lat": 52.116699}}, {"id": 2949765, "name": "Betheln", "country": "DE", "coord": {"lon": 9.79397, "lat": 52.114311}}, {"id": 3033018, "name": "Bethencourt-sur-Mer", "country": "FR", "coord": {"lon": 1.50348, "lat": 50.07756}}, {"id": 6550483, "name": "Bethenhausen", "country": "DE", "coord": {"lon": 12.2, "lat": 50.9333}}, {"id": 2949762, "name": "Bethenhausen", "country": "DE", "coord": {"lon": 12.2, "lat": 50.933331}}, {"id": 3033014, "name": "Betheny", "country": "FR", "coord": {"lon": 4.05495, "lat": 49.284981}}, {"id": 4348599, "name": "Bethesda", "country": "US", "coord": {"lon": -77.100258, "lat": 38.980671}}, {"id": 2655804, "name": "Bethesda", "country": "GB", "coord": {"lon": -4.08333, "lat": 53.166672}}, {"id": 5147302, "name": "Bethesda", "country": "US", "coord": {"lon": -81.072601, "lat": 40.016178}}, {"id": 3033011, "name": "Bethisy-Saint-Martin", "country": "FR", "coord": {"lon": 2.81743, "lat": 49.2948}}, {"id": 3033010, "name": "Bethisy-Saint-Pierre", "country": "FR", "coord": {"lon": 2.79636, "lat": 49.304821}}, {"id": 2949759, "name": "Bethlehem", "country": "DE", "coord": {"lon": 10.01667, "lat": 48.183331}}, {"id": 1019704, "name": "Bethlehem", "country": "ZA", "coord": {"lon": 28.30707, "lat": -28.23078}}, {"id": 3491379, "name": "Bethlehem", "country": "JM", "coord": {"lon": -77.699997, "lat": 17.966669}}, {"id": 284315, "name": "Bethlehem", "country": "PS", "coord": {"lon": 35.200321, "lat": 31.70619}}, {"id": 5180225, "name": "Bethlehem", "country": "US", "coord": {"lon": -75.370461, "lat": 40.625931}}, {"id": 4455335, "name": "Bethlehem", "country": "US", "coord": {"lon": -81.30703, "lat": 35.825691}}, {"id": 4798838, "name": "Bethlehem", "country": "US", "coord": {"lon": -80.28064, "lat": 39.392029}}, {"id": 5280087, "name": "Bethlehem", "country": "US", "coord": {"lon": -80.690643, "lat": 40.043961}}, {"id": 7257796, "name": "Bethlehem Village", "country": "US", "coord": {"lon": -73.203079, "lat": 41.640099}}, {"id": 6690989, "name": "Bethnal Green", "country": "GB", "coord": {"lon": -0.06109, "lat": 51.52718}}, {"id": 3033006, "name": "Bethoncourt", "country": "FR", "coord": {"lon": 6.80504, "lat": 47.535118}}, {"id": 5108955, "name": "Bethpage", "country": "US", "coord": {"lon": -73.482071, "lat": 40.74427}}, {"id": 5899182, "name": "Bethune", "country": "CA", "coord": {"lon": -105.217827, "lat": 50.71677}}, {"id": 3033002, "name": "Bethune", "country": "FR", "coord": {"lon": 2.63333, "lat": 50.533329}}, {"id": 2176007, "name": "Bethungra", "country": "AU", "coord": {"lon": 147.866669, "lat": -34.76667}}, {"id": 3648290, "name": "Betijoque", "country": "VE", "coord": {"lon": -70.731308, "lat": 9.37568}}, {"id": 3470044, "name": "Betim", "country": "BR", "coord": {"lon": -44.19833, "lat": -19.967779}}, {"id": 2110248, "name": "Betio Village", "country": "KI", "coord": {"lon": 172.921051, "lat": 1.35797}}, {"id": 1066310, "name": "Betioky", "country": "MG", "coord": {"lon": 44.383331, "lat": -23.716669}}, {"id": 2176004, "name": "Betley", "country": "AU", "coord": {"lon": 143.800003, "lat": -36.900002}}, {"id": 576626, "name": "Betlitsa", "country": "RU", "coord": {"lon": 33.958752, "lat": 54.00946}}, {"id": 1276400, "name": "Betma", "country": "IN", "coord": {"lon": 75.616669, "lat": 22.683331}}, {"id": 3128064, "name": "Betolaza", "country": "ES", "coord": {"lon": -2.66479, "lat": 42.939018}}, {"id": 1611635, "name": "Betong", "country": "TH", "coord": {"lon": 101.072311, "lat": 5.77434}}, {"id": 7569755, "name": "Betong", "country": "ID", "coord": {"lon": 120.048798, "lat": -8.516}}, {"id": 3128060, "name": "Betren", "country": "ES", "coord": {"lon": 0.8096, "lat": 42.697479}}, {"id": 6617419, "name": "Betschdorf", "country": "FR", "coord": {"lon": 7.9064, "lat": 48.8988}}, {"id": 2989816, "name": "Betschdorf", "country": "FR", "coord": {"lon": 7.9, "lat": 48.900002}}, {"id": 7285220, "name": "Betschwanden", "country": "CH", "coord": {"lon": 9.05233, "lat": 46.92979}}, {"id": 2661537, "name": "Betschwanden", "country": "CH", "coord": {"lon": 9.02763, "lat": 46.946339}}, {"id": 6945992, "name": "Betsiamites", "country": "CA", "coord": {"lon": -68.646011, "lat": 48.94133}}, {"id": 576623, "name": "Betta", "country": "RU", "coord": {"lon": 38.394169, "lat": 44.373611}}, {"id": 3032981, "name": "Bettancourt-la-Ferree", "country": "FR", "coord": {"lon": 4.96971, "lat": 48.648979}}, {"id": 2960781, "name": "Bettange-sur-Mess", "country": "LU", "coord": {"lon": 5.98389, "lat": 49.575829}}, {"id": 2960780, "name": "Bettborn", "country": "LU", "coord": {"lon": 5.94111, "lat": 49.79528}}, {"id": 2960779, "name": "Bettel", "country": "LU", "coord": {"lon": 6.22778, "lat": 49.917221}}, {"id": 6554621, "name": "Betteldorf", "country": "DE", "coord": {"lon": 6.75, "lat": 50.25}}, {"id": 2949750, "name": "Betteldorf", "country": "DE", "coord": {"lon": 6.75, "lat": 50.25}}, {"id": 2661536, "name": "Bettelried", "country": "CH", "coord": {"lon": 7.38333, "lat": 46.533329}}, {"id": 2960778, "name": "Bettembourg", "country": "LU", "coord": {"lon": 6.08333, "lat": 49.5}}, {"id": 2960777, "name": "Bettembourg", "country": "LU", "coord": {"lon": 6.10278, "lat": 49.518608}}, {"id": 7285221, "name": "Betten", "country": "CH", "coord": {"lon": 8.05703, "lat": 46.426498}}, {"id": 2949741, "name": "Betten", "country": "DE", "coord": {"lon": 13.76667, "lat": 51.633331}}, {"id": 2661535, "name": "Betten", "country": "CH", "coord": {"lon": 8.06963, "lat": 46.377079}}, {"id": 4848489, "name": "Bettendorf", "country": "US", "coord": {"lon": -90.515694, "lat": 41.524479}}, {"id": 6553999, "name": "Bettendorf", "country": "DE", "coord": {"lon": 7.86667, "lat": 50.233299}}, {"id": 2949729, "name": "Bettendorf", "country": "DE", "coord": {"lon": 7.86667, "lat": 50.23333}}, {"id": 2960775, "name": "Bettendorf", "country": "LU", "coord": {"lon": 6.21806, "lat": 49.876671}}, {"id": 6554298, "name": "Bettenfeld", "country": "DE", "coord": {"lon": 6.76667, "lat": 50.083302}}, {"id": 2949726, "name": "Bettenfeld", "country": "DE", "coord": {"lon": 6.76667, "lat": 50.083328}}, {"id": 1276393, "name": "Bettiah", "country": "IN", "coord": {"lon": 84.5, "lat": 26.799999}}, {"id": 7285224, "name": "Bettingen", "country": "CH", "coord": {"lon": 7.67225, "lat": 47.57037}}, {"id": 6554405, "name": "Bettingen", "country": "DE", "coord": {"lon": 6.4, "lat": 49.950001}}, {"id": 2949697, "name": "Bettingen", "country": "DE", "coord": {"lon": 6.4016, "lat": 49.942108}}, {"id": 2661534, "name": "Bettingen", "country": "CH", "coord": {"lon": 7.66425, "lat": 47.570389}}, {"id": 2949694, "name": "Bettingerbr\u00fcck", "country": "DE", "coord": {"lon": 6.85, "lat": 49.433331}}, {"id": 2949691, "name": "Bettinghausen", "country": "DE", "coord": {"lon": 8.2, "lat": 51.616669}}, {"id": 7285225, "name": "Bettlach", "country": "CH", "coord": {"lon": 7.41883, "lat": 47.208542}}, {"id": 2661533, "name": "Bettlach", "country": "CH", "coord": {"lon": 7.42405, "lat": 47.200619}}, {"id": 6559543, "name": "Bettmeralp", "country": "CH", "coord": {"lon": 8.06254, "lat": 46.390221}}, {"id": 3182104, "name": "Bettola", "country": "IT", "coord": {"lon": 9.60857, "lat": 44.778259}}, {"id": 3032965, "name": "Betton", "country": "FR", "coord": {"lon": -1.63829, "lat": 48.180481}}, {"id": 3182099, "name": "Bettona", "country": "IT", "coord": {"lon": 12.48546, "lat": 43.012642}}, {"id": 4147546, "name": "Betts", "country": "US", "coord": {"lon": -85.393257, "lat": 30.537689}}, {"id": 4673981, "name": "Betty Acres Colonia", "country": "US", "coord": {"lon": -97.413307, "lat": 25.91036}}, {"id": 1276389, "name": "Betul", "country": "IN", "coord": {"lon": 77.896111, "lat": 21.915279}}, {"id": 1276388, "name": "Betul Bazar", "country": "IN", "coord": {"lon": 77.927498, "lat": 21.85611}}, {"id": 3688839, "name": "Betulia", "country": "CO", "coord": {"lon": -73.28347, "lat": 6.90069}}, {"id": 3688840, "name": "Betulia", "country": "CO", "coord": {"lon": -75.98378, "lat": 6.11284}}, {"id": 1725513, "name": "Betwagan", "country": "PH", "coord": {"lon": 120.966667, "lat": 17.08333}}, {"id": 2655800, "name": "Betws", "country": "GB", "coord": {"lon": -3.58833, "lat": 51.569172}}, {"id": 2655793, "name": "Betws-y-Coed", "country": "GB", "coord": {"lon": -3.80668, "lat": 53.093819}}, {"id": 2521198, "name": "Betxi", "country": "ES", "coord": {"lon": -0.2, "lat": 39.933331}}, {"id": 6356979, "name": "Betx\u00ed", "country": "ES", "coord": {"lon": -0.19592, "lat": 39.92152}}, {"id": 3032957, "name": "Betz", "country": "FR", "coord": {"lon": 2.95584, "lat": 49.155579}}, {"id": 2949669, "name": "Betzdorf", "country": "DE", "coord": {"lon": 7.88333, "lat": 50.783329}}, {"id": 6693341, "name": "Betzdorf", "country": "LU", "coord": {"lon": 6.35, "lat": 49.683331}}, {"id": 2960774, "name": "Betzdorf", "country": "LU", "coord": {"lon": 6.35, "lat": 49.683331}}, {"id": 2949667, "name": "Betzemerhof", "country": "DE", "coord": {"lon": 7.41667, "lat": 50.23333}}, {"id": 6552671, "name": "Betzendorf", "country": "DE", "coord": {"lon": 10.3167, "lat": 53.133301}}, {"id": 2949661, "name": "Betzendorf", "country": "DE", "coord": {"lon": 10.31273, "lat": 53.137501}}, {"id": 2949654, "name": "Betzenstein", "country": "DE", "coord": {"lon": 11.41667, "lat": 49.683331}}, {"id": 6556007, "name": "Betzenweiler", "country": "DE", "coord": {"lon": 9.56667, "lat": 48.116699}}, {"id": 2949653, "name": "Betzenweiler", "country": "DE", "coord": {"lon": 9.56667, "lat": 48.116669}}, {"id": 2949651, "name": "Betzhorn", "country": "DE", "coord": {"lon": 10.6, "lat": 52.616669}}, {"id": 2949648, "name": "Betziesdorf", "country": "DE", "coord": {"lon": 8.83333, "lat": 50.849998}}, {"id": 6557303, "name": "Betzigau", "country": "DE", "coord": {"lon": 10.3833, "lat": 47.733299}}, {"id": 2949646, "name": "Betzigau", "country": "DE", "coord": {"lon": 10.38333, "lat": 47.73333}}, {"id": 2949640, "name": "Betzisried", "country": "DE", "coord": {"lon": 10.35, "lat": 47.950001}}, {"id": 2949634, "name": "Beucha", "country": "DE", "coord": {"lon": 12.56218, "lat": 51.323101}}, {"id": 2949635, "name": "Beucha", "country": "DE", "coord": {"lon": 12.58333, "lat": 51.150002}}, {"id": 2949632, "name": "Beuchen", "country": "DE", "coord": {"lon": 9.23194, "lat": 49.60083}}, {"id": 2949631, "name": "Beucherling", "country": "DE", "coord": {"lon": 12.43333, "lat": 49.166672}}, {"id": 2949627, "name": "Beuchow", "country": "DE", "coord": {"lon": 13.5, "lat": 54.366669}}, {"id": 6534019, "name": "Beuda", "country": "ES", "coord": {"lon": 2.70794, "lat": 42.236752}}, {"id": 3128059, "name": "Beuda", "country": "ES", "coord": {"lon": 2.70942, "lat": 42.237221}}, {"id": 2949620, "name": "Beuditzvorstadt", "country": "DE", "coord": {"lon": 11.96667, "lat": 51.200001}}, {"id": 2949619, "name": "Beuel", "country": "DE", "coord": {"lon": 7.13333, "lat": 50.73333}}, {"id": 2949617, "name": "Beuerbach", "country": "DE", "coord": {"lon": 8.21667, "lat": 50.283329}}, {"id": 2949612, "name": "Beuerlbach", "country": "DE", "coord": {"lon": 10.09137, "lat": 49.156391}}, {"id": 2949610, "name": "Beuern", "country": "DE", "coord": {"lon": 11.07851, "lat": 48.087429}}, {"id": 2949607, "name": "Beuernfeld", "country": "DE", "coord": {"lon": 10.4, "lat": 51.01667}}, {"id": 2949606, "name": "Beuggen", "country": "DE", "coord": {"lon": 7.81667, "lat": 47.583328}}, {"id": 5899268, "name": "Beulah", "country": "CA", "coord": {"lon": -101.037613, "lat": 50.260601}}, {"id": 2175996, "name": "Beulah", "country": "AU", "coord": {"lon": 142.433334, "lat": -35.933331}}, {"id": 4985887, "name": "Beulah", "country": "US", "coord": {"lon": -86.090919, "lat": 44.631939}}, {"id": 5688003, "name": "Beulah", "country": "US", "coord": {"lon": -101.777946, "lat": 47.26334}}, {"id": 4455473, "name": "Beulaville", "country": "US", "coord": {"lon": -77.773872, "lat": 34.923779}}, {"id": 2949593, "name": "Beule", "country": "DE", "coord": {"lon": 9.95, "lat": 47.566669}}, {"id": 6553986, "name": "Beulich", "country": "DE", "coord": {"lon": 7.45, "lat": 50.1833}}, {"id": 2949589, "name": "Beulich", "country": "DE", "coord": {"lon": 7.45, "lat": 50.183331}}, {"id": 1973714, "name": "Beuma", "country": "ID", "coord": {"lon": 120.052696, "lat": -3.2115}}, {"id": 2949582, "name": "Beuna", "country": "DE", "coord": {"lon": 11.95, "lat": 51.316669}}, {"id": 2759016, "name": "Beuningen", "country": "NL", "coord": {"lon": 5.76667, "lat": 51.860828}}, {"id": 3182098, "name": "Beura", "country": "IT", "coord": {"lon": 8.29972, "lat": 46.079578}}, {"id": 3032939, "name": "Beure", "country": "FR", "coord": {"lon": 6.00548, "lat": 47.206902}}, {"id": 2949572, "name": "Beuren", "country": "DE", "coord": {"lon": 10.00648, "lat": 48.265598}}, {"id": 2949564, "name": "Beuren", "country": "DE", "coord": {"lon": 6.91667, "lat": 49.73333}}, {"id": 6553660, "name": "Beuren", "country": "DE", "coord": {"lon": 7.08333, "lat": 50.099998}}, {"id": 2949562, "name": "Beuren", "country": "DE", "coord": {"lon": 7.08333, "lat": 50.099998}}, {"id": 6555413, "name": "Beuren", "country": "DE", "coord": {"lon": 9.4043, "lat": 48.569279}}, {"id": 2949569, "name": "Beuren", "country": "DE", "coord": {"lon": 9.40406, "lat": 48.569271}}, {"id": 6617310, "name": "Beuri\u00e8res", "country": "FR", "coord": {"lon": 3.7754, "lat": 45.439201}}, {"id": 3032931, "name": "Beuri\u00e8res", "country": "FR", "coord": {"lon": 3.78333, "lat": 45.433331}}, {"id": 6556080, "name": "Beuron", "country": "DE", "coord": {"lon": 8.96667, "lat": 48.049999}}, {"id": 2949551, "name": "Beuron", "country": "DE", "coord": {"lon": 8.96667, "lat": 48.049999}}, {"id": 2661532, "name": "Beuson", "country": "CH", "coord": {"lon": 7.3, "lat": 46.166672}}, {"id": 6440300, "name": "Beuste", "country": "FR", "coord": {"lon": -0.23333, "lat": 43.216671}}, {"id": 3032928, "name": "Beuste", "country": "FR", "coord": {"lon": -0.23333, "lat": 43.216671}}, {"id": 2949548, "name": "Beuster", "country": "DE", "coord": {"lon": 11.78333, "lat": 52.933331}}, {"id": 6556523, "name": "Beutelsbach", "country": "DE", "coord": {"lon": 13.1167, "lat": 48.549999}}, {"id": 2949538, "name": "Beutelsbach", "country": "DE", "coord": {"lon": 13.11667, "lat": 48.549999}}, {"id": 2949532, "name": "Beutelsdorf", "country": "DE", "coord": {"lon": 11.48333, "lat": 50.76667}}, {"id": 2949523, "name": "Beutha", "country": "DE", "coord": {"lon": 12.71667, "lat": 50.666672}}, {"id": 3032919, "name": "Beuville", "country": "FR", "coord": {"lon": -0.32585, "lat": 49.243641}}, {"id": 3032917, "name": "Beuvillers", "country": "FR", "coord": {"lon": 0.25492, "lat": 49.129608}}, {"id": 3032915, "name": "Beuvrages", "country": "FR", "coord": {"lon": 3.4942, "lat": 50.38414}}, {"id": 6613040, "name": "Beuvrigny", "country": "FR", "coord": {"lon": -1, "lat": 48.966671}}, {"id": 3032910, "name": "Beuvrigny", "country": "FR", "coord": {"lon": -1.00167, "lat": 48.968811}}, {"id": 6447216, "name": "Beuvron-en-Auge", "country": "FR", "coord": {"lon": -0.05, "lat": 49.183331}}, {"id": 3032905, "name": "Beuvron-en-Auge", "country": "FR", "coord": {"lon": -0.04592, "lat": 49.18816}}, {"id": 3032903, "name": "Beuvry", "country": "FR", "coord": {"lon": 2.68541, "lat": 50.516739}}, {"id": 3032898, "name": "Beuzec-Cap-Sizun", "country": "FR", "coord": {"lon": -4.512, "lat": 48.075668}}, {"id": 3032896, "name": "Beuzeville", "country": "FR", "coord": {"lon": 0.34254, "lat": 49.34483}}, {"id": 3032892, "name": "Beuzeville-la-Grenier", "country": "FR", "coord": {"lon": 0.42684, "lat": 49.591572}}, {"id": 3182096, "name": "Bevagna", "country": "IT", "coord": {"lon": 12.60836, "lat": 42.933739}}, {"id": 7285229, "name": "Bevaix", "country": "CH", "coord": {"lon": 6.80414, "lat": 46.931149}}, {"id": 2661531, "name": "Bevaix", "country": "CH", "coord": {"lon": 6.8147, "lat": 46.929581}}, {"id": 2175990, "name": "Bevendale", "country": "AU", "coord": {"lon": 149.116669, "lat": -34.533329}}, {"id": 2949512, "name": "Bevenrode", "country": "DE", "coord": {"lon": 10.58333, "lat": 52.333328}}, {"id": 2802051, "name": "Bever", "country": "BE", "coord": {"lon": 4.31667, "lat": 50.916672}}, {"id": 2802035, "name": "Beveren", "country": "BE", "coord": {"lon": 4.23708, "lat": 51.255939}}, {"id": 2802031, "name": "Beveren", "country": "BE", "coord": {"lon": 4.25633, "lat": 51.211868}}, {"id": 2175989, "name": "Beveridge", "country": "AU", "coord": {"lon": 144.983337, "lat": -37.48333}}, {"id": 6534385, "name": "Beverino", "country": "IT", "coord": {"lon": 9.76882, "lat": 44.194019}}, {"id": 2655785, "name": "Beverley", "country": "GB", "coord": {"lon": -0.42332, "lat": 53.845871}}, {"id": 7839663, "name": "Beverley", "country": "AU", "coord": {"lon": 116.763634, "lat": -32.159828}}, {"id": 2076699, "name": "Beverley", "country": "AU", "coord": {"lon": 116.916672, "lat": -32.116669}}, {"id": 4930505, "name": "Beverly", "country": "US", "coord": {"lon": -70.880051, "lat": 42.55843}}, {"id": 4506474, "name": "Beverly", "country": "US", "coord": {"lon": -81.639572, "lat": 39.547852}}, {"id": 4674001, "name": "Beverly", "country": "US", "coord": {"lon": -97.141953, "lat": 31.525169}}, {"id": 5095691, "name": "Beverly", "country": "US", "coord": {"lon": -74.91906, "lat": 40.065392}}, {"id": 4930511, "name": "Beverly Cove", "country": "US", "coord": {"lon": -70.853661, "lat": 42.553429}}, {"id": 5328041, "name": "Beverly Hills", "country": "US", "coord": {"lon": -118.40036, "lat": 34.07362}}, {"id": 4147581, "name": "Beverly Hills", "country": "US", "coord": {"lon": -82.458153, "lat": 28.91692}}, {"id": 4674006, "name": "Beverly Hills", "country": "US", "coord": {"lon": -97.153893, "lat": 31.521561}}, {"id": 4985891, "name": "Beverly Hills", "country": "US", "coord": {"lon": -83.223259, "lat": 42.523918}}, {"id": 2949489, "name": "Bevern", "country": "DE", "coord": {"lon": 9.49408, "lat": 51.858261}}, {"id": 6551670, "name": "Bevern", "country": "DE", "coord": {"lon": 9.76667, "lat": 53.75}}, {"id": 2949486, "name": "Bevern", "country": "DE", "coord": {"lon": 9.77088, "lat": 53.75592}}, {"id": 6558876, "name": "Beverstedt", "country": "DE", "coord": {"lon": 8.81827, "lat": 53.434841}}, {"id": 2949482, "name": "Beverstedt, Flecken", "country": "DE", "coord": {"lon": 8.81915, "lat": 53.434132}}, {"id": 2949475, "name": "Beverungen", "country": "DE", "coord": {"lon": 9.36667, "lat": 51.666672}}, {"id": 2758998, "name": "Beverwijk", "country": "NL", "coord": {"lon": 4.65694, "lat": 52.48333}}, {"id": 4674015, "name": "Bevil Oaks", "country": "US", "coord": {"lon": -94.26963, "lat": 30.150209}}, {"id": 3182087, "name": "Bevilacqua", "country": "IT", "coord": {"lon": 11.3925, "lat": 45.231781}}, {"id": 2661528, "name": "Bevilard", "country": "CH", "coord": {"lon": 7.28325, "lat": 47.23711}}, {"id": 3032887, "name": "Beville-le-Comte", "country": "FR", "coord": {"lon": 1.71305, "lat": 48.435581}}, {"id": 6294691, "name": "Bewangen", "country": "CH", "coord": {"lon": 8.86879, "lat": 47.526039}}, {"id": 1276381, "name": "Bewar", "country": "IN", "coord": {"lon": 79.300499, "lat": 27.218399}}, {"id": 6621546, "name": "Bewbush", "country": "GB", "coord": {"lon": -0.22312, "lat": 51.103291}}, {"id": 2655781, "name": "Bewdley", "country": "GB", "coord": {"lon": -2.31717, "lat": 52.375389}}, {"id": 7285233, "name": "Bex", "country": "CH", "coord": {"lon": 7.08905, "lat": 46.255611}}, {"id": 2661527, "name": "Bex", "country": "CH", "coord": {"lon": 7.01141, "lat": 46.25214}}, {"id": 4674023, "name": "Bexar County", "country": "US", "coord": {"lon": -98.51696, "lat": 29.45023}}, {"id": 2949470, "name": "Bexbach", "country": "DE", "coord": {"lon": 7.25527, "lat": 49.346149}}, {"id": 2175976, "name": "Bexhill", "country": "AU", "coord": {"lon": 153.350006, "lat": -28.76667}}, {"id": 2655777, "name": "Bexhill-on-Sea", "country": "GB", "coord": {"lon": 0.47095, "lat": 50.850231}}, {"id": 2949469, "name": "Bexh\u00f6vede", "country": "DE", "coord": {"lon": 8.68333, "lat": 53.48333}}, {"id": 3333124, "name": "Bexley", "country": "GB", "coord": {"lon": 0.13333, "lat": 51.416672}}, {"id": 2175974, "name": "Bexley", "country": "AU", "coord": {"lon": 151.116669, "lat": -33.950001}}, {"id": 4506487, "name": "Bexley", "country": "US", "coord": {"lon": -82.937683, "lat": 39.968948}}, {"id": 2655774, "name": "Bexleyheath", "country": "GB", "coord": {"lon": 0.13943, "lat": 51.46291}}, {"id": 2949468, "name": "Bexten", "country": "DE", "coord": {"lon": 8.70169, "lat": 52.05439}}, {"id": 2949467, "name": "Bexten", "country": "DE", "coord": {"lon": 7.38333, "lat": 52.349998}}, {"id": 1510131, "name": "Beya", "country": "RU", "coord": {"lon": 90.913887, "lat": 53.053329}}, {"id": 3032880, "name": "Beychac-et-Caillau", "country": "FR", "coord": {"lon": -0.40219, "lat": 44.877811}}, {"id": 3225373, "name": "Beychevelle", "country": "FR", "coord": {"lon": -0.74421, "lat": 45.148891}}, {"id": 2949460, "name": "Beyenburg", "country": "DE", "coord": {"lon": 7.3, "lat": 51.25}}, {"id": 2949455, "name": "Beyernaumburg", "country": "DE", "coord": {"lon": 11.4, "lat": 51.48333}}, {"id": 2949452, "name": "Beyersdorf", "country": "DE", "coord": {"lon": 12.18333, "lat": 51.599998}}, {"id": 5553366, "name": "Beyerville", "country": "US", "coord": {"lon": -110.878418, "lat": 31.390381}}, {"id": 305680, "name": "Beykonak", "country": "TR", "coord": {"lon": 30.30302, "lat": 36.325729}}, {"id": 750662, "name": "Beykoz", "country": "TR", "coord": {"lon": 29.090561, "lat": 41.14389}}, {"id": 2423126, "name": "Beyla", "country": "GN", "coord": {"lon": -8.63333, "lat": 8.68333}}, {"id": 146879, "name": "Beylagan Rayon", "country": "AZ", "coord": {"lon": 47.666672, "lat": 39.75}}, {"id": 6947640, "name": "Beylikduezue", "country": "TR", "coord": {"lon": 28.6399, "lat": 40.981998}}, {"id": 321219, "name": "Beylikova", "country": "TR", "coord": {"lon": 31.205561, "lat": 39.686939}}, {"id": 6448845, "name": "Beylongue", "country": "FR", "coord": {"lon": -0.83333, "lat": 43.916672}}, {"id": 3032879, "name": "Beylongue", "country": "FR", "coord": {"lon": -0.82991, "lat": 43.924278}}, {"id": 6447767, "name": "Beynac-et-Cazenac", "country": "FR", "coord": {"lon": 1.14425, "lat": 44.839771}}, {"id": 3032876, "name": "Beynac-et-Cazenac", "country": "FR", "coord": {"lon": 1.14387, "lat": 44.839649}}, {"id": 2802016, "name": "Beyne-Heusay", "country": "BE", "coord": {"lon": 5.6644, "lat": 50.62257}}, {"id": 2802015, "name": "Beyne-Heusay", "country": "BE", "coord": {"lon": 5.66508, "lat": 50.622509}}, {"id": 3032872, "name": "Beynes", "country": "FR", "coord": {"lon": 1.87261, "lat": 48.856258}}, {"id": 610298, "name": "Beyneu", "country": "KZ", "coord": {"lon": 55.200001, "lat": 45.316669}}, {"id": 3032869, "name": "Beynost", "country": "FR", "coord": {"lon": 5.00608, "lat": 45.838089}}, {"id": 750637, "name": "Beypazari", "country": "TR", "coord": {"lon": 31.92111, "lat": 40.1675}}, {"id": 1276378, "name": "Beypore", "country": "IN", "coord": {"lon": 75.816673, "lat": 11.18333}}, {"id": 2960771, "name": "Beyren", "country": "LU", "coord": {"lon": 6.33694, "lat": 49.626389}}, {"id": 6448846, "name": "Beyries", "country": "FR", "coord": {"lon": -0.63333, "lat": 43.566669}}, {"id": 3032864, "name": "Beyries", "country": "FR", "coord": {"lon": -0.6369, "lat": 43.571781}}, {"id": 321191, "name": "Beysehir", "country": "TR", "coord": {"lon": 31.724581, "lat": 37.677349}}, {"id": 576619, "name": "Beysug", "country": "RU", "coord": {"lon": 39.849998, "lat": 45.700001}}, {"id": 576614, "name": "Beysuzhek Vtoroy", "country": "RU", "coord": {"lon": 39.720001, "lat": 45.490002}}, {"id": 321184, "name": "Beytussebap", "country": "TR", "coord": {"lon": 43.16806, "lat": 37.569439}}, {"id": 3128055, "name": "Bezana", "country": "ES", "coord": {"lon": -3.83639, "lat": 42.958569}}, {"id": 3032847, "name": "Bezannes", "country": "FR", "coord": {"lon": 3.98892, "lat": 49.223389}}, {"id": 6359020, "name": "Bezares", "country": "ES", "coord": {"lon": -2.66928, "lat": 42.365822}}, {"id": 3128052, "name": "Bezares", "country": "ES", "coord": {"lon": -2.67076, "lat": 42.370361}}, {"id": 6361465, "name": "Bezas", "country": "ES", "coord": {"lon": -1.32885, "lat": 40.32888}}, {"id": 3128051, "name": "Bezas", "country": "ES", "coord": {"lon": -1.32511, "lat": 40.330761}}, {"id": 7873729, "name": "Bezau", "country": "AT", "coord": {"lon": 9.99422, "lat": 47.37196}}, {"id": 2781806, "name": "Bezau", "country": "AT", "coord": {"lon": 9.90167, "lat": 47.384998}}, {"id": 576606, "name": "Bezborodovo", "country": "RU", "coord": {"lon": 36.48, "lat": 56.599998}}, {"id": 684948, "name": "Bezdead", "country": "RO", "coord": {"lon": 25.51667, "lat": 45.150002}}, {"id": 600480, "name": "Bezdonys", "country": "LT", "coord": {"lon": 25.533331, "lat": 54.799999}}, {"id": 3079403, "name": "Bezdruzice", "country": "CZ", "coord": {"lon": 12.9711, "lat": 49.907242}}, {"id": 3079410, "name": "Bezd\u011bkov pod T\u0159em\u0161\u00ednem", "country": "CZ", "coord": {"lon": 13.87846, "lat": 49.577099}}, {"id": 576590, "name": "Bezenchuk", "country": "RU", "coord": {"lon": 49.4333, "lat": 52.981998}}, {"id": 3405738, "name": "Bezerros", "country": "BR", "coord": {"lon": -35.79694, "lat": -8.23333}}, {"id": 1510118, "name": "Bezgolosovo", "country": "RU", "coord": {"lon": 82.962502, "lat": 52.5149}}, {"id": 576572, "name": "Bezhanitsy", "country": "RU", "coord": {"lon": 29.89065, "lat": 56.9767}}, {"id": 576566, "name": "Bezhetsk", "country": "RU", "coord": {"lon": 36.69651, "lat": 57.785061}}, {"id": 576561, "name": "Bezhitsa", "country": "RU", "coord": {"lon": 34.299999, "lat": 53.310001}}, {"id": 576560, "name": "Bezhitskiy Rayon", "country": "RU", "coord": {"lon": 34.360001, "lat": 53.25}}, {"id": 576558, "name": "Bezhta", "country": "RU", "coord": {"lon": 46.128281, "lat": 42.133801}}, {"id": 830805, "name": "Bezhtinskiy Uchastok Rayon", "country": "RU", "coord": {"lon": 46.083328, "lat": 42.083328}}, {"id": 3032833, "name": "Beziers", "country": "FR", "coord": {"lon": 3.21899, "lat": 43.347618}}, {"id": 712181, "name": "Bezimenne", "country": "UA", "coord": {"lon": 37.938148, "lat": 47.107159}}, {"id": 6458846, "name": "Bezirk Aarau", "country": "CH", "coord": {"lon": 8.05235, "lat": 47.37706}}, {"id": 6458818, "name": "Bezirk Affoltern", "country": "CH", "coord": {"lon": 8.47444, "lat": 47.273109}}, {"id": 6458827, "name": "Bezirk Albula", "country": "CH", "coord": {"lon": 9.60845, "lat": 46.635059}}, {"id": 2661751, "name": "Bezirk Andelfingen", "country": "CH", "coord": {"lon": 8.75, "lat": 47.583328}}, {"id": 6458891, "name": "Bezirk Arbon", "country": "CH", "coord": {"lon": 9.36971, "lat": 47.53347}}, {"id": 6458843, "name": "Bezirk Arlesheim", "country": "CH", "coord": {"lon": 7.58733, "lat": 47.516682}}, {"id": 6458813, "name": "Bezirk Baden", "country": "CH", "coord": {"lon": 8.30059, "lat": 47.4566}}, {"id": 6458871, "name": "Bezirk Bischofszell", "country": "CH", "coord": {"lon": 9.23853, "lat": 47.52483}}, {"id": 6458774, "name": "Bezirk Bremgarten", "country": "CH", "coord": {"lon": 8.33343, "lat": 47.34927}}, {"id": 6458821, "name": "Bezirk Brig", "country": "CH", "coord": {"lon": 8.01185, "lat": 46.282551}}, {"id": 6458826, "name": "Bezirk Brugg", "country": "CH", "coord": {"lon": 8.17798, "lat": 47.47776}}, {"id": 6458841, "name": "Bezirk Bucheggberg", "country": "CH", "coord": {"lon": 7.47885, "lat": 47.13205}}, {"id": 6458867, "name": "Bezirk B\u00fclach", "country": "CH", "coord": {"lon": 8.56764, "lat": 47.497059}}, {"id": 6458865, "name": "Bezirk Dielsdorf", "country": "CH", "coord": {"lon": 8.45631, "lat": 47.471809}}, {"id": 6458800, "name": "Bezirk Diessenhofen", "country": "CH", "coord": {"lon": 8.75, "lat": 47.686668}}, {"id": 6458760, "name": "Bezirk Dietikon", "country": "CH", "coord": {"lon": 8.4426, "lat": 47.388039}}, {"id": 6458904, "name": "Bezirk Dorneck", "country": "CH", "coord": {"lon": 7.55787, "lat": 47.463982}}, {"id": 6458878, "name": "Bezirk Einsiedeln", "country": "CH", "coord": {"lon": 8.7601, "lat": 47.107922}}, {"id": 6458801, "name": "Bezirk Frauenfeld", "country": "CH", "coord": {"lon": 8.90138, "lat": 47.552349}}, {"id": 6458810, "name": "Bezirk Gersau", "country": "CH", "coord": {"lon": 8.51678, "lat": 47.007999}}, {"id": 6458766, "name": "Bezirk Goms", "country": "CH", "coord": {"lon": 8.2219, "lat": 46.461609}}, {"id": 6458742, "name": "Bezirk G\u00e4u", "country": "CH", "coord": {"lon": 7.77503, "lat": 47.296059}}, {"id": 6458874, "name": "Bezirk G\u00f6sgen", "country": "CH", "coord": {"lon": 7.9203, "lat": 47.377579}}, {"id": 6458837, "name": "Bezirk Hinterland", "country": "CH", "coord": {"lon": 9.2735, "lat": 47.3647}}, {"id": 6458759, "name": "Bezirk Hinterrhein", "country": "CH", "coord": {"lon": 9.41183, "lat": 46.55827}}, {"id": 6458797, "name": "Bezirk Hinwil", "country": "CH", "coord": {"lon": 8.83431, "lat": 47.296459}}, {"id": 6458847, "name": "Bezirk Horgen", "country": "CH", "coord": {"lon": 8.59702, "lat": 47.257671}}, {"id": 6458848, "name": "Bezirk H\u00f6fe", "country": "CH", "coord": {"lon": 8.7396, "lat": 47.19043}}, {"id": 6458905, "name": "Bezirk Imboden", "country": "CH", "coord": {"lon": 9.37222, "lat": 46.83287}}, {"id": 6458858, "name": "Bezirk Inn", "country": "CH", "coord": {"lon": 10.26657, "lat": 46.80835}}, {"id": 6458785, "name": "Bezirk Kreuzlingen", "country": "CH", "coord": {"lon": 9.15529, "lat": 47.624432}}, {"id": 6458772, "name": "Bezirk Kulm", "country": "CH", "coord": {"lon": 8.13302, "lat": 47.287571}}, {"id": 6458839, "name": "Bezirk K\u00fcssnacht", "country": "CH", "coord": {"lon": 8.44444, "lat": 47.086109}}, {"id": 7284995, "name": "Bezirk Landquart", "country": "CH", "coord": {"lon": 9.55472, "lat": 46.959419}}, {"id": 6458833, "name": "Bezirk Laufen", "country": "CH", "coord": {"lon": 7.4875, "lat": 47.423241}}, {"id": 6458860, "name": "Bezirk Laufenburg", "country": "CH", "coord": {"lon": 8.03878, "lat": 47.51844}}, {"id": 6458829, "name": "Bezirk Lebern", "country": "CH", "coord": {"lon": 7.48053, "lat": 47.217979}}, {"id": 6458806, "name": "Bezirk Lenzburg", "country": "CH", "coord": {"lon": 8.1891, "lat": 47.371841}}, {"id": 6458753, "name": "Bezirk Leuk", "country": "CH", "coord": {"lon": 7.67291, "lat": 46.314388}}, {"id": 6458854, "name": "Bezirk Liestal", "country": "CH", "coord": {"lon": 7.72714, "lat": 47.481239}}, {"id": 7284997, "name": "Bezirk Maloja / Distretto di Maloggia", "country": "CH", "coord": {"lon": 9.77932, "lat": 46.491119}}, {"id": 6458781, "name": "Bezirk March", "country": "CH", "coord": {"lon": 8.91103, "lat": 47.161282}}, {"id": 2659702, "name": "Bezirk Meilen", "country": "CH", "coord": {"lon": 8.63333, "lat": 47.283329}}, {"id": 6458830, "name": "Bezirk Mittelland", "country": "CH", "coord": {"lon": 9.43469, "lat": 47.376999}}, {"id": 6458902, "name": "Bezirk Muri", "country": "CH", "coord": {"lon": 8.35362, "lat": 47.252331}}, {"id": 6458786, "name": "Bezirk M\u00fcnchwilen", "country": "CH", "coord": {"lon": 9.00386, "lat": 47.488949}}, {"id": 6458815, "name": "Bezirk Oberklettgau", "country": "CH", "coord": {"lon": 8.51774, "lat": 47.698929}}, {"id": 6458893, "name": "Bezirk Olten", "country": "CH", "coord": {"lon": 7.90755, "lat": 47.344261}}, {"id": 6458852, "name": "Bezirk Pf\u00e4ffikon", "country": "CH", "coord": {"lon": 8.77208, "lat": 47.40905}}, {"id": 6458884, "name": "Bezirk Plessur", "country": "CH", "coord": {"lon": 9.5693, "lat": 46.830391}}, {"id": 7285011, "name": "Bezirk Pr\u00e4ttigau-Davos", "country": "CH", "coord": {"lon": 9.84407, "lat": 46.866241}}, {"id": 2659097, "name": "Bezirk Raron", "country": "CH", "coord": {"lon": 7.8, "lat": 46.299999}}, {"id": 6458883, "name": "Bezirk Reiat", "country": "CH", "coord": {"lon": 8.70821, "lat": 47.74752}}, {"id": 6458853, "name": "Bezirk Rheinfelden", "country": "CH", "coord": {"lon": 7.83331, "lat": 47.540482}}, {"id": 6458881, "name": "Bezirk Schaffhausen", "country": "CH", "coord": {"lon": 8.63525, "lat": 47.694401}}, {"id": 6458769, "name": "Bezirk Schleitheim", "country": "CH", "coord": {"lon": 8.51111, "lat": 47.75}}, {"id": 6458775, "name": "Bezirk Schwyz", "country": "CH", "coord": {"lon": 8.63619, "lat": 47.028141}}, {"id": 6458820, "name": "Bezirk See/District du Lac", "country": "CH", "coord": {"lon": 7.14088, "lat": 46.91016}}, {"id": 6458898, "name": "Bezirk Sense", "country": "CH", "coord": {"lon": 7.26028, "lat": 46.801319}}, {"id": 6458823, "name": "Bezirk Sissach", "country": "CH", "coord": {"lon": 7.84871, "lat": 47.442371}}, {"id": 6458779, "name": "Bezirk Solothurn", "country": "CH", "coord": {"lon": 7.53084, "lat": 47.208179}}, {"id": 6458739, "name": "Bezirk Steckborn", "country": "CH", "coord": {"lon": 8.94382, "lat": 47.631111}}, {"id": 6458794, "name": "Bezirk Stein", "country": "CH", "coord": {"lon": 8.84683, "lat": 47.664291}}, {"id": 7284999, "name": "Bezirk Surselva", "country": "CH", "coord": {"lon": 9.01569, "lat": 46.69297}}, {"id": 6458869, "name": "Bezirk Thal", "country": "CH", "coord": {"lon": 7.63592, "lat": 47.310951}}, {"id": 2658380, "name": "Bezirk Thierstein", "country": "CH", "coord": {"lon": 7.55, "lat": 47.383331}}, {"id": 6458836, "name": "Bezirk Unterklettgau", "country": "CH", "coord": {"lon": 8.46333, "lat": 47.68}}, {"id": 6458751, "name": "Bezirk Uster", "country": "CH", "coord": {"lon": 8.67649, "lat": 47.357948}}, {"id": 6458844, "name": "Bezirk Visp", "country": "CH", "coord": {"lon": 7.85609, "lat": 46.176121}}, {"id": 6458863, "name": "Bezirk Vorderland", "country": "CH", "coord": {"lon": 9.53869, "lat": 47.441669}}, {"id": 6458748, "name": "Bezirk Waldenburg", "country": "CH", "coord": {"lon": 7.74137, "lat": 47.393669}}, {"id": 6458885, "name": "Bezirk Wasseramt", "country": "CH", "coord": {"lon": 7.59157, "lat": 47.18911}}, {"id": 6458888, "name": "Bezirk Weinfelden", "country": "CH", "coord": {"lon": 9.10265, "lat": 47.56963}}, {"id": 6458808, "name": "Bezirk Winterthur", "country": "CH", "coord": {"lon": 8.769, "lat": 47.507809}}, {"id": 6458746, "name": "Bezirk Zofingen", "country": "CH", "coord": {"lon": 7.95697, "lat": 47.288639}}, {"id": 6458788, "name": "Bezirk Zurzach", "country": "CH", "coord": {"lon": 8.2802, "lat": 47.561821}}, {"id": 6458798, "name": "Bezirk Z\u00fcrich", "country": "CH", "coord": {"lon": 8.54323, "lat": 47.371101}}, {"id": 712200, "name": "Bezlyudivka", "country": "UA", "coord": {"lon": 36.295158, "lat": 49.871849}}, {"id": 2661526, "name": "Beznau", "country": "CH", "coord": {"lon": 8.2291, "lat": 47.553242}}, {"id": 6452064, "name": "Bezons", "country": "FR", "coord": {"lon": 2.21667, "lat": 48.933331}}, {"id": 3032824, "name": "Bezons", "country": "FR", "coord": {"lon": 2.2128, "lat": 48.924259}}, {"id": 576519, "name": "Bezopasnoye", "country": "RU", "coord": {"lon": 41.936031, "lat": 45.648331}}, {"id": 3032823, "name": "Bezouce", "country": "FR", "coord": {"lon": 4.49072, "lat": 43.88229}}, {"id": 3032818, "name": "Bezu-Saint-Eloi", "country": "FR", "coord": {"lon": 1.70404, "lat": 49.295238}}, {"id": 576472, "name": "Bezymyanka", "country": "RU", "coord": {"lon": 43.240139, "lat": 49.906681}}, {"id": 2026724, "name": "Bezymyannaya", "country": "RU", "coord": {"lon": 103.916672, "lat": 51.583328}}, {"id": 576447, "name": "Bezzubovo", "country": "RU", "coord": {"lon": 38.922501, "lat": 55.450001}}, {"id": 2949786, "name": "Be\u00dflich", "country": "DE", "coord": {"lon": 6.6, "lat": 49.799999}}, {"id": 2505346, "name": "Be\u00efda Bordj", "country": "DZ", "coord": {"lon": 5.66528, "lat": 35.89444}}, {"id": 3204388, "name": "Be\u010di\u0107i", "country": "ME", "coord": {"lon": 18.869169, "lat": 42.28389}}, {"id": 7532652, "name": "Be\u0142chat\u00f3w", "country": "PL", "coord": {"lon": 19.3626, "lat": 51.3545}}, {"id": 618572, "name": "Be\u015falma", "country": "MD", "coord": {"lon": 28.648331, "lat": 46.172779}}, {"id": 3214575, "name": "Be\u0161enova\u010dki Prnjavor", "country": "RS", "coord": {"lon": 19.70611, "lat": 45.11306}}, {"id": 1276374, "name": "Bhabhra", "country": "IN", "coord": {"lon": 74.333328, "lat": 22.533331}}, {"id": 1276371, "name": "Bhabua", "country": "IN", "coord": {"lon": 83.616669, "lat": 25.049999}}, {"id": 1276370, "name": "Bhachau", "country": "IN", "coord": {"lon": 70.349998, "lat": 23.283331}}, {"id": 1276358, "name": "Bhadarwah", "country": "IN", "coord": {"lon": 75.716667, "lat": 32.98333}}, {"id": 1276355, "name": "Bhadasar", "country": "IN", "coord": {"lon": 74.316673, "lat": 28.283331}}, {"id": 1276353, "name": "Bhadaur", "country": "IN", "coord": {"lon": 75.316673, "lat": 30.48333}}, {"id": 1276335, "name": "Bhadohi", "country": "IN", "coord": {"lon": 82.566673, "lat": 25.41667}}, {"id": 1276330, "name": "Bhadra", "country": "IN", "coord": {"lon": 75.166672, "lat": 29.116671}}, {"id": 1276328, "name": "Bhadrachalam", "country": "IN", "coord": {"lon": 80.883331, "lat": 17.66667}}, {"id": 1276325, "name": "Bhadrakh", "country": "IN", "coord": {"lon": 86.519997, "lat": 21.05278}}, {"id": 1283628, "name": "Bhadrapur", "country": "NP", "coord": {"lon": 88.09436, "lat": 26.544041}}, {"id": 1276321, "name": "Bhadravati", "country": "IN", "coord": {"lon": 75.716667, "lat": 13.86667}}, {"id": 1276320, "name": "Bhadreswar", "country": "IN", "coord": {"lon": 88.350563, "lat": 22.82444}}, {"id": 1182872, "name": "Bhag", "country": "PK", "coord": {"lon": 67.823898, "lat": 29.0415}}, {"id": 1276300, "name": "Bhagalpur", "country": "IN", "coord": {"lon": 87, "lat": 25.25}}, {"id": 1276275, "name": "Bhagwantnagar", "country": "IN", "coord": {"lon": 80.75, "lat": 26.23333}}, {"id": 1182829, "name": "Bhai Pheru", "country": "PK", "coord": {"lon": 73.949997, "lat": 31.200001}}, {"id": 1276265, "name": "Bhainsdehi", "country": "IN", "coord": {"lon": 77.6325, "lat": 21.646669}}, {"id": 1185263, "name": "Bhairab Bazar", "country": "BD", "coord": {"lon": 90.966667, "lat": 24.066669}}, {"id": 1283621, "name": "Bhairahawa", "country": "NP", "coord": {"lon": 83.449997, "lat": 27.5}}, {"id": 1276249, "name": "Bhaisa", "country": "IN", "coord": {"lon": 77.966667, "lat": 19.1}}, {"id": 1182815, "name": "Bhakkar", "country": "PK", "coord": {"lon": 71.065742, "lat": 31.62525}}, {"id": 1283618, "name": "Bhaktapur", "country": "NP", "coord": {"lon": 85.416725, "lat": 27.667337}}, {"id": 1283617, "name": "Bhaktapur", "country": "NP", "coord": {"lon": 85.416664, "lat": 27.683332}}, {"id": 2555395, "name": "Bhalil", "country": "MA", "coord": {"lon": -4.87228, "lat": 33.85194}}, {"id": 1276219, "name": "Bhalki", "country": "IN", "coord": {"lon": 77.216667, "lat": 18.033331}}, {"id": 1182787, "name": "Bhalwal", "country": "PK", "coord": {"lon": 72.904251, "lat": 32.272041}}, {"id": 276633, "name": "Bhamdoun", "country": "LB", "coord": {"lon": 35.651112, "lat": 33.794998}}, {"id": 276632, "name": "Bhamdoun el Mhatta", "country": "LB", "coord": {"lon": 35.659721, "lat": 33.808609}}, {"id": 1328218, "name": "Bhamo", "country": "MM", "coord": {"lon": 97.23333, "lat": 24.26667}}, {"id": 1276201, "name": "Bhamora", "country": "IN", "coord": {"lon": 79.283333, "lat": 28.200001}}, {"id": 1182775, "name": "Bhan", "country": "PK", "coord": {"lon": 67.72139, "lat": 26.55831}}, {"id": 1276191, "name": "Bhandara", "country": "IN", "coord": {"lon": 79.650002, "lat": 21.16667}}, {"id": 1348737, "name": "Bhandardaha", "country": "IN", "coord": {"lon": 88.214439, "lat": 22.61694}}, {"id": 1276188, "name": "Bhandarej", "country": "IN", "coord": {"lon": 76.416664, "lat": 26.883333}}, {"id": 1276184, "name": "Bhandaria", "country": "IN", "coord": {"lon": 82.566666, "lat": 27.183332}}, {"id": 1477498, "name": "Bhandaria", "country": "BD", "coord": {"lon": 90.060898, "lat": 22.486099}}, {"id": 1276178, "name": "Bhander", "country": "IN", "coord": {"lon": 78.75, "lat": 25.73333}}, {"id": 1283616, "name": "Bhand\u0101r", "country": "NP", "coord": {"lon": 86.349998, "lat": 27.583332}}, {"id": 1276159, "name": "Bhanjanagar", "country": "IN", "coord": {"lon": 84.583328, "lat": 19.933331}}, {"id": 1276152, "name": "Bhanpura", "country": "IN", "coord": {"lon": 75.746902, "lat": 24.513}}, {"id": 1276151, "name": "Bhanpuri", "country": "IN", "coord": {"lon": 80.916672, "lat": 21.1}}, {"id": 7801503, "name": "Bhanumati", "country": "NP", "coord": {"lon": 84.030571, "lat": 28.00094}}, {"id": 1276147, "name": "Bhanvad", "country": "IN", "coord": {"lon": 69.773613, "lat": 21.92639}}, {"id": 1276128, "name": "Bharatpur", "country": "IN", "coord": {"lon": 77.48333, "lat": 27.216667}}, {"id": 1283613, "name": "Bharatpur", "country": "NP", "coord": {"lon": 84.433334, "lat": 27.683332}}, {"id": 1276115, "name": "Bharkol", "country": "IN", "coord": {"lon": 77.699997, "lat": 27.116667}}, {"id": 1276103, "name": "Bharthana", "country": "IN", "coord": {"lon": 79.2248, "lat": 26.757099}}, {"id": 1276100, "name": "Bharuch", "country": "IN", "coord": {"lon": 72.966667, "lat": 21.700001}}, {"id": 1276095, "name": "Bharwari", "country": "IN", "coord": {"lon": 81.5, "lat": 25.549999}}, {"id": 1276092, "name": "Bhasawar", "country": "IN", "coord": {"lon": 77.033333, "lat": 27.033331}}, {"id": 1276084, "name": "Bhatapara", "country": "IN", "coord": {"lon": 81.933327, "lat": 21.73333}}, {"id": 1276079, "name": "Bhatgaon", "country": "IN", "coord": {"lon": 81.699997, "lat": 21.15}}, {"id": 1276070, "name": "Bhatinda", "country": "IN", "coord": {"lon": 74.949997, "lat": 30.200001}}, {"id": 1276067, "name": "Bhatkal", "country": "IN", "coord": {"lon": 74.566673, "lat": 13.96667}}, {"id": 1276058, "name": "Bhatpara", "country": "IN", "coord": {"lon": 88.40889, "lat": 22.871389}}, {"id": 1185260, "name": "Bhatpara Abhaynagar", "country": "BD", "coord": {"lon": 89.443199, "lat": 23.01531}}, {"id": 1276054, "name": "Bhattiprolu", "country": "IN", "coord": {"lon": 80.783333, "lat": 16.1}}, {"id": 1276037, "name": "Bhavani", "country": "IN", "coord": {"lon": 77.683327, "lat": 11.45}}, {"id": 1276032, "name": "Bhavnagar", "country": "IN", "coord": {"lon": 72.150002, "lat": 21.76667}}, {"id": 1182682, "name": "Bhawana", "country": "PK", "coord": {"lon": 72.648987, "lat": 31.56918}}, {"id": 1276027, "name": "Bhawaniganj", "country": "IN", "coord": {"lon": 75.833328, "lat": 24.41667}}, {"id": 1276026, "name": "Bhawanigarh", "country": "IN", "coord": {"lon": 76.035004, "lat": 30.26667}}, {"id": 1276023, "name": "Bhawanipatna", "country": "IN", "coord": {"lon": 83.166672, "lat": 19.9}}, {"id": 1276013, "name": "Bhayavadar", "country": "IN", "coord": {"lon": 70.25, "lat": 21.85}}, {"id": 1182665, "name": "Bhera", "country": "PK", "coord": {"lon": 72.909698, "lat": 32.483181}}, {"id": 1185262, "name": "Bheramara", "country": "BD", "coord": {"lon": 88.9925, "lat": 24.023199}}, {"id": 1283606, "name": "Bher\u012b Zone", "country": "NP", "coord": {"lon": 81.666672, "lat": 28.58333}}, {"id": 1275980, "name": "Bhigvan", "country": "IN", "coord": {"lon": 74.76667, "lat": 18.316669}}, {"id": 1275978, "name": "Bhikangaon", "country": "IN", "coord": {"lon": 75.949997, "lat": 21.866671}}, {"id": 1275977, "name": "Bhikhi", "country": "IN", "coord": {"lon": 75.533333, "lat": 30.066669}}, {"id": 1275971, "name": "Bhilai", "country": "IN", "coord": {"lon": 81.433327, "lat": 21.216669}}, {"id": 1275960, "name": "Bhilwara", "country": "IN", "coord": {"lon": 74.633331, "lat": 25.35}}, {"id": 1275931, "name": "Bhim Tal", "country": "IN", "coord": {"lon": 79.566673, "lat": 29.35}}, {"id": 1275947, "name": "Bhimavaram", "country": "IN", "coord": {"lon": 81.533333, "lat": 16.533331}}, {"id": 1182637, "name": "Bhimbar", "country": "PK", "coord": {"lon": 74.079262, "lat": 32.975681}}, {"id": 1275930, "name": "Bhimunipatnam", "country": "IN", "coord": {"lon": 83.433327, "lat": 17.883329}}, {"id": 1275926, "name": "Bhind", "country": "IN", "coord": {"lon": 78.78833, "lat": 26.564171}}, {"id": 1275925, "name": "Bhindar", "country": "IN", "coord": {"lon": 74.183327, "lat": 24.5}}, {"id": 1275921, "name": "Bhinga", "country": "IN", "coord": {"lon": 81.933327, "lat": 27.716669}}, {"id": 1275920, "name": "Bhinmal", "country": "IN", "coord": {"lon": 72.25, "lat": 25}}, {"id": 1182622, "name": "Bhiria", "country": "PK", "coord": {"lon": 68.194839, "lat": 26.910669}}, {"id": 1019330, "name": "Bhisho", "country": "ZA", "coord": {"lon": 27.442181, "lat": -32.84721}}, {"id": 1182607, "name": "Bhit Shah", "country": "PK", "coord": {"lon": 68.492653, "lat": 25.804371}}, {"id": 1275905, "name": "Bhitarwar", "country": "IN", "coord": {"lon": 78.116669, "lat": 25.799999}}, {"id": 7279747, "name": "Bhiwadi", "country": "IN", "coord": {"lon": 76.860558, "lat": 28.210239}}, {"id": 1275901, "name": "Bhiwandi", "country": "IN", "coord": {"lon": 73.066673, "lat": 19.299999}}, {"id": 1275899, "name": "Bhiwani", "country": "IN", "coord": {"lon": 76.133331, "lat": 28.783331}}, {"id": 1275882, "name": "Bhogpur", "country": "IN", "coord": {"lon": 75.6325, "lat": 31.549999}}, {"id": 1283599, "name": "Bhojpur", "country": "NP", "coord": {"lon": 81.775551, "lat": 27.93565}}, {"id": 1283600, "name": "Bhojpur", "country": "NP", "coord": {"lon": 87.046066, "lat": 27.171499}}, {"id": 1275866, "name": "Bhojudih", "country": "IN", "coord": {"lon": 86.449997, "lat": 23.633329}}, {"id": 7089224, "name": "Bhokadoke", "country": "ID", "coord": {"lon": 121.311798, "lat": -8.802}}, {"id": 1336136, "name": "Bhola", "country": "BD", "coord": {"lon": 90.650002, "lat": 22.683331}}, {"id": 1275859, "name": "Bholath", "country": "IN", "coord": {"lon": 75.50222, "lat": 31.53278}}, {"id": 1275849, "name": "Bhongaon", "country": "IN", "coord": {"lon": 79.183327, "lat": 27.25}}, {"id": 1275848, "name": "Bhongir", "country": "IN", "coord": {"lon": 78.888893, "lat": 17.51083}}, {"id": 1275841, "name": "Bhopal", "country": "IN", "coord": {"lon": 77.400002, "lat": 23.26667}}, {"id": 1182577, "name": "Bhopalwala", "country": "PK", "coord": {"lon": 74.363297, "lat": 32.428879}}, {"id": 1275836, "name": "Bhor", "country": "IN", "coord": {"lon": 73.849998, "lat": 18.16667}}, {"id": 1275826, "name": "Bhowali", "country": "IN", "coord": {"lon": 79.51667, "lat": 29.383329}}, {"id": 6941688, "name": "Bhratang", "country": "NP", "coord": {"lon": 84.190163, "lat": 28.572914}}, {"id": 1275818, "name": "Bhuban", "country": "IN", "coord": {"lon": 85.833328, "lat": 20.883329}}, {"id": 1275817, "name": "Bhubaneshwar", "country": "IN", "coord": {"lon": 85.833328, "lat": 20.23333}}, {"id": 1275814, "name": "Bhudgaon", "country": "IN", "coord": {"lon": 74.599998, "lat": 16.9}}, {"id": 1275812, "name": "Bhuj", "country": "IN", "coord": {"lon": 69.666672, "lat": 23.26667}}, {"id": 1275804, "name": "Bhum", "country": "IN", "coord": {"lon": 75.666672, "lat": 18.466669}}, {"id": 1275793, "name": "Bhundsi", "country": "IN", "coord": {"lon": 77.066673, "lat": 28.35}}, {"id": 935114, "name": "Bhunya", "country": "SZ", "coord": {"lon": 31.01667, "lat": -26.549999}}, {"id": 1275778, "name": "Bhusawal", "country": "IN", "coord": {"lon": 75.76667, "lat": 21.049999}}, {"id": 1275768, "name": "Bhuvanagiri", "country": "IN", "coord": {"lon": 79.633331, "lat": 11.46667}}, {"id": 1276373, "name": "Bh\u0101bhru", "country": "IN", "coord": {"lon": 76.033333, "lat": 27.466667}}, {"id": 1209308, "name": "Bh\u0101gyakul", "country": "BD", "coord": {"lon": 90.23333, "lat": 23.51667}}, {"id": 1275907, "name": "Bh\u012bta", "country": "IN", "coord": {"lon": 81.800003, "lat": 25.299999}}, {"id": 1725506, "name": "Biabas", "country": "PH", "coord": {"lon": 124.466667, "lat": 9.8}}, {"id": 3577955, "name": "Biabou", "country": "VC", "coord": {"lon": -61.133331, "lat": 13.2}}, {"id": 3032815, "name": "Biache-Saint-Vaast", "country": "FR", "coord": {"lon": 2.94777, "lat": 50.308689}}, {"id": 3103644, "name": "Biala", "country": "PL", "coord": {"lon": 17.660351, "lat": 50.385872}}, {"id": 7535565, "name": "Biala", "country": "PL", "coord": {"lon": 19.649561, "lat": 52.60524}}, {"id": 776178, "name": "Biala Piska", "country": "PL", "coord": {"lon": 22.06321, "lat": 53.611912}}, {"id": 776175, "name": "Biala Podlaska", "country": "PL", "coord": {"lon": 23.11652, "lat": 52.032379}}, {"id": 776172, "name": "Biala Rawska", "country": "PL", "coord": {"lon": 20.472589, "lat": 51.807789}}, {"id": 776184, "name": "Bialaczow", "country": "PL", "coord": {"lon": 20.297239, "lat": 51.298149}}, {"id": 3103588, "name": "Biale Blota", "country": "PL", "coord": {"lon": 17.91621, "lat": 53.095161}}, {"id": 3864261, "name": "Bialet Mass\u00e9", "country": "AR", "coord": {"lon": -64.460152, "lat": -31.313129}}, {"id": 3103645, "name": "Bialka", "country": "PL", "coord": {"lon": 19.67033, "lat": 49.693062}}, {"id": 776144, "name": "Bialka Tatrzanska", "country": "PL", "coord": {"lon": 20.10507, "lat": 49.389751}}, {"id": 776113, "name": "Bialobrzegi", "country": "PL", "coord": {"lon": 21.052549, "lat": 52.44199}}, {"id": 776114, "name": "Bialobrzegi", "country": "PL", "coord": {"lon": 20.950411, "lat": 51.64695}}, {"id": 776120, "name": "Bialobrzegi", "country": "PL", "coord": {"lon": 22.319071, "lat": 50.10252}}, {"id": 3103556, "name": "Bialogard", "country": "PL", "coord": {"lon": 15.98751, "lat": 54.006962}}, {"id": 1725492, "name": "Bialong", "country": "PH", "coord": {"lon": 124.888893, "lat": 6.98056}}, {"id": 3103545, "name": "Bialosliwie", "country": "PL", "coord": {"lon": 17.12533, "lat": 53.10461}}, {"id": 776092, "name": "Bialowieza", "country": "PL", "coord": {"lon": 23.866671, "lat": 52.700001}}, {"id": 776093, "name": "Bialowieza", "country": "PL", "coord": {"lon": 23.86574, "lat": 52.70385}}, {"id": 3103531, "name": "Bialy Bor", "country": "PL", "coord": {"lon": 16.83543, "lat": 53.896702}}, {"id": 776080, "name": "Bialy Dunajec", "country": "PL", "coord": {"lon": 20.00898, "lat": 49.373798}}, {"id": 776069, "name": "Bialystok", "country": "PL", "coord": {"lon": 23.15, "lat": 53.133331}}, {"id": 6541347, "name": "Biancavilla", "country": "IT", "coord": {"lon": 14.86708, "lat": 37.645149}}, {"id": 2525560, "name": "Biancavilla", "country": "IT", "coord": {"lon": 14.86708, "lat": 37.645149}}, {"id": 2036223, "name": "Biancheng", "country": "CN", "coord": {"lon": 122.362328, "lat": 40.67852}}, {"id": 2525559, "name": "Bianchi", "country": "IT", "coord": {"lon": 16.410101, "lat": 39.100891}}, {"id": 2525558, "name": "Bianco", "country": "IT", "coord": {"lon": 16.1493, "lat": 38.090672}}, {"id": 3182070, "name": "Biandrate", "country": "IT", "coord": {"lon": 8.46243, "lat": 45.45266}}, {"id": 3182069, "name": "Biandronno", "country": "IT", "coord": {"lon": 8.71003, "lat": 45.815079}}, {"id": 7343218, "name": "Biandu", "country": "CN", "coord": {"lon": 103.64006, "lat": 34.657681}}, {"id": 2291666, "name": "Biankouma", "country": "CI", "coord": {"lon": -7.61377, "lat": 7.73909}}, {"id": 6534956, "name": "Bianzano", "country": "IT", "coord": {"lon": 9.91816, "lat": 45.773079}}, {"id": 3182068, "name": "Bianze", "country": "IT", "coord": {"lon": 8.12253, "lat": 45.30846}}, {"id": 1816406, "name": "Bianzhuang", "country": "CN", "coord": {"lon": 118.044724, "lat": 34.84861}}, {"id": 3182067, "name": "Bianzone", "country": "IT", "coord": {"lon": 10.10935, "lat": 46.188202}}, {"id": 1725484, "name": "Biao", "country": "PH", "coord": {"lon": 122.977203, "lat": 10.1088}}, {"id": 1725486, "name": "Biao", "country": "PH", "coord": {"lon": 125.521111, "lat": 7.16333}}, {"id": 1816403, "name": "Biaojiao", "country": "CN", "coord": {"lon": 107.496986, "lat": 34.434971}}, {"id": 1816401, "name": "Biaokou", "country": "CN", "coord": {"lon": 117.544724, "lat": 39.320831}}, {"id": 1275762, "name": "Biaora", "country": "IN", "coord": {"lon": 76.916672, "lat": 23.866671}}, {"id": 6355419, "name": "Biar", "country": "ES", "coord": {"lon": -0.75227, "lat": 38.658291}}, {"id": 2520964, "name": "Biar", "country": "ES", "coord": {"lon": -0.76458, "lat": 38.631168}}, {"id": 6455306, "name": "Biard", "country": "FR", "coord": {"lon": 0.3068, "lat": 46.577702}}, {"id": 3032802, "name": "Biard", "country": "FR", "coord": {"lon": 0.30812, "lat": 46.578892}}, {"id": 6440301, "name": "Biarritz", "country": "FR", "coord": {"lon": -1.56667, "lat": 43.48333}}, {"id": 3032797, "name": "Biarritz", "country": "FR", "coord": {"lon": -1.55558, "lat": 43.480122}}, {"id": 3032794, "name": "Biars-sur-Cere", "country": "FR", "coord": {"lon": 1.85403, "lat": 44.926289}}, {"id": 6616730, "name": "Bias", "country": "FR", "coord": {"lon": -1.2169, "lat": 44.145901}}, {"id": 3032792, "name": "Bias", "country": "FR", "coord": {"lon": -1.21819, "lat": 44.145081}}, {"id": 3032791, "name": "Bias", "country": "FR", "coord": {"lon": 0.66977, "lat": 44.41655}}, {"id": 3470034, "name": "Bias Fortes", "country": "BR", "coord": {"lon": -43.756939, "lat": -21.60611}}, {"id": 7285234, "name": "Biasca", "country": "CH", "coord": {"lon": 8.9697, "lat": 46.359699}}, {"id": 2661524, "name": "Biasca", "country": "CH", "coord": {"lon": 8.96965, "lat": 46.359718}}, {"id": 7406942, "name": "Biashizang", "country": "CN", "coord": {"lon": 102.940292, "lat": 35.600578}}, {"id": 7455249, "name": "Biaslantang Kaler", "country": "ID", "coord": {"lon": 115.628799, "lat": -8.336}}, {"id": 1725466, "name": "Biasong", "country": "PH", "coord": {"lon": 123.736, "lat": 10.5229}}, {"id": 3182066, "name": "Biassono", "country": "IT", "coord": {"lon": 9.27045, "lat": 45.629879}}, {"id": 3055038, "name": "Biatorbagy", "country": "HU", "coord": {"lon": 18.81892, "lat": 47.4706}}, {"id": 1680036, "name": "Biay", "country": "PH", "coord": {"lon": 119.9067, "lat": 15.7402}}, {"id": 7530726, "name": "Bia\u0142a Podlaska", "country": "PL", "coord": {"lon": 23.138309, "lat": 52.029041}}, {"id": 7531194, "name": "Bia\u0142a Podlaska", "country": "PL", "coord": {"lon": 23.138309, "lat": 52.029041}}, {"id": 776174, "name": "Bia\u0142a Poduchowna", "country": "PL", "coord": {"lon": 22.425329, "lat": 50.712849}}, {"id": 7533262, "name": "Bia\u0142a Rawska", "country": "PL", "coord": {"lon": 20.473801, "lat": 51.798401}}, {"id": 7532056, "name": "Bia\u0142e B\u0142ota", "country": "PL", "coord": {"lon": 17.9027, "lat": 53.086498}}, {"id": 7531670, "name": "Bia\u0142ogard", "country": "PL", "coord": {"lon": 15.9755, "lat": 54.014}}, {"id": 7533111, "name": "Bia\u0142y B\u00f3r", "country": "PL", "coord": {"lon": 16.842899, "lat": 53.875301}}, {"id": 7531507, "name": "Bia\u0142y Dunajec", "country": "PL", "coord": {"lon": 20.00798, "lat": 49.367298}}, {"id": 3103524, "name": "Bia\u0142y Szarlej", "country": "PL", "coord": {"lon": 18.966669, "lat": 50.349998}}, {"id": 2130534, "name": "Bibai", "country": "JP", "coord": {"lon": 141.858612, "lat": 43.324718}}, {"id": 4182755, "name": "Bibb County", "country": "US", "coord": {"lon": -83.666573, "lat": 32.80014}}, {"id": 2175966, "name": "Bibbenluke", "country": "AU", "coord": {"lon": 149.283325, "lat": -36.833328}}, {"id": 3182060, "name": "Bibbiano", "country": "IT", "coord": {"lon": 10.48029, "lat": 44.66436}}, {"id": 6538584, "name": "Bibbiena", "country": "IT", "coord": {"lon": 11.81354, "lat": 43.696548}}, {"id": 3182059, "name": "Bibbiena", "country": "IT", "coord": {"lon": 11.81354, "lat": 43.696548}}, {"id": 3182058, "name": "Bibbona", "country": "IT", "coord": {"lon": 10.59362, "lat": 43.26873}}, {"id": 2949426, "name": "Biberach", "country": "DE", "coord": {"lon": 8.28333, "lat": 48.599998}}, {"id": 6555780, "name": "Biberach", "country": "DE", "coord": {"lon": 8.03333, "lat": 48.333302}}, {"id": 2949427, "name": "Biberach", "country": "DE", "coord": {"lon": 8.03333, "lat": 48.333328}}, {"id": 2949423, "name": "Biberach an der Riss", "country": "DE", "coord": {"lon": 9.79053, "lat": 48.093449}}, {"id": 2949422, "name": "Biberachzell", "country": "DE", "coord": {"lon": 10.21231, "lat": 48.31311}}, {"id": 2949417, "name": "Biberau", "country": "DE", "coord": {"lon": 10.86667, "lat": 50.5}}, {"id": 7871689, "name": "Biberbach", "country": "AT", "coord": {"lon": 14.71634, "lat": 48.025612}}, {"id": 2781804, "name": "Biberbach", "country": "AT", "coord": {"lon": 14.7, "lat": 48.01667}}, {"id": 2949415, "name": "Biberbach", "country": "DE", "coord": {"lon": 10.81667, "lat": 48.51667}}, {"id": 2949405, "name": "Biberberg", "country": "DE", "coord": {"lon": 10.21667, "lat": 48.349998}}, {"id": 2949403, "name": "Bibereck", "country": "DE", "coord": {"lon": 11.35609, "lat": 48.263199}}, {"id": 2949391, "name": "Bibergau", "country": "DE", "coord": {"lon": 10.1, "lat": 49.799999}}, {"id": 7285235, "name": "Biberist", "country": "CH", "coord": {"lon": 7.54779, "lat": 47.18504}}, {"id": 2661519, "name": "Biberist", "country": "CH", "coord": {"lon": 7.56005, "lat": 47.185589}}, {"id": 7285236, "name": "Bibern (SO)", "country": "CH", "coord": {"lon": 7.45396, "lat": 47.147888}}, {"id": 7873682, "name": "Biberwier", "country": "AT", "coord": {"lon": 10.87632, "lat": 47.36657}}, {"id": 2781800, "name": "Biberwier", "country": "AT", "coord": {"lon": 10.9, "lat": 47.383331}}, {"id": 6535386, "name": "Bibiana", "country": "IT", "coord": {"lon": 7.28822, "lat": 44.798939}}, {"id": 2303060, "name": "Bibiani", "country": "GH", "coord": {"lon": -2.31938, "lat": 6.46346}}, {"id": 1725435, "name": "Bibiclat", "country": "PH", "coord": {"lon": 120.865898, "lat": 15.524}}, {"id": 3204237, "name": "Bibinje", "country": "HR", "coord": {"lon": 15.3, "lat": 44.066669}}, {"id": 3182057, "name": "Bibione", "country": "IT", "coord": {"lon": 13.05389, "lat": 45.63583}}, {"id": 576430, "name": "Bibir\u00ebvo", "country": "RU", "coord": {"lon": 41.040001, "lat": 57.137501}}, {"id": 5899368, "name": "Bible Hill", "country": "CA", "coord": {"lon": -63.281979, "lat": 45.366852}}, {"id": 6553154, "name": "Biblis", "country": "DE", "coord": {"lon": 8.45861, "lat": 49.6917}}, {"id": 2949367, "name": "Biblis", "country": "DE", "coord": {"lon": 8.45861, "lat": 49.691669}}, {"id": 2175959, "name": "Biboohra", "country": "AU", "coord": {"lon": 145.416672, "lat": -16.933331}}, {"id": 6548165, "name": "Bibow", "country": "DE", "coord": {"lon": 11.6333, "lat": 53.783298}}, {"id": 2949366, "name": "Bibow", "country": "DE", "coord": {"lon": 11.63333, "lat": 53.783329}}, {"id": 6550346, "name": "Bibra", "country": "DE", "coord": {"lon": 11.55, "lat": 50.799999}}, {"id": 2949363, "name": "Bibra", "country": "DE", "coord": {"lon": 11.54706, "lat": 50.803871}}, {"id": 6556490, "name": "Biburg", "country": "DE", "coord": {"lon": 11.8667, "lat": 48.799999}}, {"id": 2949353, "name": "Biburg", "country": "DE", "coord": {"lon": 11.86667, "lat": 48.799999}}, {"id": 1725444, "name": "Bical", "country": "PH", "coord": {"lon": 120.434601, "lat": 15.8143}}, {"id": 3470025, "name": "Bicas", "country": "BR", "coord": {"lon": -43.059441, "lat": -21.725281}}, {"id": 684923, "name": "Bicaz", "country": "RO", "coord": {"lon": 23.033331, "lat": 47.466671}}, {"id": 684924, "name": "Bicaz", "country": "RO", "coord": {"lon": 26.066669, "lat": 46.916672}}, {"id": 684915, "name": "Bicaz Chei", "country": "RO", "coord": {"lon": 25.883329, "lat": 46.816669}}, {"id": 684913, "name": "Bicazu Ardelean", "country": "RO", "coord": {"lon": 25.933331, "lat": 46.849998}}, {"id": 3182056, "name": "Biccari", "country": "IT", "coord": {"lon": 15.19444, "lat": 41.39613}}, {"id": 2655729, "name": "Bicester", "country": "GB", "coord": {"lon": -1.15357, "lat": 51.899979}}, {"id": 2742230, "name": "Bicha Moura", "country": "PT", "coord": {"lon": -8.43333, "lat": 40.566669}}, {"id": 342190, "name": "Bichena", "country": "ET", "coord": {"lon": 38.200001, "lat": 10.45}}, {"id": 2175958, "name": "Bicheno", "country": "AU", "coord": {"lon": 148.288605, "lat": -41.878891}}, {"id": 684903, "name": "Bichis", "country": "RO", "coord": {"lon": 24.1, "lat": 46.366669}}, {"id": 2949323, "name": "Bichl", "country": "DE", "coord": {"lon": 11.95, "lat": 47.716671}}, {"id": 6556118, "name": "Bichl", "country": "DE", "coord": {"lon": 11.4167, "lat": 47.716702}}, {"id": 2949324, "name": "Bichl", "country": "DE", "coord": {"lon": 11.41231, "lat": 47.7201}}, {"id": 7872611, "name": "Bichlbach", "country": "AT", "coord": {"lon": 10.81255, "lat": 47.422859}}, {"id": 2781790, "name": "Bichlbach", "country": "AT", "coord": {"lon": 10.78333, "lat": 47.416672}}, {"id": 2026708, "name": "Bichura", "country": "RU", "coord": {"lon": 107.602219, "lat": 50.588058}}, {"id": 615460, "name": "Bichvinta", "country": "GE", "coord": {"lon": 40.337776, "lat": 43.159168}}, {"id": 3182054, "name": "Bicinicco", "country": "IT", "coord": {"lon": 13.25222, "lat": 45.934441}}, {"id": 2949300, "name": "Bicken", "country": "DE", "coord": {"lon": 8.38333, "lat": 50.683331}}, {"id": 6553163, "name": "Bickenbach", "country": "DE", "coord": {"lon": 8.6099, "lat": 49.745602}}, {"id": 2949296, "name": "Bickenbach", "country": "DE", "coord": {"lon": 8.6175, "lat": 49.759171}}, {"id": 6553877, "name": "Bickenbach", "country": "DE", "coord": {"lon": 7.53333, "lat": 50.116699}}, {"id": 2949295, "name": "Bickenbach", "country": "DE", "coord": {"lon": 7.53333, "lat": 50.116669}}, {"id": 6554406, "name": "Bickendorf", "country": "DE", "coord": {"lon": 6.5, "lat": 50.033298}}, {"id": 2949292, "name": "Bickendorf", "country": "DE", "coord": {"lon": 6.5, "lat": 50.033329}}, {"id": 2655728, "name": "Bickenhill", "country": "GB", "coord": {"lon": -1.72545, "lat": 52.439739}}, {"id": 2949289, "name": "Bickenriede", "country": "DE", "coord": {"lon": 10.35, "lat": 51.25}}, {"id": 2949288, "name": "Bickensohl", "country": "DE", "coord": {"lon": 7.65, "lat": 48.066669}}, {"id": 2655726, "name": "Bickershaw", "country": "GB", "coord": {"lon": -2.56937, "lat": 53.51358}}, {"id": 2949285, "name": "Bickesheim Kloster", "country": "DE", "coord": {"lon": 8.26667, "lat": 48.933331}}, {"id": 2949282, "name": "Bicking", "country": "DE", "coord": {"lon": 13.18333, "lat": 51.683331}}, {"id": 2076674, "name": "Bickley", "country": "AU", "coord": {"lon": 116.083328, "lat": -32}}, {"id": 2655720, "name": "Bickley", "country": "GB", "coord": {"lon": -2.7, "lat": 53.033329}}, {"id": 2655718, "name": "Bicknacre", "country": "GB", "coord": {"lon": 0.58519, "lat": 51.694031}}, {"id": 4254515, "name": "Bicknell", "country": "US", "coord": {"lon": -87.307793, "lat": 38.774212}}, {"id": 7521310, "name": "Bicol", "country": "PH", "coord": {"lon": 123.563889, "lat": 13.31389}}, {"id": 6361936, "name": "Bicorp", "country": "ES", "coord": {"lon": -0.83745, "lat": 39.109921}}, {"id": 2520962, "name": "Bicorp", "country": "ES", "coord": {"lon": -0.7872, "lat": 39.132149}}, {"id": 1725428, "name": "Bicos", "country": "PH", "coord": {"lon": 121.041397, "lat": 15.6602}}, {"id": 3055030, "name": "Bicske", "country": "HU", "coord": {"lon": 18.644039, "lat": 47.484192}}, {"id": 2078907, "name": "Bicton", "country": "AU", "coord": {"lon": 115.783333, "lat": -32.027779}}, {"id": 2655715, "name": "Bicton", "country": "GB", "coord": {"lon": -2.81667, "lat": 52.73333}}, {"id": 7593618, "name": "Bicudo", "country": "BR", "coord": {"lon": -45.747398, "lat": -22.7367}}, {"id": 2309890, "name": "Bicurga", "country": "GQ", "coord": {"lon": 10.46716, "lat": 1.58113}}, {"id": 3470012, "name": "Bicu\u00edba", "country": "BR", "coord": {"lon": -42.35556, "lat": -20.086109}}, {"id": 2347209, "name": "Bida", "country": "NG", "coord": {"lon": 6.01667, "lat": 9.08333}}, {"id": 6454498, "name": "Bidache", "country": "FR", "coord": {"lon": -1.13333, "lat": 43.48333}}, {"id": 3032771, "name": "Bidache", "country": "FR", "coord": {"lon": -1.1412, "lat": 43.48299}}, {"id": 1275738, "name": "Bidar", "country": "IN", "coord": {"lon": 77.550003, "lat": 17.9}}, {"id": 6440302, "name": "Bidarray", "country": "FR", "coord": {"lon": -1.35, "lat": 43.26667}}, {"id": 3032768, "name": "Bidarray", "country": "FR", "coord": {"lon": -1.34711, "lat": 43.266048}}, {"id": 6440303, "name": "Bidart", "country": "FR", "coord": {"lon": -1.58333, "lat": 43.433331}}, {"id": 3032767, "name": "Bidart", "country": "FR", "coord": {"lon": -1.59127, "lat": 43.437599}}, {"id": 34724, "name": "Bidbadah", "country": "YE", "coord": {"lon": 44.700001, "lat": 15.425}}, {"id": 288721, "name": "Bidbid", "country": "OM", "coord": {"lon": 58.1283, "lat": 23.40786}}, {"id": 4958141, "name": "Biddeford", "country": "US", "coord": {"lon": -70.453377, "lat": 43.49258}}, {"id": 2655712, "name": "Biddenham", "country": "GB", "coord": {"lon": -0.50687, "lat": 52.13847}}, {"id": 2175950, "name": "Biddeston", "country": "AU", "coord": {"lon": 151.716675, "lat": -27.566669}}, {"id": 2655710, "name": "Biddestone", "country": "GB", "coord": {"lon": -2.19833, "lat": 51.460831}}, {"id": 2758992, "name": "Biddinghuizen", "country": "NL", "coord": {"lon": 5.69306, "lat": 52.455002}}, {"id": 284270, "name": "Biddu", "country": "PS", "coord": {"lon": 35.149471, "lat": 31.83478}}, {"id": 2655708, "name": "Biddulph", "country": "GB", "coord": {"lon": -2.17584, "lat": 53.117241}}, {"id": 2655707, "name": "Bideford", "country": "GB", "coord": {"lon": -4.20458, "lat": 51.017872}}, {"id": 6640065, "name": "Bidford-on-avon", "country": "GB", "coord": {"lon": -1.85652, "lat": 52.167252}}, {"id": 1275732, "name": "Bidhuna", "country": "IN", "coord": {"lon": 79.508797, "lat": 26.8022}}, {"id": 7592176, "name": "Bidikotak", "country": "ID", "coord": {"lon": 120.182098, "lat": -9.8323}}, {"id": 6557209, "name": "Bidingen", "country": "DE", "coord": {"lon": 10.7333, "lat": 47.833302}}, {"id": 2949279, "name": "Bidingen", "country": "DE", "coord": {"lon": 10.73333, "lat": 47.833328}}, {"id": 3182045, "name": "Bidoni", "country": "IT", "coord": {"lon": 8.93643, "lat": 40.113049}}, {"id": 1735287, "name": "Bidur", "country": "MY", "coord": {"lon": 101.283333, "lat": 4.11667}}, {"id": 284271, "name": "Bidya", "country": "PS", "coord": {"lon": 35.08028, "lat": 32.114601}}, {"id": 6554832, "name": "Biebelnheim", "country": "DE", "coord": {"lon": 8.17056, "lat": 49.7967}}, {"id": 2949277, "name": "Biebelnheim", "country": "DE", "coord": {"lon": 8.17056, "lat": 49.796669}}, {"id": 6557009, "name": "Biebelried", "country": "DE", "coord": {"lon": 10.0833, "lat": 49.766701}}, {"id": 2949276, "name": "Biebelried", "country": "DE", "coord": {"lon": 10.08333, "lat": 49.76667}}, {"id": 6553469, "name": "Biebelsheim", "country": "DE", "coord": {"lon": 7.93333, "lat": 49.866699}}, {"id": 2949275, "name": "Biebelsheim", "country": "DE", "coord": {"lon": 7.93333, "lat": 49.866669}}, {"id": 2949270, "name": "Bieber", "country": "DE", "coord": {"lon": 8.8, "lat": 50.083328}}, {"id": 6557077, "name": "Bieberehren", "country": "DE", "coord": {"lon": 10, "lat": 49.516701}}, {"id": 2949255, "name": "Bieberehren", "country": "DE", "coord": {"lon": 10, "lat": 49.51667}}, {"id": 2758991, "name": "Bieberg", "country": "NL", "coord": {"lon": 4.79186, "lat": 51.559139}}, {"id": 2949250, "name": "Bieberm\u00fchle", "country": "DE", "coord": {"lon": 7.6, "lat": 49.26667}}, {"id": 6553878, "name": "Biebern", "country": "DE", "coord": {"lon": 7.45, "lat": 49.983299}}, {"id": 2949249, "name": "Biebern", "country": "DE", "coord": {"lon": 7.45, "lat": 49.98333}}, {"id": 2949248, "name": "Biebernheim", "country": "DE", "coord": {"lon": 7.7, "lat": 50.150002}}, {"id": 2949244, "name": "Bieberstein", "country": "DE", "coord": {"lon": 13.33333, "lat": 51}}, {"id": 2949240, "name": "Biebesheim", "country": "DE", "coord": {"lon": 8.47444, "lat": 49.783611}}, {"id": 6554000, "name": "Biebrich", "country": "DE", "coord": {"lon": 7.95, "lat": 50.3167}}, {"id": 2949236, "name": "Biebrich", "country": "DE", "coord": {"lon": 7.95, "lat": 50.316669}}, {"id": 7533250, "name": "Biecz", "country": "PL", "coord": {"lon": 21.259001, "lat": 49.732201}}, {"id": 776053, "name": "Biecz", "country": "PL", "coord": {"lon": 21.26301, "lat": 49.735958}}, {"id": 2949229, "name": "Biedenkopf", "country": "DE", "coord": {"lon": 8.53333, "lat": 50.916672}}, {"id": 6549333, "name": "Biederitz", "country": "DE", "coord": {"lon": 11.7365, "lat": 52.145401}}, {"id": 2949221, "name": "Biederitz", "country": "DE", "coord": {"lon": 11.71667, "lat": 52.150002}}, {"id": 7871850, "name": "Biedermannsdorf", "country": "AT", "coord": {"lon": 16.34795, "lat": 48.08733}}, {"id": 2781780, "name": "Biedermannsdorf", "country": "AT", "coord": {"lon": 16.345421, "lat": 48.083931}}, {"id": 6555367, "name": "Biedershausen", "country": "DE", "coord": {"lon": 7.48333, "lat": 49.3167}}, {"id": 2949217, "name": "Biedershausen", "country": "DE", "coord": {"lon": 7.48333, "lat": 49.316669}}, {"id": 3128042, "name": "Biedes", "country": "ES", "coord": {"lon": -5.93556, "lat": 43.42667}}, {"id": 6554931, "name": "Biedesheim", "country": "DE", "coord": {"lon": 8.10722, "lat": 49.605}}, {"id": 2949216, "name": "Biedesheim", "country": "DE", "coord": {"lon": 8.10722, "lat": 49.605}}, {"id": 2949212, "name": "Bieg", "country": "DE", "coord": {"lon": 10.38333, "lat": 49.349998}}, {"id": 2949206, "name": "Biegenbr\u00fcck", "country": "DE", "coord": {"lon": 14.35, "lat": 52.26667}}, {"id": 2130531, "name": "Biei", "country": "JP", "coord": {"lon": 142.459717, "lat": 43.584438}}, {"id": 6362985, "name": "Biel", "country": "ES", "coord": {"lon": -0.90894, "lat": 42.36462}}, {"id": 2661513, "name": "Biel", "country": "CH", "coord": {"lon": 7.24411, "lat": 47.132401}}, {"id": 3128041, "name": "Biel", "country": "ES", "coord": {"lon": -0.94154, "lat": 42.38763}}, {"id": 7285241, "name": "Biel/Bienne", "country": "CH", "coord": {"lon": 7.2611, "lat": 47.149231}}, {"id": 776024, "name": "Bielany", "country": "PL", "coord": {"lon": 22.24929, "lat": 52.34174}}, {"id": 3103477, "name": "Bielany Wroclawskie", "country": "PL", "coord": {"lon": 16.967699, "lat": 51.036098}}, {"id": 7532267, "name": "Bielawa", "country": "PL", "coord": {"lon": 16.6028, "lat": 50.6754}}, {"id": 3103476, "name": "Bielawa", "country": "PL", "coord": {"lon": 16.622999, "lat": 50.69075}}, {"id": 3103462, "name": "Bielawy", "country": "PL", "coord": {"lon": 19.655569, "lat": 52.07539}}, {"id": 2949188, "name": "Bielefeld", "country": "DE", "coord": {"lon": 8.5, "lat": 52}}, {"id": 2949186, "name": "Bielefeld", "country": "DE", "coord": {"lon": 8.53333, "lat": 52.033329}}, {"id": 2949185, "name": "Bielen", "country": "DE", "coord": {"lon": 10.84213, "lat": 51.483841}}, {"id": 3103432, "name": "Bielice", "country": "PL", "coord": {"lon": 14.7276, "lat": 53.200218}}, {"id": 8054115, "name": "Bieligutai", "country": "CN", "coord": {"lon": 114.980362, "lat": 44.0303}}, {"id": 775996, "name": "Bieliny", "country": "PL", "coord": {"lon": 20.94149, "lat": 50.849468}}, {"id": 776001, "name": "Bieliny", "country": "PL", "coord": {"lon": 22.304819, "lat": 50.442371}}, {"id": 6539582, "name": "Biella", "country": "IT", "coord": {"lon": 8.05002, "lat": 45.55986}}, {"id": 3182043, "name": "Biella", "country": "IT", "coord": {"lon": 8.05002, "lat": 45.55986}}, {"id": 6358303, "name": "Bielsa", "country": "ES", "coord": {"lon": 0.18418, "lat": 42.681641}}, {"id": 3128039, "name": "Bielsa", "country": "ES", "coord": {"lon": 0.21858, "lat": 42.633461}}, {"id": 3103411, "name": "Bielsk", "country": "PL", "coord": {"lon": 19.805, "lat": 52.671799}}, {"id": 7531759, "name": "Bielsk Podlaski", "country": "PL", "coord": {"lon": 23.190201, "lat": 52.764099}}, {"id": 775986, "name": "Bielsk Podlaski", "country": "PL", "coord": {"lon": 23.18647, "lat": 52.765121}}, {"id": 3103402, "name": "Bielsko-Biala", "country": "PL", "coord": {"lon": 19.04686, "lat": 49.822449}}, {"id": 7530791, "name": "Bielsko-Bia\u0142a", "country": "PL", "coord": {"lon": 19.03899, "lat": 49.812038}}, {"id": 7532925, "name": "Bielsko-Bia\u0142a", "country": "PL", "coord": {"lon": 19.0389, "lat": 49.812}}, {"id": 2949166, "name": "Biemenhorst", "country": "DE", "coord": {"lon": 6.61667, "lat": 51.816669}}, {"id": 1587923, "name": "Bien Hoa", "country": "VN", "coord": {"lon": 106.816673, "lat": 10.95}}, {"id": 1725412, "name": "Bien Unido", "country": "PH", "coord": {"lon": 124.377609, "lat": 10.13729}}, {"id": 6559249, "name": "Biendorf", "country": "DE", "coord": {"lon": 11.6683, "lat": 54.001511}}, {"id": 2949160, "name": "Biendorf", "country": "DE", "coord": {"lon": 11.7, "lat": 54.083328}}, {"id": 2949158, "name": "Biene", "country": "DE", "coord": {"lon": 7.28333, "lat": 52.566669}}, {"id": 2949155, "name": "Bienen", "country": "DE", "coord": {"lon": 6.36667, "lat": 51.799999}}, {"id": 2949150, "name": "Bienenbuttel", "country": "DE", "coord": {"lon": 10.48679, "lat": 53.141571}}, {"id": 6552817, "name": "Bienenb\u00fcttel", "country": "DE", "coord": {"lon": 10.4833, "lat": 53.133301}}, {"id": 775976, "name": "Bieniewice", "country": "PL", "coord": {"lon": 20.563061, "lat": 52.182678}}, {"id": 3103391, "name": "Bienkowka", "country": "PL", "coord": {"lon": 19.77179, "lat": 49.776001}}, {"id": 3182041, "name": "Bienno", "country": "IT", "coord": {"lon": 10.29336, "lat": 45.935791}}, {"id": 6535249, "name": "Bieno", "country": "IT", "coord": {"lon": 11.55609, "lat": 46.081509}}, {"id": 6355308, "name": "Bienservida", "country": "ES", "coord": {"lon": -2.64798, "lat": 38.52977}}, {"id": 2520959, "name": "Bienservida", "country": "ES", "coord": {"lon": -2.61087, "lat": 38.517159}}, {"id": 2949130, "name": "Bienstadt", "country": "DE", "coord": {"lon": 10.85, "lat": 51.01667}}, {"id": 6550063, "name": "Bienst\u00e4dt", "country": "DE", "coord": {"lon": 10.85, "lat": 51.016701}}, {"id": 3182040, "name": "Bientina", "country": "IT", "coord": {"lon": 10.61971, "lat": 43.706341}}, {"id": 6355885, "name": "Bienvenida", "country": "ES", "coord": {"lon": -6.21608, "lat": 38.3111}}, {"id": 2520957, "name": "Bienvenida", "country": "ES", "coord": {"lon": -6.2, "lat": 38.299999}}, {"id": 3032737, "name": "Bienville", "country": "FR", "coord": {"lon": 5.04579, "lat": 48.575821}}, {"id": 4316721, "name": "Bienville Parish", "country": "US", "coord": {"lon": -93.050163, "lat": 32.366821}}, {"id": 3103388, "name": "Bierawa", "country": "PL", "coord": {"lon": 18.24177, "lat": 50.281109}}, {"id": 7873531, "name": "Bierbaum am Auersbach", "country": "AT", "coord": {"lon": 15.79273, "lat": 46.82655}}, {"id": 2781773, "name": "Bierbaum am Auersbach", "country": "AT", "coord": {"lon": 15.78333, "lat": 46.833328}}, {"id": 2781772, "name": "Bierbaum am Kleeb\u00fchel", "country": "AT", "coord": {"lon": 15.93333, "lat": 48.383331}}, {"id": 2801999, "name": "Bierbeek", "country": "BE", "coord": {"lon": 4.76189, "lat": 50.828819}}, {"id": 2801998, "name": "Bierbeek", "country": "BE", "coord": {"lon": 4.75949, "lat": 50.828758}}, {"id": 3103386, "name": "Bierdzany", "country": "PL", "coord": {"lon": 18.158079, "lat": 50.81852}}, {"id": 2949103, "name": "Biere", "country": "DE", "coord": {"lon": 11.65443, "lat": 51.974312}}, {"id": 2661511, "name": "Biere", "country": "CH", "coord": {"lon": 6.33362, "lat": 46.537609}}, {"id": 6358304, "name": "Bierge", "country": "ES", "coord": {"lon": -0.08437, "lat": 42.239498}}, {"id": 3128037, "name": "Bierge", "country": "ES", "coord": {"lon": -0.08326, "lat": 42.162159}}, {"id": 3032726, "name": "Bierne", "country": "FR", "coord": {"lon": 2.40963, "lat": 50.962318}}, {"id": 3208650, "name": "Bierstedt", "country": "DE", "coord": {"lon": 11.01667, "lat": 52.716671}}, {"id": 2949078, "name": "Bierstra\u00df", "country": "DE", "coord": {"lon": 6.1, "lat": 50.866669}}, {"id": 684888, "name": "Biertan", "country": "RO", "coord": {"lon": 24.51667, "lat": 46.133331}}, {"id": 3103368, "name": "Biertu\u0142towy", "country": "PL", "coord": {"lon": 18.46454, "lat": 50.050629}}, {"id": 3103365, "name": "Bierun", "country": "PL", "coord": {"lon": 19.092911, "lat": 50.09}}, {"id": 3103364, "name": "Bierutow", "country": "PL", "coord": {"lon": 17.54607, "lat": 51.124432}}, {"id": 7531497, "name": "Bieru\u0144", "country": "PL", "coord": {"lon": 19.14328, "lat": 50.084381}}, {"id": 3103351, "name": "Bierzwnik", "country": "PL", "coord": {"lon": 15.665, "lat": 53.035671}}, {"id": 3128035, "name": "Biescas", "country": "ES", "coord": {"lon": 0.42241, "lat": 42.417629}}, {"id": 6358305, "name": "Biescas", "country": "ES", "coord": {"lon": -0.31369, "lat": 42.633419}}, {"id": 3128034, "name": "Biescas", "country": "ES", "coord": {"lon": -0.32135, "lat": 42.628971}}, {"id": 2758974, "name": "Biesdonk", "country": "NL", "coord": {"lon": 4.78333, "lat": 51.599998}}, {"id": 2949073, "name": "Biesdorf", "country": "DE", "coord": {"lon": 13.5534, "lat": 52.50906}}, {"id": 6554407, "name": "Biesdorf", "country": "DE", "coord": {"lon": 6.3, "lat": 49.883301}}, {"id": 2949075, "name": "Biesdorf", "country": "DE", "coord": {"lon": 6.3, "lat": 49.883331}}, {"id": 2949052, "name": "Biesendorf", "country": "DE", "coord": {"lon": 8.81667, "lat": 47.916672}}, {"id": 2949048, "name": "Biesenst\u00fcck", "country": "DE", "coord": {"lon": 7.85, "lat": 50.73333}}, {"id": 2949046, "name": "Biesenthal", "country": "DE", "coord": {"lon": 13.64416, "lat": 52.766159}}, {"id": 3032712, "name": "Biesheim", "country": "FR", "coord": {"lon": 7.54474, "lat": 48.04118}}, {"id": 3032711, "name": "Biesles", "country": "FR", "coord": {"lon": 5.29409, "lat": 48.085972}}, {"id": 2949037, "name": "Bieslings", "country": "DE", "coord": {"lon": 9.85, "lat": 47.583328}}, {"id": 6557207, "name": "Biessenhofen", "country": "DE", "coord": {"lon": 10.6333, "lat": 47.833302}}, {"id": 2949032, "name": "Biessenhofen", "country": "DE", "coord": {"lon": 10.63333, "lat": 47.833328}}, {"id": 2801958, "name": "Biest", "country": "BE", "coord": {"lon": 4.82351, "lat": 50.947128}}, {"id": 2949020, "name": "Bietegast", "country": "DE", "coord": {"lon": 12.71667, "lat": 51.799999}}, {"id": 2949018, "name": "Bietenhausen", "country": "DE", "coord": {"lon": 8.8658, "lat": 48.40921}}, {"id": 6293910, "name": "Bietenholz", "country": "CH", "coord": {"lon": 8.6856, "lat": 47.41399}}, {"id": 2949013, "name": "Bietigheim", "country": "DE", "coord": {"lon": 9.11667, "lat": 48.950001}}, {"id": 2949014, "name": "Bietigheim", "country": "DE", "coord": {"lon": 8.25202, "lat": 48.909191}}, {"id": 6555623, "name": "Bietigheim", "country": "DE", "coord": {"lon": 8.25, "lat": 48.916698}}, {"id": 2949012, "name": "Bietigheim-Bissingen", "country": "DE", "coord": {"lon": 9.13333, "lat": 48.966671}}, {"id": 6448411, "name": "Bieujac", "country": "FR", "coord": {"lon": -0.154, "lat": 44.5392}}, {"id": 3032706, "name": "Bieujac", "country": "FR", "coord": {"lon": -0.15494, "lat": 44.539848}}, {"id": 2801949, "name": "Bievre", "country": "BE", "coord": {"lon": 5.01592, "lat": 49.940861}}, {"id": 3032695, "name": "Bievres", "country": "FR", "coord": {"lon": 2.21881, "lat": 48.757721}}, {"id": 2949000, "name": "Biezighofen", "country": "DE", "coord": {"lon": 7.81667, "lat": 47.933331}}, {"id": 3103329, "name": "Biezun", "country": "PL", "coord": {"lon": 19.889759, "lat": 52.961071}}, {"id": 618558, "name": "Bie\u015fti", "country": "MD", "coord": {"lon": 28.861389, "lat": 47.51556}}, {"id": 5328152, "name": "Big Bear City", "country": "US", "coord": {"lon": -116.845032, "lat": 34.26112}}, {"id": 5328163, "name": "Big Bear Lake", "country": "US", "coord": {"lon": -116.911423, "lat": 34.2439}}, {"id": 5018226, "name": "Big Bear Landing", "country": "US", "coord": {"lon": -95.476967, "lat": 47.33662}}, {"id": 5899554, "name": "Big Beaver", "country": "CA", "coord": {"lon": -105.167778, "lat": 49.100052}}, {"id": 5180308, "name": "Big Beaver", "country": "US", "coord": {"lon": -80.362839, "lat": 40.824509}}, {"id": 935113, "name": "Big Bend", "country": "SZ", "coord": {"lon": 31.933331, "lat": -26.816669}}, {"id": 5245729, "name": "Big Bend", "country": "US", "coord": {"lon": -88.206757, "lat": 42.881401}}, {"id": 5899631, "name": "Big Brook", "country": "CA", "coord": {"lon": -56.14801, "lat": 51.516788}}, {"id": 4147679, "name": "Big Coppitt Key", "country": "US", "coord": {"lon": -81.660088, "lat": 24.596531}}, {"id": 5899787, "name": "Big Cove", "country": "CA", "coord": {"lon": -64.972031, "lat": 46.577091}}, {"id": 5899819, "name": "Big Creek", "country": "CA", "coord": {"lon": -123.036186, "lat": 51.716518}}, {"id": 5109053, "name": "Big Flats", "country": "US", "coord": {"lon": -76.936913, "lat": 42.137299}}, {"id": 7258009, "name": "Big Flats Airport", "country": "US", "coord": {"lon": -76.889771, "lat": 42.1693}}, {"id": 4918123, "name": "Big Hill", "country": "US", "coord": {"lon": -86.195831, "lat": 41.045319}}, {"id": 5818658, "name": "Big Horn County", "country": "US", "coord": {"lon": -108.083992, "lat": 44.533291}}, {"id": 5018285, "name": "Big Lake", "country": "US", "coord": {"lon": -93.746078, "lat": 45.332458}}, {"id": 5517030, "name": "Big Lake", "country": "US", "coord": {"lon": -101.460388, "lat": 31.19154}}, {"id": 5787215, "name": "Big Lake", "country": "US", "coord": {"lon": -122.241272, "lat": 48.402882}}, {"id": 5880661, "name": "Big Lake", "country": "US", "coord": {"lon": -149.954437, "lat": 61.521389}}, {"id": 5553533, "name": "Big Park", "country": "US", "coord": {"lon": -111.76265, "lat": 34.7803}}, {"id": 2175895, "name": "Big Pats Creek", "country": "AU", "coord": {"lon": 145.75, "lat": -37.783329}}, {"id": 5328426, "name": "Big Pine", "country": "US", "coord": {"lon": -118.289551, "lat": 37.164928}}, {"id": 4147801, "name": "Big Pine Key", "country": "US", "coord": {"lon": -81.353973, "lat": 24.66987}}, {"id": 5844734, "name": "Big Port Walter (historical)", "country": "US", "coord": {"lon": -134.73111, "lat": 56.378609}}, {"id": 4986020, "name": "Big Rapids", "country": "US", "coord": {"lon": -85.483658, "lat": 43.698078}}, {"id": 5900745, "name": "Big River", "country": "CA", "coord": {"lon": -107.01783, "lat": 53.833408}}, {"id": 5328486, "name": "Big River", "country": "US", "coord": {"lon": -114.361343, "lat": 34.140018}}, {"id": 4884902, "name": "Big Rock", "country": "US", "coord": {"lon": -88.54702, "lat": 41.76392}}, {"id": 6332409, "name": "Big Sandy", "country": "US", "coord": {"lon": -82.664383, "lat": 38.287811}}, {"id": 4674337, "name": "Big Sandy", "country": "US", "coord": {"lon": -95.108833, "lat": 32.583752}}, {"id": 5640193, "name": "Big Sky", "country": "US", "coord": {"lon": -111.368294, "lat": 45.284649}}, {"id": 5640165, "name": "Big Sky Mobile Home Court", "country": "US", "coord": {"lon": -111.331352, "lat": 45.266041}}, {"id": 5517061, "name": "Big Spring", "country": "US", "coord": {"lon": -101.478737, "lat": 32.250401}}, {"id": 5018364, "name": "Big Stone County", "country": "US", "coord": {"lon": -96.45034, "lat": 45.39996}}, {"id": 4747554, "name": "Big Stone Gap", "country": "US", "coord": {"lon": -82.774467, "lat": 36.86771}}, {"id": 5640214, "name": "Big Timber", "country": "US", "coord": {"lon": -109.95546, "lat": 45.834942}}, {"id": 6943725, "name": "Big Trout Lake", "country": "CA", "coord": {"lon": -89.66114, "lat": 53.817268}}, {"id": 5901012, "name": "Big Valley", "country": "CA", "coord": {"lon": -112.768593, "lat": 52.033421}}, {"id": 750605, "name": "Biga", "country": "TR", "coord": {"lon": 27.24222, "lat": 40.228062}}, {"id": 1679992, "name": "Biga", "country": "PH", "coord": {"lon": 120.64875, "lat": 13.90401}}, {"id": 1725404, "name": "Biga", "country": "PH", "coord": {"lon": 120.976669, "lat": 14.25083}}, {"id": 1725409, "name": "Biga", "country": "PH", "coord": {"lon": 121.161003, "lat": 13.3106}}, {"id": 1725411, "name": "Biga", "country": "PH", "coord": {"lon": 124.25972, "lat": 8.35778}}, {"id": 1725397, "name": "Bigaa", "country": "PH", "coord": {"lon": 123.757782, "lat": 13.19778}}, {"id": 1725394, "name": "Bigaan", "country": "PH", "coord": {"lon": 126.281113, "lat": 8.31722}}, {"id": 321136, "name": "Bigadic", "country": "TR", "coord": {"lon": 28.131109, "lat": 39.392502}}, {"id": 3864251, "name": "Bigand", "country": "AR", "coord": {"lon": -61.184681, "lat": -33.372799}}, {"id": 3032689, "name": "Biganon", "country": "FR", "coord": {"lon": -0.75297, "lat": 44.412979}}, {"id": 3032688, "name": "Biganos", "country": "FR", "coord": {"lon": -0.97367, "lat": 44.645039}}, {"id": 576412, "name": "Bigashevo", "country": "RU", "coord": {"lon": 52.283333, "lat": 54.900002}}, {"id": 6355420, "name": "Bigastro", "country": "ES", "coord": {"lon": -0.894, "lat": 38.061459}}, {"id": 2520955, "name": "Bigastro", "country": "ES", "coord": {"lon": -0.89841, "lat": 38.06237}}, {"id": 2960770, "name": "Bigelbach", "country": "LU", "coord": {"lon": 6.28806, "lat": 49.860279}}, {"id": 5640284, "name": "Bigfork", "country": "US", "coord": {"lon": -114.072609, "lat": 48.06329}}, {"id": 2175920, "name": "Bigga", "country": "AU", "coord": {"lon": 149.149994, "lat": -34.083328}}, {"id": 2655692, "name": "Biggar", "country": "GB", "coord": {"lon": -3.51667, "lat": 55.616669}}, {"id": 5899982, "name": "Biggar", "country": "CA", "coord": {"lon": -108.00135, "lat": 52.066799}}, {"id": 2175919, "name": "Biggara", "country": "AU", "coord": {"lon": 148.033325, "lat": -36.26667}}, {"id": 2175918, "name": "Biggenden", "country": "AU", "coord": {"lon": 152.050003, "lat": -25.51667}}, {"id": 2655690, "name": "Biggin Hill", "country": "GB", "coord": {"lon": -0.10947, "lat": 51.41629}}, {"id": 7299866, "name": "Biggleswade", "country": "GB", "coord": {"lon": -0.24536, "lat": 52.078602}}, {"id": 2655689, "name": "Biggleswade", "country": "GB", "coord": {"lon": -0.26493, "lat": 52.086521}}, {"id": 5328629, "name": "Biggs", "country": "US", "coord": {"lon": -121.712753, "lat": 39.412392}}, {"id": 1275722, "name": "Bighapur", "country": "IN", "coord": {"lon": 80.683327, "lat": 26.35}}, {"id": 5413922, "name": "Bighorn", "country": "US", "coord": {"lon": -106.297249, "lat": 39.63665}}, {"id": 7285244, "name": "Biglen", "country": "CH", "coord": {"lon": 7.62667, "lat": 46.927811}}, {"id": 2661506, "name": "Biglen", "country": "CH", "coord": {"lon": 7.62508, "lat": 46.926289}}, {"id": 4556595, "name": "Biglerville", "country": "US", "coord": {"lon": -77.248039, "lat": 39.93037}}, {"id": 3032685, "name": "Bignan", "country": "FR", "coord": {"lon": -2.77153, "lat": 47.879349}}, {"id": 1725359, "name": "Bignay Uno", "country": "PH", "coord": {"lon": 121.489441, "lat": 13.86278}}, {"id": 2253901, "name": "Bignona", "country": "SN", "coord": {"lon": -16.226391, "lat": 12.81028}},