[{"id": 8010570, "name": "Odivelas", "country": "PT", "coord": {"lon": -9.19108, "lat": 38.79705}}, {"id": 8012596, "name": "Odivelas", "country": "PT", "coord": {"lon": -9.18183, "lat": 38.791302}}, {"id": 2265467, "name": "Odivelas", "country": "PT", "coord": {"lon": -9.1838, "lat": 38.79269}}, {"id": 8011999, "name": "Odi\u00e1xere", "country": "PT", "coord": {"lon": -8.6552, "lat": 37.1595}}, {"id": 1261077, "name": "Odlabari", "country": "IN", "coord": {"lon": 88.616669, "lat": 26.83333}}, {"id": 671974, "name": "Odobesti", "country": "RO", "coord": {"lon": 27.049999, "lat": 45.76667}}, {"id": 671975, "name": "Odobesti", "country": "RO", "coord": {"lon": 25.566669, "lat": 44.616669}}, {"id": 3090315, "name": "Odolanow", "country": "PL", "coord": {"lon": 17.674339, "lat": 51.574188}}, {"id": 3069150, "name": "Odolena Voda", "country": "CZ", "coord": {"lon": 14.41078, "lat": 50.23341}}, {"id": 3172115, "name": "Odolo", "country": "IT", "coord": {"lon": 10.38357, "lat": 45.645191}}, {"id": 3115248, "name": "Odon", "country": "ES", "coord": {"lon": -1.56792, "lat": 40.884171}}, {"id": 4262451, "name": "Odon", "country": "US", "coord": {"lon": -86.991402, "lat": 38.842831}}, {"id": 671966, "name": "Odoreu", "country": "RO", "coord": {"lon": 23, "lat": 47.799999}}, {"id": 671964, "name": "Odorheiu Secuiesc", "country": "RO", "coord": {"lon": 25.299999, "lat": 46.299999}}, {"id": 6440844, "name": "Odos", "country": "FR", "coord": {"lon": 0.05, "lat": 43.200001}}, {"id": 2989742, "name": "Odos", "country": "FR", "coord": {"lon": 0.05694, "lat": 43.19622}}, {"id": 516197, "name": "Odoyev", "country": "RU", "coord": {"lon": 36.68639, "lat": 53.939331}}, {"id": 3194216, "name": "Odra", "country": "HR", "coord": {"lon": 16, "lat": 45.73333}}, {"id": 3194213, "name": "Odranci", "country": "SI", "coord": {"lon": 16.280279, "lat": 46.58667}}, {"id": 671963, "name": "Odrihei", "country": "RO", "coord": {"lon": 24.566669, "lat": 46.400002}}, {"id": 3069136, "name": "Odry", "country": "CZ", "coord": {"lon": 17.830839, "lat": 49.662552}}, {"id": 763401, "name": "Odrzykon", "country": "PL", "coord": {"lon": 21.74074, "lat": 49.74057}}, {"id": 763399, "name": "Odrzywol", "country": "PL", "coord": {"lon": 20.55559, "lat": 51.519531}}, {"id": 6543928, "name": "Odsherred Kommune", "country": "DK", "coord": {"lon": 11.59444, "lat": 55.883331}}, {"id": 1261076, "name": "Odugattur", "country": "IN", "coord": {"lon": 78.900002, "lat": 12.76667}}, {"id": 794947, "name": "Odulemma", "country": "EE", "coord": {"lon": 24.331671, "lat": 59.136108}}, {"id": 2296524, "name": "Odumase", "country": "GH", "coord": {"lon": -2.31819, "lat": 7.37134}}, {"id": 3194209, "name": "Odzaci", "country": "RS", "coord": {"lon": 19.26111, "lat": 45.506672}}, {"id": 3194199, "name": "Odzak", "country": "BA", "coord": {"lon": 18.32667, "lat": 45.011108}}, {"id": 883183, "name": "Odzi", "country": "ZW", "coord": {"lon": 32.405571, "lat": -18.96167}}, {"id": 616330, "name": "Odzun", "country": "AM", "coord": {"lon": 44.613411, "lat": 41.053211}}, {"id": 6361573, "name": "Od\u00f3n", "country": "ES", "coord": {"lon": -1.55767, "lat": 40.882179}}, {"id": 671986, "name": "Od\u0103ile", "country": "RO", "coord": {"lon": 26.049999, "lat": 44.533329}}, {"id": 2857986, "name": "Oebelitz", "country": "DE", "coord": {"lon": 12.81409, "lat": 54.182201}}, {"id": 2857985, "name": "Oebisfelde", "country": "DE", "coord": {"lon": 10.98333, "lat": 52.433331}}, {"id": 2857984, "name": "Oebles-Schlechtewitz", "country": "DE", "coord": {"lon": 12.06667, "lat": 51.25}}, {"id": 6549891, "name": "Oechsen", "country": "DE", "coord": {"lon": 10.0667, "lat": 50.75}}, {"id": 2857983, "name": "Oechsen", "country": "DE", "coord": {"lon": 10.06667, "lat": 50.75}}, {"id": 2769500, "name": "Oed an der Mank", "country": "AT", "coord": {"lon": 15.32318, "lat": 48.083931}}, {"id": 2857978, "name": "Oedekoven", "country": "DE", "coord": {"lon": 7.03333, "lat": 50.716671}}, {"id": 2857977, "name": "Oedelsheim", "country": "DE", "coord": {"lon": 9.59312, "lat": 51.590302}}, {"id": 2857970, "name": "Oederan", "country": "DE", "coord": {"lon": 13.16667, "lat": 50.866669}}, {"id": 6552810, "name": "Oederquart", "country": "DE", "coord": {"lon": 9.23681, "lat": 53.80267}}, {"id": 2858071, "name": "Oederquart", "country": "DE", "coord": {"lon": 9.2368, "lat": 53.80267}}, {"id": 6555528, "name": "Oedheim", "country": "DE", "coord": {"lon": 9.25333, "lat": 49.240299}}, {"id": 2857967, "name": "Oedheim", "country": "DE", "coord": {"lon": 9.25333, "lat": 49.24028}}, {"id": 2857966, "name": "Oeding", "country": "DE", "coord": {"lon": 6.8, "lat": 51.933331}}, {"id": 2749723, "name": "Oegstgeest", "country": "NL", "coord": {"lon": 4.46944, "lat": 52.18}}, {"id": 8010564, "name": "Oeiras", "country": "PT", "coord": {"lon": -9.26832, "lat": 38.713711}}, {"id": 3393764, "name": "Oeiras", "country": "BR", "coord": {"lon": -42.131111, "lat": -7.02528}}, {"id": 3393762, "name": "Oeiras do Para", "country": "BR", "coord": {"lon": -49.854439, "lat": -2.00306}}, {"id": 8014901, "name": "Oeiras e S\u00e3o Juli\u00e3o da Barra", "country": "PT", "coord": {"lon": -9.31289, "lat": 38.693298}}, {"id": 7286727, "name": "Oekingen", "country": "CH", "coord": {"lon": 7.61204, "lat": 47.178699}}, {"id": 6691338, "name": "Oekingen", "country": "CH", "coord": {"lon": 7.60237, "lat": 47.179798}}, {"id": 2857950, "name": "Oekoven", "country": "DE", "coord": {"lon": 6.66261, "lat": 51.065891}}, {"id": 2857506, "name": "Oelber am wei\u00dfen Wege", "country": "DE", "coord": {"lon": 10.2305, "lat": 52.097858}}, {"id": 2857946, "name": "Oelbr\u00fcck", "country": "DE", "coord": {"lon": 14.6, "lat": 51.349998}}, {"id": 2857943, "name": "Oelde", "country": "DE", "coord": {"lon": 8.15, "lat": 51.816669}}, {"id": 2857939, "name": "Oelinghauserheide", "country": "DE", "coord": {"lon": 7.91667, "lat": 51.400002}}, {"id": 6552226, "name": "Oelixdorf", "country": "DE", "coord": {"lon": 9.56467, "lat": 53.926868}}, {"id": 2857347, "name": "Oelixdorf", "country": "DE", "coord": {"lon": 9.56667, "lat": 53.933331}}, {"id": 2857345, "name": "Oelkassen", "country": "DE", "coord": {"lon": 9.61089, "lat": 51.94305}}, {"id": 6554083, "name": "Oelsberg", "country": "DE", "coord": {"lon": 7.83626, "lat": 50.198391}}, {"id": 2857929, "name": "Oelsberg", "country": "DE", "coord": {"lon": 7.83694, "lat": 50.198769}}, {"id": 2857921, "name": "Oelsitz", "country": "DE", "coord": {"lon": 13.27715, "lat": 51.280392}}, {"id": 2857918, "name": "Oelsnitz", "country": "DE", "coord": {"lon": 12.7, "lat": 50.716671}}, {"id": 2857919, "name": "Oelsnitz", "country": "DE", "coord": {"lon": 12.1695, "lat": 50.4147}}, {"id": 4869760, "name": "Oelwein", "country": "US", "coord": {"lon": -91.913498, "lat": 42.673321}}, {"id": 2857912, "name": "Oelzschau", "country": "DE", "coord": {"lon": 12.53333, "lat": 51.216671}}, {"id": 7439608, "name": "Oenak", "country": "ID", "coord": {"lon": 124.5019, "lat": -9.5614}}, {"id": 6358645, "name": "Oencia", "country": "ES", "coord": {"lon": -6.99321, "lat": 42.54705}}, {"id": 3115244, "name": "Oencia", "country": "ES", "coord": {"lon": -6.96859, "lat": 42.547581}}, {"id": 2749712, "name": "Oene", "country": "NL", "coord": {"lon": 6.04861, "lat": 52.34417}}, {"id": 7286728, "name": "Oensingen", "country": "CH", "coord": {"lon": 7.72265, "lat": 47.287949}}, {"id": 2659311, "name": "Oensingen", "country": "CH", "coord": {"lon": 7.72305, "lat": 47.286388}}, {"id": 2749708, "name": "Oentsjerk", "country": "NL", "coord": {"lon": 5.9, "lat": 53.25}}, {"id": 6550030, "name": "Oepfershausen", "country": "DE", "coord": {"lon": 10.25, "lat": 50.650002}}, {"id": 2857908, "name": "Oepfershausen", "country": "DE", "coord": {"lon": 10.25, "lat": 50.650002}}, {"id": 2857904, "name": "Oer-Erkenschwick", "country": "DE", "coord": {"lon": 7.25, "lat": 51.633331}}, {"id": 2857906, "name": "Oerbke", "country": "DE", "coord": {"lon": 9.71667, "lat": 52.849998}}, {"id": 6552744, "name": "Oerel", "country": "DE", "coord": {"lon": 9.05, "lat": 53.483299}}, {"id": 2857105, "name": "Oerel", "country": "DE", "coord": {"lon": 9.05, "lat": 53.48333}}, {"id": 2749703, "name": "Oerle", "country": "NL", "coord": {"lon": 5.37163, "lat": 51.42255}}, {"id": 6556966, "name": "Oerlenbach", "country": "DE", "coord": {"lon": 10.1342, "lat": 50.143299}}, {"id": 2857075, "name": "Oerlenbach", "country": "DE", "coord": {"lon": 10.13333, "lat": 50.150002}}, {"id": 2857900, "name": "Oerlinghausen", "country": "DE", "coord": {"lon": 8.6622, "lat": 51.954529}}, {"id": 6441270, "name": "Oermingen", "country": "FR", "coord": {"lon": 7.11667, "lat": 49}}, {"id": 2989737, "name": "Oermingen", "country": "FR", "coord": {"lon": 7.12744, "lat": 48.998989}}, {"id": 6551984, "name": "Oersberg", "country": "DE", "coord": {"lon": 9.85, "lat": 54.666698}}, {"id": 2857047, "name": "Oersberg", "country": "DE", "coord": {"lon": 9.85, "lat": 54.666672}}, {"id": 6552126, "name": "Oersdorf", "country": "DE", "coord": {"lon": 9.98333, "lat": 53.833302}}, {"id": 2857042, "name": "Oersdorf", "country": "DE", "coord": {"lon": 9.98333, "lat": 53.833328}}, {"id": 2857890, "name": "Oerzen", "country": "DE", "coord": {"lon": 10.33333, "lat": 53.200001}}, {"id": 2056999, "name": "Oesapa", "country": "ID", "coord": {"lon": 123.650002, "lat": -10.15}}, {"id": 2856939, "name": "Oeschebuttel", "country": "DE", "coord": {"lon": 9.72128, "lat": 53.98912}}, {"id": 6552227, "name": "Oescheb\u00fcttel", "country": "DE", "coord": {"lon": 9.72128, "lat": 53.98912}}, {"id": 2856920, "name": "Oesdorf", "country": "DE", "coord": {"lon": 10.9786, "lat": 49.706329}}, {"id": 6551361, "name": "Oesterdeichstrich", "country": "DE", "coord": {"lon": 8.88333, "lat": 54.150002}}, {"id": 2856619, "name": "Oesterdeichstrich", "country": "DE", "coord": {"lon": 8.88333, "lat": 54.150002}}, {"id": 2856612, "name": "Oestereiden", "country": "DE", "coord": {"lon": 8.43333, "lat": 51.566669}}, {"id": 6551402, "name": "Oesterwurth", "country": "DE", "coord": {"lon": 8.98333, "lat": 54.216702}}, {"id": 3208559, "name": "Oesterwurth", "country": "DE", "coord": {"lon": 8.98333, "lat": 54.216671}}, {"id": 2857862, "name": "Oestinghausen", "country": "DE", "coord": {"lon": 8.1, "lat": 51.633331}}, {"id": 3207534, "name": "Oestrich-Winkel", "country": "DE", "coord": {"lon": 8, "lat": 50}}, {"id": 2960200, "name": "Oetrange", "country": "LU", "coord": {"lon": 6.26, "lat": 49.59639}}, {"id": 6550274, "name": "Oettern", "country": "DE", "coord": {"lon": 11.35763, "lat": 50.92289}}, {"id": 2857853, "name": "Oettern", "country": "DE", "coord": {"lon": 11.35806, "lat": 50.922508}}, {"id": 6550459, "name": "Oettersdorf", "country": "DE", "coord": {"lon": 11.8167, "lat": 50.599998}}, {"id": 2857850, "name": "Oettersdorf", "country": "DE", "coord": {"lon": 11.81667, "lat": 50.599998}}, {"id": 2857849, "name": "Oettershagen", "country": "DE", "coord": {"lon": 7.71667, "lat": 50.76667}}, {"id": 2857847, "name": "Oettingen in Bayern", "country": "DE", "coord": {"lon": 10.6, "lat": 48.950001}}, {"id": 6295336, "name": "Oetwil / Erlen/Cholh\u00f6lzli", "country": "CH", "coord": {"lon": 8.39412, "lat": 47.432159}}, {"id": 6293553, "name": "Oetwil / In der Beichlen", "country": "CH", "coord": {"lon": 8.71579, "lat": 47.268879}}, {"id": 7286731, "name": "Oetwil am See", "country": "CH", "coord": {"lon": 8.72353, "lat": 47.273972}}, {"id": 2659307, "name": "Oetwil am See", "country": "CH", "coord": {"lon": 8.72023, "lat": 47.270489}}, {"id": 7286732, "name": "Oetwil an der Limmat", "country": "CH", "coord": {"lon": 8.39786, "lat": 47.430988}}, {"id": 7873593, "name": "Oetz", "country": "AT", "coord": {"lon": 10.90793, "lat": 47.203259}}, {"id": 2769324, "name": "Oetz", "country": "AT", "coord": {"lon": 10.9, "lat": 47.200001}}, {"id": 6552826, "name": "Oetzen", "country": "DE", "coord": {"lon": 10.6833, "lat": 53.016701}}, {"id": 2857845, "name": "Oetzen", "country": "DE", "coord": {"lon": 10.67571, "lat": 53.019169}}, {"id": 6551585, "name": "Oevenum", "country": "DE", "coord": {"lon": 8.53003, "lat": 54.71133}}, {"id": 2855862, "name": "Oevenum", "country": "DE", "coord": {"lon": 8.53174, "lat": 54.710239}}, {"id": 6552044, "name": "Oeversee", "country": "DE", "coord": {"lon": 9.43333, "lat": 54.700001}}, {"id": 2855834, "name": "Oeversee", "country": "DE", "coord": {"lon": 9.43333, "lat": 54.700001}}, {"id": 2659305, "name": "Oey", "country": "CH", "coord": {"lon": 7.57685, "lat": 46.659199}}, {"id": 6433909, "name": "Oeyregave", "country": "FR", "coord": {"lon": -1.1, "lat": 43.533329}}, {"id": 2989728, "name": "Oeyregave", "country": "FR", "coord": {"lon": -1.09813, "lat": 43.53252}}, {"id": 6433910, "name": "Oeyreluy", "country": "FR", "coord": {"lon": -1.08333, "lat": 43.666672}}, {"id": 2989727, "name": "Oeyreluy", "country": "FR", "coord": {"lon": -1.08276, "lat": 43.668758}}, {"id": 741240, "name": "Of", "country": "TR", "coord": {"lon": 40.26746, "lat": 40.94458}}, {"id": 3414109, "name": "Ofanleiti", "country": "IS", "coord": {"lon": -20.294399, "lat": 63.41972}}, {"id": 293992, "name": "Ofaqim", "country": "IL", "coord": {"lon": 34.620251, "lat": 31.3141}}, {"id": 968453, "name": "Ofcolaco", "country": "ZA", "coord": {"lon": 30.3957, "lat": -24.081579}}, {"id": 716860, "name": "Ofeherto", "country": "HU", "coord": {"lon": 22.049999, "lat": 47.933331}}, {"id": 3208244, "name": "Ofen", "country": "DE", "coord": {"lon": 8.13333, "lat": 53.166672}}, {"id": 3172110, "name": "Ofena", "country": "IT", "coord": {"lon": 13.7587, "lat": 42.32584}}, {"id": 2857816, "name": "Oferdingen", "country": "DE", "coord": {"lon": 9.20869, "lat": 48.548569}}, {"id": 2327879, "name": "Offa", "country": "NG", "coord": {"lon": 4.71667, "lat": 8.15}}, {"id": 3172109, "name": "Offagna", "country": "IT", "coord": {"lon": 13.44068, "lat": 43.526859}}, {"id": 3172107, "name": "Offanengo", "country": "IT", "coord": {"lon": 9.74236, "lat": 45.378868}}, {"id": 6451923, "name": "Offemont", "country": "FR", "coord": {"lon": 6.88333, "lat": 47.666672}}, {"id": 2989725, "name": "Offemont", "country": "FR", "coord": {"lon": 6.88056, "lat": 47.664162}}, {"id": 2857811, "name": "Offen", "country": "DE", "coord": {"lon": 9.98333, "lat": 52.76667}}, {"id": 6555529, "name": "Offenau", "country": "DE", "coord": {"lon": 9.16056, "lat": 49.2458}}, {"id": 2857810, "name": "Offenau", "country": "DE", "coord": {"lon": 9.16056, "lat": 49.245831}}, {"id": 2857809, "name": "Offenau", "country": "DE", "coord": {"lon": 9.7, "lat": 53.783329}}, {"id": 2857807, "name": "Offenbach", "country": "DE", "coord": {"lon": 8.76667, "lat": 50.099998}}, {"id": 2857804, "name": "Offenbach am Glan", "country": "DE", "coord": {"lon": 7.55, "lat": 49.616669}}, {"id": 6555210, "name": "Offenbach an der Queich", "country": "DE", "coord": {"lon": 8.18111, "lat": 49.202202}}, {"id": 2857803, "name": "Offenbach an der Queich", "country": "DE", "coord": {"lon": 8.18111, "lat": 49.202221}}, {"id": 6555136, "name": "Offenbach-Hundheim", "country": "DE", "coord": {"lon": 7.55, "lat": 49.616699}}, {"id": 3207535, "name": "Offenbach-Hundheim", "country": "DE", "coord": {"lon": 7.55, "lat": 49.616669}}, {"id": 2749696, "name": "Offenbeek", "country": "NL", "coord": {"lon": 6.095, "lat": 51.282249}}, {"id": 6556465, "name": "Offenberg", "country": "DE", "coord": {"lon": 12.8667, "lat": 48.866699}}, {"id": 2857800, "name": "Offenberg", "country": "DE", "coord": {"lon": 12.86293, "lat": 48.86195}}, {"id": 2857798, "name": "Offenburg", "country": "DE", "coord": {"lon": 7.93333, "lat": 48.48333}}, {"id": 2857797, "name": "Offenbuttel", "country": "DE", "coord": {"lon": 9.35, "lat": 54.166672}}, {"id": 6551362, "name": "Offenb\u00fcttel", "country": "DE", "coord": {"lon": 9.35, "lat": 54.166698}}, {"id": 2857794, "name": "Offenham", "country": "DE", "coord": {"lon": 12.56667, "lat": 48.116669}}, {"id": 7873276, "name": "Offenhausen", "country": "AT", "coord": {"lon": 13.84551, "lat": 48.153259}}, {"id": 2857792, "name": "Offenhausen", "country": "DE", "coord": {"lon": 10.02258, "lat": 48.40163}}, {"id": 2769473, "name": "Offenhausen", "country": "AT", "coord": {"lon": 13.83333, "lat": 48.150002}}, {"id": 6556890, "name": "Offenhausen", "country": "DE", "coord": {"lon": 11.41351, "lat": 49.449162}}, {"id": 2857791, "name": "Offenhausen", "country": "DE", "coord": {"lon": 11.41316, "lat": 49.449711}}, {"id": 6554870, "name": "Offenheim", "country": "DE", "coord": {"lon": 8.03028, "lat": 49.725601}}, {"id": 2857790, "name": "Offenheim", "country": "DE", "coord": {"lon": 8.03028, "lat": 49.725559}}, {"id": 2989723, "name": "Offenheim", "country": "FR", "coord": {"lon": 7.61752, "lat": 48.630741}}, {"id": 2857784, "name": "Offenstetten", "country": "DE", "coord": {"lon": 11.91667, "lat": 48.799999}}, {"id": 2857772, "name": "Offheim", "country": "DE", "coord": {"lon": 8.06667, "lat": 50.416672}}, {"id": 2154481, "name": "Officer", "country": "AU", "coord": {"lon": 145.416672, "lat": -38.066669}}, {"id": 3172104, "name": "Offida", "country": "IT", "coord": {"lon": 13.70039, "lat": 42.935749}}, {"id": 2857770, "name": "Offingen", "country": "DE", "coord": {"lon": 10.36667, "lat": 48.48333}}, {"id": 3172103, "name": "Offlaga", "country": "IT", "coord": {"lon": 10.11547, "lat": 45.386181}}, {"id": 2857768, "name": "Offling", "country": "DE", "coord": {"lon": 12.53333, "lat": 47.98333}}, {"id": 6443374, "name": "Offranville", "country": "FR", "coord": {"lon": 1.05, "lat": 49.866669}}, {"id": 2989715, "name": "Offranville", "country": "FR", "coord": {"lon": 1.04817, "lat": 49.872082}}, {"id": 6555448, "name": "Offstein", "country": "DE", "coord": {"lon": 8.23806, "lat": 49.606098}}, {"id": 2857765, "name": "Offstein", "country": "DE", "coord": {"lon": 8.23806, "lat": 49.60611}}, {"id": 7259430, "name": "Offutt Air Force Base", "country": "US", "coord": {"lon": -95.920952, "lat": 41.120239}}, {"id": 3878253, "name": "Oficina Mar\u00eda Elena", "country": "CL", "coord": {"lon": -69.666672, "lat": -22.35}}, {"id": 875291, "name": "Ofitserskiy", "country": "RU", "coord": {"lon": 38.028332, "lat": 55.934444}}, {"id": 6555944, "name": "Ofterdingen", "country": "DE", "coord": {"lon": 9.03333, "lat": 48.416698}}, {"id": 2857756, "name": "Ofterdingen", "country": "DE", "coord": {"lon": 9.03333, "lat": 48.416672}}, {"id": 6557312, "name": "Ofterschwang", "country": "DE", "coord": {"lon": 10.2333, "lat": 47.5}}, {"id": 2857753, "name": "Ofterschwang", "country": "DE", "coord": {"lon": 10.23333, "lat": 47.5}}, {"id": 6555673, "name": "Oftersheim", "country": "DE", "coord": {"lon": 8.58306, "lat": 49.365299}}, {"id": 2857752, "name": "Oftersheim", "country": "DE", "coord": {"lon": 8.58306, "lat": 49.36528}}, {"id": 7286733, "name": "Oftringen", "country": "CH", "coord": {"lon": 7.93896, "lat": 47.313358}}, {"id": 2659303, "name": "Oftringen", "country": "CH", "coord": {"lon": 7.91667, "lat": 47.316669}}, {"id": 5881544, "name": "Ofu", "country": "AS", "coord": {"lon": -169.677505, "lat": -14.17528}}, {"id": 2111530, "name": "Ofunato", "country": "JP", "coord": {"lon": 141.716675, "lat": 39.071671}}, {"id": 1854703, "name": "Ogaki", "country": "JP", "coord": {"lon": 136.616669, "lat": 35.349998}}, {"id": 5698040, "name": "Ogallala", "country": "US", "coord": {"lon": -101.71962, "lat": 41.128052}}, {"id": 2327827, "name": "Ogaminan", "country": "NG", "coord": {"lon": 6.22476, "lat": 7.59464}}, {"id": 1854691, "name": "Ogano", "country": "JP", "coord": {"lon": 139, "lat": 36.01667}}, {"id": 3194196, "name": "Ogar", "country": "RS", "coord": {"lon": 19.946939, "lat": 44.7925}}, {"id": 1854665, "name": "Ogawa", "country": "JP", "coord": {"lon": 139.266663, "lat": 36.049999}}, {"id": 2327735, "name": "Ogbomoso", "country": "NG", "coord": {"lon": 4.26667, "lat": 8.13333}}, {"id": 5779206, "name": "Ogden", "country": "US", "coord": {"lon": -111.973831, "lat": 41.223}}, {"id": 4276588, "name": "Ogden", "country": "US", "coord": {"lon": -96.706123, "lat": 39.111111}}, {"id": 4483174, "name": "Ogden", "country": "US", "coord": {"lon": -77.818588, "lat": 34.272388}}, {"id": 4869780, "name": "Ogden", "country": "US", "coord": {"lon": -94.027733, "lat": 42.03915}}, {"id": 4924412, "name": "Ogden Dunes", "country": "US", "coord": {"lon": -87.191704, "lat": 41.62281}}, {"id": 5102153, "name": "Ogdensburg", "country": "US", "coord": {"lon": -74.592377, "lat": 41.08176}}, {"id": 5129626, "name": "Ogdensburg", "country": "US", "coord": {"lon": -75.486343, "lat": 44.694229}}, {"id": 5265566, "name": "Ogema", "country": "US", "coord": {"lon": -90.298203, "lat": 45.443581}}, {"id": 6092735, "name": "Ogema", "country": "CA", "coord": {"lon": -104.917793, "lat": 49.58337}}, {"id": 182498, "name": "Ogembo", "country": "KE", "coord": {"lon": 34.725311, "lat": -0.7984}}, {"id": 6440536, "name": "Ogenne-Camptort", "country": "FR", "coord": {"lon": -0.7, "lat": 43.316669}}, {"id": 2989711, "name": "Ogenne-Camptort", "country": "FR", "coord": {"lon": -0.7, "lat": 43.316669}}, {"id": 6440537, "name": "Ogeu-les-Bains", "country": "FR", "coord": {"lon": -0.5, "lat": 43.150002}}, {"id": 2989708, "name": "Ogeu-les-Bains", "country": "FR", "coord": {"lon": -0.5, "lat": 43.150002}}, {"id": 6534839, "name": "Oggebbio", "country": "IT", "coord": {"lon": 8.65042, "lat": 45.997681}}, {"id": 6556024, "name": "Oggelshausen", "country": "DE", "coord": {"lon": 9.65, "lat": 48.0667}}, {"id": 2857741, "name": "Oggelshausen", "country": "DE", "coord": {"lon": 9.65, "lat": 48.066669}}, {"id": 2857739, "name": "Oggenhof", "country": "DE", "coord": {"lon": 10.76667, "lat": 48.349998}}, {"id": 6534456, "name": "Oggiona con Santo Stefano", "country": "IT", "coord": {"lon": 8.81653, "lat": 45.704269}}, {"id": 3172101, "name": "Oggiono", "country": "IT", "coord": {"lon": 9.34674, "lat": 45.791882}}, {"id": 584742, "name": "Oghuz Rayon", "country": "AZ", "coord": {"lon": 47.5, "lat": 41.083328}}, {"id": 1854656, "name": "Ogi", "country": "JP", "coord": {"lon": 130.201111, "lat": 33.287781}}, {"id": 2513167, "name": "Ogijares", "country": "ES", "coord": {"lon": -3.60772, "lat": 37.119129}}, {"id": 2064264, "name": "Ogilvie", "country": "AU", "coord": {"lon": 114.633331, "lat": -28.15}}, {"id": 5767610, "name": "Oglala", "country": "US", "coord": {"lon": -102.739616, "lat": 43.188591}}, {"id": 4904601, "name": "Ogle County", "country": "US", "coord": {"lon": -89.316772, "lat": 42.03336}}, {"id": 4904605, "name": "Oglesby", "country": "US", "coord": {"lon": -89.059532, "lat": 41.295311}}, {"id": 4213919, "name": "Oglethorpe", "country": "US", "coord": {"lon": -84.06102, "lat": 32.29377}}, {"id": 4213930, "name": "Oglethorpe County", "country": "US", "coord": {"lon": -83.083214, "lat": 33.866791}}, {"id": 3172099, "name": "Oglianico", "country": "IT", "coord": {"lon": 7.69372, "lat": 45.342548}}, {"id": 3172098, "name": "Ogliastro Cilento", "country": "IT", "coord": {"lon": 15.04315, "lat": 40.352402}}, {"id": 2154468, "name": "Ogmore", "country": "AU", "coord": {"lon": 149.649994, "lat": -22.616671}}, {"id": 3345280, "name": "Ogmore Vale", "country": "GB", "coord": {"lon": -3.54217, "lat": 51.602299}}, {"id": 6615673, "name": "Ognes", "country": "FR", "coord": {"lon": 3.1949, "lat": 49.610699}}, {"id": 2989701, "name": "Ognes", "country": "FR", "coord": {"lon": 3.1934, "lat": 49.612438}}, {"id": 1520474, "name": "Ognevka", "country": "KZ", "coord": {"lon": 83.016739, "lat": 49.683521}}, {"id": 1496357, "name": "Ogni", "country": "RU", "coord": {"lon": 83.541199, "lat": 51.909401}}, {"id": 516128, "name": "Ognikovo", "country": "RU", "coord": {"lon": 36.916668, "lat": 56}}, {"id": 787495, "name": "Ognjaci", "country": "MK", "coord": {"lon": 21.583059, "lat": 41.921669}}, {"id": 6461171, "name": "Ognjanovo", "country": "BG", "coord": {"lon": 24.41667, "lat": 42.150002}}, {"id": 728660, "name": "Ognyanovo", "country": "BG", "coord": {"lon": 24.41667, "lat": 42.150002}}, {"id": 1697266, "name": "Ogod", "country": "PH", "coord": {"lon": 123.616997, "lat": 12.9009}}, {"id": 2327650, "name": "Ogoja", "country": "NG", "coord": {"lon": 8.79764, "lat": 6.65471}}, {"id": 6607803, "name": "Ogolikhino", "country": "RU", "coord": {"lon": 43.919998, "lat": 56.43}}, {"id": 3305688, "name": "Ogonnelloe", "country": "IE", "coord": {"lon": -8.4575, "lat": 52.888062}}, {"id": 2029735, "name": "Ogoomor", "country": "MN", "coord": {"lon": 104.480667, "lat": 43.78336}}, {"id": 1854629, "name": "Ogori", "country": "JP", "coord": {"lon": 131.399994, "lat": 34.099998}}, {"id": 3090289, "name": "Ogorzelnik", "country": "PL", "coord": {"lon": 19.508631, "lat": 50.623798}}, {"id": 1854626, "name": "Ogose", "country": "JP", "coord": {"lon": 139.289993, "lat": 35.958889}}, {"id": 1967607, "name": "Ogotua", "country": "ID", "coord": {"lon": 120.264198, "lat": 0.9596}}, {"id": 671948, "name": "Ogra", "country": "RO", "coord": {"lon": 24.316669, "lat": 46.433331}}, {"id": 457065, "name": "Ogre", "country": "LV", "coord": {"lon": 24.61401, "lat": 56.8162}}, {"id": 4974107, "name": "Ogren", "country": "US", "coord": {"lon": -68.055862, "lat": 46.910881}}, {"id": 457061, "name": "Ogres Rajons", "country": "LV", "coord": {"lon": 25, "lat": 56.75}}, {"id": 671933, "name": "Ogrezeni", "country": "RO", "coord": {"lon": 25.76833, "lat": 44.41972}}, {"id": 3090285, "name": "Ogrodzieniec", "country": "PL", "coord": {"lon": 19.519871, "lat": 50.451771}}, {"id": 7533318, "name": "Ogrodzieniec", "country": "PL", "coord": {"lon": 19.518499, "lat": 50.44854}}, {"id": 1697260, "name": "Ogtongon", "country": "PH", "coord": {"lon": 123.528893, "lat": 10.78139}}, {"id": 516101, "name": "Ogudn\u00ebvo", "country": "RU", "coord": {"lon": 38.266666, "lat": 56.066666}}, {"id": 3194183, "name": "Ogulin", "country": "HR", "coord": {"lon": 15.22861, "lat": 45.266109}}, {"id": 2327546, "name": "Ogun State", "country": "NG", "coord": {"lon": 3.58333, "lat": 7}}, {"id": 1854611, "name": "Oguni", "country": "JP", "coord": {"lon": 139.75, "lat": 38.066669}}, {"id": 4974108, "name": "Ogunquit", "country": "US", "coord": {"lon": -70.59922, "lat": 43.248981}}, {"id": 2327523, "name": "Ogurugu", "country": "NG", "coord": {"lon": 6.95053, "lat": 6.78558}}, {"id": 2327521, "name": "Oguta", "country": "NG", "coord": {"lon": 6.81026, "lat": 5.7089}}, {"id": 303648, "name": "Oguz", "country": "TR", "coord": {"lon": 40.954369, "lat": 37.177631}}, {"id": 585333, "name": "Oguz", "country": "AZ", "coord": {"lon": 47.458328, "lat": 41.070831}}, {"id": 303642, "name": "Oguzeli", "country": "TR", "coord": {"lon": 37.51339, "lat": 36.965721}}, {"id": 744138, "name": "Oguzlar", "country": "TR", "coord": {"lon": 34.702751, "lat": 40.753529}}, {"id": 2327513, "name": "Ogwashi-Uku", "country": "NG", "coord": {"lon": 6.52429, "lat": 6.17818}}, {"id": 6357753, "name": "Og\u00edjares", "country": "ES", "coord": {"lon": -3.61242, "lat": 37.12384}}, {"id": 2857730, "name": "Oha", "country": "DE", "coord": {"lon": 9.46667, "lat": 54.283329}}, {"id": 2327494, "name": "Ohafia-Ifigh", "country": "NG", "coord": {"lon": 7.81191, "lat": 5.61455}}, {"id": 2185877, "name": "Ohakea", "country": "NZ", "coord": {"lon": 175.399994, "lat": -40.200001}}, {"id": 1854579, "name": "Ohama", "country": "JP", "coord": {"lon": 136.833328, "lat": 34.5}}, {"id": 6355579, "name": "Ohanes", "country": "ES", "coord": {"lon": -2.76203, "lat": 37.064548}}, {"id": 2513166, "name": "Ohanes", "country": "ES", "coord": {"lon": -2.74524, "lat": 37.038609}}, {"id": 1513072, "name": "Ohangaron", "country": "UZ", "coord": {"lon": 69.638329, "lat": 40.906391}}, {"id": 3371203, "name": "Ohangwena", "country": "NA", "coord": {"lon": 16.75, "lat": -17.58333}}, {"id": 2111495, "name": "Ohara", "country": "JP", "coord": {"lon": 140.383331, "lat": 35.25}}, {"id": 4081197, "name": "Ohatchee", "country": "US", "coord": {"lon": -86.002472, "lat": 33.783428}}, {"id": 2185857, "name": "Ohaupo", "country": "NZ", "coord": {"lon": 175.316666, "lat": -37.916672}}, {"id": 2789909, "name": "Ohey", "country": "BE", "coord": {"lon": 5.12469, "lat": 50.43597}}, {"id": 2789908, "name": "Ohey", "country": "BE", "coord": {"lon": 5.12375, "lat": 50.435699}}, {"id": 5165418, "name": "Ohio", "country": "US", "coord": {"lon": -83.000183, "lat": 40.25034}}, {"id": 5280563, "name": "Ohio County", "country": "US", "coord": {"lon": -80.616463, "lat": 40.100071}}, {"id": 5204273, "name": "Ohioville", "country": "US", "coord": {"lon": -80.494789, "lat": 40.67923}}, {"id": 7262027, "name": "Ohkay Owingeh", "country": "US", "coord": {"lon": -106.06897, "lat": 36.050819}}, {"id": 2857699, "name": "Ohl", "country": "DE", "coord": {"lon": 7.38333, "lat": 50.98333}}, {"id": 2857682, "name": "Ohlenberg", "country": "DE", "coord": {"lon": 7.28207, "lat": 50.588249}}, {"id": 2857677, "name": "Ohlendorf", "country": "DE", "coord": {"lon": 10.44628, "lat": 52.061878}}, {"id": 6553331, "name": "Ohlenhard", "country": "DE", "coord": {"lon": 6.76667, "lat": 50.450001}}, {"id": 2857673, "name": "Ohlenhard", "country": "DE", "coord": {"lon": 6.76667, "lat": 50.450001}}, {"id": 2857667, "name": "Ohler", "country": "DE", "coord": {"lon": 6.41667, "lat": 51.166672}}, {"id": 2857666, "name": "Ohlerath", "country": "DE", "coord": {"lon": 6.86667, "lat": 50.466671}}, {"id": 6555794, "name": "Ohlsbach", "country": "DE", "coord": {"lon": 8, "lat": 48.4333}}, {"id": 2857653, "name": "Ohlsbach", "country": "DE", "coord": {"lon": 7.99384, "lat": 48.43222}}, {"id": 2857650, "name": "Ohlsdorf", "country": "DE", "coord": {"lon": 10.03145, "lat": 53.625938}}, {"id": 6556245, "name": "Ohlstadt", "country": "DE", "coord": {"lon": 11.2333, "lat": 47.633301}}, {"id": 2857649, "name": "Ohlstadt", "country": "DE", "coord": {"lon": 11.23333, "lat": 47.633331}}, {"id": 2857647, "name": "Ohlum", "country": "DE", "coord": {"lon": 10.07051, "lat": 52.27309}}, {"id": 6441273, "name": "Ohlungen", "country": "FR", "coord": {"lon": 7.7, "lat": 48.816669}}, {"id": 2989687, "name": "Ohlungen", "country": "FR", "coord": {"lon": 7.70075, "lat": 48.811199}}, {"id": 6553946, "name": "Ohlweiler", "country": "DE", "coord": {"lon": 7.5, "lat": 49.966702}}, {"id": 2857646, "name": "Ohlweiler", "country": "DE", "coord": {"lon": 7.5, "lat": 49.966671}}, {"id": 6555137, "name": "Ohmbach", "country": "DE", "coord": {"lon": 7.35, "lat": 49.450001}}, {"id": 2857643, "name": "Ohmbach", "country": "DE", "coord": {"lon": 7.35, "lat": 49.450001}}, {"id": 6555431, "name": "Ohmden", "country": "DE", "coord": {"lon": 9.51667, "lat": 48.650002}}, {"id": 2857637, "name": "Ohmden", "country": "DE", "coord": {"lon": 9.51667, "lat": 48.650002}}, {"id": 7286735, "name": "Ohmstal", "country": "CH", "coord": {"lon": 7.95418, "lat": 47.159321}}, {"id": 2659302, "name": "Ohmstal", "country": "CH", "coord": {"lon": 7.95228, "lat": 47.158329}}, {"id": 2857621, "name": "Ohndorf", "country": "DE", "coord": {"lon": 9.35057, "lat": 52.356209}}, {"id": 6552941, "name": "Ohne", "country": "DE", "coord": {"lon": 7.28333, "lat": 52.266701}}, {"id": 2857619, "name": "Ohne", "country": "DE", "coord": {"lon": 7.28333, "lat": 52.26667}}, {"id": 2857613, "name": "Ohnhorst", "country": "DE", "coord": {"lon": 10.56524, "lat": 52.403782}}, {"id": 2857610, "name": "Ohningen", "country": "DE", "coord": {"lon": 8.9, "lat": 47.666672}}, {"id": 5870660, "name": "Ohogamiut", "country": "US", "coord": {"lon": -161.863617, "lat": 61.56778}}, {"id": 4032384, "name": "Ohonua", "country": "TO", "coord": {"lon": -174.949997, "lat": -21.33333}}, {"id": 6548724, "name": "Ohorn", "country": "DE", "coord": {"lon": 14.05, "lat": 51.1833}}, {"id": 2857603, "name": "Ohorn", "country": "DE", "coord": {"lon": 14.05, "lat": 51.183331}}, {"id": 3069118, "name": "Ohrazenice", "country": "CZ", "coord": {"lon": 15.12596, "lat": 50.597649}}, {"id": 2857594, "name": "Ohrb\u00fclt", "country": "DE", "coord": {"lon": 7.96667, "lat": 53.416672}}, {"id": 2857593, "name": "Ohrdorf", "country": "DE", "coord": {"lon": 10.8, "lat": 52.700001}}, {"id": 2857592, "name": "Ohrdruf", "country": "DE", "coord": {"lon": 10.73333, "lat": 50.816669}}, {"id": 2857587, "name": "Ohrel", "country": "DE", "coord": {"lon": 9.3, "lat": 53.400002}}, {"id": 2857585, "name": "Ohren", "country": "DE", "coord": {"lon": 8.18333, "lat": 50.299999}}, {"id": 2857583, "name": "Ohrenbach", "country": "DE", "coord": {"lon": 9.74667, "lat": 49.29361}}, {"id": 6556849, "name": "Ohrenbach", "country": "DE", "coord": {"lon": 10.2088, "lat": 49.469898}}, {"id": 2857582, "name": "Ohrenbach", "country": "DE", "coord": {"lon": 10.21667, "lat": 49.466671}}, {"id": 787487, "name": "Ohrid", "country": "MK", "coord": {"lon": 20.801941, "lat": 41.117222}}, {"id": 2857565, "name": "Ohringen", "country": "DE", "coord": {"lon": 9.50389, "lat": 49.201672}}, {"id": 2857556, "name": "Ohrsleben", "country": "DE", "coord": {"lon": 10.98753, "lat": 52.09174}}, {"id": 6552420, "name": "Ohrum", "country": "DE", "coord": {"lon": 10.5333, "lat": 52.133301}}, {"id": 2857547, "name": "Ohrum", "country": "DE", "coord": {"lon": 10.56284, "lat": 52.120838}}, {"id": 1853620, "name": "Ohtemachi", "country": "JP", "coord": {"lon": 136.220169, "lat": 36.067348}}, {"id": 2327445, "name": "Ohunene", "country": "NG", "coord": {"lon": 6.66587, "lat": 7.46614}}, {"id": 1854530, "name": "Oi", "country": "JP", "coord": {"lon": 139.516663, "lat": 35.851109}}, {"id": 6360236, "name": "Oia", "country": "ES", "coord": {"lon": -8.87258, "lat": 42.024342}}, {"id": 3114703, "name": "Oia", "country": "ES", "coord": {"lon": -8.86667, "lat": 42}}, {"id": 2737088, "name": "Oia", "country": "PT", "coord": {"lon": -8.53856, "lat": 40.542641}}, {"id": 3393758, "name": "Oiapoque", "country": "BR", "coord": {"lon": -51.834999, "lat": 3.84306}}, {"id": 3673637, "name": "Oiba", "country": "CO", "coord": {"lon": -73.298759, "lat": 6.26388}}, {"id": 256504, "name": "Oichalia", "country": "GR", "coord": {"lon": 21.980829, "lat": 39.60667}}, {"id": 2857539, "name": "Oidtweiler", "country": "DE", "coord": {"lon": 6.18848, "lat": 50.894211}}, {"id": 6439773, "name": "Oignies", "country": "FR", "coord": {"lon": 2.98333, "lat": 50.466671}}, {"id": 2989680, "name": "Oignies", "country": "FR", "coord": {"lon": 2.99376, "lat": 50.46331}}, {"id": 256342, "name": "Oikismos Papagou", "country": "GR", "coord": {"lon": 23.816669, "lat": 37.98333}}, {"id": 4302988, "name": "Oil City", "country": "US", "coord": {"lon": -85.983032, "lat": 37.033379}}, {"id": 4335921, "name": "Oil City", "country": "US", "coord": {"lon": -93.971573, "lat": 32.74403}}, {"id": 5204278, "name": "Oil City", "country": "US", "coord": {"lon": -79.706444, "lat": 41.433949}}, {"id": 5378870, "name": "Oildale", "country": "US", "coord": {"lon": -119.019547, "lat": 35.419682}}, {"id": 2962182, "name": "Oilgate", "country": "IE", "coord": {"lon": -6.53889, "lat": 52.42667}}, {"id": 4544252, "name": "Oilton", "country": "US", "coord": {"lon": -96.583633, "lat": 36.084511}}, {"id": 3115233, "name": "Oimbra", "country": "ES", "coord": {"lon": -7.47216, "lat": 41.88554}}, {"id": 671902, "name": "Oinacu", "country": "RO", "coord": {"lon": 26.01667, "lat": 43.950001}}, {"id": 7378335, "name": "Oinao", "country": "ID", "coord": {"lon": 118.8274, "lat": -8.5773}}, {"id": 256339, "name": "Oinofyta", "country": "GR", "coord": {"lon": 23.633329, "lat": 38.316669}}, {"id": 256329, "name": "Oinousses", "country": "GR", "coord": {"lon": 26.22028, "lat": 38.514172}}, {"id": 6612813, "name": "Oinville-sur-Montcient", "country": "FR", "coord": {"lon": 1.85, "lat": 49.033329}}, {"id": 2989670, "name": "Oinville-sur-Montcient", "country": "FR", "coord": {"lon": 1.84928, "lat": 49.027222}}, {"id": 2857536, "name": "Oirlich", "country": "DE", "coord": {"lon": 6.28333, "lat": 51.316669}}, {"id": 2749685, "name": "Oirsbeek", "country": "NL", "coord": {"lon": 5.90833, "lat": 50.950829}}, {"id": 2749683, "name": "Oirschot", "country": "NL", "coord": {"lon": 5.31389, "lat": 51.505001}}, {"id": 6444659, "name": "Oisemont", "country": "FR", "coord": {"lon": 1.76667, "lat": 49.950001}}, {"id": 2989652, "name": "Oisemont", "country": "FR", "coord": {"lon": 1.76703, "lat": 49.955872}}, {"id": 1854492, "name": "Oiso", "country": "JP", "coord": {"lon": 139.30278, "lat": 35.303059}}, {"id": 6454290, "name": "Oisseau", "country": "FR", "coord": {"lon": -0.68333, "lat": 48.366669}}, {"id": 2989648, "name": "Oisseau", "country": "FR", "coord": {"lon": -0.67148, "lat": 48.355591}}, {"id": 6443376, "name": "Oissel", "country": "FR", "coord": {"lon": 1.1, "lat": 49.333328}}, {"id": 2989646, "name": "Oissel", "country": "FR", "coord": {"lon": 1.09413, "lat": 49.333092}}, {"id": 6443781, "name": "Oissery", "country": "FR", "coord": {"lon": 2.81667, "lat": 49.066669}}, {"id": 2989645, "name": "Oissery", "country": "FR", "coord": {"lon": 2.81819, "lat": 49.070469}}, {"id": 2749680, "name": "Oisterwijk", "country": "NL", "coord": {"lon": 5.18889, "lat": 51.57917}}, {"id": 3373652, "name": "Oistins", "country": "BB", "coord": {"lon": -59.533329, "lat": 13.06667}}, {"id": 6439774, "name": "Oisy-le-Verger", "country": "FR", "coord": {"lon": 3.11667, "lat": 50.25}}, {"id": 2989640, "name": "Oisy-le-Verger", "country": "FR", "coord": {"lon": 3.1233, "lat": 50.250469}}, {"id": 1854487, "name": "Oita-shi", "country": "JP", "coord": {"lon": 131.612503, "lat": 33.23806}}, {"id": 7384412, "name": "Oitui", "country": "ID", "coord": {"lon": 118.978203, "lat": -8.3331}}, {"id": 671896, "name": "Oituz", "country": "RO", "coord": {"lon": 26.616671, "lat": 46.200001}}, {"id": 6359735, "name": "Oitz", "country": "ES", "coord": {"lon": -1.69092, "lat": 43.092949}}, {"id": 3115219, "name": "Oitz", "country": "ES", "coord": {"lon": -1.68333, "lat": 43.116669}}, {"id": 8010826, "name": "Oi\u00e3", "country": "PT", "coord": {"lon": -8.53868, "lat": 40.536678}}, {"id": 7336911, "name": "Oja", "country": "ID", "coord": {"lon": 121.432503, "lat": -8.692}}, {"id": 6359097, "name": "Ojacastro", "country": "ES", "coord": {"lon": -2.9879, "lat": 42.348461}}, {"id": 3115217, "name": "Ojacastro", "country": "ES", "coord": {"lon": -3.0049, "lat": 42.347198}}, {"id": 5378880, "name": "Ojai", "country": "US", "coord": {"lon": -119.242889, "lat": 34.448051}}, {"id": 7574367, "name": "Ojan", "country": "ID", "coord": {"lon": 122.260696, "lat": -8.7026}}, {"id": 671890, "name": "Ojdula", "country": "RO", "coord": {"lon": 26.25, "lat": 45.98333}}, {"id": 3115216, "name": "Ojeda", "country": "ES", "coord": {"lon": -3.50744, "lat": 42.755161}}, {"id": 2513163, "name": "Ojen", "country": "ES", "coord": {"lon": -4.85561, "lat": 36.564861}}, {"id": 2687272, "name": "Ojersjo", "country": "SE", "coord": {"lon": 12.11667, "lat": 57.700001}}, {"id": 1261068, "name": "Ojhar", "country": "IN", "coord": {"lon": 73.933327, "lat": 20.1}}, {"id": 3994469, "name": "Ojinaga", "country": "MX", "coord": {"lon": -104.416672, "lat": 29.566669}}, {"id": 1854444, "name": "Ojiya", "country": "JP", "coord": {"lon": 138.800003, "lat": 37.299999}}, {"id": 3592070, "name": "Ojo de Agua", "country": "GT", "coord": {"lon": -90.316673, "lat": 14.35}}, {"id": 3604292, "name": "Ojo de Agua", "country": "HN", "coord": {"lon": -86.349998, "lat": 14.01667}}, {"id": 3604270, "name": "Ojojona", "country": "HN", "coord": {"lon": -87.29583, "lat": 13.93389}}, {"id": 2513160, "name": "Ojos", "country": "ES", "coord": {"lon": -1.34261, "lat": 38.146999}}, {"id": 6361574, "name": "Ojos Negros", "country": "ES", "coord": {"lon": -1.47174, "lat": 40.728298}}, {"id": 3115213, "name": "Ojos Negros", "country": "ES", "coord": {"lon": -1.49875, "lat": 40.737499}}, {"id": 3604263, "name": "Ojos de Agua", "country": "HN", "coord": {"lon": -88.816673, "lat": 14.7}}, {"id": 3604265, "name": "Ojos de Agua", "country": "HN", "coord": {"lon": -87.933327, "lat": 14.6}}, {"id": 6355773, "name": "Ojos-Albos", "country": "ES", "coord": {"lon": -4.51504, "lat": 40.721931}}, {"id": 3115214, "name": "Ojos-Albos", "country": "ES", "coord": {"lon": -4.51633, "lat": 40.705959}}, {"id": 763361, "name": "Ojrzen", "country": "PL", "coord": {"lon": 20.54315, "lat": 52.765701}}, {"id": 2513152, "name": "Ojuelos Altos", "country": "ES", "coord": {"lon": -5.35, "lat": 38.183331}}, {"id": 3994216, "name": "Ojuelos de Jalisco", "country": "MX", "coord": {"lon": -101.583328, "lat": 21.866671}}, {"id": 3115211, "name": "Ojuriego", "country": "ES", "coord": {"lon": -3.9, "lat": 43.268848}}, {"id": 4166805, "name": "Ojus", "country": "US", "coord": {"lon": -80.150597, "lat": 25.948429}}, {"id": 6359481, "name": "Oj\u00e9n", "country": "ES", "coord": {"lon": -4.80688, "lat": 36.56123}}, {"id": 6359535, "name": "Oj\u00f3s", "country": "ES", "coord": {"lon": -1.35667, "lat": 38.115978}}, {"id": 6092873, "name": "Oka", "country": "CA", "coord": {"lon": -74.088921, "lat": 45.46489}}, {"id": 3354898, "name": "Okahandja", "country": "NA", "coord": {"lon": 16.91667, "lat": -21.98333}}, {"id": 2185786, "name": "Okaihau", "country": "NZ", "coord": {"lon": 173.783325, "lat": -35.316669}}, {"id": 1132172, "name": "Okak", "country": "AF", "coord": {"lon": 67.95652, "lat": 33.897942}}, {"id": 3354876, "name": "Okakarara", "country": "NA", "coord": {"lon": 17.433331, "lat": -20.58333}}, {"id": 4166818, "name": "Okaloosa County", "country": "US", "coord": {"lon": -86.562447, "lat": 30.68741}}, {"id": 7281931, "name": "Okanagan", "country": "CA", "coord": {"lon": -119.349968, "lat": 50.363861}}, {"id": 5805550, "name": "Okanogan", "country": "US", "coord": {"lon": -119.583389, "lat": 48.361259}}, {"id": 5805553, "name": "Okanogan County", "country": "US", "coord": {"lon": -119.734512, "lat": 48.54987}}, {"id": 716853, "name": "Okany", "country": "HU", "coord": {"lon": 21.35, "lat": 46.900002}}, {"id": 1168718, "name": "Okara", "country": "PK", "coord": {"lon": 73.445831, "lat": 30.80806}}, {"id": 2857528, "name": "Okarben", "country": "DE", "coord": {"lon": 8.75, "lat": 50.25}}, {"id": 4544257, "name": "Okarche", "country": "US", "coord": {"lon": -97.97644, "lat": 35.72588}}, {"id": 1854431, "name": "Okata", "country": "JP", "coord": {"lon": 139.383331, "lat": 34.783329}}, {"id": 2185763, "name": "Okato", "country": "NZ", "coord": {"lon": 173.883331, "lat": -39.200001}}, {"id": 5265585, "name": "Okauchee Lake", "country": "US", "coord": {"lon": -88.440651, "lat": 43.123341}}, {"id": 3354716, "name": "Okaukuejo", "country": "NA", "coord": {"lon": 15.9161, "lat": -19.1763}}, {"id": 3371204, "name": "Okavango", "country": "NA", "coord": {"lon": 19.75, "lat": -18.41667}}, {"id": 1854405, "name": "Okawa", "country": "JP", "coord": {"lon": 130.350006, "lat": 33.200001}}, {"id": 2111461, "name": "Okawara", "country": "JP", "coord": {"lon": 140.733612, "lat": 38.049999}}, {"id": 4246180, "name": "Okawville", "country": "US", "coord": {"lon": -89.550369, "lat": 38.434219}}, {"id": 1854384, "name": "Okaya", "country": "JP", "coord": {"lon": 138.045105, "lat": 36.056591}}, {"id": 1854381, "name": "Okayama-ken", "country": "JP", "coord": {"lon": 133.810181, "lat": 34.902039}}, {"id": 1854383, "name": "Okayama-shi", "country": "JP", "coord": {"lon": 133.934998, "lat": 34.661671}}, {"id": 1854376, "name": "Okazaki", "country": "JP", "coord": {"lon": 137.166672, "lat": 34.950001}}, {"id": 1854372, "name": "Okazato", "country": "JP", "coord": {"lon": 139.783325, "lat": 33.099998}}, {"id": 303626, "name": "Okcular", "country": "TR", "coord": {"lon": 42.438332, "lat": 37.741112}}, {"id": 2327236, "name": "Oke Iho", "country": "NG", "coord": {"lon": 3.35, "lat": 8.03333}}, {"id": 2327223, "name": "Oke Mesi", "country": "NG", "coord": {"lon": 4.91667, "lat": 7.81667}}, {"id": 4166822, "name": "Okeechobee", "country": "US", "coord": {"lon": -80.829781, "lat": 27.243931}}, {"id": 4166825, "name": "Okeechobee County", "country": "US", "coord": {"lon": -80.916451, "lat": 27.41699}}, {"id": 4544263, "name": "Okeene", "country": "US", "coord": {"lon": -98.317017, "lat": 36.11615}}, {"id": 1854371, "name": "Okegawa", "country": "JP", "coord": {"lon": 139.55722, "lat": 36}}, {"id": 2641049, "name": "Okehampton", "country": "GB", "coord": {"lon": -4.0016, "lat": 50.738411}}, {"id": 2857526, "name": "Okel", "country": "DE", "coord": {"lon": 8.88333, "lat": 52.933331}}, {"id": 4544272, "name": "Okemah", "country": "US", "coord": {"lon": -96.305008, "lat": 35.43259}}, {"id": 5004359, "name": "Okemos", "country": "US", "coord": {"lon": -84.427467, "lat": 42.72226}}, {"id": 3208616, "name": "Okertalsiedlung", "country": "DE", "coord": {"lon": 10.55, "lat": 52.133331}}, {"id": 2128730, "name": "Oketo", "country": "JP", "coord": {"lon": 143.589172, "lat": 43.671391}}, {"id": 4544284, "name": "Okfuskee County", "country": "US", "coord": {"lon": -96.366951, "lat": 35.466751}}, {"id": 1261066, "name": "Okha", "country": "IN", "coord": {"lon": 69.060562, "lat": 22.46944}}, {"id": 2122614, "name": "Okha", "country": "RU", "coord": {"lon": 142.947784, "lat": 53.573891}}, {"id": 516073, "name": "Okhansk", "country": "RU", "coord": {"lon": 55.387718, "lat": 57.718552}}, {"id": 6610621, "name": "Okhotino", "country": "RU", "coord": {"lon": 41.919998, "lat": 58.080276}}, {"id": 516051, "name": "Okhotnichiy", "country": "RU", "coord": {"lon": 52.433331, "lat": 53.650002}}, {"id": 2122605, "name": "Okhotsk", "country": "RU", "coord": {"lon": 143.300003, "lat": 59.383331}}, {"id": 713749, "name": "Okhtyrka", "country": "UA", "coord": {"lon": 34.898788, "lat": 50.31036}}, {"id": 2327143, "name": "Okigwi", "country": "NG", "coord": {"lon": 7.35989, "lat": 5.83523}}, {"id": 1894616, "name": "Okinawa", "country": "JP", "coord": {"lon": 127.801392, "lat": 26.335831}}, {"id": 3909360, "name": "Okinawa Numero Uno", "country": "BO", "coord": {"lon": -62.816669, "lat": -17.23333}}, {"id": 1854345, "name": "Okinawa-ken", "country": "JP", "coord": {"lon": 126.668709, "lat": 25.772249}}, {"id": 1697245, "name": "Okiot", "country": "PH", "coord": {"lon": 123.166672, "lat": 9.56667}}, {"id": 4544379, "name": "Oklahoma", "country": "US", "coord": {"lon": -97.503281, "lat": 35.492088}}, {"id": 4544349, "name": "Oklahoma City", "country": "US", "coord": {"lon": -97.516434, "lat": 35.46756}}, {"id": 4544356, "name": "Oklahoma County", "country": "US", "coord": {"lon": -97.400307, "lat": 35.55006}}, {"id": 4716202, "name": "Oklaunion", "country": "US", "coord": {"lon": -99.142853, "lat": 34.129532}}, {"id": 7732576, "name": "Okmeydan\u0131", "country": "TR", "coord": {"lon": 28.9639, "lat": 41.054489}}, {"id": 4544383, "name": "Okmulgee", "country": "US", "coord": {"lon": -95.960548, "lat": 35.62344}}, {"id": 4544386, "name": "Okmulgee County", "country": "US", "coord": {"lon": -95.966942, "lat": 35.650101}}, {"id": 2327124, "name": "Oko", "country": "NG", "coord": {"lon": 5.59383, "lat": 6.2995}}, {"id": 2223226, "name": "Okoa", "country": "CM", "coord": {"lon": 11.6, "lat": 3.98333}}, {"id": 763351, "name": "Okocim", "country": "PL", "coord": {"lon": 20.601601, "lat": 49.948898}}, {"id": 2223216, "name": "Okola", "country": "CM", "coord": {"lon": 11.38333, "lat": 4.01667}}, {"id": 4303012, "name": "Okolona", "country": "US", "coord": {"lon": -85.687737, "lat": 38.141178}}, {"id": 4439566, "name": "Okolona", "country": "US", "coord": {"lon": -88.755333, "lat": 34.001781}}, {"id": 2396898, "name": "Okondja", "country": "GA", "coord": {"lon": 13.67533, "lat": -0.65487}}, {"id": 7533440, "name": "Okonek", "country": "PL", "coord": {"lon": 16.8535, "lat": 53.5284}}, {"id": 3090245, "name": "Okonek", "country": "PL", "coord": {"lon": 16.85158, "lat": 53.536179}}, {"id": 1496329, "name": "Okoneshnikovo", "country": "RU", "coord": {"lon": 75.083427, "lat": 54.837669}}, {"id": 716844, "name": "Okoritofulpos", "country": "HU", "coord": {"lon": 22.508101, "lat": 47.918621}}, {"id": 6093010, "name": "Okotoks", "country": "CA", "coord": {"lon": -113.982811, "lat": 50.728851}}, {"id": 3090228, "name": "Okrajnik", "country": "PL", "coord": {"lon": 19.275209, "lat": 49.737282}}, {"id": 3077834, "name": "Okres Cheb", "country": "CZ", "coord": {"lon": 12.5, "lat": 50.083328}}, {"id": 3077538, "name": "Okres Chrudim", "country": "CZ", "coord": {"lon": 15.83333, "lat": 49.833328}}, {"id": 3076586, "name": "Okres Doma\u017elice", "country": "CZ", "coord": {"lon": 12.91667, "lat": 49.5}}, {"id": 3072462, "name": "Okres Kutn\u00e1 Hora", "country": "CZ", "coord": {"lon": 15.25, "lat": 49.833328}}, {"id": 3058609, "name": "Okres Myjava", "country": "SK", "coord": {"lon": 17.58333, "lat": 48.75}}, {"id": 3067712, "name": "Okres Prachatice", "country": "CZ", "coord": {"lon": 13.86667, "lat": 49}}, {"id": 3064377, "name": "Okres T\u00e1bor", "country": "CZ", "coord": {"lon": 14.66667, "lat": 49.416672}}, {"id": 3063545, "name": "Okres \u00dast\u00ed nad Orlic\u00ed", "country": "CZ", "coord": {"lon": 16.533331, "lat": 50}}, {"id": 3061694, "name": "Okres \u017d\u010f\u00e1r nad S\u00e1zavou", "country": "CZ", "coord": {"lon": 16.033331, "lat": 49.5}}, {"id": 2857516, "name": "Okriftel", "country": "DE", "coord": {"lon": 8.5, "lat": 50.049999}}, {"id": 2326899, "name": "Okrika", "country": "NG", "coord": {"lon": 7.08488, "lat": 4.74159}}, {"id": 3069098, "name": "Okrisky", "country": "CZ", "coord": {"lon": 15.76959, "lat": 49.245392}}, {"id": 3069092, "name": "Okrouhlice", "country": "CZ", "coord": {"lon": 15.49083, "lat": 49.62991}}, {"id": 763327, "name": "Oksa", "country": "PL", "coord": {"lon": 20.100861, "lat": 50.728741}}, {"id": 2615859, "name": "Oksbol", "country": "DK", "coord": {"lon": 8.28757, "lat": 55.626801}}, {"id": 2789889, "name": "Okselaar", "country": "BE", "coord": {"lon": 5.01183, "lat": 51.034489}}, {"id": 778362, "name": "Oksfjord", "country": "NO", "coord": {"lon": 22.34786, "lat": 70.239571}}, {"id": 515980, "name": "Okshovo", "country": "RU", "coord": {"lon": 41.700001, "lat": 55.133331}}, {"id": 515975, "name": "Oksino", "country": "RU", "coord": {"lon": 37.594444, "lat": 55.158333}}, {"id": 875570, "name": "Okskiy", "country": "RU", "coord": {"lon": 43.772461, "lat": 56.176762}}, {"id": 515966, "name": "Oksovskiy", "country": "RU", "coord": {"lon": 39.898449, "lat": 62.606232}}, {"id": 4439581, "name": "Oktibbeha County", "country": "US", "coord": {"lon": -88.830048, "lat": 33.438179}}, {"id": 787475, "name": "Oktisi", "country": "MK", "coord": {"lon": 20.60722, "lat": 41.232498}}, {"id": 8256270, "name": "Oktjabrskij", "country": "BY", "coord": {"lon": 28.19813, "lat": 54.040588}}, {"id": 608679, "name": "Oktyabrsk", "country": "KZ", "coord": {"lon": 57.423328, "lat": 49.474442}}, {"id": 515879, "name": "Oktyabrskiy", "country": "RU", "coord": {"lon": 53.471031, "lat": 54.481468}}, {"id": 6283098, "name": "Oktyabrskiy", "country": "RU", "coord": {"lon": 41.005554, "lat": 57.743057}}, {"id": 515873, "name": "Oktyabrskiy", "country": "RU", "coord": {"lon": 37.977379, "lat": 55.608059}}, {"id": 515805, "name": "Oktyabrskoye", "country": "RU", "coord": {"lon": 44.741711, "lat": 43.06451}}, {"id": 698652, "name": "Oktyabrs\u2019ke", "country": "UA", "coord": {"lon": 34.126678, "lat": 45.292839}}, {"id": 7019825, "name": "Oktyabrs\u2019kyy", "country": "UA", "coord": {"lon": 33.604359, "lat": 44.592049}}, {"id": 819092, "name": "Oktyabr\u2019", "country": "RU", "coord": {"lon": 36.585278, "lat": 55.608891}}, {"id": 515938, "name": "Oktyabr\u2019sk", "country": "RU", "coord": {"lon": 48.700562, "lat": 53.167221}}, {"id": 515936, "name": "Oktyabr\u2019skaya", "country": "RU", "coord": {"lon": 39.809166, "lat": 46.276943}}, {"id": 797138, "name": "Oktyabr\u2019skiy", "country": "RU", "coord": {"lon": 37.319443, "lat": 45.248611}}, {"id": 515924, "name": "Oktyabr\u2019skiy", "country": "RU", "coord": {"lon": 42.488888, "lat": 44.257221}}, {"id": 840913, "name": "Oktyabr\u2019skiy", "country": "RU", "coord": {"lon": 39.088333, "lat": 45.185555}}, {"id": 515909, "name": "Oktyabr\u2019skiy", "country": "RU", "coord": {"lon": 43.641945, "lat": 47.969166}}, {"id": 515907, "name": "Oktyabr\u2019skiy", "country": "RU", "coord": {"lon": 36.356731, "lat": 50.43766}}, {"id": 6416066, "name": "Oktyabr\u2019skiy", "country": "RU", "coord": {"lon": 37.54113, "lat": 55.234268}}, {"id": 2128710, "name": "Oku-ikutahara", "country": "JP", "coord": {"lon": 143.516663, "lat": 43.849998}}, {"id": 3194145, "name": "Okucani", "country": "HR", "coord": {"lon": 17.20167, "lat": 45.258331}}, {"id": 1854246, "name": "Okuchi", "country": "JP", "coord": {"lon": 130.616669, "lat": 32.066669}}, {"id": 515771, "name": "Okulovka", "country": "RU", "coord": {"lon": 33.290829, "lat": 58.400829}}, {"id": 6608950, "name": "Okul\u2019tsevo", "country": "RU", "coord": {"lon": 42.220001, "lat": 56.84}}, {"id": 2111441, "name": "Okunoya", "country": "JP", "coord": {"lon": 140.416672, "lat": 36.283329}}, {"id": 515732, "name": "Okun\u00ebvo Ozero", "country": "RU", "coord": {"lon": 30.9, "lat": 64.699997}}, {"id": 1907174, "name": "Okura", "country": "JP", "coord": {"lon": 139.470276, "lat": 35.584721}}, {"id": 2038728, "name": "Okushiri", "country": "JP", "coord": {"lon": 139.518326, "lat": 42.168331}}, {"id": 2326811, "name": "Okuta", "country": "NG", "coord": {"lon": 3.18333, "lat": 9.21667}}, {"id": 2122574, "name": "Ola", "country": "RU", "coord": {"lon": 151.283325, "lat": 59.583328}}, {"id": 4124671, "name": "Ola", "country": "US", "coord": {"lon": -93.223228, "lat": 35.03231}}, {"id": 3115195, "name": "Olabe", "country": "ES", "coord": {"lon": -1.60263, "lat": 42.88464}}, {"id": 6358147, "name": "Olaberria", "country": "ES", "coord": {"lon": -2.20624, "lat": 43.026981}}, {"id": 3115206, "name": "Olaberria", "country": "ES", "coord": {"lon": -2.20349, "lat": 43.02726}}, {"id": 4364369, "name": "Olacin", "country": "US", "coord": {"lon": -77.361099, "lat": 39.405659}}, {"id": 3115203, "name": "Olaeta", "country": "ES", "coord": {"lon": -2.63105, "lat": 43.04734}}, {"id": 3842680, "name": "Olaeta", "country": "AR", "coord": {"lon": -63.907349, "lat": -33.045261}}, {"id": 2989636, "name": "Olagnier", "country": "FR", "coord": {"lon": 3.58339, "lat": 45.631149}}, {"id": 3115201, "name": "Olag\u00fce", "country": "ES", "coord": {"lon": -1.6192, "lat": 42.963428}}, {"id": 8013079, "name": "Olaia", "country": "PT", "coord": {"lon": -8.48499, "lat": 39.514091}}, {"id": 457052, "name": "Olaine", "country": "LV", "coord": {"lon": 23.938061, "lat": 56.785278}}, {"id": 7628320, "name": "Olaines Novads", "country": "LV", "coord": {"lon": 23.948059, "lat": 56.791389}}, {"id": 3115200, "name": "Olalla", "country": "ES", "coord": {"lon": -1.16033, "lat": 40.967579}}, {"id": 3604251, "name": "Olanchito", "country": "HN", "coord": {"lon": -86.566673, "lat": 15.5}}, {"id": 671884, "name": "Olanu", "country": "RO", "coord": {"lon": 24.299999, "lat": 44.866669}}, {"id": 671873, "name": "Olari", "country": "RO", "coord": {"lon": 21.549999, "lat": 46.383331}}, {"id": 3456005, "name": "Olaria", "country": "BR", "coord": {"lon": -49.166672, "lat": -25.23333}}, {"id": 3115198, "name": "Olarra", "country": "ES", "coord": {"lon": -2.78923, "lat": 43.148762}}, {"id": 3842672, "name": "Olascoaga", "country": "AR", "coord": {"lon": -60.611671, "lat": -35.236881}}, {"id": 716828, "name": "Olaszliszka", "country": "HU", "coord": {"lon": 21.433331, "lat": 48.25}}, {"id": 4276614, "name": "Olathe", "country": "US", "coord": {"lon": -94.81913, "lat": 38.881401}}, {"id": 5433349, "name": "Olathe", "country": "US", "coord": {"lon": -107.982292, "lat": 38.604988}}, {"id": 3115193, "name": "Olatz Txipia", "country": "ES", "coord": {"lon": -1.58333, "lat": 42.816669}}, {"id": 3842670, "name": "Olavarria", "country": "AR", "coord": {"lon": -60.32254, "lat": -36.892719}}, {"id": 3090205, "name": "Olawa", "country": "PL", "coord": {"lon": 17.292601, "lat": 50.946602}}, {"id": 3673609, "name": "Olaya Herrera", "country": "CO", "coord": {"lon": -77.496651, "lat": 1.25609}}, {"id": 3115190, "name": "Olazagutia", "country": "ES", "coord": {"lon": -2.19538, "lat": 42.875839}}, {"id": 6359737, "name": "Olazti/Olazagut\u00eda", "country": "ES", "coord": {"lon": -2.1983, "lat": 42.875961}}, {"id": 6361575, "name": "Olba", "country": "ES", "coord": {"lon": -0.64169, "lat": 40.125969}}, {"id": 3115188, "name": "Olba", "country": "ES", "coord": {"lon": -0.61667, "lat": 40.133331}}, {"id": 7872695, "name": "Olbendorf", "country": "AT", "coord": {"lon": 16.20927, "lat": 47.193459}}, {"id": 2769445, "name": "Olbendorf", "country": "AT", "coord": {"lon": 16.200001, "lat": 47.183331}}, {"id": 2857484, "name": "Olbernhau", "country": "DE", "coord": {"lon": 13.33333, "lat": 50.666672}}, {"id": 6548683, "name": "Olbersdorf", "country": "DE", "coord": {"lon": 14.7667, "lat": 50.883301}}, {"id": 2857481, "name": "Olbersdorf", "country": "DE", "coord": {"lon": 14.76667, "lat": 50.883331}}, {"id": 6550145, "name": "Olbersleben", "country": "DE", "coord": {"lon": 11.3333, "lat": 51.150002}}, {"id": 2857479, "name": "Olbersleben", "country": "DE", "coord": {"lon": 11.33333, "lat": 51.150002}}, {"id": 6540127, "name": "Olbia", "country": "IT", "coord": {"lon": 9.48563, "lat": 40.921371}}, {"id": 3172087, "name": "Olbia", "country": "IT", "coord": {"lon": 9.48563, "lat": 40.921371}}, {"id": 3172086, "name": "Olbia Marittima", "country": "IT", "coord": {"lon": 9.50528, "lat": 40.922401}}, {"id": 3069082, "name": "Olbramovice", "country": "CZ", "coord": {"lon": 16.40239, "lat": 48.984798}}, {"id": 3206256, "name": "Olbronn-Durrn", "country": "DE", "coord": {"lon": 8.75, "lat": 48.966671}}, {"id": 6440116, "name": "Olby", "country": "FR", "coord": {"lon": 2.88333, "lat": 45.75}}, {"id": 2989633, "name": "Olby", "country": "FR", "coord": {"lon": 2.86749, "lat": 45.74469}}, {"id": 671869, "name": "Olcea", "country": "RO", "coord": {"lon": 21.98333, "lat": 46.683331}}, {"id": 3172083, "name": "Olcenengo", "country": "IT", "coord": {"lon": 8.30983, "lat": 45.363461}}, {"id": 6556231, "name": "Olching", "country": "DE", "coord": {"lon": 11.32783, "lat": 48.207829}}, {"id": 2857472, "name": "Olching", "country": "DE", "coord": {"lon": 11.33333, "lat": 48.200001}}, {"id": 763310, "name": "Olchowce", "country": "PL", "coord": {"lon": 22.233049, "lat": 49.55315}}, {"id": 4716207, "name": "Olcott", "country": "US", "coord": {"lon": -95.170769, "lat": 29.59495}}, {"id": 5129654, "name": "Olcott", "country": "US", "coord": {"lon": -78.71476, "lat": 43.33783}}, {"id": 2154447, "name": "Old Bar", "country": "AU", "coord": {"lon": 152.583328, "lat": -31.966669}}, {"id": 2154445, "name": "Old Beach", "country": "AU", "coord": {"lon": 147.283325, "lat": -42.75}}, {"id": 5129662, "name": "Old Bethpage", "country": "US", "coord": {"lon": -73.453178, "lat": 40.7626}}, {"id": 2154444, "name": "Old Bonalbo", "country": "AU", "coord": {"lon": 152.600006, "lat": -28.65}}, {"id": 5102162, "name": "Old Bridge", "country": "US", "coord": {"lon": -74.365433, "lat": 40.414829}}, {"id": 5129665, "name": "Old Brookville", "country": "US", "coord": {"lon": -73.604851, "lat": 40.832039}}, {"id": 6093100, "name": "Old Chelsea", "country": "CA", "coord": {"lon": -75.811852, "lat": 45.503399}}, {"id": 6945291, "name": "Old City", "country": "IL", "coord": {"lon": 35.234169, "lat": 31.77667}}, {"id": 6940658, "name": "Old City", "country": "YE", "coord": {"lon": 44.2145, "lat": 15.3551}}, {"id": 7299967, "name": "Old Colwyn", "country": "GB", "coord": {"lon": -3.69343, "lat": 53.28474}}, {"id": 2652514, "name": "Old Colwyn", "country": "GB", "coord": {"lon": -3.69299, "lat": 53.288261}}, {"id": 5527644, "name": "Old Corbett Place", "country": "US", "coord": {"lon": -103.04406, "lat": 30.025181}}, {"id": 6093114, "name": "Old Crow", "country": "CA", "coord": {"lon": -139.834167, "lat": 67.571167}}, {"id": 4081309, "name": "Old Eastaboga", "country": "US", "coord": {"lon": -86.021637, "lat": 33.586491}}, {"id": 5204331, "name": "Old Forge", "country": "US", "coord": {"lon": -75.734909, "lat": 41.371189}}, {"id": 6093148, "name": "Old Fort", "country": "CA", "coord": {"lon": -79.832962, "lat": 44.7351}}, {"id": 5204339, "name": "Old Furnace", "country": "US", "coord": {"lon": -76.934967, "lat": 41.073971}}, {"id": 4839983, "name": "Old Greenwich", "country": "US", "coord": {"lon": -73.56485, "lat": 41.022881}}, {"id": 3489227, "name": "Old Harbour", "country": "JM", "coord": {"lon": -77.108978, "lat": 17.941441}}, {"id": 3489225, "name": "Old Harbour Bay", "country": "JM", "coord": {"lon": -77.097183, "lat": 17.90918}}, {"id": 5580548, "name": "Old Homestead", "country": "US", "coord": {"lon": -106.143631, "lat": 40.440262}}, {"id": 4335963, "name": "Old Jefferson", "country": "US", "coord": {"lon": -91.017052, "lat": 30.38269}}, {"id": 2154417, "name": "Old Junee", "country": "AU", "coord": {"lon": 147.533325, "lat": -34.833328}}, {"id": 2089168, "name": "Old Kamberatoro", "country": "PG", "coord": {"lon": 141.051834, "lat": -3.60986}}, {"id": 2962170, "name": "Old Kilcullen", "country": "IE", "coord": {"lon": -6.76528, "lat": 53.106392}}, {"id": 3310165, "name": "Old Kildimo", "country": "IE", "coord": {"lon": -8.80611, "lat": 52.612499}}, {"id": 2641014, "name": "Old Kilpatrick", "country": "GB", "coord": {"lon": -4.45567, "lat": 55.922409}}, {"id": 3489218, "name": "Old Lee Gate", "country": "JM", "coord": {"lon": -76.466667, "lat": 17.950001}}, {"id": 182361, "name": "Old Mombasa", "country": "KE", "coord": {"lon": 39.664902, "lat": -4.05052}}, {"id": 2641005, "name": "Old Monkland", "country": "GB", "coord": {"lon": -4.03781, "lat": 55.850319}}, {"id": 4840015, "name": "Old Mystic", "country": "US", "coord": {"lon": -71.961739, "lat": 41.391491}}, {"id": 5204368, "name": "Old Orchard", "country": "US", "coord": {"lon": -75.262123, "lat": 40.657879}}, {"id": 4974194, "name": "Old Orchard Beach", "country": "US", "coord": {"lon": -70.377548, "lat": 43.517311}}, {"id": 4869880, "name": "Old Orchard Mobile Home Park", "country": "US", "coord": {"lon": -93.62661, "lat": 42.006931}}, {"id": 6093319, "name": "Old Perlican", "country": "CA", "coord": {"lon": -53.014759, "lat": 48.083191}}, {"id": 4590045, "name": "Old Pickens", "country": "US", "coord": {"lon": -82.888763, "lat": 34.786209}}, {"id": 4716479, "name": "Old River-Winfree", "country": "US", "coord": {"lon": -94.832703, "lat": 29.86828}}, {"id": 4840035, "name": "Old Saybrook", "country": "US", "coord": {"lon": -72.376198, "lat": 41.291771}}, {"id": 7257394, "name": "Old Saybrook Center", "country": "US", "coord": {"lon": -72.36528, "lat": 41.2915}}, {"id": 150885, "name": "Old Shinyanga", "country": "TZ", "coord": {"lon": 33.400002, "lat": -3.55}}, {"id": 6690594, "name": "Old Street", "country": "GB", "coord": {"lon": -0.0851, "lat": 51.52623}}, {"id": 5102190, "name": "Old Tappan", "country": "US", "coord": {"lon": -73.991249, "lat": 41.010651}}, {"id": 4974231, "name": "Old Town", "country": "US", "coord": {"lon": -68.645309, "lat": 44.934231}}, {"id": 4483390, "name": "Old Trap", "country": "US", "coord": {"lon": -76.026871, "lat": 36.240711}}, {"id": 5870790, "name": "Old Valdez", "country": "US", "coord": {"lon": -146.266388, "lat": 61.115829}}, {"id": 5870787, "name": "Old Village (historical)", "country": "US", "coord": {"lon": -154.036392, "lat": 60.963329}}, {"id": 4303152, "name": "Old Washington", "country": "US", "coord": {"lon": -83.808533, "lat": 38.61591}}, {"id": 5129770, "name": "Old Westbury", "country": "US", "coord": {"lon": -73.599571, "lat": 40.788712}}, {"id": 2640981, "name": "Old Windsor", "country": "GB", "coord": {"lon": -0.58674, "lat": 51.458069}}, {"id": 2857471, "name": "Oldau", "country": "DE", "coord": {"lon": 9.93333, "lat": 52.650002}}, {"id": 2641036, "name": "Oldbury", "country": "GB", "coord": {"lon": -2.01667, "lat": 52.5}}, {"id": 2962179, "name": "Oldcastle", "country": "IE", "coord": {"lon": -7.15861, "lat": 53.76833}}, {"id": 4214235, "name": "Olde Federal Pointe", "country": "US", "coord": {"lon": -83.94574, "lat": 34.22121}}, {"id": 2749668, "name": "Oldebroek", "country": "NL", "coord": {"lon": 5.90139, "lat": 52.445}}, {"id": 2749660, "name": "Oldehove", "country": "NL", "coord": {"lon": 6.39583, "lat": 53.303329}}, {"id": 2749653, "name": "Oldemarkt", "country": "NL", "coord": {"lon": 5.975, "lat": 52.820831}}, {"id": 6552228, "name": "Oldenborstel", "country": "DE", "coord": {"lon": 9.51667, "lat": 54.0667}}, {"id": 2857464, "name": "Oldenborstel", "country": "DE", "coord": {"lon": 9.51667, "lat": 54.066669}}, {"id": 2857458, "name": "Oldenburg", "country": "DE", "coord": {"lon": 8.2, "lat": 53.166672}}, {"id": 2857451, "name": "Oldenburg in Holstein", "country": "DE", "coord": {"lon": 10.88333, "lat": 54.299999}}, {"id": 2857447, "name": "Oldenbuttel", "country": "DE", "coord": {"lon": 9.45, "lat": 54.166672}}, {"id": 6551895, "name": "Oldenb\u00fcttel", "country": "DE", "coord": {"lon": 9.45, "lat": 54.166698}}, {"id": 6552229, "name": "Oldendorf", "country": "DE", "coord": {"lon": 9.45858, "lat": 53.953411}}, {"id": 2857429, "name": "Oldendorf", "country": "DE", "coord": {"lon": 9.45858, "lat": 53.953411}}, {"id": 6552811, "name": "Oldendorf", "country": "DE", "coord": {"lon": 9.25, "lat": 53.583302}}, {"id": 2857432, "name": "Oldendorf", "country": "DE", "coord": {"lon": 9.25, "lat": 53.583328}}, {"id": 2857438, "name": "Oldendorf", "country": "DE", "coord": {"lon": 10.21667, "lat": 53.150002}}, {"id": 2857416, "name": "Oldenhutten", "country": "DE", "coord": {"lon": 9.73333, "lat": 54.150002}}, {"id": 6551896, "name": "Oldenh\u00fctten", "country": "DE", "coord": {"lon": 9.73333, "lat": 54.150002}}, {"id": 3172080, "name": "Oldenico", "country": "IT", "coord": {"lon": 8.38103, "lat": 45.40276}}, {"id": 2857414, "name": "Oldenrode", "country": "DE", "coord": {"lon": 9.81667, "lat": 51.716671}}, {"id": 2857412, "name": "Oldenstadt", "country": "DE", "coord": {"lon": 10.5891, "lat": 52.97583}}, {"id": 6551586, "name": "Oldenswort", "country": "DE", "coord": {"lon": 8.94025, "lat": 54.372421}}, {"id": 2857410, "name": "Oldenswort", "country": "DE", "coord": {"lon": 8.93996, "lat": 54.372429}}, {"id": 2749644, "name": "Oldenzaal", "country": "NL", "coord": {"lon": 6.92917, "lat": 52.313332}}, {"id": 778346, "name": "Olderdalen", "country": "NO", "coord": {"lon": 20.532721, "lat": 69.604073}}, {"id": 6551587, "name": "Oldersbek", "country": "DE", "coord": {"lon": 9.16667, "lat": 54.450001}}, {"id": 2857407, "name": "Oldersbek", "country": "DE", "coord": {"lon": 9.16929, "lat": 54.446789}}, {"id": 2857404, "name": "Oldershausen", "country": "DE", "coord": {"lon": 10.1, "lat": 51.799999}}, {"id": 2857402, "name": "Oldersum", "country": "DE", "coord": {"lon": 7.33333, "lat": 53.333328}}, {"id": 6551588, "name": "Olderup", "country": "DE", "coord": {"lon": 9.11667, "lat": 54.533298}}, {"id": 2857399, "name": "Olderup", "country": "DE", "coord": {"lon": 9.11667, "lat": 54.533329}}, {"id": 4716571, "name": "Oldham", "country": "US", "coord": {"lon": -96.881111, "lat": 32.872631}}, {"id": 2641022, "name": "Oldham", "country": "GB", "coord": {"lon": -2.1183, "lat": 53.540508}}, {"id": 2206984, "name": "Oldina", "country": "AU", "coord": {"lon": 145.683334, "lat": -41.083328}}, {"id": 6549979, "name": "Oldisleben", "country": "DE", "coord": {"lon": 11.1667, "lat": 51.299999}}, {"id": 2857388, "name": "Oldisleben", "country": "DE", "coord": {"lon": 11.16667, "lat": 51.299999}}, {"id": 2641007, "name": "Oldmeldrum", "country": "GB", "coord": {"lon": -2.3199, "lat": 57.334919}}, {"id": 3069059, "name": "Oldrisov", "country": "CZ", "coord": {"lon": 17.960739, "lat": 49.991299}}, {"id": 8012837, "name": "Oldr\u00f5es", "country": "PT", "coord": {"lon": -8.29113, "lat": 41.153641}}, {"id": 6093347, "name": "Olds", "country": "CA", "coord": {"lon": -114.10199, "lat": 51.783409}}, {"id": 4166936, "name": "Oldsmar", "country": "US", "coord": {"lon": -82.6651, "lat": 28.03418}}, {"id": 6551589, "name": "Oldsum", "country": "DE", "coord": {"lon": 8.44625, "lat": 54.731361}}, {"id": 3208561, "name": "Oldsum", "country": "DE", "coord": {"lon": 8.44471, "lat": 54.73106}}, {"id": 2962165, "name": "Oldtown", "country": "IE", "coord": {"lon": -6.31556, "lat": 53.52528}}, {"id": 2029698, "name": "Oldziyt", "country": "MN", "coord": {"lon": 101.37394, "lat": 48.528431}}, {"id": 2029700, "name": "Oldziyt", "country": "MN", "coord": {"lon": 109.01667, "lat": 44.683331}}, {"id": 3069067, "name": "Old\u0159ichovice", "country": "CZ", "coord": {"lon": 16.401979, "lat": 49.988529}}, {"id": 1697203, "name": "Olea", "country": "PH", "coord": {"lon": 120.5, "lat": 15.86667}}, {"id": 6360069, "name": "Olea de Boedo", "country": "ES", "coord": {"lon": -4.46803, "lat": 42.609261}}, {"id": 3115184, "name": "Olea de Boedo", "country": "ES", "coord": {"lon": -4.4504, "lat": 42.609901}}, {"id": 5129780, "name": "Olean", "country": "US", "coord": {"lon": -78.429741, "lat": 42.07756}}, {"id": 7533381, "name": "Olecko", "country": "PL", "coord": {"lon": 22.4981, "lat": 54.036098}}, {"id": 763291, "name": "Olecko", "country": "PL", "coord": {"lon": 22.50704, "lat": 54.033741}}, {"id": 3172079, "name": "Oleggio", "country": "IT", "coord": {"lon": 8.64343, "lat": 45.601471}}, {"id": 6535835, "name": "Oleggio Castello", "country": "IT", "coord": {"lon": 8.52713, "lat": 45.748871}}, {"id": 7084278, "name": "Olehsari", "country": "ID", "coord": {"lon": 114.319298, "lat": -8.2158}}, {"id": 6357327, "name": "Oleiros", "country": "ES", "coord": {"lon": -8.33733, "lat": 43.372589}}, {"id": 8010476, "name": "Oleiros", "country": "PT", "coord": {"lon": -7.88592, "lat": 39.949478}}, {"id": 8011725, "name": "Oleiros", "country": "PT", "coord": {"lon": -7.89912, "lat": 39.916939}}, {"id": 3115177, "name": "Oleiros", "country": "ES", "coord": {"lon": -8.31667, "lat": 43.333328}}, {"id": 1633620, "name": "Olejet", "country": "ID", "coord": {"lon": 108.569298, "lat": -6.9924}}, {"id": 6359738, "name": "Olejua", "country": "ES", "coord": {"lon": -2.13975, "lat": 42.623322}}, {"id": 3115176, "name": "Olejua", "country": "ES", "coord": {"lon": -2.14202, "lat": 42.623291}}, {"id": 2018571, "name": "Olekminsk", "country": "RU", "coord": {"lon": 120.426392, "lat": 60.373611}}, {"id": 698627, "name": "Oleksandrivka", "country": "UA", "coord": {"lon": 32.234921, "lat": 48.96336}}, {"id": 713683, "name": "Oleksandrivka", "country": "UA", "coord": {"lon": 30.634809, "lat": 46.32893}}, {"id": 698625, "name": "Oleksandriya", "country": "UA", "coord": {"lon": 33.115929, "lat": 48.669609}}, {"id": 6426982, "name": "Olemps", "country": "FR", "coord": {"lon": 2.56667, "lat": 44.349998}}, {"id": 2989629, "name": "Olemps", "country": "FR", "coord": {"lon": 2.5514, "lat": 44.346378}}, {"id": 2789887, "name": "Olen", "country": "BE", "coord": {"lon": 4.83333, "lat": 51.133331}}, {"id": 2789886, "name": "Olen", "country": "BE", "coord": {"lon": 4.8598, "lat": 51.143909}}, {"id": 3143628, "name": "Olen", "country": "NO", "coord": {"lon": 5.80799, "lat": 59.60437}}, {"id": 515698, "name": "Olenegorsk", "country": "RU", "coord": {"lon": 33.299999, "lat": 68.150002}}, {"id": 2018567, "name": "Olenek", "country": "RU", "coord": {"lon": 112.469101, "lat": 68.509247}}, {"id": 461727, "name": "Olenevka", "country": "UA", "coord": {"lon": 32.533329, "lat": 45.383331}}, {"id": 515687, "name": "Olenino", "country": "RU", "coord": {"lon": 33.48888, "lat": 56.209171}}, {"id": 6356174, "name": "Olesa de Bonesvalls", "country": "ES", "coord": {"lon": 1.84388, "lat": 41.3531}}, {"id": 3115172, "name": "Olesa de Bonesvalls", "country": "ES", "coord": {"lon": 1.84907, "lat": 41.354351}}, {"id": 3115171, "name": "Olesa de Montserrat", "country": "ES", "coord": {"lon": 1.89408, "lat": 41.54372}}, {"id": 515646, "name": "Oleshkovka", "country": "RU", "coord": {"lon": 44.25, "lat": 60.416668}}, {"id": 698598, "name": "Olesko", "country": "UA", "coord": {"lon": 24.89336, "lat": 49.96233}}, {"id": 3090170, "name": "Olesnica", "country": "PL", "coord": {"lon": 17.38986, "lat": 51.213379}}, {"id": 763268, "name": "Olesnica", "country": "PL", "coord": {"lon": 21.064569, "lat": 50.453571}}, {"id": 3069029, "name": "Olesnice", "country": "CZ", "coord": {"lon": 16.42169, "lat": 49.557549}}, {"id": 7533248, "name": "Olesno", "country": "PL", "coord": {"lon": 18.4132, "lat": 50.875999}}, {"id": 3090158, "name": "Olesno", "country": "PL", "coord": {"lon": 18.42094, "lat": 50.87698}}, {"id": 763263, "name": "Olesno", "country": "PL", "coord": {"lon": 20.925779, "lat": 50.201519}}, {"id": 3143625, "name": "Olestad", "country": "NO", "coord": {"lon": 10.68333, "lat": 61.116669}}, {"id": 763260, "name": "Oleszyce", "country": "PL", "coord": {"lon": 23.034809, "lat": 50.1675}}, {"id": 6431189, "name": "Oletta", "country": "FR", "coord": {"lon": 9.35, "lat": 42.633331}}, {"id": 2989625, "name": "Oletta", "country": "FR", "coord": {"lon": 9.356, "lat": 42.63237}}, {"id": 6536956, "name": "Olevano Romano", "country": "IT", "coord": {"lon": 13.03309, "lat": 41.860619}}, {"id": 3172074, "name": "Olevano Romano", "country": "IT", "coord": {"lon": 13.03309, "lat": 41.860619}}, {"id": 3172075, "name": "Olevano di Lomellina", "country": "IT", "coord": {"lon": 8.71664, "lat": 45.21376}}, {"id": 3172073, "name": "Olevano sul Tusciano", "country": "IT", "coord": {"lon": 15.02305, "lat": 40.657211}}, {"id": 698597, "name": "Olevsk", "country": "UA", "coord": {"lon": 27.652281, "lat": 51.224819}}, {"id": 5204432, "name": "Oley", "country": "US", "coord": {"lon": -75.789642, "lat": 40.387589}}, {"id": 7531860, "name": "Ole\u015bnica", "country": "PL", "coord": {"lon": 17.386, "lat": 51.210499}}, {"id": 2857363, "name": "Olfen", "country": "DE", "coord": {"lon": 7.4, "lat": 51.700001}}, {"id": 2018553, "name": "Olga", "country": "RU", "coord": {"lon": 135.289169, "lat": 43.744438}}, {"id": 4166943, "name": "Olga", "country": "US", "coord": {"lon": -81.712303, "lat": 26.71896}}, {"id": 6541490, "name": "Olgiate Comasco", "country": "IT", "coord": {"lon": 8.96764, "lat": 45.785381}}, {"id": 3172067, "name": "Olgiate Comasco", "country": "IT", "coord": {"lon": 8.96764, "lat": 45.785381}}, {"id": 3180789, "name": "Olgiate Molgora", "country": "IT", "coord": {"lon": 9.40335, "lat": 45.730282}}, {"id": 3172065, "name": "Olgiate Olona", "country": "IT", "coord": {"lon": 8.88147, "lat": 45.637058}}, {"id": 793505, "name": "Olgina", "country": "EE", "coord": {"lon": 28.12528, "lat": 59.395279}}, {"id": 3172064, "name": "Olginate", "country": "IT", "coord": {"lon": 9.41555, "lat": 45.792679}}, {"id": 515612, "name": "Olginka", "country": "RU", "coord": {"lon": 38.891109, "lat": 44.2075}}, {"id": 515558, "name": "Olgino", "country": "RU", "coord": {"lon": 29.922661, "lat": 59.837021}}, {"id": 515583, "name": "Olginskaya", "country": "RU", "coord": {"lon": 38.548641, "lat": 45.946098}}, {"id": 515582, "name": "Olginskaya", "country": "RU", "coord": {"lon": 39.949249, "lat": 47.187939}}, {"id": 2615749, "name": "Olgod", "country": "DK", "coord": {"lon": 8.62859, "lat": 55.80682}}, {"id": 8012430, "name": "Olhalvo", "country": "PT", "coord": {"lon": -9.06439, "lat": 39.100632}}, {"id": 2265448, "name": "Olhalvo", "country": "PT", "coord": {"lon": -9.06545, "lat": 39.09893}}, {"id": 2265447, "name": "Olhao", "country": "PT", "coord": {"lon": -7.8411, "lat": 37.028599}}, {"id": 2265441, "name": "Olheiros", "country": "PT", "coord": {"lon": -9.27225, "lat": 39.105808}}, {"id": 8012387, "name": "Olho Marinho", "country": "PT", "coord": {"lon": -9.23662, "lat": 39.330719}}, {"id": 2265437, "name": "Olho Marinho", "country": "PT", "coord": {"lon": -9.23179, "lat": 39.327911}}, {"id": 3393692, "name": "Olho d\u2019Agua", "country": "BR", "coord": {"lon": -39.950001, "lat": -2.88333}}, {"id": 8012018, "name": "Olh\u00e3o", "country": "PT", "coord": {"lon": -7.83082, "lat": 37.016788}}, {"id": 8010521, "name": "Olh\u00e3o", "country": "PT", "coord": {"lon": -7.81032, "lat": 37.04509}}, {"id": 3115170, "name": "Oliana", "country": "ES", "coord": {"lon": 1.31353, "lat": 42.068951}}, {"id": 2513146, "name": "Olias del Rey", "country": "ES", "coord": {"lon": -3.98684, "lat": 39.944359}}, {"id": 3115167, "name": "Olicio", "country": "ES", "coord": {"lon": -5.11534, "lat": 43.38271}}, {"id": 2789882, "name": "Oliehoek", "country": "BE", "coord": {"lon": 3.6, "lat": 50.849998}}, {"id": 3172059, "name": "Oliena", "country": "IT", "coord": {"lon": 9.40304, "lat": 40.272259}}, {"id": 6361576, "name": "Oliete", "country": "ES", "coord": {"lon": -0.63968, "lat": 40.993759}}, {"id": 3115165, "name": "Oliete", "country": "ES", "coord": {"lon": -0.67429, "lat": 40.99791}}, {"id": 3455923, "name": "Olimpia", "country": "BR", "coord": {"lon": -48.914719, "lat": -20.737221}}, {"id": 4566447, "name": "Olimpo", "country": "PR", "coord": {"lon": -66.108223, "lat": 18.001909}}, {"id": 3522364, "name": "Olinala", "country": "MX", "coord": {"lon": -98.849998, "lat": 17.83333}}, {"id": 2154386, "name": "Olinda", "country": "AU", "coord": {"lon": 145.366669, "lat": -37.849998}}, {"id": 2154387, "name": "Olinda", "country": "AU", "coord": {"lon": 150.133331, "lat": -32.833328}}, {"id": 3393536, "name": "Olinda", "country": "BR", "coord": {"lon": -34.855282, "lat": -8.00889}}, {"id": 3455913, "name": "Olindina", "country": "BR", "coord": {"lon": -38.333328, "lat": -11.36667}}, {"id": 1697191, "name": "Olingan", "country": "PH", "coord": {"lon": 123.319443, "lat": 8.53139}}, {"id": 698570, "name": "Olishevka", "country": "UA", "coord": {"lon": 31.333139, "lat": 51.22266}}, {"id": 6359739, "name": "Olite", "country": "ES", "coord": {"lon": -1.6798, "lat": 42.447411}}, {"id": 3115162, "name": "Olite", "country": "ES", "coord": {"lon": -1.65196, "lat": 42.47971}}, {"id": 6358891, "name": "Olius", "country": "ES", "coord": {"lon": 1.50853, "lat": 41.9897}}, {"id": 3115161, "name": "Olius", "country": "ES", "coord": {"lon": 1.5646, "lat": 42.010349}}, {"id": 6362046, "name": "Oliva", "country": "ES", "coord": {"lon": -0.0911, "lat": 38.897301}}, {"id": 3842662, "name": "Oliva", "country": "AR", "coord": {"lon": -63.569778, "lat": -32.04158}}, {"id": 2513145, "name": "Oliva", "country": "ES", "coord": {"lon": -0.11935, "lat": 38.919708}}, {"id": 6360184, "name": "Oliva (La)", "country": "ES", "coord": {"lon": -13.92263, "lat": 28.688181}}, {"id": 6535216, "name": "Oliva Gessi", "country": "IT", "coord": {"lon": 9.17936, "lat": 45.003559}}, {"id": 2513142, "name": "Oliva de Merida", "country": "ES", "coord": {"lon": -6.12402, "lat": 38.790508}}, {"id": 6355959, "name": "Oliva de M\u00e9rida", "country": "ES", "coord": {"lon": -6.05424, "lat": 38.741039}}, {"id": 6356831, "name": "Oliva de Plasencia", "country": "ES", "coord": {"lon": -6.09549, "lat": 40.105919}}, {"id": 3115159, "name": "Oliva de Plasencia", "country": "ES", "coord": {"lon": -6.08648, "lat": 40.11227}}, {"id": 6355958, "name": "Oliva de la Frontera", "country": "ES", "coord": {"lon": -6.98528, "lat": 38.254211}}, {"id": 2513143, "name": "Oliva de la Frontera", "country": "ES", "coord": {"lon": -6.91874, "lat": 38.275951}}, {"id": 2523975, "name": "Olivadi", "country": "IT", "coord": {"lon": 16.4237, "lat": 38.725578}}, {"id": 2265432, "name": "Olivais", "country": "PT", "coord": {"lon": -9.10674, "lat": 38.769939}}, {"id": 8012940, "name": "Olival", "country": "PT", "coord": {"lon": -8.53286, "lat": 41.060452}}, {"id": 2737064, "name": "Olival", "country": "PT", "coord": {"lon": -8.54416, "lat": 41.05024}}, {"id": 2265426, "name": "Olival", "country": "PT", "coord": {"lon": -8.33603, "lat": 39.901218}}, {"id": 2265422, "name": "Olival do Basto", "country": "PT", "coord": {"lon": -9.16621, "lat": 38.790791}}, {"id": 2513141, "name": "Olivar", "country": "ES", "coord": {"lon": -2.96302, "lat": 37.5406}}, {"id": 3878100, "name": "Olivar Bajo", "country": "CL", "coord": {"lon": -70.883331, "lat": -34.23333}}, {"id": 3522360, "name": "Olivar de los Padres", "country": "MX", "coord": {"lon": -99.216667, "lat": 19.33333}}, {"id": 6361022, "name": "Olivares", "country": "ES", "coord": {"lon": -6.16425, "lat": 37.44735}}, {"id": 2513140, "name": "Olivares", "country": "ES", "coord": {"lon": -6.15603, "lat": 37.418018}}, {"id": 6362230, "name": "Olivares de Duero", "country": "ES", "coord": {"lon": -4.36581, "lat": 41.646461}}, {"id": 3115155, "name": "Olivares de Duero", "country": "ES", "coord": {"lon": -4.36547, "lat": 41.63755}}, {"id": 2513137, "name": "Olivares de Jucar", "country": "ES", "coord": {"lon": -2.35589, "lat": 39.761009}}, {"id": 6357482, "name": "Olivares de J\u00facar", "country": "ES", "coord": {"lon": -2.33101, "lat": 39.755241}}, {"id": 4716599, "name": "Olivarez", "country": "US", "coord": {"lon": -97.992233, "lat": 26.228411}}, {"id": 4439869, "name": "Olive Branch", "country": "US", "coord": {"lon": -89.829529, "lat": 34.961761}}, {"id": 4303194, "name": "Olive Hill", "country": "US", "coord": {"lon": -83.174072, "lat": 38.300079}}, {"id": 5379264, "name": "Olivehurst", "country": "US", "coord": {"lon": -121.552193, "lat": 39.095451}}, {"id": 3455908, "name": "Oliveira", "country": "BR", "coord": {"lon": -44.827221, "lat": -20.69639}}, {"id": 2737053, "name": "Oliveira", "country": "PT", "coord": {"lon": -8.46965, "lat": 41.478191}}, {"id": 2737046, "name": "Oliveira de Azemeis", "country": "PT", "coord": {"lon": -8.47555, "lat": 40.841011}}, {"id": 8010425, "name": "Oliveira de Azem\u00e9is", "country": "PT", "coord": {"lon": -8.46945, "lat": 40.85078}}, {"id": 8014438, "name": "Oliveira de Azem\u00e9is", "country": "PT", "coord": {"lon": -8.47029, "lat": 40.84288}}, {"id": 8010659, "name": "Oliveira de Frades", "country": "PT", "coord": {"lon": -8.1752, "lat": 40.746391}}, {"id": 8014373, "name": "Oliveira de Frades", "country": "PT", "coord": {"lon": -8.18261, "lat": 40.725521}}, {"id": 2737043, "name": "Oliveira de Frades", "country": "PT", "coord": {"lon": -8.17481, "lat": 40.73357}}, {"id": 8010426, "name": "Oliveira do Bairro", "country": "PT", "coord": {"lon": -8.56374, "lat": 40.509769}}, {"id": 8014795, "name": "Oliveira do Bairro", "country": "PT", "coord": {"lon": -8.50504, "lat": 40.513481}}, {"id": 2737042, "name": "Oliveira do Bairro", "country": "PT", "coord": {"lon": -8.49386, "lat": 40.514599}}, {"id": 7116057, "name": "Oliveira do Conde", "country": "PT", "coord": {"lon": -7.954, "lat": 40.44178}}, {"id": 2737039, "name": "Oliveira do Douro", "country": "PT", "coord": {"lon": -8.58463, "lat": 41.12466}}, {"id": 8014858, "name": "Oliveira do Douro", "country": "PT", "coord": {"lon": -8.58658, "lat": 41.12336}}, {"id": 8014819, "name": "Oliveira do Douro", "country": "PT", "coord": {"lon": -8.04993, "lat": 41.076561}}, {"id": 8010491, "name": "Oliveira do Hospital", "country": "PT", "coord": {"lon": -7.86481, "lat": 40.355221}}, {"id": 2737038, "name": "Oliveira do Hospital", "country": "PT", "coord": {"lon": -7.86014, "lat": 40.361801}}, {"id": 3455903, "name": "Oliveira dos Brejinhos", "country": "BR", "coord": {"lon": -42.896111, "lat": -12.31694}}, {"id": 2737036, "name": "Oliveiras", "country": "PT", "coord": {"lon": -8.58333, "lat": 41.183331}}, {"id": 8010752, "name": "Oliveirinha", "country": "PT", "coord": {"lon": -8.5961, "lat": 40.59787}}, {"id": 2737033, "name": "Oliveirinha", "country": "PT", "coord": {"lon": -8.59198, "lat": 40.607151}}, {"id": 6356176, "name": "Olivella", "country": "ES", "coord": {"lon": 1.79812, "lat": 41.30283}}, {"id": 3115150, "name": "Olivella", "country": "ES", "coord": {"lon": 1.81667, "lat": 41.316669}}, {"id": 3393525, "name": "Olivenca", "country": "BR", "coord": {"lon": -37.190559, "lat": -9.51861}}, {"id": 6355960, "name": "Olivenza", "country": "ES", "coord": {"lon": -7.103, "lat": 38.683159}}, {"id": 6093514, "name": "Oliver", "country": "CA", "coord": {"lon": -119.552399, "lat": 49.18306}}, {"id": 4560152, "name": "Oliver", "country": "US", "coord": {"lon": -79.717819, "lat": 39.91869}}, {"id": 4364519, "name": "Oliver Beach", "country": "US", "coord": {"lon": -76.342743, "lat": 39.37289}}, {"id": 4647282, "name": "Oliver Springs", "country": "US", "coord": {"lon": -84.344368, "lat": 36.044521}}, {"id": 6615444, "name": "Oliver-Valdefierro, Oliver, Valdefierro", "country": "ES", "coord": {"lon": -0.93349, "lat": 41.644539}}, {"id": 2523972, "name": "Oliveri", "country": "IT", "coord": {"lon": 15.06278, "lat": 38.125759}}, {"id": 3842653, "name": "Oliveros", "country": "AR", "coord": {"lon": -60.85236, "lat": -32.575611}}, {"id": 3115149, "name": "Olives", "country": "ES", "coord": {"lon": -8.38333, "lat": 42.683331}}, {"id": 6434674, "name": "Olivet", "country": "FR", "coord": {"lon": 1.9, "lat": 47.866669}}, {"id": 2989611, "name": "Olivet", "country": "FR", "coord": {"lon": 1.8991, "lat": 47.86219}}, {"id": 4503401, "name": "Olivet", "country": "US", "coord": {"lon": -75.154633, "lat": 39.548168}}, {"id": 4647268, "name": "Olivet", "country": "US", "coord": {"lon": -88.20031, "lat": 35.214249}}, {"id": 5004454, "name": "Olivet", "country": "US", "coord": {"lon": -84.924149, "lat": 42.441429}}, {"id": 5230213, "name": "Olivet", "country": "US", "coord": {"lon": -97.675339, "lat": 43.240822}}, {"id": 3172051, "name": "Oliveto Citra", "country": "IT", "coord": {"lon": 15.22995, "lat": 40.690311}}, {"id": 3172050, "name": "Oliveto Lario", "country": "IT", "coord": {"lon": 9.28384, "lat": 45.930981}}, {"id": 3172049, "name": "Oliveto Lucano", "country": "IT", "coord": {"lon": 16.18458, "lat": 40.53532}}, {"id": 3167972, "name": "Olivetta San Michele", "country": "IT", "coord": {"lon": 7.51504, "lat": 43.878719}}, {"id": 4401938, "name": "Olivette", "country": "US", "coord": {"lon": -90.375954, "lat": 38.665329}}, {"id": 934225, "name": "Olivia", "country": "MU", "coord": {"lon": 57.725559, "lat": -20.297501}}, {"id": 5040195, "name": "Olivia", "country": "US", "coord": {"lon": -94.989723, "lat": 44.776348}}, {"id": 6534893, "name": "Olivola", "country": "IT", "coord": {"lon": 8.36784, "lat": 45.037251}}, {"id": 3430310, "name": "Olivos", "country": "AR", "coord": {"lon": -58.487019, "lat": -34.507469}}, {"id": 3115157, "name": "Oliv\u00e1n", "country": "ES", "coord": {"lon": -0.30341, "lat": 42.575401}}, {"id": 2282976, "name": "Oliziribou\u00e9", "country": "CI", "coord": {"lon": -5.69694, "lat": 5.85028}}, {"id": 1799155, "name": "Oljoq", "country": "CN", "coord": {"lon": 107.5, "lat": 38.366669}}, {"id": 515539, "name": "Olkhovatka", "country": "RU", "coord": {"lon": 39.287151, "lat": 50.283081}}, {"id": 7533287, "name": "Olkusz", "country": "PL", "coord": {"lon": 19.561701, "lat": 50.285801}}, {"id": 3090146, "name": "Olkusz", "country": "PL", "coord": {"lon": 19.565029, "lat": 50.2813}}, {"id": 4336092, "name": "Olla", "country": "US", "coord": {"lon": -92.243187, "lat": 31.902941}}, {"id": 6446181, "name": "Ollainville", "country": "FR", "coord": {"lon": 2.21667, "lat": 48.583328}}, {"id": 2989601, "name": "Ollainville", "country": "FR", "coord": {"lon": 2.21936, "lat": 48.590809}}, {"id": 3934055, "name": "Ollantaytambo", "country": "PE", "coord": {"lon": -72.263062, "lat": -13.25722}}, {"id": 6535675, "name": "Ollastra", "country": "IT", "coord": {"lon": 8.73423, "lat": 39.950951}}, {"id": 6359098, "name": "Ollauri", "country": "ES", "coord": {"lon": -2.82808, "lat": 42.541851}}, {"id": 3115143, "name": "Ollauri", "country": "ES", "coord": {"lon": -2.83448, "lat": 42.542561}}, {"id": 2857332, "name": "Ollen", "country": "DE", "coord": {"lon": 8.5, "lat": 53.166672}}, {"id": 6550146, "name": "Ollendorf", "country": "DE", "coord": {"lon": 11.1833, "lat": 51.033298}}, {"id": 2857328, "name": "Ollendorf", "country": "DE", "coord": {"lon": 11.18333, "lat": 51.033329}}, {"id": 6362048, "name": "Olleria (l')", "country": "ES", "coord": {"lon": -0.54693, "lat": 38.910549}}, {"id": 3115136, "name": "Olleros de Sabero", "country": "ES", "coord": {"lon": -5.18034, "lat": 42.830311}}, {"id": 3115135, "name": "Olleros de Tera", "country": "ES", "coord": {"lon": -6.10165, "lat": 41.9837}}, {"id": 7872696, "name": "Ollersdorf im Burgenland", "country": "AT", "coord": {"lon": 16.15835, "lat": 47.187809}}, {"id": 2769437, "name": "Ollersdorf im Burgenland", "country": "AT", "coord": {"lon": 16.16667, "lat": 47.183331}}, {"id": 2640976, "name": "Ollerton", "country": "GB", "coord": {"lon": -1.01667, "lat": 53.216671}}, {"id": 2857317, "name": "Ollingen", "country": "DE", "coord": {"lon": 10.14759, "lat": 48.528679}}, {"id": 6451510, "name": "Ollioules", "country": "FR", "coord": {"lon": 5.85, "lat": 43.133331}}, {"id": 2989590, "name": "Ollioules", "country": "FR", "coord": {"lon": 5.848, "lat": 43.13517}}, {"id": 6554776, "name": "Ollmuth", "country": "DE", "coord": {"lon": 6.71667, "lat": 49.666698}}, {"id": 2857316, "name": "Ollmuth", "country": "DE", "coord": {"lon": 6.71667, "lat": 49.666672}}, {"id": 6440118, "name": "Olloix", "country": "FR", "coord": {"lon": 3.05, "lat": 45.616669}}, {"id": 2989588, "name": "Olloix", "country": "FR", "coord": {"lon": 3.04966, "lat": 45.619942}}, {"id": 3172043, "name": "Ollolai", "country": "IT", "coord": {"lon": 9.17853, "lat": 40.168461}}, {"id": 6535076, "name": "Ollomont", "country": "IT", "coord": {"lon": 7.3106, "lat": 45.849758}}, {"id": 2659299, "name": "Ollon", "country": "CH", "coord": {"lon": 7.03333, "lat": 46.299999}}, {"id": 2659298, "name": "Ollon", "country": "CH", "coord": {"lon": 6.99314, "lat": 46.295238}}, {"id": 3115128, "name": "Olloniego", "country": "ES", "coord": {"lon": -5.82357, "lat": 43.298779}}, {"id": 3115142, "name": "Oll\u00e1varre", "country": "ES", "coord": {"lon": -2.83688, "lat": 42.818531}}, {"id": 2960197, "name": "Olm", "country": "LU", "coord": {"lon": 6.00028, "lat": 49.657219}}, {"id": 1513064, "name": "Olmaliq", "country": "UZ", "coord": {"lon": 69.598328, "lat": 40.844719}}, {"id": 6357973, "name": "Olmeda de Cobeta", "country": "ES", "coord": {"lon": -2.20763, "lat": 40.841919}}, {"id": 3115126, "name": "Olmeda de Cobeta", "country": "ES", "coord": {"lon": -2.1828, "lat": 40.859711}}, {"id": 6357483, "name": "Olmeda de la Cuesta", "country": "ES", "coord": {"lon": -2.4717, "lat": 40.307461}}, {"id": 3115125, "name": "Olmeda de la Cuesta", "country": "ES", "coord": {"lon": -2.47592, "lat": 40.310879}}, {"id": 3115124, "name": "Olmeda del Extremo", "country": "ES", "coord": {"lon": -2.73847, "lat": 40.765598}}, {"id": 6357484, "name": "Olmeda del Rey", "country": "ES", "coord": {"lon": -2.06191, "lat": 39.838051}}, {"id": 2513128, "name": "Olmeda del Rey", "country": "ES", "coord": {"lon": -2.08333, "lat": 39.799999}}, {"id": 2513126, "name": "Olmedilla de Alarcon", "country": "ES", "coord": {"lon": -2.1, "lat": 39.616669}}, {"id": 6357485, "name": "Olmedilla de Alarc\u00f3n", "country": "ES", "coord": {"lon": -2.11709, "lat": 39.614208}}, {"id": 6357486, "name": "Olmedilla de Eliz", "country": "ES", "coord": {"lon": -2.42241, "lat": 40.299049}}, {"id": 3115122, "name": "Olmedilla de Eliz", "country": "ES", "coord": {"lon": -2.41952, "lat": 40.302319}}, {"id": 6356510, "name": "Olmedillo de Roa", "country": "ES", "coord": {"lon": -3.92104, "lat": 41.780621}}, {"id": 3115119, "name": "Olmedillo de Roa", "country": "ES", "coord": {"lon": -3.9342, "lat": 41.783619}}, {"id": 6362231, "name": "Olmedo", "country": "ES", "coord": {"lon": -4.70881, "lat": 41.301609}}, {"id": 3115118, "name": "Olmedo", "country": "ES", "coord": {"lon": -4.68878, "lat": 41.28706}}, {"id": 3172042, "name": "Olmedo", "country": "IT", "coord": {"lon": 8.38021, "lat": 40.651562}}, {"id": 6360463, "name": "Olmedo de Camaces", "country": "ES", "coord": {"lon": -6.56477, "lat": 40.862782}}, {"id": 3115117, "name": "Olmedo de Camaces", "country": "ES", "coord": {"lon": -6.6236, "lat": 40.879669}}, {"id": 3172041, "name": "Olmeneta", "country": "IT", "coord": {"lon": 10.02227, "lat": 45.23587}}, {"id": 2989583, "name": "Olmet", "country": "FR", "coord": {"lon": 2.61081, "lat": 44.954239}}, {"id": 6431100, "name": "Olmeto", "country": "FR", "coord": {"lon": 8.91667, "lat": 41.716671}}, {"id": 2989579, "name": "Olmeto", "country": "FR", "coord": {"lon": 8.92023, "lat": 41.718861}}, {"id": 6362575, "name": "Olmillos de Castro", "country": "ES", "coord": {"lon": -5.97293, "lat": 41.73399}}, {"id": 3115114, "name": "Olmillos de Castro", "country": "ES", "coord": {"lon": -5.96791, "lat": 41.7318}}, {"id": 3115113, "name": "Olmillos de Muno", "country": "ES", "coord": {"lon": -3.93911, "lat": 42.20322}}, {"id": 6356511, "name": "Olmillos de Mu\u00f1\u00f3", "country": "ES", "coord": {"lon": -3.94014, "lat": 42.204491}}, {"id": 4716655, "name": "Olmito", "country": "US", "coord": {"lon": -97.534149, "lat": 26.02174}}, {"id": 6535512, "name": "Olmo Gentile", "country": "IT", "coord": {"lon": 8.24694, "lat": 44.585739}}, {"id": 3172038, "name": "Olmo al Brembo", "country": "IT", "coord": {"lon": 9.64905, "lat": 45.97229}}, {"id": 4716663, "name": "Olmos", "country": "US", "coord": {"lon": -98.03389, "lat": 29.44079}}, {"id": 3694256, "name": "Olmos", "country": "PE", "coord": {"lon": -79.745277, "lat": -5.98472}}, {"id": 4716676, "name": "Olmos Park", "country": "US", "coord": {"lon": -98.487518, "lat": 29.47884}}, {"id": 6362232, "name": "Olmos de Esgueva", "country": "ES", "coord": {"lon": -4.51208, "lat": 41.690151}}, {"id": 3115103, "name": "Olmos de Esgueva", "country": "ES", "coord": {"lon": -4.52254, "lat": 41.688148}}, {"id": 6360070, "name": "Olmos de Ojeda", "country": "ES", "coord": {"lon": -4.47467, "lat": 42.72683}}, {"id": 3115101, "name": "Olmos de Ojeda", "country": "ES", "coord": {"lon": -4.42446, "lat": 42.72274}}, {"id": 3115100, "name": "Olmos de Penafiel", "country": "ES", "coord": {"lon": -4.04316, "lat": 41.571419}}, {"id": 6362233, "name": "Olmos de Pe\u00f1afiel", "country": "ES", "coord": {"lon": -4.02459, "lat": 41.565022}}, {"id": 6554585, "name": "Olmscheid", "country": "DE", "coord": {"lon": 6.21667, "lat": 50.0667}}, {"id": 2857311, "name": "Olmscheid", "country": "DE", "coord": {"lon": 6.21667, "lat": 50.066669}}, {"id": 5040211, "name": "Olmsted County", "country": "US", "coord": {"lon": -92.45018, "lat": 44.000519}}, {"id": 5165635, "name": "Olmsted Falls", "country": "US", "coord": {"lon": -81.908188, "lat": 41.37505}}, {"id": 3878075, "name": "Olmu\u00e9", "country": "CL", "coord": {"lon": -71.199997, "lat": -33}}, {"id": 2789870, "name": "Olne", "country": "BE", "coord": {"lon": 5.74722, "lat": 50.590431}}, {"id": 2789869, "name": "Olne", "country": "BE", "coord": {"lon": 5.74662, "lat": 50.589939}}, {"id": 7295589, "name": "Olney", "country": "GB", "coord": {"lon": -0.71375, "lat": 52.16486}}, {"id": 2640972, "name": "Olney", "country": "GB", "coord": {"lon": -0.70201, "lat": 52.15345}}, {"id": 4364537, "name": "Olney", "country": "US", "coord": {"lon": -77.066917, "lat": 39.15316}}, {"id": 4246382, "name": "Olney", "country": "US", "coord": {"lon": -88.08532, "lat": 38.730881}}, {"id": 4716683, "name": "Olney", "country": "US", "coord": {"lon": -98.752838, "lat": 33.370659}}, {"id": 8012651, "name": "Olo", "country": "PT", "coord": {"lon": -8.00172, "lat": 41.298752}}, {"id": 2737029, "name": "Olo", "country": "PT", "coord": {"lon": -8.01159, "lat": 41.300049}}, {"id": 2513124, "name": "Olocau", "country": "ES", "coord": {"lon": -0.53333, "lat": 39.700001}}, {"id": 6357034, "name": "Olocau del Rey", "country": "ES", "coord": {"lon": -0.34144, "lat": 40.64106}}, {"id": 3115098, "name": "Olocau del Rey", "country": "ES", "coord": {"lon": -0.34041, "lat": 40.637749}}, {"id": 3584212, "name": "Olocuilta", "country": "SV", "coord": {"lon": -89.117218, "lat": 13.56972}}, {"id": 2687063, "name": "Olofstorp", "country": "SE", "coord": {"lon": 14, "lat": 58.25}}, {"id": 2687062, "name": "Olofstroem", "country": "SE", "coord": {"lon": 14.53402, "lat": 56.277302}}, {"id": 6360875, "name": "Olombrada", "country": "ES", "coord": {"lon": -4.15046, "lat": 41.432259}}, {"id": 3115097, "name": "Olombrada", "country": "ES", "coord": {"lon": -4.16071, "lat": 41.414921}}, {"id": 3069011, "name": "Olomouc", "country": "CZ", "coord": {"lon": 17.251751, "lat": 49.59552}}, {"id": 3339542, "name": "Olomouck\u00fd kraj", "country": "CZ", "coord": {"lon": 17.16667, "lat": 49.75}}, {"id": 515403, "name": "Olonets", "country": "RU", "coord": {"lon": 32.969761, "lat": 60.984749}}, {"id": 1697175, "name": "Olongapo", "country": "PH", "coord": {"lon": 120.282784, "lat": 14.82917}}, {"id": 1697172, "name": "Olongapo City", "country": "PH", "coord": {"lon": 120.26667, "lat": 14.83333}}, {"id": 7535941, "name": "Olonkinbyen", "country": "SJ", "coord": {"lon": -8.7187, "lat": 70.922096}}, {"id": 6445162, "name": "Olonne-sur-Mer", "country": "FR", "coord": {"lon": -1.78333, "lat": 46.533329}}, {"id": 2989572, "name": "Olonne-sur-Mer", "country": "FR", "coord": {"lon": -1.77293, "lat": 46.53524}}, {"id": 6612491, "name": "Olonzac", "country": "FR", "coord": {"lon": 2.7314, "lat": 43.283699}}, {"id": 2989571, "name": "Olonzac", "country": "FR", "coord": {"lon": 2.73098, "lat": 43.28294}}, {"id": 3592035, "name": "Olopa", "country": "GT", "coord": {"lon": -89.349998, "lat": 14.68333}}, {"id": 3115095, "name": "Oloriz", "country": "ES", "coord": {"lon": -1.61276, "lat": 42.63522}}, {"id": 6440538, "name": "Oloron-Sainte-Marie", "country": "FR", "coord": {"lon": -0.61069, "lat": 43.194408}}, {"id": 2989569, "name": "Oloron-Sainte-Marie", "country": "FR", "coord": {"lon": -0.61069, "lat": 43.194408}}, {"id": 3115094, "name": "Olost", "country": "ES", "coord": {"lon": 2.09458, "lat": 41.985401}}, {"id": 6357616, "name": "Olot", "country": "ES", "coord": {"lon": 2.48671, "lat": 42.183319}}, {"id": 3115093, "name": "Olot", "country": "ES", "coord": {"lon": 2.49012, "lat": 42.180962}}, {"id": 1217907, "name": "Olot", "country": "UZ", "coord": {"lon": 63.803329, "lat": 39.415001}}, {"id": 3069007, "name": "Olovi", "country": "CZ", "coord": {"lon": 12.55877, "lat": 50.251129}}, {"id": 3194133, "name": "Olovo", "country": "BA", "coord": {"lon": 18.582781, "lat": 44.130001}}, {"id": 2018498, "name": "Olovyannaya", "country": "RU", "coord": {"lon": 115.566673, "lat": 50.950001}}, {"id": 1261050, "name": "Olpad", "country": "IN", "coord": {"lon": 72.75, "lat": 21.33333}}, {"id": 2857306, "name": "Olpe", "country": "DE", "coord": {"lon": 7.85, "lat": 51.033329}}, {"id": 763249, "name": "Olpiny", "country": "PL", "coord": {"lon": 21.204639, "lat": 49.806862}}, {"id": 2769429, "name": "Olsach", "country": "AT", "coord": {"lon": 13.58389, "lat": 46.753609}}, {"id": 3068997, "name": "Olsany", "country": "CZ", "coord": {"lon": 16.85894, "lat": 49.965092}}, {"id": 2857291, "name": "Olsberg", "country": "DE", "coord": {"lon": 8.5, "lat": 51.349998}}, {"id": 2857289, "name": "Olsbrucken", "country": "DE", "coord": {"lon": 7.65, "lat": 49.533329}}, {"id": 6555054, "name": "Olsbr\u00fccken", "country": "DE", "coord": {"lon": 7.65, "lat": 49.533298}}, {"id": 2857279, "name": "Olsdorf", "country": "DE", "coord": {"lon": 8.63333, "lat": 54.299999}}, {"id": 6554484, "name": "Olsdorf", "country": "DE", "coord": {"lon": 6.38333, "lat": 49.950001}}, {"id": 2857281, "name": "Olsdorf", "country": "DE", "coord": {"lon": 6.3822, "lat": 49.953541}}, {"id": 2857276, "name": "Olsen", "country": "DE", "coord": {"lon": 7.6, "lat": 50.73333}}, {"id": 698510, "name": "Olshanskoye", "country": "UA", "coord": {"lon": 31.793751, "lat": 47.184109}}, {"id": 5767679, "name": "Olsonville", "country": "US", "coord": {"lon": -100.609032, "lat": 43.127781}}, {"id": 2749626, "name": "Olst", "country": "NL", "coord": {"lon": 6.10972, "lat": 52.337502}}, {"id": 2686979, "name": "Olstorp", "country": "SE", "coord": {"lon": 16.633329, "lat": 58.816669}}, {"id": 7283918, "name": "Olstorp", "country": "SE", "coord": {"lon": 12.27696, "lat": 57.822769}}, {"id": 2615730, "name": "Olstykke", "country": "DK", "coord": {"lon": 12.15509, "lat": 55.79567}}, {"id": 763245, "name": "Olszana", "country": "PL", "coord": {"lon": 20.521259, "lat": 49.567478}}, {"id": 763244, "name": "Olszanica", "country": "PL", "coord": {"lon": 22.443821, "lat": 49.477409}},