[{"id": 3396601, "name": "Lago da Pedra", "country": "BR", "coord": {"lon": -45.166672, "lat": -4.33333}}, {"id": 3390542, "name": "Riach\u00e3o do Bacamarte", "country": "BR", "coord": {"lon": -35.662781, "lat": -7.24806}}, {"id": 3470937, "name": "Bandeira", "country": "BR", "coord": {"lon": -40.559441, "lat": -15.88472}}, {"id": 3459867, "name": "Joaima", "country": "BR", "coord": {"lon": -41.03056, "lat": -16.654169}}, {"id": 3462112, "name": "Grandes Rios", "country": "BR", "coord": {"lon": -51.50639, "lat": -24.146391}}, {"id": 3451095, "name": "Rio Piracicaba", "country": "BR", "coord": {"lon": -43.174171, "lat": -19.929171}}, {"id": 3447296, "name": "Sud Mennucci", "country": "BR", "coord": {"lon": -50.923889, "lat": -20.69083}}, {"id": 3471296, "name": "Avanhandava", "country": "BR", "coord": {"lon": -49.949718, "lat": -21.460831}}, {"id": 3463399, "name": "Ferros", "country": "BR", "coord": {"lon": -43.023331, "lat": -19.231939}}, {"id": 3458136, "name": "Maiquinique", "country": "BR", "coord": {"lon": -40.266109, "lat": -15.62111}}, {"id": 3453010, "name": "Porciuncula", "country": "BR", "coord": {"lon": -42.040829, "lat": -20.96278}}, {"id": 3465527, "name": "Cordeiro", "country": "BR", "coord": {"lon": -42.360828, "lat": -22.02861}}, {"id": 3460530, "name": "Itubera", "country": "BR", "coord": {"lon": -39.14917, "lat": -13.73222}}, {"id": 3460597, "name": "Itatiba", "country": "BR", "coord": {"lon": -52.450001, "lat": -27.366671}}, {"id": 3461633, "name": "Iapu", "country": "BR", "coord": {"lon": -42.217781, "lat": -19.43667}}, {"id": 3447205, "name": "Tabapu\u00e3", "country": "BR", "coord": {"lon": -49.03167, "lat": -20.96417}}, {"id": 3453782, "name": "Pinhalzinho", "country": "BR", "coord": {"lon": -52.99194, "lat": -26.848061}}, {"id": 3451242, "name": "Rio Branco do Sul", "country": "BR", "coord": {"lon": -49.314171, "lat": -25.190001}}, {"id": 3456630, "name": "Moss\u00e2medes", "country": "BR", "coord": {"lon": -50.215, "lat": -16.126671}}, {"id": 3466171, "name": "Cicero Dantas", "country": "BR", "coord": {"lon": -38.383331, "lat": -10.6}}, {"id": 3456696, "name": "Morro do Chapeu", "country": "BR", "coord": {"lon": -41.156109, "lat": -11.55}}, {"id": 3385131, "name": "Vertentes", "country": "BR", "coord": {"lon": -35.988331, "lat": -7.90278}}, {"id": 3446006, "name": "Trombudo Central", "country": "BR", "coord": {"lon": -49.790279, "lat": -27.29917}}, {"id": 3467524, "name": "Canelinha", "country": "BR", "coord": {"lon": -48.76778, "lat": -27.264999}}, {"id": 3445895, "name": "Turvo", "country": "BR", "coord": {"lon": -49.679169, "lat": -28.926109}}, {"id": 3463187, "name": "Fontoura Xavier", "country": "BR", "coord": {"lon": -52.345829, "lat": -28.98278}}, {"id": 3403697, "name": "Cameta", "country": "BR", "coord": {"lon": -49.495831, "lat": -2.24444}}, {"id": 3393768, "name": "Abidos", "country": "BR", "coord": {"lon": -55.518059, "lat": -1.9175}}, {"id": 3457752, "name": "Maria da F\u00e9", "country": "BR", "coord": {"lon": -45.375278, "lat": -22.30806}}, {"id": 3397886, "name": "Itaquitinga", "country": "BR", "coord": {"lon": -35.101669, "lat": -7.66778}}, {"id": 3451950, "name": "Quintana", "country": "BR", "coord": {"lon": -50.307499, "lat": -22.0725}}, {"id": 3451812, "name": "Raposos", "country": "BR", "coord": {"lon": -43.804169, "lat": -19.96722}}, {"id": 3458718, "name": "Lauro Penteado", "country": "BR", "coord": {"lon": -50.45528, "lat": -21.513889}}, {"id": 3398312, "name": "Ilha Redonda", "country": "BR", "coord": {"lon": -39.549999, "lat": -8.63333}}, {"id": 3395215, "name": "Massaranduba", "country": "BR", "coord": {"lon": -35.789169, "lat": -7.20028}}, {"id": 3451286, "name": "Rinc\u00e3o", "country": "BR", "coord": {"lon": -48.070831, "lat": -21.586941}}, {"id": 3457119, "name": "Mirai", "country": "BR", "coord": {"lon": -42.61417, "lat": -21.19528}}, {"id": 3398902, "name": "Goianinha", "country": "BR", "coord": {"lon": -35.212502, "lat": -6.26472}}, {"id": 3445591, "name": "Valentim Gentil", "country": "BR", "coord": {"lon": -50.087502, "lat": -20.42222}}, {"id": 3454671, "name": "Paulo Frontin", "country": "BR", "coord": {"lon": -50.835831, "lat": -26.039721}}, {"id": 3461065, "name": "Ipui\u00fana", "country": "BR", "coord": {"lon": -46.18972, "lat": -22.09889}}, {"id": 3461580, "name": "Ibiraci", "country": "BR", "coord": {"lon": -47.122219, "lat": -20.462219}}, {"id": 3457581, "name": "Marumbi", "country": "BR", "coord": {"lon": -51.639439, "lat": -23.70611}}, {"id": 3454363, "name": "Pedro Gomes", "country": "BR", "coord": {"lon": -54.551941, "lat": -18.100559}}, {"id": 3445727, "name": "Ur\u00e2nia", "country": "BR", "coord": {"lon": -50.643059, "lat": -20.246111}}, {"id": 3389652, "name": "Santa Cruz do Capibaribe", "country": "BR", "coord": {"lon": -36.20472, "lat": -7.9575}}, {"id": 3462321, "name": "Gouv\u00eaa", "country": "BR", "coord": {"lon": -43.740829, "lat": -18.454439}}, {"id": 3461620, "name": "Ibia", "country": "BR", "coord": {"lon": -46.538891, "lat": -19.478331}}, {"id": 3385106, "name": "Vicosa do Ceara", "country": "BR", "coord": {"lon": -41.09222, "lat": -3.56222}}, {"id": 3465373, "name": "Correntina", "country": "BR", "coord": {"lon": -44.636669, "lat": -13.34333}}, {"id": 3451432, "name": "Riacho do Ouro", "country": "BR", "coord": {"lon": -47.133331, "lat": -11.61667}}, {"id": 3471919, "name": "Api\u00fana", "country": "BR", "coord": {"lon": -49.389721, "lat": -27.035561}}, {"id": 3448237, "name": "S\u00e3o Sebasti\u00e3o da Grama", "country": "BR", "coord": {"lon": -46.820831, "lat": -21.71056}}, {"id": 3463449, "name": "Feliz", "country": "BR", "coord": {"lon": -51.306389, "lat": -29.45083}}, {"id": 3456232, "name": "Nossa Senhora das Gra\u00e7as", "country": "BR", "coord": {"lon": -51.794441, "lat": -22.91361}}, {"id": 3464364, "name": "Ecoporanga", "country": "BR", "coord": {"lon": -40.830559, "lat": -18.373329}}, {"id": 3455020, "name": "Parauna", "country": "BR", "coord": {"lon": -50.448608, "lat": -16.947781}}, {"id": 3471012, "name": "Balsa Nova", "country": "BR", "coord": {"lon": -49.635559, "lat": -25.583891}}, {"id": 3452012, "name": "Quilombo", "country": "BR", "coord": {"lon": -52.720558, "lat": -26.72611}}, {"id": 3393876, "name": "Nova Cruz", "country": "BR", "coord": {"lon": -35.433891, "lat": -6.47806}}, {"id": 3472508, "name": "Alpestre", "country": "BR", "coord": {"lon": -53.035, "lat": -27.24889}}, {"id": 3457883, "name": "Manoel Viana", "country": "BR", "coord": {"lon": -55.48278, "lat": -29.58917}}, {"id": 3446313, "name": "Toropi", "country": "BR", "coord": {"lon": -54.228062, "lat": -29.478331}}, {"id": 3451182, "name": "Rio do Campo", "country": "BR", "coord": {"lon": -50.141392, "lat": -26.948891}}, {"id": 3460887, "name": "Itai", "country": "BR", "coord": {"lon": -49.090561, "lat": -23.41778}}, {"id": 3456905, "name": "Montanha", "country": "BR", "coord": {"lon": -40.363331, "lat": -18.12694}}, {"id": 3451270, "name": "Rio Acima", "country": "BR", "coord": {"lon": -43.78944, "lat": -20.0875}}, {"id": 3388443, "name": "Sao Jose de Mipibu", "country": "BR", "coord": {"lon": -35.237782, "lat": -6.07472}}, {"id": 3460242, "name": "Jaguaquara", "country": "BR", "coord": {"lon": -39.970829, "lat": -13.53056}}, {"id": 3466655, "name": "Catita", "country": "BR", "coord": {"lon": -44.73333, "lat": -19.549999}}, {"id": 3389898, "name": "Salgado", "country": "BR", "coord": {"lon": -36.26667, "lat": -9.6}}, {"id": 3450055, "name": "Santa Maria Madalena", "country": "BR", "coord": {"lon": -42.00806, "lat": -21.95528}}, {"id": 3407841, "name": "Alto da Concei\u00e7\u00e3o", "country": "BR", "coord": {"lon": -36.033329, "lat": -8.81667}}, {"id": 3445849, "name": "Ubata", "country": "BR", "coord": {"lon": -39.522781, "lat": -14.21389}}, {"id": 3460243, "name": "Jaguapit\u00e3", "country": "BR", "coord": {"lon": -51.53194, "lat": -23.11278}}, {"id": 3467536, "name": "Cand\u00f3i", "country": "BR", "coord": {"lon": -52.183331, "lat": -25.716669}}, {"id": 3456205, "name": "Nova Alian\u00e7a do Iva\u00ed", "country": "BR", "coord": {"lon": -52.60194, "lat": -23.17667}}, {"id": 3467688, "name": "Campos Altos", "country": "BR", "coord": {"lon": -46.171391, "lat": -19.69611}}, {"id": 3467761, "name": "Campo Florido", "country": "BR", "coord": {"lon": -48.57222, "lat": -19.760559}}, {"id": 3467860, "name": "Campina Verde", "country": "BR", "coord": {"lon": -49.486389, "lat": -19.535561}}, {"id": 3471819, "name": "Aramina", "country": "BR", "coord": {"lon": -47.785831, "lat": -20.090281}}, {"id": 3446291, "name": "Torrinha", "country": "BR", "coord": {"lon": -48.16917, "lat": -22.426109}}, {"id": 3395689, "name": "Manaira", "country": "BR", "coord": {"lon": -38.154442, "lat": -7.70611}}, {"id": 3473198, "name": "Acorizal", "country": "BR", "coord": {"lon": -56.365829, "lat": -15.20472}}, {"id": 3386628, "name": "Taquarana", "country": "BR", "coord": {"lon": -36.497219, "lat": -9.645}}, {"id": 3394645, "name": "Mombacinha", "country": "BR", "coord": {"lon": -36.700001, "lat": -9.88333}}, {"id": 3452191, "name": "Putinga", "country": "BR", "coord": {"lon": -52.154171, "lat": -29.00194}}, {"id": 3397931, "name": "Itapetim", "country": "BR", "coord": {"lon": -37.190281, "lat": -7.37833}}, {"id": 3404760, "name": "Bujaru", "country": "BR", "coord": {"lon": -48.04472, "lat": -1.515}}, {"id": 3402548, "name": "Castelo do Piaui", "country": "BR", "coord": {"lon": -41.552502, "lat": -5.32222}}, {"id": 3461543, "name": "Ibitirama", "country": "BR", "coord": {"lon": -41.667221, "lat": -20.541389}}, {"id": 3454419, "name": "Pedras Grandes", "country": "BR", "coord": {"lon": -49.185001, "lat": -28.435829}}, {"id": 3467707, "name": "Campo Novo", "country": "BR", "coord": {"lon": -53.803329, "lat": -27.67528}}, {"id": 3463737, "name": "Estrela do Sul", "country": "BR", "coord": {"lon": -47.69278, "lat": -18.74556}}, {"id": 3397230, "name": "Jose de Freitas", "country": "BR", "coord": {"lon": -42.575562, "lat": -4.75639}}, {"id": 3456504, "name": "Muquil\u00e3o", "country": "BR", "coord": {"lon": -52.116669, "lat": -24.23333}}, {"id": 3406160, "name": "Barreiros", "country": "BR", "coord": {"lon": -35.18639, "lat": -8.81833}}, {"id": 3448812, "name": "S\u00e3o Jorge do Iva\u00ed", "country": "BR", "coord": {"lon": -52.29306, "lat": -23.432779}}, {"id": 3458681, "name": "Lavrinhas", "country": "BR", "coord": {"lon": -44.902222, "lat": -22.570829}}, {"id": 3397680, "name": "Jaguaretama", "country": "BR", "coord": {"lon": -38.766941, "lat": -5.61278}}, {"id": 3461891, "name": "Guarani das Miss\u00f5es", "country": "BR", "coord": {"lon": -54.55806, "lat": -28.140829}}, {"id": 3445459, "name": "Varzea da Palma", "country": "BR", "coord": {"lon": -44.730831, "lat": -17.598061}}, {"id": 7774168, "name": "S\u00edtio Boa Esperan\u00e7a", "country": "BR", "coord": {"lon": -50.662689, "lat": -23.5352}}, {"id": 3459352, "name": "Ladario", "country": "BR", "coord": {"lon": -57.601669, "lat": -19.004721}}, {"id": 3453739, "name": "Pinheiro Preto", "country": "BR", "coord": {"lon": -51.230831, "lat": -27.05056}}, {"id": 3461715, "name": "Guzol\u00e2ndia", "country": "BR", "coord": {"lon": -50.661942, "lat": -20.649719}}, {"id": 3455461, "name": "Palmares do Sul", "country": "BR", "coord": {"lon": -50.50972, "lat": -30.25778}}, {"id": 3470687, "name": "Barra do Quara\u00ed", "country": "BR", "coord": {"lon": -57.554722, "lat": -30.20722}}, {"id": 3445148, "name": "Vianopolis", "country": "BR", "coord": {"lon": -48.516392, "lat": -16.74194}}, {"id": 3411892, "name": "Fortaleza do Taboc\u00e3o", "country": "BR", "coord": {"lon": -48.51889, "lat": -9.05722}}, {"id": 3461676, "name": "Hidrolina", "country": "BR", "coord": {"lon": -49.465, "lat": -14.72444}}, {"id": 3455189, "name": "Papanduva", "country": "BR", "coord": {"lon": -50.14444, "lat": -26.370279}}, {"id": 3400256, "name": "Fazenda Coit\u00e9", "country": "BR", "coord": {"lon": -38.666672, "lat": -3.9}}, {"id": 3460137, "name": "Japara\u00edba", "country": "BR", "coord": {"lon": -45.50333, "lat": -20.14139}}, {"id": 3450024, "name": "Santana", "country": "BR", "coord": {"lon": -39.75, "lat": -18.566669}}, {"id": 3472295, "name": "Anal\u00e2ndia", "country": "BR", "coord": {"lon": -47.663059, "lat": -22.12639}}, {"id": 3664539, "name": "Coari", "country": "BR", "coord": {"lon": -63.141392, "lat": -4.085}}, {"id": 3464413, "name": "Duas Barras", "country": "BR", "coord": {"lon": -41.650002, "lat": -21.383329}}, {"id": 3449519, "name": "Santo Antonio de Padua", "country": "BR", "coord": {"lon": -42.180279, "lat": -21.53944}}, {"id": 3408094, "name": "Alagoinha", "country": "BR", "coord": {"lon": -35.544998, "lat": -6.95}}, {"id": 3403344, "name": "Caninde de Sao Francisco", "country": "BR", "coord": {"lon": -37.78944, "lat": -9.66}}, {"id": 3466941, "name": "Carira", "country": "BR", "coord": {"lon": -37.701111, "lat": -10.36083}}, {"id": 3390896, "name": "Quixere", "country": "BR", "coord": {"lon": -37.988609, "lat": -5.07417}}, {"id": 3458341, "name": "Lunardelli", "country": "BR", "coord": {"lon": -51.200001, "lat": -23}}, {"id": 3465736, "name": "Concei\u00e7\u00e3o dos Ouros", "country": "BR", "coord": {"lon": -45.798061, "lat": -22.413059}}, {"id": 3461458, "name": "Iguatama", "country": "BR", "coord": {"lon": -45.711391, "lat": -20.17444}}, {"id": 3392361, "name": "Pendencias", "country": "BR", "coord": {"lon": -36.722221, "lat": -5.26}}, {"id": 3471685, "name": "Arceburgo", "country": "BR", "coord": {"lon": -46.939999, "lat": -21.36417}}, {"id": 3397675, "name": "Jaguaribe", "country": "BR", "coord": {"lon": -38.621941, "lat": -5.89056}}, {"id": 3473140, "name": "Adustina", "country": "BR", "coord": {"lon": -38.099998, "lat": -10.53333}}, {"id": 3458691, "name": "Lavras do Sul", "country": "BR", "coord": {"lon": -53.895, "lat": -30.813061}}, {"id": 3472319, "name": "Amorin\u00f3polis", "country": "BR", "coord": {"lon": -51.093609, "lat": -16.619169}}, {"id": 3453622, "name": "Pirai do Sul", "country": "BR", "coord": {"lon": -49.948608, "lat": -24.52611}}, {"id": 3386543, "name": "Tavares", "country": "BR", "coord": {"lon": -37.87833, "lat": -7.63583}}, {"id": 3397865, "name": "Itaueira", "country": "BR", "coord": {"lon": -43.025558, "lat": -7.60333}}, {"id": 3407797, "name": "Altos", "country": "BR", "coord": {"lon": -42.459999, "lat": -5.03806}}, {"id": 3470075, "name": "Bento de Abreu", "country": "BR", "coord": {"lon": -50.811939, "lat": -21.270559}}, {"id": 3389361, "name": "Santa Quiteria", "country": "BR", "coord": {"lon": -40.15667, "lat": -4.33194}}, {"id": 3455142, "name": "Para\u00ed", "country": "BR", "coord": {"lon": -51.785561, "lat": -28.59417}}, {"id": 3471094, "name": "Baixa Grande", "country": "BR", "coord": {"lon": -40.16806, "lat": -11.95972}}, {"id": 3385303, "name": "Veados", "country": "BR", "coord": {"lon": -40.383331, "lat": -3.86667}}, {"id": 3455082, "name": "Paramirim", "country": "BR", "coord": {"lon": -42.238892, "lat": -13.4425}}, {"id": 3464514, "name": "Dores de Campos", "country": "BR", "coord": {"lon": -44.02306, "lat": -21.108891}}, {"id": 3453807, "name": "Espirito Santo do Pinhal", "country": "BR", "coord": {"lon": -46.682781, "lat": -22.115829}}, {"id": 3472514, "name": "Alo\u00e2ndia", "country": "BR", "coord": {"lon": -49.480282, "lat": -17.727221}}, {"id": 3457792, "name": "Marcelino Ramos", "country": "BR", "coord": {"lon": -51.906391, "lat": -27.46167}}, {"id": 3391172, "name": "Princesa Isabel", "country": "BR", "coord": {"lon": -37.993328, "lat": -7.73667}}, {"id": 3453494, "name": "Piritiba", "country": "BR", "coord": {"lon": -40.555279, "lat": -11.73028}}, {"id": 3447634, "name": "Sete Barras", "country": "BR", "coord": {"lon": -47.92556, "lat": -24.387779}}, {"id": 3449856, "name": "Santa Rita do Araguaia", "country": "BR", "coord": {"lon": -53.20528, "lat": -17.32556}}, {"id": 3385118, "name": "Vicencia", "country": "BR", "coord": {"lon": -35.326672, "lat": -7.65694}}, {"id": 3404390, "name": "Cachoeira dos \u00c1ndios", "country": "BR", "coord": {"lon": -38.674171, "lat": -6.92694}}, {"id": 3447865, "name": "Selbach", "country": "BR", "coord": {"lon": -52.952499, "lat": -28.628611}}, {"id": 3451894, "name": "Rafard", "country": "BR", "coord": {"lon": -47.526939, "lat": -23.011669}}, {"id": 3663684, "name": "L\u00e1brea", "country": "BR", "coord": {"lon": -64.798058, "lat": -7.25861}}, {"id": 3460759, "name": "Itap\u00e9", "country": "BR", "coord": {"lon": -39.421108, "lat": -14.89833}}, {"id": 3467605, "name": "Can\u00e1polis", "country": "BR", "coord": {"lon": -49.204441, "lat": -18.725}}, {"id": 3398028, "name": "Iraucuba", "country": "BR", "coord": {"lon": -39.783329, "lat": -3.74611}}, {"id": 3472162, "name": "Anhembi", "country": "BR", "coord": {"lon": -48.12722, "lat": -22.78944}}, {"id": 3463558, "name": "Faxinal dos Guedes", "country": "BR", "coord": {"lon": -52.260281, "lat": -26.852779}}, {"id": 3451327, "name": "Ribeir\u00e3o Vermelho", "country": "BR", "coord": {"lon": -45.061939, "lat": -21.190559}}, {"id": 3454519, "name": "Pedralva", "country": "BR", "coord": {"lon": -45.465832, "lat": -22.242781}}, {"id": 3464957, "name": "Curral de Dentro", "country": "BR", "coord": {"lon": -41.84444, "lat": -15.9375}}, {"id": 3464630, "name": "Dobrada", "country": "BR", "coord": {"lon": -48.39389, "lat": -21.51667}}, {"id": 3461612, "name": "Ibiam", "country": "BR", "coord": {"lon": -51.236938, "lat": -27.181391}}, {"id": 3663142, "name": "Novo Aripuana", "country": "BR", "coord": {"lon": -60.379719, "lat": -5.12056}}, {"id": 3403685, "name": "Camocim de Sao Felix", "country": "BR", "coord": {"lon": -35.76194, "lat": -8.35861}}, {"id": 3451667, "name": "Resende Costa", "country": "BR", "coord": {"lon": -44.237499, "lat": -20.92222}}, {"id": 3456124, "name": "Nova Resende", "country": "BR", "coord": {"lon": -46.42028, "lat": -21.12611}}, {"id": 3471834, "name": "Araguaiana", "country": "BR", "coord": {"lon": -51.83139, "lat": -15.73389}}, {"id": 3445709, "name": "Urubici", "country": "BR", "coord": {"lon": -49.591671, "lat": -28.014999}}, {"id": 3665098, "name": "Barcelos", "country": "BR", "coord": {"lon": -62.924171, "lat": -0.97472}}, {"id": 3462339, "name": "Gonzaga", "country": "BR", "coord": {"lon": -42.479172, "lat": -18.82222}}, {"id": 3447047, "name": "Tai\u00fava", "country": "BR", "coord": {"lon": -48.451672, "lat": -21.12389}}, {"id": 3464044, "name": "Erv\u00e1lia", "country": "BR", "coord": {"lon": -42.657219, "lat": -20.84}}, {"id": 3453241, "name": "Pompeu", "country": "BR", "coord": {"lon": -45.099998, "lat": -19.16667}}, {"id": 3460785, "name": "Itanhem", "country": "BR", "coord": {"lon": -40.330002, "lat": -17.166389}}, {"id": 3407486, "name": "S\u00e3o Jo\u00e3o do Rio do Peixe", "country": "BR", "coord": {"lon": -38.448891, "lat": -6.72917}}, {"id": 3453324, "name": "Po\u00e7o Fundo", "country": "BR", "coord": {"lon": -45.965, "lat": -21.78083}}, {"id": 3388620, "name": "S\u00e3o Jo\u00e3o do Jaguaribe", "country": "BR", "coord": {"lon": -38.273609, "lat": -5.27111}}, {"id": 3455040, "name": "Parapu\u00e3", "country": "BR", "coord": {"lon": -50.771671, "lat": -21.768061}}, {"id": 3387727, "name": "Serrita", "country": "BR", "coord": {"lon": -39.29583, "lat": -7.93333}}, {"id": 3391130, "name": "Puxinana", "country": "BR", "coord": {"lon": -35.96056, "lat": -7.16111}}, {"id": 3461581, "name": "Ibiracatu", "country": "BR", "coord": {"lon": -44.163891, "lat": -15.66361}}, {"id": 3470116, "name": "Belo Vale", "country": "BR", "coord": {"lon": -44.024441, "lat": -20.40778}}, {"id": 3460180, "name": "Jambeiro", "country": "BR", "coord": {"lon": -45.687778, "lat": -23.253611}}, {"id": 3467792, "name": "Campo Belo do Sul", "country": "BR", "coord": {"lon": -50.76083, "lat": -27.89917}}, {"id": 3456288, "name": "Nioaque", "country": "BR", "coord": {"lon": -55.830002, "lat": -21.135281}}, {"id": 3479058, "name": "S\u00edtio Jo\u00e3o M. Claudino", "country": "BR", "coord": {"lon": -49.182999, "lat": -25.931499}}, {"id": 3468314, "name": "Cafarnaum", "country": "BR", "coord": {"lon": -41.46833, "lat": -11.69361}}, {"id": 3445177, "name": "Vermelho Novo", "country": "BR", "coord": {"lon": -42.266941, "lat": -20.03611}}, {"id": 3451100, "name": "Rio Pardo de Minas", "country": "BR", "coord": {"lon": -42.539719, "lat": -15.60972}}, {"id": 3445821, "name": "Uiba\u00ed", "country": "BR", "coord": {"lon": -42.1325, "lat": -11.33694}}, {"id": 3397873, "name": "Ita\u00fa", "country": "BR", "coord": {"lon": -37.992779, "lat": -5.83972}}, {"id": 3449938, "name": "Santana do Itarar\u00e9", "country": "BR", "coord": {"lon": -49.629169, "lat": -23.754999}}, {"id": 3448331, "name": "S\u00e3o Pedro do Turvo", "country": "BR", "coord": {"lon": -49.739719, "lat": -22.746941}}, {"id": 3924674, "name": "Xapuri", "country": "BR", "coord": {"lon": -68.50444, "lat": -10.65167}}, {"id": 3446860, "name": "Tapiratiba", "country": "BR", "coord": {"lon": -46.748611, "lat": -21.46833}}, {"id": 6322148, "name": "Borac\u00e9ia", "country": "BR", "coord": {"lon": -48.788631, "lat": -22.167589}}, {"id": 3469181, "name": "Boraceia", "country": "BR", "coord": {"lon": -48.778889, "lat": -22.19306}}, {"id": 3460221, "name": "Jaguari", "country": "BR", "coord": {"lon": -54.689999, "lat": -29.497499}}, {"id": 3455049, "name": "Paranhos", "country": "BR", "coord": {"lon": -55.43111, "lat": -23.89278}}, {"id": 3452919, "name": "Porto Amazonas", "country": "BR", "coord": {"lon": -49.890282, "lat": -25.54472}}, {"id": 3479327, "name": "Alian\u00e7a do Tocantins", "country": "BR", "coord": {"lon": -48.935829, "lat": -11.30611}}, {"id": 3471369, "name": "Astolfo Dutra", "country": "BR", "coord": {"lon": -42.862221, "lat": -21.315281}}, {"id": 3448871, "name": "S\u00e3o Jo\u00e3o do Caiu\u00e1", "country": "BR", "coord": {"lon": -52.336941, "lat": -22.85194}}, {"id": 3467817, "name": "Campo Alegre", "country": "BR", "coord": {"lon": -49.26556, "lat": -26.192499}}, {"id": 3390490, "name": "Riacho das Almas", "country": "BR", "coord": {"lon": -35.856392, "lat": -8.13389}}, {"id": 3384930, "name": "Xex\u00e9u", "country": "BR", "coord": {"lon": -35.626942, "lat": -8.80222}}, {"id": 3924753, "name": "S\u00eaco do Manduca", "country": "BR", "coord": {"lon": -61.900002, "lat": -11.3}}, {"id": 3463258, "name": "Floresta", "country": "BR", "coord": {"lon": -52.081108, "lat": -23.59889}}, {"id": 3454675, "name": "Paulo Bento", "country": "BR", "coord": {"lon": -52.421669, "lat": -27.701941}}, {"id": 3465080, "name": "Cruzeiro do Sul", "country": "BR", "coord": {"lon": -51.985279, "lat": -29.512779}}, {"id": 3450214, "name": "Santa Helena", "country": "BR", "coord": {"lon": -53.666672, "lat": -24.133329}}, {"id": 3450486, "name": "Sang\u00e3o", "country": "BR", "coord": {"lon": -49.129169, "lat": -28.637779}}, {"id": 3451144, "name": "Rio Fortuna", "country": "BR", "coord": {"lon": -49.105282, "lat": -28.131109}}, {"id": 3401725, "name": "Coremas", "country": "BR", "coord": {"lon": -37.945831, "lat": -7.01444}}, {"id": 3385538, "name": "Vargem Grande", "country": "BR", "coord": {"lon": -43.915829, "lat": -3.54306}}, {"id": 3465092, "name": "Cruzeiro", "country": "BR", "coord": {"lon": -46.633331, "lat": -21.700001}}, {"id": 3465179, "name": "Cristais", "country": "BR", "coord": {"lon": -45.518608, "lat": -20.875561}}, {"id": 3411698, "name": "Itapo\u00e3", "country": "BR", "coord": {"lon": -48.10833, "lat": -0.75}}, {"id": 3448033, "name": "Sapucaia", "country": "BR", "coord": {"lon": -42.91444, "lat": -21.995001}}, {"id": 3460992, "name": "Irundiara", "country": "BR", "coord": {"lon": -42.283329, "lat": -14.28333}}, {"id": 3471308, "name": "Auril\u00e2ndia", "country": "BR", "coord": {"lon": -50.464722, "lat": -16.681669}}, {"id": 3471383, "name": "Arvorezinha", "country": "BR", "coord": {"lon": -52.175282, "lat": -28.872219}}, {"id": 3449502, "name": "Santo Antonio do Leverger", "country": "BR", "coord": {"lon": -56.076672, "lat": -15.86556}}, {"id": 3408343, "name": "Acopiara", "country": "BR", "coord": {"lon": -39.452499, "lat": -6.09528}}, {"id": 3468147, "name": "Cajobi", "country": "BR", "coord": {"lon": -48.809441, "lat": -20.879721}}, {"id": 3460962, "name": "Itabi", "country": "BR", "coord": {"lon": -37.103062, "lat": -10.12639}}, {"id": 3446233, "name": "Trajano de Morais", "country": "BR", "coord": {"lon": -42.066391, "lat": -22.06333}}, {"id": 3461955, "name": "Guap\u00e9", "country": "BR", "coord": {"lon": -45.9175, "lat": -20.761669}}, {"id": 3449475, "name": "Santo Cristo", "country": "BR", "coord": {"lon": -54.662781, "lat": -27.823891}}, {"id": 3451383, "name": "Ribeira do Pombal", "country": "BR", "coord": {"lon": -38.535831, "lat": -10.83444}}, {"id": 3393792, "name": "Novo Lino", "country": "BR", "coord": {"lon": -35.646671, "lat": -8.915}}, {"id": 3385883, "name": "Uaua", "country": "BR", "coord": {"lon": -39.48167, "lat": -9.84139}}, {"id": 3461022, "name": "Irara", "country": "BR", "coord": {"lon": -38.76667, "lat": -12.05}}, {"id": 3461451, "name": "Iguati", "country": "BR", "coord": {"lon": -39.450001, "lat": -11.61667}}, {"id": 3453882, "name": "Pimenta", "country": "BR", "coord": {"lon": -45.798889, "lat": -20.483891}}, {"id": 3464105, "name": "Entre Folhas", "country": "BR", "coord": {"lon": -42.23056, "lat": -19.62528}}, {"id": 3664243, "name": "Feijo", "country": "BR", "coord": {"lon": -70.353607, "lat": -8.16417}}, {"id": 3467400, "name": "Capanema", "country": "BR", "coord": {"lon": -53.808891, "lat": -25.67194}}, {"id": 3464431, "name": "Doutor Pestana", "country": "BR", "coord": {"lon": -53.98333, "lat": -28.51667}}, {"id": 3969415, "name": "Teixeir\u00f3polis", "country": "BR", "coord": {"lon": -62.249439, "lat": -10.9175}}, {"id": 3403146, "name": "Capistrano", "country": "BR", "coord": {"lon": -38.90139, "lat": -4.47}}, {"id": 3401060, "name": "Desterro", "country": "BR", "coord": {"lon": -37.093891, "lat": -7.29056}}, {"id": 3467538, "name": "Candiota", "country": "BR", "coord": {"lon": -53.672501, "lat": -31.55806}}, {"id": 3451942, "name": "Quinze de Novembro", "country": "BR", "coord": {"lon": -53.093609, "lat": -28.748329}}, {"id": 3451403, "name": "Rialma", "country": "BR", "coord": {"lon": -49.584438, "lat": -15.315}}, {"id": 3460076, "name": "Jardim Alegre", "country": "BR", "coord": {"lon": -51.692219, "lat": -24.179171}}, {"id": 3467763, "name": "Campo Er\u00ea", "country": "BR", "coord": {"lon": -53.07806, "lat": -26.394171}}, {"id": 3465145, "name": "Crixas", "country": "BR", "coord": {"lon": -49.96917, "lat": -14.54889}}, {"id": 7776579, "name": "S\u00edtio Jorge C. de Oliviera", "country": "BR", "coord": {"lon": -49.834599, "lat": -23.6998}}, {"id": 3451044, "name": "Riozinho", "country": "BR", "coord": {"lon": -50.452499, "lat": -29.641109}}, {"id": 3465616, "name": "Contenda", "country": "BR", "coord": {"lon": -49.534721, "lat": -25.67556}}, {"id": 3449479, "name": "Santo Antonio do Sudoeste", "country": "BR", "coord": {"lon": -53.725281, "lat": -26.07361}}, {"id": 3399040, "name": "Garcia", "country": "BR", "coord": {"lon": -37.083328, "lat": -9.38333}}, {"id": 3445943, "name": "Tuneiras do Oeste", "country": "BR", "coord": {"lon": -52.87611, "lat": -23.87056}}, {"id": 3388272, "name": "S\u00e3o Miguel de Taipu", "country": "BR", "coord": {"lon": -35.209721, "lat": -7.24972}}, {"id": 3467686, "name": "Campos Borges", "country": "BR", "coord": {"lon": -52.998611, "lat": -28.88611}}, {"id": 3397900, "name": "Itapor\u00e3 do Tocantins", "country": "BR", "coord": {"lon": -48.689171, "lat": -8.57139}}, {"id": 3456137, "name": "Nova Olimpia", "country": "BR", "coord": {"lon": -57.288059, "lat": -14.79722}}, {"id": 3468422, "name": "Cachoeirinha", "country": "BR", "coord": {"lon": -38.966671, "lat": -12.65}}, {"id": 3465757, "name": "Concei\u00e7\u00e3o de Macabu", "country": "BR", "coord": {"lon": -41.868328, "lat": -22.085279}}, {"id": 3462686, "name": "Galil\u00e9ia", "country": "BR", "coord": {"lon": -41.537498, "lat": -18.999439}}, {"id": 3458721, "name": "Lauro Muller", "country": "BR", "coord": {"lon": -49.396671, "lat": -28.39278}}, {"id": 3469149, "name": "Bossoroca", "country": "BR", "coord": {"lon": -54.90028, "lat": -28.73}}, {"id": 3460666, "name": "Itaporanga", "country": "BR", "coord": {"lon": -49.489719, "lat": -23.707781}}, {"id": 3462486, "name": "S\u00e3o Vicente do Sul", "country": "BR", "coord": {"lon": -54.67944, "lat": -29.691669}}, {"id": 3458121, "name": "Malacacheta", "country": "BR", "coord": {"lon": -42.076672, "lat": -17.84222}}, {"id": 3447861, "name": "Sem Peixe", "country": "BR", "coord": {"lon": -42.839439, "lat": -20.109171}}, {"id": 3451208, "name": "Rio das Flores", "country": "BR", "coord": {"lon": -43.58556, "lat": -22.1675}}, {"id": 3386260, "name": "Torr\u00e3o", "country": "BR", "coord": {"lon": -40.01667, "lat": -7.08333}}, {"id": 3449509, "name": "Santo Ant\u00f4nio do Grama", "country": "BR", "coord": {"lon": -42.608608, "lat": -20.31444}}, {"id": 3389721, "name": "Sanhar\u00f3", "country": "BR", "coord": {"lon": -36.565559, "lat": -8.36056}}, {"id": 3451772, "name": "Rebou\u00e7as", "country": "BR", "coord": {"lon": -50.69278, "lat": -25.62056}}, {"id": 3406001, "name": "Batalha", "country": "BR", "coord": {"lon": -42.075001, "lat": -4.025}}, {"id": 3445157, "name": "Viadutos", "country": "BR", "coord": {"lon": -52.020279, "lat": -27.569441}}, {"id": 3455536, "name": "Pains", "country": "BR", "coord": {"lon": -45.661388, "lat": -20.37056}}, {"id": 3391918, "name": "Pires Ferreira", "country": "BR", "coord": {"lon": -40.645279, "lat": -4.24667}}, {"id": 3395239, "name": "Massap\u00ea", "country": "BR", "coord": {"lon": -40.342781, "lat": -3.52278}}, {"id": 3402360, "name": "Ceara Mirim", "country": "BR", "coord": {"lon": -35.42556, "lat": -5.63444}}, {"id": 3395456, "name": "Maraial", "country": "BR", "coord": {"lon": -35.808891, "lat": -8.7825}}, {"id": 3460827, "name": "Italva", "country": "BR", "coord": {"lon": -41.69083, "lat": -21.42083}}, {"id": 3446870, "name": "Tapira\u00ed", "country": "BR", "coord": {"lon": -47.507221, "lat": -23.96361}}, {"id": 3451088, "name": "Rio Preto", "country": "BR", "coord": {"lon": -43.827782, "lat": -22.08917}}, {"id": 3456596, "name": "Mu\u00e7um", "country": "BR", "coord": {"lon": -51.867779, "lat": -29.164721}}, {"id": 3392415, "name": "Peixe", "country": "BR", "coord": {"lon": -35.666672, "lat": -9.3}}, {"id": 3459872, "name": "J. M. P\u00e9res", "country": "BR", "coord": {"lon": -51.966671, "lat": -18.23333}}, {"id": 3458671, "name": "Lebon R\u00e9gis", "country": "BR", "coord": {"lon": -50.695278, "lat": -26.92889}}, {"id": 3388266, "name": "Sao Miguel do Tapuio", "country": "BR", "coord": {"lon": -41.32333, "lat": -5.50361}}, {"id": 6321162, "name": "Belo Horizonte", "country": "BR", "coord": {"lon": -43.939819, "lat": -19.926229}}, {"id": 3465695, "name": "Confins", "country": "BR", "coord": {"lon": -43.98278, "lat": -19.6325}}, {"id": 3465071, "name": "Cruzilia", "country": "BR", "coord": {"lon": -44.808331, "lat": -21.83861}}, {"id": 3452338, "name": "Presidente Alves", "country": "BR", "coord": {"lon": -49.438061, "lat": -22.1}}, {"id": 3454130, "name": "Pereiras", "country": "BR", "coord": {"lon": -47.700001, "lat": -22.366671}}, {"id": 3472873, "name": "\u00c1guas da Prata", "country": "BR", "coord": {"lon": -46.716671, "lat": -21.93667}}, {"id": 3456531, "name": "Muniz Ferreira", "country": "BR", "coord": {"lon": -39.110001, "lat": -13.00278}}, {"id": 3461999, "name": "Guaimb\u00ea", "country": "BR", "coord": {"lon": -49.896671, "lat": -21.91}}, {"id": 3386693, "name": "Taperoa", "country": "BR", "coord": {"lon": -36.826672, "lat": -7.2075}}, {"id": 3468745, "name": "Buriti Alegre", "country": "BR", "coord": {"lon": -49.040279, "lat": -18.139999}}, {"id": 3456199, "name": "Nova Ara\u00e7\u00e1", "country": "BR", "coord": {"lon": -51.744999, "lat": -28.659439}}, {"id": 3463431, "name": "Fernando Prestes", "country": "BR", "coord": {"lon": -48.68528, "lat": -21.264441}}, {"id": 3465111, "name": "Cruz\u00e1lia", "country": "BR", "coord": {"lon": -50.79361, "lat": -22.735559}}, {"id": 3448240, "name": "S\u00e3o Sebasti\u00e3o da Amoreira", "country": "BR", "coord": {"lon": -50.761108, "lat": -23.465281}}, {"id": 3465500, "name": "Coroaci", "country": "BR", "coord": {"lon": -42.285831, "lat": -18.621941}}, {"id": 3471796, "name": "Arapor\u00e3", "country": "BR", "coord": {"lon": -49.185001, "lat": -18.43611}}, {"id": 3458805, "name": "Laranja da Terra", "country": "BR", "coord": {"lon": -41.056671, "lat": -19.89889}}, {"id": 3465877, "name": "Coluna", "country": "BR", "coord": {"lon": -42.840279, "lat": -18.233891}}, {"id": 3466673, "name": "Catigu\u00e1", "country": "BR", "coord": {"lon": -49.058331, "lat": -21.04944}}, {"id": 3450116, "name": "Santa Margarida", "country": "BR", "coord": {"lon": -42.250561, "lat": -20.38389}}, {"id": 3465156, "name": "Cristina", "country": "BR", "coord": {"lon": -45.264172, "lat": -22.211941}}, {"id": 3445854, "name": "Ubaira", "country": "BR", "coord": {"lon": -39.662781, "lat": -13.26806}}, {"id": 3458437, "name": "Lontras", "country": "BR", "coord": {"lon": -49.541939, "lat": -27.166109}}, {"id": 3445304, "name": "Vera Cruz", "country": "BR", "coord": {"lon": -49.819439, "lat": -22.219721}}, {"id": 3465470, "name": "Coronel Macedo", "country": "BR", "coord": {"lon": -49.31361, "lat": -23.631109}}, {"id": 3457561, "name": "Massaranduba", "country": "BR", "coord": {"lon": -49.008331, "lat": -26.610559}}, {"id": 3455435, "name": "Palmeira", "country": "BR", "coord": {"lon": -42.066669, "lat": -17.616671}}, {"id": 3399132, "name": "Gameleira", "country": "BR", "coord": {"lon": -35.386669, "lat": -8.58444}}, {"id": 3393455, "name": "Ourem", "country": "BR", "coord": {"lon": -47.114441, "lat": -1.55194}}, {"id": 3453647, "name": "Piracema", "country": "BR", "coord": {"lon": -44.482498, "lat": -20.50778}}, {"id": 3461210, "name": "Inha\u00fama", "country": "BR", "coord": {"lon": -44.389721, "lat": -19.49111}}, {"id": 3458330, "name": "Luzerna", "country": "BR", "coord": {"lon": -51.46722, "lat": -27.13278}}, {"id": 3467493, "name": "Canitar", "country": "BR", "coord": {"lon": -49.783329, "lat": -23.00639}}, {"id": 3392731, "name": "Paulo Ramos", "country": "BR", "coord": {"lon": -45.183331, "lat": -4.21667}}, {"id": 3400311, "name": "Fazenda Campina", "country": "BR", "coord": {"lon": -40.183331, "lat": -4.56667}}, {"id": 3385512, "name": "Varginha", "country": "BR", "coord": {"lon": -38.75, "lat": -8.85}}, {"id": 3398688, "name": "Gravat\u00e1", "country": "BR", "coord": {"lon": -36.366669, "lat": -8.55}}, {"id": 3384986, "name": "Vitoria do Mearim", "country": "BR", "coord": {"lon": -44.87056, "lat": -3.46222}}, {"id": 3464684, "name": "Dores do Rio Preto", "country": "BR", "coord": {"lon": -41.84528, "lat": -20.68889}}, {"id": 7774303, "name": "S\u00edtio Paulo Branco", "country": "BR", "coord": {"lon": -50.727901, "lat": -23.71253}}, {"id": 3468732, "name": "Buritis", "country": "BR", "coord": {"lon": -46.423328, "lat": -15.61778}}, {"id": 3453300, "name": "Poco Verde", "country": "BR", "coord": {"lon": -38.183331, "lat": -10.70833}}, {"id": 7776796, "name": "S\u00edtio Maria B. Ziller", "country": "BR", "coord": {"lon": -49.920601, "lat": -23.5816}}, {"id": 3457151, "name": "Minduri", "country": "BR", "coord": {"lon": -44.603889, "lat": -21.68194}}, {"id": 3457691, "name": "Mariluz", "country": "BR", "coord": {"lon": -53.146111, "lat": -24.00222}}, {"id": 3390188, "name": "Ros\u00e1rio", "country": "BR", "coord": {"lon": -44.235001, "lat": -2.93444}}, {"id": 3393783, "name": "Novo Oriente", "country": "BR", "coord": {"lon": -40.77417, "lat": -5.53444}}, {"id": 3463698, "name": "Euclides da Cunha", "country": "BR", "coord": {"lon": -39.015831, "lat": -10.5075}}, {"id": 3473218, "name": "Acajutiba", "country": "BR", "coord": {"lon": -38.01722, "lat": -11.66222}}, {"id": 3468689, "name": "Caatiba", "country": "BR", "coord": {"lon": -40.407501, "lat": -14.97667}}, {"id": 3444823, "name": "Xique Xique", "country": "BR", "coord": {"lon": -42.73111, "lat": -10.82167}}, {"id": 3396391, "name": "Laranjeira", "country": "BR", "coord": {"lon": -38.866669, "lat": -5.28333}}, {"id": 3450057, "name": "Santa Maria do Suacui", "country": "BR", "coord": {"lon": -42.414169, "lat": -18.190281}}, {"id": 3398105, "name": "Ipubi", "country": "BR", "coord": {"lon": -40.148891, "lat": -7.65194}}, {"id": 3451192, "name": "Rio de Contas", "country": "BR", "coord": {"lon": -41.81139, "lat": -13.57889}}, {"id": 3453409, "name": "Platina", "country": "BR", "coord": {"lon": -50.203892, "lat": -22.637779}}, {"id": 3461153, "name": "Ipaba", "country": "BR", "coord": {"lon": -42.419441, "lat": -19.41361}}, {"id": 3457641, "name": "Marmeleiro", "country": "BR", "coord": {"lon": -53.026112, "lat": -26.149441}}, {"id": 3399571, "name": "Flexeiras", "country": "BR", "coord": {"lon": -35.78083, "lat": -9.1975}}, {"id": 3456591, "name": "Mucurici", "country": "BR", "coord": {"lon": -40.515831, "lat": -18.09333}}, {"id": 3461840, "name": "Guarda Mor", "country": "BR", "coord": {"lon": -47.098331, "lat": -17.77083}}, {"id": 3451337, "name": "Ribeir\u00e3o dos \u00cdndios", "country": "BR", "coord": {"lon": -51.616669, "lat": -21.816669}}, {"id": 3464366, "name": "Echapor\u00e3", "country": "BR", "coord": {"lon": -50.200562, "lat": -22.42944}}, {"id": 3460358, "name": "Jaci", "country": "BR", "coord": {"lon": -49.57, "lat": -20.882219}}, {"id": 3401331, "name": "Curaca", "country": "BR", "coord": {"lon": -39.909439, "lat": -8.99028}}, {"id": 3456847, "name": "Monte Castelo", "country": "BR", "coord": {"lon": -51.568611, "lat": -21.29944}}, {"id": 3408386, "name": "Acara", "country": "BR", "coord": {"lon": -48.196671, "lat": -1.96083}}, {"id": 3467745, "name": "Campo Grande", "country": "BR", "coord": {"lon": -43.552898, "lat": -22.906679}}, {"id": 3457694, "name": "Maril\u00e2ndia do Sul", "country": "BR", "coord": {"lon": -51.307781, "lat": -23.74472}}, {"id": 3470868, "name": "Bar\u00e3o do Triunfo", "country": "BR", "coord": {"lon": -51.733608, "lat": -30.38833}}, {"id": 3448674, "name": "S\u00e3o Jos\u00e9 do Alegre", "country": "BR", "coord": {"lon": -45.52639, "lat": -22.328609}}, {"id": 3465517, "name": "Corguinho", "country": "BR", "coord": {"lon": -54.829441, "lat": -19.831671}}, {"id": 3458025, "name": "Manduri", "country": "BR", "coord": {"lon": -49.321941, "lat": -23.00333}}, {"id": 3451476, "name": "Riachao do Dantas", "country": "BR", "coord": {"lon": -37.724998, "lat": -11.06889}}, {"id": 3458257, "name": "Macambira", "country": "BR", "coord": {"lon": -37.540829, "lat": -10.66639}}, {"id": 3445442, "name": "Varzelandia", "country": "BR", "coord": {"lon": -44.0275, "lat": -15.70139}}, {"id": 3393832, "name": "Nova Russas", "country": "BR", "coord": {"lon": -40.563061, "lat": -4.70667}}, {"id": 3463377, "name": "Figueira", "country": "BR", "coord": {"lon": -50.799999, "lat": -23.433331}}, {"id": 3445690, "name": "Urucuca", "country": "BR", "coord": {"lon": -39.284439, "lat": -14.59306}}, {"id": 3450952, "name": "Romaria", "country": "BR", "coord": {"lon": -47.58556, "lat": -18.8825}}, {"id": 3390674, "name": "Remigio", "country": "BR", "coord": {"lon": -35.783329, "lat": -6.93333}}, {"id": 3396662, "name": "Lagoa Nova", "country": "BR", "coord": {"lon": -36.48333, "lat": -6.1}}, {"id": 3388918, "name": "S\u00e3o Cipriano", "country": "BR", "coord": {"lon": -40.48333, "lat": -3.58333}}, {"id": 3463623, "name": "Faria Lemos", "country": "BR", "coord": {"lon": -42.02972, "lat": -20.808331}}, {"id": 3399446, "name": "Forquilha", "country": "BR", "coord": {"lon": -40.533329, "lat": -2.9}}, {"id": 3457861, "name": "Maracaj\u00e1", "country": "BR", "coord": {"lon": -49.452782, "lat": -28.84667}}, {"id": 3450285, "name": "Santa Cruz da Concei\u00e7\u00e3o", "country": "BR", "coord": {"lon": -47.451939, "lat": -22.14028}}, {"id": 3392862, "name": "Patu", "country": "BR", "coord": {"lon": -37.636669, "lat": -6.11}}, {"id": 3451706, "name": "Regin\u00f3polis", "country": "BR", "coord": {"lon": -49.225281, "lat": -21.88806}}, {"id": 3468299, "name": "Cafeara", "country": "BR", "coord": {"lon": -51.71611, "lat": -22.7925}}, {"id": 3462442, "name": "Getulina", "country": "BR", "coord": {"lon": -49.928612, "lat": -21.798611}}, {"id": 3467513, "name": "Cangonhal", "country": "BR", "coord": {"lon": -45.816669, "lat": -21.933331}}, {"id": 3468445, "name": "Cachoeira de Minas", "country": "BR", "coord": {"lon": -45.778889, "lat": -22.355}}, {"id": 3389707, "name": "Santa Br\u00edgida", "country": "BR", "coord": {"lon": -38.127781, "lat": -9.73611}}, {"id": 3447466, "name": "Sobradinho", "country": "BR", "coord": {"lon": -53.02861, "lat": -29.421391}}, {"id": 3469154, "name": "Borraz\u00f3polis", "country": "BR", "coord": {"lon": -51.587502, "lat": -23.941111}}, {"id": 3469374, "name": "Bom Sucesso", "country": "BR", "coord": {"lon": -44.75806, "lat": -21.03306}}, {"id": 3392345, "name": "Pentecoste", "country": "BR", "coord": {"lon": -39.270279, "lat": -3.79278}}, {"id": 3402916, "name": "Caresalzinho", "country": "BR", "coord": {"lon": -57.633331, "lat": -6.23333}}, {"id": 3450848, "name": "Rua do Arco", "country": "BR", "coord": {"lon": -39.583328, "lat": -13.8}}, {"id": 3464342, "name": "Eldorado", "country": "BR", "coord": {"lon": -48.108059, "lat": -24.52}}, {"id": 3472218, "name": "Angelina", "country": "BR", "coord": {"lon": -48.985279, "lat": -27.568609}}, {"id": 3448662, "name": "S\u00e3o Jos\u00e9 do Goiabal", "country": "BR", "coord": {"lon": -42.705002, "lat": -19.92861}}, {"id": 3736812, "name": "Presidente Figueiredo", "country": "BR", "coord": {"lon": -60.025002, "lat": -2.03444}}, {"id": 3467450, "name": "Cansan\u00e7\u00e3o", "country": "BR", "coord": {"lon": -39.499168, "lat": -10.66722}}, {"id": 3390219, "name": "Rodolfo Fernandes", "country": "BR", "coord": {"lon": -38.060001, "lat": -5.78806}}, {"id": 3456395, "name": "Naque", "country": "BR", "coord": {"lon": -42.328331, "lat": -19.23028}}, {"id": 3386213, "name": "Touros", "country": "BR", "coord": {"lon": -35.460831, "lat": -5.19889}}, {"id": 3393595, "name": "\u00d4lho d\u2019\u00c1gua de Igreja", "country": "BR", "coord": {"lon": -38.933331, "lat": -7.28333}}, {"id": 3446977, "name": "Tangar\u00e1", "country": "BR", "coord": {"lon": -51.247219, "lat": -27.104719}}, {"id": 3460512, "name": "Itutinga", "country": "BR", "coord": {"lon": -44.65778, "lat": -21.298059}}, {"id": 3393351, "name": "Paes Landim", "country": "BR", "coord": {"lon": -42.255562, "lat": -7.77778}}, {"id": 3471354, "name": "Atal\u00e9ia", "country": "BR", "coord": {"lon": -41.110001, "lat": -18.04361}}, {"id": 3386279, "name": "Tome Acu", "country": "BR", "coord": {"lon": -48.152222, "lat": -2.41889}}, {"id": 3452381, "name": "Prat\u00e2nia", "country": "BR", "coord": {"lon": -48.666111, "lat": -22.808331}}, {"id": 3464792, "name": "Descoberto", "country": "BR", "coord": {"lon": -42.967499, "lat": -21.459721}}, {"id": 3445950, "name": "Tumiritinga", "country": "BR", "coord": {"lon": -41.645279, "lat": -18.97917}}, {"id": 3466975, "name": "Carbonita", "country": "BR", "coord": {"lon": -43.015831, "lat": -17.526939}}, {"id": 3449463, "name": "Santo Expedito", "country": "BR", "coord": {"lon": -51.39222, "lat": -21.850559}}, {"id": 3472590, "name": "Alfredo Marcondes", "country": "BR", "coord": {"lon": -51.412781, "lat": -21.95528}}, {"id": 3448556, "name": "S\u00e3o Lu\u00eds do Paraitinga", "country": "BR", "coord": {"lon": -45.310001, "lat": -23.22167}}, {"id": 3456830, "name": "Monteiro Lobato", "country": "BR", "coord": {"lon": -45.839722, "lat": -22.956671}}, {"id": 3472276, "name": "Anchieta", "country": "BR", "coord": {"lon": -53.33139, "lat": -26.534439}}, {"id": 3453803, "name": "Pinhal", "country": "BR", "coord": {"lon": -53.799999, "lat": -29.6}}, {"id": 3458678, "name": "Leandro Ferreira", "country": "BR", "coord": {"lon": -45.025002, "lat": -19.71806}}, {"id": 3461925, "name": "Guaraci", "country": "BR", "coord": {"lon": -48.944721, "lat": -20.49861}}, {"id": 3456450, "name": "Mutuipe", "country": "BR", "coord": {"lon": -39.504719, "lat": -13.22861}}, {"id": 3395876, "name": "Major Sales", "country": "BR", "coord": {"lon": -38.323891, "lat": -6.40611}}, {"id": 3395058, "name": "Mauriti", "country": "BR", "coord": {"lon": -38.774441, "lat": -7.38917}}, {"id": 3461171, "name": "In\u00fabia Paulista", "country": "BR", "coord": {"lon": -50.961941, "lat": -21.76972}}, {"id": 3447094, "name": "Taciba", "country": "BR", "coord": {"lon": -51.284721, "lat": -22.389721}}, {"id": 3445712, "name": "Uruana", "country": "BR", "coord": {"lon": -49.6875, "lat": -15.49806}}, {"id": 3386931, "name": "Tamandare", "country": "BR", "coord": {"lon": -35.104721, "lat": -8.75972}}, {"id": 3452217, "name": "Prudente de Morais", "country": "BR", "coord": {"lon": -44.154999, "lat": -19.481939}}, {"id": 3464848, "name": "Delfim Moreira", "country": "BR", "coord": {"lon": -45.279999, "lat": -22.509171}}, {"id": 3461783, "name": "Guatamb\u00fa", "country": "BR", "coord": {"lon": -52.78722, "lat": -27.131941}}, {"id": 3464801, "name": "Descanso", "country": "BR", "coord": {"lon": -53.501671, "lat": -26.826111}}, {"id": 3445957, "name": "Tuiuti", "country": "BR", "coord": {"lon": -46.693611, "lat": -22.816389}}, {"id": 3388454, "name": "Sao Jose da Laje", "country": "BR", "coord": {"lon": -36.058331, "lat": -9.00972}}, {"id": 3469414, "name": "Bom Repouso", "country": "BR", "coord": {"lon": -46.145, "lat": -22.471109}}, {"id": 3393269, "name": "Palma", "country": "BR", "coord": {"lon": -37.349998, "lat": -9.65}}, {"id": 3394908, "name": "Messias", "country": "BR", "coord": {"lon": -35.841671, "lat": -9.38333}}, {"id": 3458160, "name": "Madre de Deus de Minas", "country": "BR", "coord": {"lon": -44.33028, "lat": -21.4825}}, {"id": 3454530, "name": "Pedra Dourada", "country": "BR", "coord": {"lon": -42.154171, "lat": -20.83028}}, {"id": 3450280, "name": "Santa Cruz de Salinas", "country": "BR", "coord": {"lon": -41.746391, "lat": -16.09833}}, {"id": 3406866, "name": "Bacurituba", "country": "BR", "coord": {"lon": -44.737782, "lat": -2.70583}}, {"id": 7693243, "name": "Barra da Anta", "country": "BR", "coord": {"lon": -49.662621, "lat": -26.91263}}, {"id": 3458604, "name": "Lic\u00ednio de Almeida", "country": "BR", "coord": {"lon": -42.5075, "lat": -14.68222}}, {"id": 3468349, "name": "Cacule", "country": "BR", "coord": {"lon": -42.222221, "lat": -14.50333}}, {"id": 3460589, "name": "Itau\u00e7u", "country": "BR", "coord": {"lon": -49.608059, "lat": -16.20056}}, {"id": 3400969, "name": "Dom Pedro", "country": "BR", "coord": {"lon": -44.450001, "lat": -4.48333}}, {"id": 3472442, "name": "Alto Paraguai", "country": "BR", "coord": {"lon": -56.482498, "lat": -14.51361}}, {"id": 3446273, "name": "Touro", "country": "BR", "coord": {"lon": -39.216671, "lat": -12.73333}}, {"id": 3460610, "name": "Itarum\u00e3", "country": "BR", "coord": {"lon": -51.348061, "lat": -18.769171}}, {"id": 3460967, "name": "Itabera", "country": "BR", "coord": {"lon": -49.137218, "lat": -23.86194}}, {"id": 3459357, "name": "Lacerd\u00f3polis", "country": "BR", "coord": {"lon": -51.555828, "lat": -27.26}}, {"id": 3388442, "name": "Sao Jose de Piranhas", "country": "BR", "coord": {"lon": -38.501942, "lat": -7.12056}}, {"id": 3396979, "name": "Juruti", "country": "BR", "coord": {"lon": -56.09222, "lat": -2.15222}}, {"id": 3457598, "name": "Martinho Campos", "country": "BR", "coord": {"lon": -45.236938, "lat": -19.331671}}, {"id": 3458651, "name": "Len\u00e7\u00f3is", "country": "BR", "coord": {"lon": -41.389999, "lat": -12.56306}}, {"id": 3466115, "name": "Cir\u00edaco", "country": "BR", "coord": {"lon": -51.876389, "lat": -28.343611}}, {"id": 3454996, "name": "Pareci Novo", "country": "BR", "coord": {"lon": -51.397499, "lat": -29.63833}}, {"id": 3467764, "name": "Campo do Tenente", "country": "BR", "coord": {"lon": -49.682781, "lat": -25.97806}}, {"id": 3401416, "name": "Cuitegi", "country": "BR", "coord": {"lon": -35.523331, "lat": -6.89333}}, {"id": 3396675, "name": "Lagoa Grande", "country": "BR", "coord": {"lon": -40.271938, "lat": -8.99694}}, {"id": 3396470, "name": "Lajes", "country": "BR", "coord": {"lon": -37.289719, "lat": -5.28389}}, {"id": 3461910, "name": "Guaranesia", "country": "BR", "coord": {"lon": -46.802502, "lat": -21.29917}}, {"id": 3446868, "name": "Tapirama", "country": "BR", "coord": {"lon": -39.667221, "lat": -14.21694}}, {"id": 3445543, "name": "Vargem Alegre", "country": "BR", "coord": {"lon": -42.298328, "lat": -19.60833}}, {"id": 3478366, "name": "Pranchita", "country": "BR", "coord": {"lon": -53.74028, "lat": -26.01972}}, {"id": 3464042, "name": "Erval Velho", "country": "BR", "coord": {"lon": -51.44194, "lat": -27.27556}}, {"id": 7774452, "name": "S\u00edtio Jos\u00e9 G\u00f3is", "country": "BR", "coord": {"lon": -50.749081, "lat": -23.53274}}, {"id": 3450180, "name": "Santa Isabel do Iva\u00ed", "country": "BR", "coord": {"lon": -53.196671, "lat": -23.002781}}, {"id": 3472380, "name": "Amapor\u00e3", "country": "BR", "coord": {"lon": -52.787498, "lat": -23.095831}}, {"id": 3460755, "name": "Itapebi", "country": "BR", "coord": {"lon": -39.53389, "lat": -15.95083}}, {"id": 3447971, "name": "Sarutai\u00e1", "country": "BR", "coord": {"lon": -49.480282, "lat": -23.27306}}, {"id": 3468734, "name": "Buritirama", "country": "BR", "coord": {"lon": -43.630562, "lat": -10.70778}}, {"id": 3462410, "name": "Glic\u00e9rio", "country": "BR", "coord": {"lon": -50.20583, "lat": -21.37611}}, {"id": 3458238, "name": "Macaubal", "country": "BR", "coord": {"lon": -49.96389, "lat": -20.80583}}, {"id": 3457950, "name": "Manhumirim", "country": "BR", "coord": {"lon": -41.958061, "lat": -20.35778}}, {"id": 3459925, "name": "Jequitinhonha", "country": "BR", "coord": {"lon": -41.00333, "lat": -16.433889}}, {"id": 3450842, "name": "Rubim", "country": "BR", "coord": {"lon": -40.400002, "lat": -16.1}}, {"id": 3452830, "name": "P\u00f4rto de Pedras", "country": "BR", "coord": {"lon": -42.433331, "lat": -10.13333}}, {"id": 3472433, "name": "Alto Rio Doce", "country": "BR", "coord": {"lon": -43.411388, "lat": -21.025829}}, {"id": 3453827, "name": "Pindobacu", "country": "BR", "coord": {"lon": -40.360828, "lat": -10.74167}}, {"id": 3470921, "name": "Bandeira do Colnia", "country": "BR", "coord": {"lon": -40.073891, "lat": -15.12333}}, {"id": 3446143, "name": "Tr\u00eas Cachoeiras", "country": "BR", "coord": {"lon": -49.924438, "lat": -29.455561}}, {"id": 3472432, "name": "Alto Rio Novo", "country": "BR", "coord": {"lon": -41.01667, "lat": -19.05611}}, {"id": 3457373, "name": "Maximiliano de Almeida", "country": "BR", "coord": {"lon": -51.803329, "lat": -27.632219}}, {"id": 3465154, "name": "Cristinapolis", "country": "BR", "coord": {"lon": -37.75528, "lat": -11.47556}}, {"id": 3445828, "name": "Ubirajara", "country": "BR", "coord": {"lon": -49.663059, "lat": -22.52667}}, {"id": 3389387, "name": "Santana do Acarau", "country": "BR", "coord": {"lon": -40.212219, "lat": -3.46056}}, {"id": 3446097, "name": "Tr\u00eas Marias", "country": "BR", "coord": {"lon": -55.349998, "lat": -19.133329}}, {"id": 3399336, "name": "Francisco Santos", "country": "BR", "coord": {"lon": -41.137779, "lat": -6.99278}}, {"id": 3470715, "name": "Barra do Chap\u00e9u", "country": "BR", "coord": {"lon": -49.024441, "lat": -24.473061}}, {"id": 3398224, "name": "Inga", "country": "BR", "coord": {"lon": -35.604439, "lat": -7.28083}}, {"id": 3397562, "name": "Jardim de Piranhas", "country": "BR", "coord": {"lon": -37.35194, "lat": -6.37861}}, {"id": 3464509, "name": "Dores do Turvo", "country": "BR", "coord": {"lon": -43.189171, "lat": -20.975559}}, {"id": 3464063, "name": "Ernestina", "country": "BR", "coord": {"lon": -52.57333, "lat": -28.49889}}, {"id": 3451951, "name": "Quinta do Sol", "country": "BR", "coord": {"lon": -52.129719, "lat": -23.852221}}, {"id": 3388437, "name": "Sao Jose do Campestre", "country": "BR", "coord": {"lon": -35.71389, "lat": -6.31556}}, {"id": 3472758, "name": "Alambique", "country": "BR", "coord": {"lon": -41.133331, "lat": -20.08333}}, {"id": 3394755, "name": "Missao Velha", "country": "BR", "coord": {"lon": -39.143059, "lat": -7.24972}}, {"id": 3457128, "name": "Miradouro", "country": "BR", "coord": {"lon": -42.342499, "lat": -20.89056}}, {"id": 3451263, "name": "Rio Bananal", "country": "BR", "coord": {"lon": -40.333328, "lat": -19.264999}}, {"id": 3466898, "name": "Carm\u00f3polis", "country": "BR", "coord": {"lon": -36.988892, "lat": -10.64806}}, {"id": 3452137, "name": "Quatro Pontes", "country": "BR", "coord": {"lon": -53.97694, "lat": -24.575001}}, {"id": 7740327, "name": "S\u00edtio Santo Ant\u00f4nio", "country": "BR", "coord": {"lon": -49.760818, "lat": -23.177299}}, {"id": 3460947, "name": "Itacambira", "country": "BR", "coord": {"lon": -43.308891, "lat": -17.06472}}, {"id": 3401830, "name": "Condado", "country": "BR", "coord": {"lon": -35.105831, "lat": -7.58583}}, {"id": 3467585, "name": "Cana Verde", "country": "BR", "coord": {"lon": -45.181938, "lat": -21.02083}}, {"id": 3387944, "name": "Segundo", "country": "BR", "coord": {"lon": -38.566669, "lat": -8.6}}, {"id": 3390659, "name": "Reriutaba", "country": "BR", "coord": {"lon": -40.582218, "lat": -4.14167}}, {"id": 3394618, "name": "Monsenhor Tabosa", "country": "BR", "coord": {"lon": -40.063332, "lat": -4.78944}}, {"id": 3446448, "name": "Timburi", "country": "BR", "coord": {"lon": -49.60667, "lat": -23.20528}}, {"id": 3452956, "name": "Porteirinha", "country": "BR", "coord": {"lon": -43.028332, "lat": -15.74333}}, {"id": 3447072, "name": "Taia\u00e7u", "country": "BR", "coord": {"lon": -48.512501, "lat": -21.14444}}, {"id": 3451272, "name": "Rin\u00f3polis", "country": "BR", "coord": {"lon": -50.722221, "lat": -21.72583}}, {"id": 3465512, "name": "Corinto", "country": "BR", "coord": {"lon": -44.45639, "lat": -18.380831}}, {"id": 3465184, "name": "Cris\u00f3polis", "country": "BR", "coord": {"lon": -38.150002, "lat": -11.51056}}, {"id": 3386971, "name": "Tacaimb\u00f3", "country": "BR", "coord": {"lon": -36.293331, "lat": -8.31611}}, {"id": 3924895, "name": "Placido de Castro", "country": "BR", "coord": {"lon": -67.185562, "lat": -10.33528}}, {"id": 3665168, "name": "Atalaia do Norte", "country": "BR", "coord": {"lon": -70.19194, "lat": -4.37222}}, {"id": 3470160, "name": "Bela Vista do Toldo", "country": "BR", "coord": {"lon": -50.464439, "lat": -26.273331}}, {"id": 3396121, "name": "Luis Correia", "country": "BR", "coord": {"lon": -41.666939, "lat": -2.87917}}, {"id": 3386198, "name": "Traipu", "country": "BR", "coord": {"lon": -37.00333, "lat": -9.97056}}, {"id": 3384940, "name": "Xambio\u00e1", "country": "BR", "coord": {"lon": -48.536388, "lat": -6.41111}}, {"id": 3393471, "name": "Oriximina", "country": "BR", "coord": {"lon": -55.866112, "lat": -1.76556}}, {"id": 3457776, "name": "Mar de Espanha", "country": "BR", "coord": {"lon": -43.00972, "lat": -21.86722}}, {"id": 3384937, "name": "Xarqueada", "country": "BR", "coord": {"lon": -48.362499, "lat": -9.48917}}, {"id": 3454669, "name": "Paulo Lopes", "country": "BR", "coord": {"lon": -48.683609, "lat": -27.96167}}, {"id": 3459531, "name": "Jussara", "country": "BR", "coord": {"lon": -50.868061, "lat": -15.865}}, {"id": 3456140, "name": "Nova M\u00f3dica", "country": "BR", "coord": {"lon": -41.501389, "lat": -18.43722}}, {"id": 3459776, "name": "Jo\u00e3o Ramalho", "country": "BR", "coord": {"lon": -50.76778, "lat": -22.25028}}, {"id": 3447656, "name": "Sert\u00e3o", "country": "BR", "coord": {"lon": -52.25972, "lat": -27.979719}}, {"id": 3465740, "name": "Concei\u00e7\u00e3o do Par\u00e1", "country": "BR", "coord": {"lon": -44.896671, "lat": -19.753059}}, {"id": 3471299, "name": "Ava\u00ed", "country": "BR", "coord": {"lon": -49.333061, "lat": -22.146669}}, {"id": 3447660, "name": "Sertaneja", "country": "BR", "coord": {"lon": -50.838329, "lat": -23.03694}}, {"id": 3448334, "name": "S\u00e3o Pedro dos Ferros", "country": "BR", "coord": {"lon": -42.523891, "lat": -20.17028}}, {"id": 3402465, "name": "Catole do Rocha", "country": "BR", "coord": {"lon": -37.74667, "lat": -6.34389}}, {"id": 3472406, "name": "Alvinopolis", "country": "BR", "coord": {"lon": -43.048889, "lat": -20.10667}}, {"id": 3451163, "name": "Rio do Salto", "country": "BR", "coord": {"lon": -49.633331, "lat": -28.83333}}, {"id": 3460815, "name": "Itambarac\u00e1", "country": "BR", "coord": {"lon": -50.406391, "lat": -23.01778}}, {"id": 3460548, "name": "Iti\u00faba", "country": "BR", "coord": {"lon": -39.853611, "lat": -10.69167}}, {"id": 3461488, "name": "Igrapi\u00fana", "country": "BR", "coord": {"lon": -39.14222, "lat": -13.82639}}, {"id": 3461291, "name": "Indiapor\u00e3", "country": "BR", "coord": {"lon": -50.289719, "lat": -19.98}}, {"id": 3463152, "name": "Formigueiro", "country": "BR", "coord": {"lon": -53.499168, "lat": -30.00028}}, {"id": 3461495, "name": "Igarat\u00e1", "country": "BR", "coord": {"lon": -46.156109, "lat": -23.204439}}, {"id": 3400055, "name": "Fazenda Monte Lima", "country": "BR", "coord": {"lon": -39.150002, "lat": -4.8}}, {"id": 3472128, "name": "Anitapolis", "country": "BR", "coord": {"lon": -49.128609, "lat": -27.901939}}, {"id": 3454703, "name": "Paula C\u00e2ndido", "country": "BR", "coord": {"lon": -42.980282, "lat": -20.87417}}, {"id": 3463394, "name": "Fervedouro", "country": "BR", "coord": {"lon": -42.278889, "lat": -20.725559}}, {"id": 3469994, "name": "Biquinhas", "country": "BR", "coord": {"lon": -45.50222, "lat": -18.78278}}, {"id": 3471544, "name": "Argirita", "country": "BR", "coord": {"lon": -42.836109, "lat": -21.610001}}, {"id": 3386245, "name": "T\u00f4rre Segura", "country": "BR", "coord": {"lon": -47.316669, "lat": -5.71667}}, {"id": 3455460, "name": "Palmares Paulista", "country": "BR", "coord": {"lon": -48.800831, "lat": -21.083059}}, {"id": 3452490, "name": "Poxoreo", "country": "BR", "coord": {"lon": -54.389172, "lat": -15.83722}}, {"id": 3459855, "name": "Joanopolis", "country": "BR", "coord": {"lon": -46.275558, "lat": -22.930281}}, {"id": 3465233, "name": "Coxilha", "country": "BR", "coord": {"lon": -52.296108, "lat": -28.12722}}, {"id": 3396139, "name": "Lucena", "country": "BR", "coord": {"lon": -34.868889, "lat": -6.90028}}, {"id": 3454628, "name": "Pecanha", "country": "BR", "coord": {"lon": -42.556938, "lat": -18.548611}}, {"id": 3464634, "name": "Divisa Nova", "country": "BR", "coord": {"lon": -46.195831, "lat": -21.51111}}, {"id": 3471936, "name": "Aperib\u00e9", "country": "BR", "coord": {"lon": -42.102779, "lat": -21.620831}}, {"id": 3473204, "name": "Acegu\u00e1", "country": "BR", "coord": {"lon": -54.167221, "lat": -31.86528}}, {"id": 3457136, "name": "Mirabela", "country": "BR", "coord": {"lon": -44.16444, "lat": -16.262779}}, {"id": 3456226, "name": "Nossa Senhora do Livramento", "country": "BR", "coord": {"lon": -56.345558, "lat": -15.775}}, {"id": 3472502, "name": "Altair", "country": "BR", "coord": {"lon": -49.058891, "lat": -20.523609}}, {"id": 3461139, "name": "Ip\u00ea", "country": "BR", "coord": {"lon": -51.279171, "lat": -28.82}}, {"id": 3471963, "name": "Antunes", "country": "BR", "coord": {"lon": -44.698059, "lat": -19.91028}}, {"id": 3465661, "name": "Congonhinhas", "country": "BR", "coord": {"lon": -50.553612, "lat": -23.551109}}, {"id": 3386460, "name": "Terra Vermelha", "country": "BR", "coord": {"lon": -36.916672, "lat": -7.63333}}, {"id": 3468904, "name": "Brochier", "country": "BR", "coord": {"lon": -51.586109, "lat": -29.54528}}, {"id": 3466594, "name": "Cavalcante", "country": "BR", "coord": {"lon": -47.458328, "lat": -13.7975}}, {"id": 7699452, "name": "Pinhalzinho", "country": "BR", "coord": {"lon": -50.334991, "lat": -25.674299}}, {"id": 3461289, "name": "Indiaroba", "country": "BR", "coord": {"lon": -37.511669, "lat": -11.51917}}, {"id": 3402390, "name": "Caveira", "country": "BR", "coord": {"lon": -35.216671, "lat": -7.58333}}, {"id": 3460892, "name": "Itaguaru", "country": "BR", "coord": {"lon": -49.634171, "lat": -15.75833}}, {"id": 3396620, "name": "Lagoa Seca", "country": "BR", "coord": {"lon": -35.853611, "lat": -7.17083}}, {"id": 3464331, "name": "Elisi\u00e1rio", "country": "BR", "coord": {"lon": -49.111671, "lat": -21.16556}}, {"id": 3461922, "name": "Guaraciaba", "country": "BR", "coord": {"lon": -53.518059, "lat": -26.599171}}, {"id": 3445059, "name": "Vila Matias", "country": "BR", "coord": {"lon": -41.883331, "lat": -18.566669}}, {"id": 3401404, "name": "Cumaru", "country": "BR", "coord": {"lon": -35.69722, "lat": -8.00611}}, {"id": 3450064, "name": "Santa Maria da Serra", "country": "BR", "coord": {"lon": -48.160561, "lat": -22.567221}}, {"id": 3466396, "name": "C\u00earro Grande", "country": "BR", "coord": {"lon": -51.75, "lat": -30.6}}, {"id": 3464845, "name": "Delfin\u00f3polis", "country": "BR", "coord": {"lon": -46.853889, "lat": -20.343889}}, {"id": 3460471, "name": "Jaborandi", "country": "BR", "coord": {"lon": -48.412498, "lat": -20.688061}}, {"id": 3456136, "name": "Nova P\u00e1dua", "country": "BR", "coord": {"lon": -51.306671, "lat": -29.02861}}, {"id": 3449860, "name": "Santa Rita de Caldas", "country": "BR", "coord": {"lon": -46.33667, "lat": -22.02861}}, {"id": 3454005, "name": "Piacabucu", "country": "BR", "coord": {"lon": -36.434441, "lat": -10.40556}}, {"id": 3461638, "name": "Iacu", "country": "BR", "coord": {"lon": -40.21167, "lat": -12.76722}}, {"id": 3469057, "name": "Brasilia de Minas", "country": "BR", "coord": {"lon": -44.433331, "lat": -16.20639}}, {"id": 3397546, "name": "Jata\u00faba", "country": "BR", "coord": {"lon": -36.496391, "lat": -7.99}}, {"id": 3466107, "name": "Claraval", "country": "BR", "coord": {"lon": -47.26667, "lat": -20.39889}}, {"id": 3470999, "name": "Bananal", "country": "BR", "coord": {"lon": -42.25, "lat": -18.450001}}, {"id": 3469166, "name": "Borebi", "country": "BR", "coord": {"lon": -48.971111, "lat": -22.569441}}, {"id": 3456168, "name": "Nova F\u00e1tima", "country": "BR", "coord": {"lon": -50.563889, "lat": -23.43222}}, {"id": 3463120, "name": "Formoso", "country": "BR", "coord": {"lon": -46.231941, "lat": -14.94667}}, {"id": 3457585, "name": "Martins Soares", "country": "BR", "coord": {"lon": -41.876942, "lat": -20.256941}}, {"id": 3389006, "name": "Sao Bento", "country": "BR", "coord": {"lon": -44.821388, "lat": -2.69583}}, {"id": 3408064, "name": "Aldeia", "country": "BR", "coord": {"lon": -42.066669, "lat": -9.71667}}, {"id": 3405853, "name": "Bel\u00e9m de Maria", "country": "BR", "coord": {"lon": -35.830002, "lat": -8.62556}}, {"id": 3454762, "name": "Patroc\u00ednio do Muria\u00e9", "country": "BR", "coord": {"lon": -42.214722, "lat": -21.1525}}, {"id": 3662342, "name": "Sao Gabriel da Cachoeira", "country": "BR", "coord": {"lon": -67.089172, "lat": -0.13028}}, {"id": 3664525, "name": "Codajas", "country": "BR", "coord": {"lon": -62.056938, "lat": -3.83667}}, {"id": 3407798, "name": "Alto Parna\u00edba", "country": "BR", "coord": {"lon": -45.929722, "lat": -9.11083}}, {"id": 3448177, "name": "S\u00e3o Tom\u00e1s de Aquino", "country": "BR", "coord": {"lon": -47.098061, "lat": -20.784439}}, {"id": 3465000, "name": "Cuparaque", "country": "BR", "coord": {"lon": -41.099171, "lat": -18.96944}}, {"id": 3449304, "name": "Sao Desiderio", "country": "BR", "coord": {"lon": -44.973331, "lat": -12.36333}}, {"id": 3465700, "name": "Condor", "country": "BR", "coord": {"lon": -53.487221, "lat": -28.207781}}, {"id": 3398614, "name": "Guaiuba", "country": "BR", "coord": {"lon": -38.637218, "lat": -4.03972}}, {"id": 3405852, "name": "Belem de Sao Francisco", "country": "BR", "coord": {"lon": -38.965832, "lat": -8.75389}}, {"id": 3392431, "name": "Pedro II", "country": "BR", "coord": {"lon": -41.458611, "lat": -4.42472}}, {"id": 3453419, "name": "Planaltina do Paran\u00e1", "country": "BR", "coord": {"lon": -52.913891, "lat": -23.00667}}, {"id": 3467540, "name": "C\u00e2ndido Rodrigues", "country": "BR", "coord": {"lon": -48.630829, "lat": -21.325279}}, {"id": 3455668, "name": "Ouro Verde", "country": "BR", "coord": {"lon": -51.700279, "lat": -21.489441}}, {"id": 3468072, "name": "Caldeir\u00e3o Grande", "country": "BR", "coord": {"lon": -40.30278, "lat": -11.02}}, {"id": 3448664, "name": "S\u00e3o Jos\u00e9 do Divino", "country": "BR", "coord": {"lon": -41.389439, "lat": -18.478609}}, {"id": 3452548, "name": "Potiragu\u00e1", "country": "BR", "coord": {"lon": -39.876671, "lat": -15.59472}}, {"id": 3469189, "name": "Bor\u00e1", "country": "BR", "coord": {"lon": -50.534439, "lat": -22.26972}}, {"id": 3407757, "name": "Amaraji d\u2019\u00c1gua", "country": "BR", "coord": {"lon": -35.433331, "lat": -8.4}}, {"id": 3925000, "name": "Mamor\u00e9", "country": "BR", "coord": {"lon": -65.333328, "lat": -10.81667}}, {"id": 3446634, "name": "Tenente Portela", "country": "BR", "coord": {"lon": -53.758331, "lat": -27.371111}}, {"id": 3460205, "name": "Jaguaripe", "country": "BR", "coord": {"lon": -39.166672, "lat": -12.91667}}, {"id": 3405825, "name": "Belo Horizonte", "country": "BR", "coord": {"lon": -52.866669, "lat": -5.3}}, {"id": 3456230, "name": "Nossa Senhora de Lourdes", "country": "BR", "coord": {"lon": -37.057781, "lat": -10.07944}}, {"id": 3467551, "name": "Candel\u00e1ria", "country": "BR", "coord": {"lon": -54.150002, "lat": -27.633329}}, {"id": 3461619, "name": "Ibia\u00e7\u00e1", "country": "BR", "coord": {"lon": -51.854721, "lat": -28.05694}}, {"id": 3462415, "name": "Glaucil\u00e2ndia", "country": "BR", "coord": {"lon": -43.69722, "lat": -16.84972}}, {"id": 3444979, "name": "Virmond", "country": "BR", "coord": {"lon": -52.19944, "lat": -25.381109}}, {"id": 3461578, "name": "Ibiraiaras", "country": "BR", "coord": {"lon": -51.636391, "lat": -28.370001}}, {"id": 3386055, "name": "Tri\u00e2ngulo", "country": "BR", "coord": {"lon": -37.966671, "lat": -7.2}}, {"id": 3385645, "name": "Urucurituba", "country": "BR", "coord": {"lon": -57.666672, "lat": -2.68333}}, {"id": 3399388, "name": "Fortaleza dos Nogueiras", "country": "BR", "coord": {"lon": -46.177219, "lat": -6.96389}}, {"id": 3397337, "name": "Girau do Ponciano", "country": "BR", "coord": {"lon": -36.828892, "lat": -9.88417}}, {"id": 3410102, "name": "Cabe\u00e7a Quebrada", "country": "BR", "coord": {"lon": -42.785, "lat": -3.69528}}, {"id": 3402211, "name": "Ch\u00e3 Preta", "country": "BR", "coord": {"lon": -36.296108, "lat": -9.25528}}, {"id": 3457657, "name": "Marip\u00e1", "country": "BR", "coord": {"lon": -42.966671, "lat": -21.700001}}, {"id": 3452477, "name": "Prados", "country": "BR", "coord": {"lon": -44.07972, "lat": -21.057501}}, {"id": 3398350, "name": "Igarape Acu", "country": "BR", "coord": {"lon": -47.619999, "lat": -1.12889}}, {"id": 3469367, "name": "Bom Sucesso", "country": "BR", "coord": {"lon": -51.764439, "lat": -23.709721}}, {"id": 3393470, "name": "Orobo", "country": "BR", "coord": {"lon": -35.602219, "lat": -7.745}}, {"id": 3450061, "name": "Santa Maria de Itabira", "country": "BR", "coord": {"lon": -43.112499, "lat": -19.44944}}, {"id": 3448651, "name": "S\u00e3o Jos\u00e9 do Ouro", "country": "BR", "coord": {"lon": -51.59444, "lat": -27.76944}}, {"id": 3460599, "name": "Itatiaiu\u00e7u", "country": "BR", "coord": {"lon": -44.421108, "lat": -20.196671}}, {"id": 3453229, "name": "Ponga\u00ed", "country": "BR", "coord": {"lon": -49.366669, "lat": -21.736389}}, {"id": 3468865, "name": "Buenol\u00e2ndia", "country": "BR", "coord": {"lon": -50.308609, "lat": -15.805}}, {"id": 3447851, "name": "Senador Jos\u00e9 Bento", "country": "BR", "coord": {"lon": -46.17889, "lat": -22.16444}}, {"id": 3463385, "name": "Figueira", "country": "BR", "coord": {"lon": -46.150002, "lat": -20.75}}, {"id": 3451262, "name": "Rio Bom", "country": "BR", "coord": {"lon": -51.410561, "lat": -23.76222}}, {"id": 3663516, "name": "Mancio Lima", "country": "BR", "coord": {"lon": -72.895828, "lat": -7.61417}}, {"id": 3969378, "name": "Cacaul\u00e2ndia", "country": "BR", "coord": {"lon": -62.895279, "lat": -10.33917}}, {"id": 3456738, "name": "Morrinhos", "country": "BR", "coord": {"lon": -39.333328, "lat": -12.15}}, {"id": 3447575, "name": "Silveira Martins", "country": "BR", "coord": {"lon": -53.58556, "lat": -29.6425}}, {"id": 3459605, "name": "Josen\u00f3polis", "country": "BR", "coord": {"lon": -42.515282, "lat": -16.54722}}, {"id": 3404513, "name": "Cabrobo", "country": "BR", "coord": {"lon": -39.310001, "lat": -8.51417}}, {"id": 3446096, "name": "Tr\u00eas Marias", "country": "BR", "coord": {"lon": -40.166672, "lat": -19.450001}}, {"id": 3461627, "name": "Ibarama", "country": "BR", "coord": {"lon": -53.13472, "lat": -29.419439}}, {"id": 3464527, "name": "Dona Francisca", "country": "BR", "coord": {"lon": -53.35722, "lat": -29.62167}}, {"id": 3460490, "name": "Ivatuba", "country": "BR", "coord": {"lon": -52.22139, "lat": -23.61861}}, {"id": 3389780, "name": "Salvaterra", "country": "BR", "coord": {"lon": -48.51667, "lat": -0.75333}}, {"id": 3456198, "name": "Nova Aurora", "country": "BR", "coord": {"lon": -48.253609, "lat": -18.057501}}, {"id": 3458903, "name": "Lajinha", "country": "BR", "coord": {"lon": -41.416672, "lat": -19.716669}}, {"id": 3402648, "name": "Carutapera", "country": "BR", "coord": {"lon": -46.02, "lat": -1.195}}, {"id": 3461566, "name": "Ibirarema", "country": "BR", "coord": {"lon": -50.072498, "lat": -22.817499}}, {"id": 3454646, "name": "Pav\u00e3o", "country": "BR", "coord": {"lon": -40.99889, "lat": -17.42778}}, {"id": 3460895, "name": "Itaguara", "country": "BR", "coord": {"lon": -44.487499, "lat": -20.39222}}, {"id": 3407623, "name": "Angelim", "country": "BR", "coord": {"lon": -36.285831, "lat": -8.89028}}, {"id": 3388869, "name": "S\u00e3o Domingos do Capim", "country": "BR", "coord": {"lon": -47.771111, "lat": -1.67417}}, {"id": 3403559, "name": "Campo Redondo", "country": "BR", "coord": {"lon": -36.182499, "lat": -6.24139}}, {"id": 3445983, "name": "Tucano", "country": "BR", "coord": {"lon": -38.786671, "lat": -10.96306}}, {"id": 3455913, "name": "Olindina", "country": "BR", "coord": {"lon": -38.333328, "lat": -11.36667}}, {"id": 3472344, "name": "America Dourada", "country": "BR", "coord": {"lon": -41.436111, "lat": -11.45528}}, {"id": 3389023, "name": "S\u00e3o Benedito", "country": "BR", "coord": {"lon": -40.865002, "lat": -4.04861}}, {"id": 3465181, "name": "Crissiumal", "country": "BR", "coord": {"lon": -54.101109, "lat": -27.49972}}, {"id": 3455093, "name": "Para\u00edso do Sul", "country": "BR", "coord": {"lon": -53.148891, "lat": -29.66861}}, {"id": 3469190, "name": "Boquira", "country": "BR", "coord": {"lon": -42.73056, "lat": -12.82306}}, {"id": 3473008, "name": "\u00c1gua Doce", "country": "BR", "coord": {"lon": -51.55611, "lat": -26.99778}}, {"id": 3388567, "name": "Sao Joaquim do Monte", "country": "BR", "coord": {"lon": -35.80444, "lat": -8.4325}}, {"id": 3450917, "name": "Rondinha", "country": "BR", "coord": {"lon": -52.909721, "lat": -27.82806}}, {"id": 3403516, "name": "Camutanga", "country": "BR", "coord": {"lon": -35.274441, "lat": -7.40694}}, {"id": 3454512, "name": "Pedran\u00f3polis", "country": "BR", "coord": {"lon": -50.110279, "lat": -20.247499}}, {"id": 3472298, "name": "Anage", "country": "BR", "coord": {"lon": -41.135559, "lat": -14.61222}}, {"id": 3454053, "name": "Pescador", "country": "BR", "coord": {"lon": -41.598061, "lat": -18.356939}}, {"id": 3470670, "name": "Barra do Trombudo", "country": "BR", "coord": {"lon": -49.700001, "lat": -27.25}}, {"id": 3472448, "name": "Alto Gar\u00e7as", "country": "BR", "coord": {"lon": -53.528061, "lat": -16.94389}}, {"id": 3465542, "name": "Coracao de Jesus", "country": "BR", "coord": {"lon": -44.365002, "lat": -16.68528}}, {"id": 3391762, "name": "Pocinhos", "country": "BR", "coord": {"lon": -36.061111, "lat": -7.07667}}, {"id": 3450950, "name": "Romel\u00e2ndia", "country": "BR", "coord": {"lon": -53.314442, "lat": -26.676109}}, {"id": 3463249, "name": "Florestal", "country": "BR", "coord": {"lon": -44.432499, "lat": -19.889441}}, {"id": 3461051, "name": "Ira\u00ed de Minas", "country": "BR", "coord": {"lon": -47.461391, "lat": -18.983891}}, {"id": 3447249, "name": "Sumidouro", "country": "BR", "coord": {"lon": -42.674721, "lat": -22.049721}}, {"id": 3454860, "name": "S\u00e3o Jo\u00e3o do Sul", "country": "BR", "coord": {"lon": -49.810001, "lat": -29.22333}}, {"id": 3449536, "name": "Santo Ant\u00f4nio da Alegria", "country": "BR", "coord": {"lon": -47.151112, "lat": -21.086941}}, {"id": 3447711, "name": "Serranos", "country": "BR", "coord": {"lon": -44.509998, "lat": -21.89028}}, {"id": 3445481, "name": "Varj\u00e3o", "country": "BR", "coord": {"lon": -49.631111, "lat": -17.04528}}, {"id": 3458386, "name": "Lucian\u00f3polis", "country": "BR", "coord": {"lon": -49.522499, "lat": -22.43111}}, {"id": 3461615, "name": "Ibia\u00ed", "country": "BR", "coord": {"lon": -44.91444, "lat": -16.861111}}, {"id": 3466915, "name": "Carm\u00e9sia", "country": "BR", "coord": {"lon": -43.14167, "lat": -19.08889}}, {"id": 3403127, "name": "Capitao Poco", "country": "BR", "coord": {"lon": -47.059441, "lat": -1.74639}}, {"id": 3397903, "name": "Itapi\u00fana", "country": "BR", "coord": {"lon": -38.922218, "lat": -4.56444}}, {"id": 3401729, "name": "Coreau", "country": "BR", "coord": {"lon": -40.65667, "lat": -3.53333}}, {"id": 3456272, "name": "Nonoai", "country": "BR", "coord": {"lon": -52.771389, "lat": -27.36167}}, {"id": 3391397, "name": "Porto Calvo", "country": "BR", "coord": {"lon": -35.398331, "lat": -9.045}}, {"id": 3405778, "name": "Bequimao", "country": "BR", "coord": {"lon": -44.782501, "lat": -2.44889}}, {"id": 3472263, "name": "Andorinha", "country": "BR", "coord": {"lon": -39.83556, "lat": -10.34472}}, {"id": 3456691, "name": "Morro do Gomes", "country": "BR", "coord": {"lon": -42.116669, "lat": -11.68333}}, {"id": 3386957, "name": "Taipu", "country": "BR", "coord": {"lon": -35.596668, "lat": -5.62167}}, {"id": 3467316, "name": "Capela de Santana", "country": "BR", "coord": {"lon": -51.324718, "lat": -29.700001}}, {"id": 3460803, "name": "Itamogi", "country": "BR", "coord": {"lon": -47.048328, "lat": -21.07806}}, {"id": 3403338, "name": "Canivete", "country": "BR", "coord": {"lon": -37.26667, "lat": -9.31667}}, {"id": 3462388, "name": "Goiabeira", "country": "BR", "coord": {"lon": -41.2225, "lat": -18.98222}}, {"id": 3388403, "name": "S\u00e3o Juli\u00e3o", "country": "BR", "coord": {"lon": -40.825562, "lat": -7.08472}}, {"id": 3466931, "name": "Carlos Chagas", "country": "BR", "coord": {"lon": -40.766392, "lat": -17.70306}}, {"id": 3407821, "name": "Alto do Rodrigues", "country": "BR", "coord": {"lon": -36.762218, "lat": -5.28833}}, {"id": 3464569, "name": "Dom Feliciano", "country": "BR", "coord": {"lon": -52.107498, "lat": -30.70417}}, {"id": 3461512, "name": "Ichu", "country": "BR", "coord": {"lon": -39.192219, "lat": -11.74861}}, {"id": 3459884, "name": "Jiquiri\u00e7a", "country": "BR", "coord": {"lon": -39.57222, "lat": -13.25667}}, {"id": 3461182, "name": "Inimutaba", "country": "BR", "coord": {"lon": -44.360561, "lat": -18.72917}}, {"id": 3448817, "name": "S\u00e3o Jorge", "country": "BR", "coord": {"lon": -51.703609, "lat": -28.500561}}, {"id": 3403309, "name": "Cantanhede", "country": "BR", "coord": {"lon": -44.376671, "lat": -3.63333}}, {"id": 3399179, "name": "Galinhos", "country": "BR", "coord": {"lon": -36.27528, "lat": -5.09056}}, {"id": 3405707, "name": "Boa \u00c1gua dos Leandros", "country": "BR", "coord": {"lon": -37.883331, "lat": -6.18333}}, {"id": 3465003, "name": "Cunha Por\u00e3", "country": "BR", "coord": {"lon": -53.16806, "lat": -26.89361}}, {"id": 3446357, "name": "Tomazina", "country": "BR", "coord": {"lon": -49.949718, "lat": -23.77833}}, {"id": 3451017, "name": "Roca Sales", "country": "BR", "coord": {"lon": -51.8675, "lat": -29.28417}}, {"id": 3462497, "name": "General Carneiro", "country": "BR", "coord": {"lon": -51.315559, "lat": -26.4275}}, {"id": 3457659, "name": "Mari\u00f3polis", "country": "BR", "coord": {"lon": -52.558609, "lat": -26.354719}}, {"id": 3456647, "name": "Mortugaba", "country": "BR", "coord": {"lon": -42.368061, "lat": -15.02333}}, {"id": 3469459, "name": "Bom Jardim da Serra", "country": "BR", "coord": {"lon": -49.624722, "lat": -28.336941}}, {"id": 3454255, "name": "Peju\u00e7ara", "country": "BR", "coord": {"lon": -53.65583, "lat": -28.42333}}, {"id": 3400497, "name": "Farias Brito", "country": "BR", "coord": {"lon": -39.565559, "lat": -6.93056}}, {"id": 3464104, "name": "Entre Iju\u00eds", "country": "BR", "coord": {"lon": -54.26778, "lat": -28.358891}}, {"id": 3471049, "name": "Balbinos", "country": "BR", "coord": {"lon": -49.35667, "lat": -21.899719}}, {"id": 3408274, "name": "Afogados da Ingazeira", "country": "BR", "coord": {"lon": -37.639172, "lat": -7.75083}}, {"id": 3385826, "name": "Umarizal", "country": "BR", "coord": {"lon": -37.814442, "lat": -5.99056}}, {"id": 3453411, "name": "Planura", "country": "BR", "coord": {"lon": -48.701939, "lat": -20.137779}}, {"id": 3451635, "name": "Restinga", "country": "BR", "coord": {"lon": -47.48278, "lat": -20.603331}}, {"id": 3461341, "name": "In\u00e1cio Martins", "country": "BR", "coord": {"lon": -51.133331, "lat": -25.51667}}, {"id": 3448346, "name": "S\u00e3o Pedro da Uni\u00e3o", "country": "BR", "coord": {"lon": -46.61528, "lat": -21.126671}}, {"id": 3455544, "name": "Paineiras", "country": "BR", "coord": {"lon": -45.53167, "lat": -18.908331}}, {"id": 3466315, "name": "Chapada", "country": "BR", "coord": {"lon": -53.06778, "lat": -28.055281}}, {"id": 3463040, "name": "Fortaleza dos Valos", "country": "BR", "coord": {"lon": -53.222778, "lat": -28.79722}}, {"id": 3456159, "name": "Nova Independ\u00eancia", "country": "BR", "coord": {"lon": -51.490002, "lat": -21.103889}}, {"id": 3466959, "name": "Carea\u00e7u", "country": "BR", "coord": {"lon": -45.699169, "lat": -22.04306}}, {"id": 3463921, "name": "Esp\u00edrito Santo do Turvo", "country": "BR", "coord": {"lon": -49.430279, "lat": -22.692221}}, {"id": 3405908, "name": "Bela Cruz", "country": "BR", "coord": {"lon": -40.167782, "lat": -3.05056}}, {"id": 3458193, "name": "Macieira", "country": "BR", "coord": {"lon": -51.378059, "lat": -26.85556}}, {"id": 3448117, "name": "S\u00e3o Vicente de Minas", "country": "BR", "coord": {"lon": -44.444172, "lat": -21.7125}}, {"id": 3468600, "name": "Cabr\u00e1lia Paulista", "country": "BR", "coord": {"lon": -49.337502, "lat": -22.455561}}, {"id": 3470409, "name": "Barro Alto", "country": "BR", "coord": {"lon": -48.915829, "lat": -14.97083}}, {"id": 7771963, "name": "Carioca", "country": "BR", "coord": {"lon": -52.573521, "lat": -23.4109}}, {"id": 3468991, "name": "Brejetuba", "country": "BR", "coord": {"lon": -41.290279, "lat": -20.146111}}, {"id": 3457398, "name": "Mato Verde", "country": "BR", "coord": {"lon": -42.86639, "lat": -15.39722}}, {"id": 3390138, "name": "Saboeiro", "country": "BR", "coord": {"lon": -39.90667, "lat": -6.54194}}, {"id": 3453157, "name": "Pontalinda", "country": "BR", "coord": {"lon": -50.523331, "lat": -20.44083}}, {"id": 3473149, "name": "Adolfo", "country": "BR", "coord": {"lon": -49.643608, "lat": -21.235001}}, {"id": 3386961, "name": "Tacima", "country": "BR", "coord": {"lon": -35.637218, "lat": -6.48833}}, {"id": 3455309, "name": "Palmitinho", "country": "BR", "coord": {"lon": -53.555, "lat": -27.355}}, {"id": 3403200, "name": "Capela", "country": "BR", "coord": {"lon": -36.073608, "lat": -9.4075}}, {"id": 3390220, "name": "Rodelas", "country": "BR", "coord": {"lon": -38.76667, "lat": -8.84556}}, {"id": 3451833, "name": "Rancho Queimado", "country": "BR", "coord": {"lon": -49.021671, "lat": -27.672501}}, {"id": 3393929, "name": "Nhamunda", "country": "BR", "coord": {"lon": -56.713058, "lat": -2.18611}}, {"id": 3449795, "name": "Santa Rosa de Lima", "country": "BR", "coord": {"lon": -37.19389, "lat": -10.64639}}, {"id": 3407544, "name": "Angicos", "country": "BR", "coord": {"lon": -36.601109, "lat": -5.66556}}, {"id": 3464432, "name": "Doutor Pedrinho", "country": "BR", "coord": {"lon": -49.48333, "lat": -26.714439}}, {"id": 3461635, "name": "Iandrin\u00f3polis", "country": "BR", "coord": {"lon": -51.083328, "lat": -23.683331}}, {"id": 3393465, "name": "Oros", "country": "BR", "coord": {"lon": -38.913609, "lat": -6.24444}}, {"id": 3449273, "name": "S\u00e3o Domingos", "country": "BR", "coord": {"lon": -52.53167, "lat": -26.55806}}, {"id": 3452170, "name": "Quartel Geral", "country": "BR", "coord": {"lon": -45.55722, "lat": -19.273609}}, {"id": 3393972, "name": "Nazare da Mata", "country": "BR", "coord": {"lon": -35.227779, "lat": -7.74167}}, {"id": 3402920, "name": "Careiro da Varzea", "country": "BR", "coord": {"lon": -59.811939, "lat": -3.20028}}, {"id": 3393279, "name": "Palhano", "country": "BR", "coord": {"lon": -37.958889, "lat": -4.74528}}, {"id": 3454743, "name": "Pau Brasil", "country": "BR", "coord": {"lon": -39.651112, "lat": -15.46417}}, {"id": 3391895, "name": "Pirpirituba", "country": "BR", "coord": {"lon": -35.498611, "lat": -6.78}}, {"id": 3472791, "name": "Ajuricaba", "country": "BR", "coord": {"lon": -53.770828, "lat": -28.239441}}, {"id": 3473144, "name": "Adrian\u00f3polis", "country": "BR", "coord": {"lon": -48.991112, "lat": -24.657221}}, {"id": 3454179, "name": "Pequeri", "country": "BR", "coord": {"lon": -43.12056, "lat": -21.834169}}, {"id": 3462975, "name": "Francisco Sa", "country": "BR", "coord": {"lon": -43.488331, "lat": -16.47583}}, {"id": 3397074, "name": "Junco do Serid\u00f3", "country": "BR", "coord": {"lon": -36.713058, "lat": -6.99667}}, {"id": 3449939, "name": "Santana do Garamb\u00e9u", "country": "BR", "coord": {"lon": -44.104439, "lat": -21.601391}}, {"id": 3399313, "name": "Frecheirinha", "country": "BR", "coord": {"lon": -40.816391, "lat": -3.76}}, {"id": 3389930, "name": "Salgadinho", "country": "BR", "coord": {"lon": -35.632778, "lat": -7.93639}}, {"id": 3455029, "name": "Paratinga", "country": "BR", "coord": {"lon": -43.18417, "lat": -12.69056}}, {"id": 3466950, "name": "Carinhanha", "country": "BR", "coord": {"lon": -43.764999, "lat": -14.30472}}, {"id": 3472822, "name": "Agudos do Sul", "country": "BR", "coord": {"lon": -49.335281, "lat": -25.9925}}, {"id": 3447556, "name": "Simon\u00e9sia", "country": "BR", "coord": {"lon": -42.001389, "lat": -20.12389}}, {"id": 3446053, "name": "Treze T\u00edlias", "country": "BR", "coord": {"lon": -51.406391, "lat": -27.001671}}, {"id": 3451738, "name": "Redentora", "country": "BR", "coord": {"lon": -53.637779, "lat": -27.66444}}, {"id": 3449842, "name": "Santa Rosa do Tocantins", "country": "BR", "coord": {"lon": -48.12056, "lat": -11.44889}}, {"id": 3394605, "name": "Monte Alegre", "country": "BR", "coord": {"lon": -54.069172, "lat": -2.00778}}, {"id": 3462529, "name": "Gast\u00e3o Vidigal", "country": "BR", "coord": {"lon": -50.186939, "lat": -20.798611}}, {"id": 3445453, "name": "V\u00e1rzea do Po\u00e7o", "country": "BR", "coord": {"lon": -40.320278, "lat": -11.52917}}, {"id": 3463450, "name": "Felixl\u00e2ndia", "country": "BR", "coord": {"lon": -44.898891, "lat": -18.75806}}, {"id": 3398569, "name": "Guaraciaba do Norte", "country": "BR", "coord": {"lon": -40.747501, "lat": -4.16694}}, {"id": 3453315, "name": "Pocone", "country": "BR", "coord": {"lon": -56.62278, "lat": -16.25667}}, {"id": 3466314, "name": "Chapada", "country": "BR", "coord": {"lon": -50.358059, "lat": -28.885281}}, {"id": 3449401, "name": "S\u00e3o Bentinho", "country": "BR", "coord": {"lon": -41.883331, "lat": -17.466669}}, {"id": 3465770, "name": "Concei\u00e7\u00e3o da Aparecida", "country": "BR", "coord": {"lon": -46.204441, "lat": -21.09417}}, {"id": 3454880, "name": "Pass\u00e9", "country": "BR", "coord": {"lon": -38.51667, "lat": -12.71667}}, {"id": 3445851, "name": "Ubarana", "country": "BR", "coord": {"lon": -49.717499, "lat": -21.16556}}, {"id": 3456273, "name": "Noite Negra", "country": "BR", "coord": {"lon": -51.416672, "lat": -22.26667}}, {"id": 3469194, "name": "Boqueir\u00e3o do Le\u00e3o", "country": "BR", "coord": {"lon": -52.42944, "lat": -29.30389}}, {"id": 3471684, "name": "Arco \u00cdris", "country": "BR", "coord": {"lon": -50.465, "lat": -21.772499}}, {"id": 3402164, "name": "Chorozinho", "country": "BR", "coord": {"lon": -38.49778, "lat": -4.30028}}, {"id": 3463746, "name": "Estrela dOeste", "country": "BR", "coord": {"lon": -50.400829, "lat": -20.287781}}, {"id": 3408210, "name": "Agua Branca", "country": "BR", "coord": {"lon": -37.936111, "lat": -9.26083}}, {"id": 3457235, "name": "Merc\u00eas", "country": "BR", "coord": {"lon": -43.341389, "lat": -21.19417}}, {"id": 3449060, "name": "S\u00e3o Gon\u00e7alo do Par\u00e1", "country": "BR", "coord": {"lon": -44.858891, "lat": -19.98278}}, {"id": 3665014, "name": "Beruri", "country": "BR", "coord": {"lon": -61.373058, "lat": -3.89833}}, {"id": 3407756, "name": "Amarante", "country": "BR", "coord": {"lon": -42.854721, "lat": -6.24111}}, {"id": 3400118, "name": "Fazenda Lajes", "country": "BR", "coord": {"lon": -39.383331, "lat": -3.93333}}, {"id": 3453597, "name": "Piranga", "country": "BR", "coord": {"lon": -43.300282, "lat": -20.684719}}, {"id": 3472848, "name": "Aguas Vermelhas", "country": "BR", "coord": {"lon": -41.459999, "lat": -15.74722}}, {"id": 3461876, "name": "Guarar\u00e1", "country": "BR", "coord": {"lon": -43.037498, "lat": -21.731939}}, {"id": 3445222, "name": "Ver\u00edssimo", "country": "BR", "coord": {"lon": -48.308331, "lat": -19.66333}}, {"id": 3446472, "name": "Timb\u00e9", "country": "BR", "coord": {"lon": -49.849998, "lat": -28.816669}}, {"id": 3665348, "name": "Anam\u00e3", "country": "BR", "coord": {"lon": -61.404171, "lat": -3.57972}}, {"id": 3461749, "name": "Guidoval", "country": "BR", "coord": {"lon": -42.796669, "lat": -21.151939}}, {"id": 3451131, "name": "Riol\u00e2ndia", "country": "BR", "coord": {"lon": -49.681938, "lat": -19.980829}}, {"id": 3391940, "name": "Pirapemas", "country": "BR", "coord": {"lon": -44.223331, "lat": -3.72667}}, {"id": 3969433, "name": "Alto Alegre do Parecis", "country": "BR", "coord": {"lon": -61.850559, "lat": -12.12806}}, {"id": 3456383, "name": "Nat\u00e9rcia", "country": "BR", "coord": {"lon": -45.511669, "lat": -22.120001}}, {"id": 3403534, "name": "Campos Sales", "country": "BR", "coord": {"lon": -40.37611, "lat": -7.07444}}, {"id": 3397936, "name": "Itapecuru Mirim", "country": "BR", "coord": {"lon": -44.358608, "lat": -3.3925}}, {"id": 3461320, "name": "Indaiabira", "country": "BR", "coord": {"lon": -42.19722, "lat": -15.49167}}, {"id": 3462687, "name": "G\u00e1lia", "country": "BR", "coord": {"lon": -49.55278, "lat": -22.291389}}, {"id": 3467573, "name": "Canc\u00e3", "country": "BR", "coord": {"lon": -52.366669, "lat": -24.633329}}, {"id": 3455919, "name": "Ol\u00edmpio Noronha", "country": "BR", "coord": {"lon": -45.263889, "lat": -22.06778}}, {"id": 3450561, "name": "Salto do Itarar\u00e9", "country": "BR", "coord": {"lon": -49.625832, "lat": -23.601391}}, {"id": 3452069, "name": "Queiroz", "country": "BR", "coord": {"lon": -50.24028, "lat": -21.798889}}, {"id": 3397982, "name": "Itai\u00e7aba", "country": "BR", "coord": {"lon": -37.822498, "lat": -4.67444}}, {"id": 3408251, "name": "Agrestina", "country": "BR", "coord": {"lon": -35.944721, "lat": -8.45806}}, {"id": 3445792, "name": "Umburatiba", "country": "BR", "coord": {"lon": -40.572781, "lat": -17.255831}}, {"id": 3460779, "name": "Itaobim", "country": "BR", "coord": {"lon": -41.833328, "lat": -16.566669}}, {"id": 3444992, "name": "Virgem da Lapa", "country": "BR", "coord": {"lon": -42.34306, "lat": -16.80444}}, {"id": 3464543, "name": "Dom Silv\u00e9rio", "country": "BR", "coord": {"lon": -42.967781, "lat": -20.16}}, {"id": 3404950, "name": "Breja", "country": "BR", "coord": {"lon": -38.933331, "lat": -4.25}}, {"id": 3399051, "name": "Gararu", "country": "BR", "coord": {"lon": -37.083328, "lat": -9.9675}}, {"id": 3406961, "name": "Augusto Correa", "country": "BR", "coord": {"lon": -46.634998, "lat": -1.02167}}, {"id": 3455568, "name": "Padre Paraiso", "country": "BR", "coord": {"lon": -41.48444, "lat": -17.074169}}, {"id": 3395312, "name": "Mariz\u00f3polis", "country": "BR", "coord": {"lon": -38.347221, "lat": -6.84167}}, {"id": 3458143, "name": "Magda", "country": "BR", "coord": {"lon": -50.226109, "lat": -20.64389}}, {"id": 3465185, "name": "Cris\u00f3lita", "country": "BR", "coord": {"lon": -40.911942, "lat": -17.237221}}, {"id": 3461027, "name": "Irapuru", "country": "BR", "coord": {"lon": -51.345001, "lat": -21.570829}}, {"id": 3461923, "name": "Guaraciaba", "country": "BR", "coord": {"lon": -43.0075, "lat": -20.570829}}, {"id": 3396009, "name": "Macaparana", "country": "BR", "coord": {"lon": -35.45306, "lat": -7.55472}}, {"id": 3460773, "name": "Itapaci", "country": "BR", "coord": {"lon": -49.549438, "lat": -14.95083}}, {"id": 3386766, "name": "Tapada", "country": "BR", "coord": {"lon": -35.950001, "lat": -7.98333}}, {"id": 3468232, "name": "Caibat\u00e9", "country": "BR", "coord": {"lon": -54.638329, "lat": -28.287781}}, {"id": 3449940, "name": "Santana do Deserto", "country": "BR", "coord": {"lon": -43.166389, "lat": -21.950001}}, {"id": 3471854, "name": "Araci", "country": "BR", "coord": {"lon": -38.966671, "lat": -11.33333}}, {"id": 3456155, "name": "Novais", "country": "BR", "coord": {"lon": -48.91861, "lat": -20.99222}}, {"id": 3467787, "name": "Campo Bonito", "country": "BR", "coord": {"lon": -52.9925, "lat": -25.031111}}, {"id": 3472246, "name": "Andr\u00e9 Fernandes", "country": "BR", "coord": {"lon": -41.5, "lat": -15.95}}, {"id": 7775057, "name": "S\u00edtio M\u00e1rio Oliveira", "country": "BR", "coord": {"lon": -50.134838, "lat": -23.61764}}, {"id": 3445972, "name": "Tucunduva", "country": "BR", "coord": {"lon": -54.440281, "lat": -27.65694}}, {"id": 3461400, "name": "Il\u00f3polis", "country": "BR", "coord": {"lon": -52.124168, "lat": -28.92667}}, {"id": 3392732, "name": "Paulo Jacinto", "country": "BR", "coord": {"lon": -36.36972, "lat": -9.36611}}, {"id": 3472864, "name": "Aguas Formosas", "country": "BR", "coord": {"lon": -40.935829, "lat": -17.08222}}, {"id": 3459981, "name": "Jeceaba", "country": "BR", "coord": {"lon": -43.98333, "lat": -20.53528}}, {"id": 3391657, "name": "Po\u00e7o Doce", "country": "BR", "coord": {"lon": -39.112221, "lat": -3.44028}}, {"id": 3394557, "name": "Monte Horebe", "country": "BR", "coord": {"lon": -38.586391, "lat": -7.215}}, {"id": 3386966, "name": "Tacaratu", "country": "BR", "coord": {"lon": -38.14917, "lat": -9.10528}}, {"id": 3385922, "name": "Tuntum", "country": "BR", "coord": {"lon": -44.648891, "lat": -5.25806}}, {"id": 3388173, "name": "Sao Pedro do Piaui", "country": "BR", "coord": {"lon": -42.718609, "lat": -5.92944}}, {"id": 3457757, "name": "Vila Maria", "country": "BR", "coord": {"lon": -52.15361, "lat": -28.534719}}, {"id": 3397678, "name": "Jaguaribara", "country": "BR", "coord": {"lon": -38.619999, "lat": -5.65806}}, {"id": 3472245, "name": "Andrelandia", "country": "BR", "coord": {"lon": -44.30917, "lat": -21.739719}}, {"id": 3465158, "name": "Cristiano Otoni", "country": "BR", "coord": {"lon": -43.805561, "lat": -20.83222}}, {"id": 3445321, "name": "Ventania", "country": "BR", "coord": {"lon": -50.242779, "lat": -24.245831}}, {"id": 3465337, "name": "Corumbata\u00ed", "country": "BR", "coord": {"lon": -47.625832, "lat": -22.219999}}, {"id": 3460127, "name": "Japoata", "country": "BR", "coord": {"lon": -36.801109, "lat": -10.34667}}, {"id": 3468250, "name": "Caiabu", "country": "BR", "coord": {"lon": -51.235561, "lat": -22.01222}}, {"id": 3462951, "name": "Frei Gaspar", "country": "BR", "coord": {"lon": -41.42944, "lat": -18.066111}}, {"id": 3453712, "name": "Pintadas", "country": "BR", "coord": {"lon": -39.908611, "lat": -11.8125}}, {"id": 3448696, "name": "S\u00e3o Jos\u00e9 da Bela Vista", "country": "BR", "coord": {"lon": -47.639999, "lat": -20.59306}}, {"id": 3453683, "name": "Piquerobi", "country": "BR", "coord": {"lon": -51.728611, "lat": -21.8675}}, {"id": 3470639, "name": "Barra Longa", "country": "BR", "coord": {"lon": -43.041111, "lat": -20.28278}}, {"id": 3473255, "name": "Abdon Batista", "country": "BR", "coord": {"lon": -51.022499, "lat": -27.611111}}, {"id": 3459181, "name": "Lagoa Formosa", "country": "BR", "coord": {"lon": -46.407501, "lat": -18.77861}}, {"id": 3461981, "name": "Guamiranga", "country": "BR", "coord": {"lon": -50.804722, "lat": -25.191389}}, {"id": 3456879, "name": "Monte Alegre de Sergipe", "country": "BR", "coord": {"lon": -37.562222, "lat": -10.02722}}, {"id": 3398456, "name": "Himalaia", "country": "BR", "coord": {"lon": -36.216671, "lat": -9.56667}}, {"id": 3447840, "name": "Senhora dos Rem\u00e9dios", "country": "BR", "coord": {"lon": -43.5825, "lat": -21.028061}}, {"id": 3405954, "name": "Baturite", "country": "BR", "coord": {"lon": -38.88472, "lat": -4.32861}}, {"id": 3398207, "name": "Ingazeira", "country": "BR", "coord": {"lon": -37.459721, "lat": -7.67611}}, {"id": 3461554, "name": "Belmiro Braga", "country": "BR", "coord": {"lon": -43.415001, "lat": -21.94861}}, {"id": 3472627, "name": "Alegria", "country": "BR", "coord": {"lon": -54.06139, "lat": -27.832781}}, {"id": 3463846, "name": "Esteves J\u00fanior", "country": "BR", "coord": {"lon": -51.849998, "lat": -27.433331}}, {"id": 3447965, "name": "S\u00e1tiro Dias", "country": "BR", "coord": {"lon": -38.599998, "lat": -11.6}}, {"id": 3469598, "name": "Bocai\u00fava do Sul", "country": "BR", "coord": {"lon": -49.115002, "lat": -25.20611}}, {"id": 3453858, "name": "Pinda\u00ed", "country": "BR", "coord": {"lon": -42.687222, "lat": -14.4925}}, {"id": 3453916, "name": "Pi\u00ean", "country": "BR", "coord": {"lon": -49.429169, "lat": -26.098061}}, {"id": 3397063, "name": "Junqueiro", "country": "BR", "coord": {"lon": -36.47583, "lat": -9.92528}}, {"id": 3662784, "name": "Porto Acre", "country": "BR", "coord": {"lon": -67.532501, "lat": -9.58833}}, {"id": 3449638, "name": "Santo Ant\u00f4nio", "country": "BR", "coord": {"lon": -43.25, "lat": -20.91667}}, {"id": 7588689, "name": "Jequitaia", "country": "BR", "coord": {"lon": -47.816299, "lat": -23.108601}}, {"id": 3458249, "name": "Macarani", "country": "BR", "coord": {"lon": -40.423061, "lat": -15.56833}}, {"id": 3398399, "name": "Ibirajuba", "country": "BR", "coord": {"lon": -36.17944, "lat": -8.58056}}, {"id": 3397897, "name": "Itapororoca", "country": "BR", "coord": {"lon": -35.247219, "lat": -6.82972}}, {"id": 3461455, "name": "Iguatemi", "country": "BR", "coord": {"lon": -54.561111, "lat": -23.680281}}, {"id": 3459933, "name": "Jequitib\u00e1", "country": "BR", "coord": {"lon": -44.027779, "lat": -19.235559}}, {"id": 3388618, "name": "Sao Joao do Piaui", "country": "BR", "coord": {"lon": -42.24667, "lat": -8.35806}}, {"id": 3449059, "name": "S\u00e3o Gon\u00e7alo do Rio Abaixo", "country": "BR", "coord": {"lon": -43.362221, "lat": -19.826111}}, {"id": 3461064, "name": "Ipumirim", "country": "BR", "coord": {"lon": -52.135559, "lat": -27.07667}}, {"id": 3468453, "name": "Cachoeira Alta", "country": "BR", "coord": {"lon": -50.941669, "lat": -18.76333}}, {"id": 3467602, "name": "Canas", "country": "BR", "coord": {"lon": -45.055279, "lat": -22.703609}}, {"id": 3465338, "name": "Corumba\u00edba", "country": "BR", "coord": {"lon": -48.56139, "lat": -18.1425}}, {"id": 3455351, "name": "Palmin\u00f3polis", "country": "BR", "coord": {"lon": -50.164719, "lat": -16.79611}}, {"id": 3445933, "name": "Tuparendi", "country": "BR", "coord": {"lon": -54.48167, "lat": -27.75639}}, {"id": 3396116, "name": "Lu\u00eds Gomes", "country": "BR", "coord": {"lon": -38.388611, "lat": -6.41389}}, {"id": 3462400, "name": "Glorinha", "country": "BR", "coord": {"lon": -50.783058, "lat": -29.88056}}, {"id": 3451001, "name": "Rochedo de Minas", "country": "BR", "coord": {"lon": -43.019718, "lat": -21.629721}}, {"id": 3450965, "name": "Rolador", "country": "BR", "coord": {"lon": -54.816109, "lat": -28.25667}}, {"id": 3465474, "name": "Coronel Freitas", "country": "BR", "coord": {"lon": -52.70306, "lat": -26.908609}}, {"id": 3457623, "name": "Marques de Souza", "country": "BR", "coord": {"lon": -52.092499, "lat": -29.327499}}, {"id": 3452503, "name": "Pouso Novo", "country": "BR", "coord": {"lon": -52.2075, "lat": -29.17083}}, {"id": 3460516, "name": "Itupeva", "country": "BR", "coord": {"lon": -47.057781, "lat": -23.153061}}, {"id": 3461604, "name": "Ibicoara", "country": "BR", "coord": {"lon": -41.284721, "lat": -13.41056}}, {"id": 3393174, "name": "Pao de Acucar", "country": "BR", "coord": {"lon": -37.436668, "lat": -9.74833}}, {"id": 3457810, "name": "Maravilha", "country": "BR", "coord": {"lon": -43.216671, "lat": -18.033331}}, {"id": 3464708, "name": "Diogo de Vasconcelos", "country": "BR", "coord": {"lon": -43.19833, "lat": -20.48778}}, {"id": 3405796, "name": "Beneditinos", "country": "BR", "coord": {"lon": -42.366669, "lat": -5.45}}, {"id": 3388615, "name": "Sao Joao dos Patos", "country": "BR", "coord": {"lon": -43.702221, "lat": -6.495}}, {"id": 3450685, "name": "Salgado Filho", "country": "BR", "coord": {"lon": -53.361389, "lat": -26.17028}}, {"id": 3458148, "name": "Maetinga", "country": "BR", "coord": {"lon": -41.491669, "lat": -14.66333}}, {"id": 3399380, "name": "Fortim", "country": "BR", "coord": {"lon": -37.797218, "lat": -4.45194}}, {"id": 3448905, "name": "S\u00e3o Jo\u00e3o Batista do Gl\u00f3ria", "country": "BR", "coord": {"lon": -46.505562, "lat": -20.64139}}, {"id": 3447533, "name": "Siriri", "country": "BR", "coord": {"lon": -37.112782, "lat": -10.60389}}, {"id": 3454681, "name": "Paulist\u00e2nia", "country": "BR", "coord": {"lon": -49.402779, "lat": -22.578329}}, {"id": 3465467, "name": "Coronel Murta", "country": "BR", "coord": {"lon": -42.18222, "lat": -16.618891}}, {"id": 3460991, "name": "Irupi", "country": "BR", "coord": {"lon": -41.641109, "lat": -20.34528}}, {"id": 3459681, "name": "Jos\u00e9 Alves", "country": "BR", "coord": {"lon": -45.383331, "lat": -20.950001}}, {"id": 3456206, "name": "Nova Alian\u00e7a", "country": "BR", "coord": {"lon": -49.496109, "lat": -21.015829}}, {"id": 3460235, "name": "Jaguara\u00e7u", "country": "BR", "coord": {"lon": -42.749722, "lat": -19.64917}}, {"id": 3386622, "name": "Taquaritinga do Norte", "country": "BR", "coord": {"lon": -36.04417, "lat": -7.90306}}, {"id": 3461605, "name": "Ibicar\u00e9", "country": "BR", "coord": {"lon": -51.365002, "lat": -27.09194}}, {"id": 3467123, "name": "Caputira", "country": "BR", "coord": {"lon": -42.270561, "lat": -20.17194}}, {"id": 3472408, "name": "Alvinl\u00e2ndia", "country": "BR", "coord": {"lon": -49.763062, "lat": -22.44417}}, {"id": 3464043, "name": "Erval Seco", "country": "BR", "coord": {"lon": -53.504169, "lat": -27.54917}}, {"id": 3456688, "name": "Morro do Pilar", "country": "BR", "coord": {"lon": -43.376389, "lat": -19.215561}}, {"id": 3392986, "name": "Paruj\u00e9", "country": "BR", "coord": {"lon": -37.283329, "lat": -9.53333}}, {"id": 3448660, "name": "S\u00e3o Jos\u00e9 do Hort\u00eancio", "country": "BR", "coord": {"lon": -51.248058, "lat": -29.53056}}, {"id": 3458134, "name": "Mairi", "country": "BR", "coord": {"lon": -40.148891, "lat": -11.71139}}, {"id": 3451126, "name": "Rio Manso", "country": "BR", "coord": {"lon": -44.307781, "lat": -20.26528}}, {"id": 3448861, "name": "Sao Joao do Paraiso", "country": "BR", "coord": {"lon": -42.014439, "lat": -15.31361}}, {"id": 3455067, "name": "Paranagua\u00e7u", "country": "BR", "coord": {"lon": -53.416672, "lat": -22.950001}}, {"id": 3471837, "name": "Aragua\u00e7u", "country": "BR", "coord": {"lon": -49.826389, "lat": -12.93056}}, {"id": 3447565, "name": "Silvian\u00f3polis", "country": "BR", "coord": {"lon": -45.834999, "lat": -22.02944}}, {"id": 3446874, "name": "Tapira", "country": "BR", "coord": {"lon": -46.823059, "lat": -19.92222}}, {"id": 3461403, "name": "Ilic\u00ednea", "country": "BR", "coord": {"lon": -45.832779, "lat": -20.935829}}, {"id": 3394116, "name": "Murici", "country": "BR", "coord": {"lon": -35.943329, "lat": -9.30667}},