[{"id": 6360971, "name": "Bollullos de la Mitaci\u00f3n", "country": "ES", "coord": {"lon": -6.14158, "lat": 37.334221}}, {"id": 2520870, "name": "Bollullos de la Mitacion", "country": "ES", "coord": {"lon": -6.13719, "lat": 37.340141}}, {"id": 6361292, "name": "Cornudella de Montsant", "country": "ES", "coord": {"lon": 0.92856, "lat": 41.26387}}, {"id": 3124553, "name": "Cornudella", "country": "ES", "coord": {"lon": 0.90508, "lat": 41.265831}}, {"id": 3114303, "name": "Parbay\u00f3n", "country": "ES", "coord": {"lon": -3.89147, "lat": 43.376202}}, {"id": 3109106, "name": "Ser\u00edn", "country": "ES", "coord": {"lon": -5.78333, "lat": 43.5}}, {"id": 6355533, "name": "Arboleas", "country": "ES", "coord": {"lon": -2.08197, "lat": 37.348518}}, {"id": 2518719, "name": "El Arroyo Aceituno", "country": "ES", "coord": {"lon": -2.06667, "lat": 37.349998}}, {"id": 6358734, "name": "Villabraz", "country": "ES", "coord": {"lon": -5.442, "lat": 42.255951}}, {"id": 3130548, "name": "Alcuetas", "country": "ES", "coord": {"lon": -5.43335, "lat": 42.27058}}, {"id": 2520837, "name": "Borbot\u00f3", "country": "ES", "coord": {"lon": -0.4, "lat": 39.51667}}, {"id": 8063144, "name": "Barri de Sanfeliu", "country": "ES", "coord": {"lon": 2.09049, "lat": 41.36517}}, {"id": 6359481, "name": "Oj\u00e9n", "country": "ES", "coord": {"lon": -4.80688, "lat": 36.56123}}, {"id": 2513163, "name": "Ojen", "country": "ES", "coord": {"lon": -4.85561, "lat": 36.564861}}, {"id": 6359617, "name": "C\u00e1seda", "country": "ES", "coord": {"lon": -1.35721, "lat": 42.501141}}, {"id": 3126027, "name": "Caseda", "country": "ES", "coord": {"lon": -1.36636, "lat": 42.522549}}, {"id": 6355362, "name": "Socovos", "country": "ES", "coord": {"lon": -1.9103, "lat": 38.34959}}, {"id": 2510853, "name": "Socovos", "country": "ES", "coord": {"lon": -1.98485, "lat": 38.332321}}, {"id": 6355459, "name": "Jijona/Xixona", "country": "ES", "coord": {"lon": -0.47922, "lat": 38.554939}}, {"id": 2521916, "name": "Almarch", "country": "ES", "coord": {"lon": -0.4977, "lat": 38.53664}}, {"id": 6359276, "name": "Cubas de la Sagra", "country": "ES", "coord": {"lon": -3.83419, "lat": 40.19162}}, {"id": 3124209, "name": "Cubas", "country": "ES", "coord": {"lon": -3.83526, "lat": 40.188999}}, {"id": 6359331, "name": "Perales de Taju\u00f1a", "country": "ES", "coord": {"lon": -3.35836, "lat": 40.230492}}, {"id": 3113801, "name": "Perales de Tajuna", "country": "ES", "coord": {"lon": -3.35021, "lat": 40.2313}}, {"id": 6360383, "name": "Fuentes de O\u00f1oro", "country": "ES", "coord": {"lon": -6.78247, "lat": 40.574879}}, {"id": 3121840, "name": "Fuentes de Onoro", "country": "ES", "coord": {"lon": -6.81144, "lat": 40.591019}}, {"id": 2521462, "name": "Avileses", "country": "ES", "coord": {"lon": -0.94336, "lat": 37.848728}}, {"id": 3105339, "name": "Villamoros de las Regueras", "country": "ES", "coord": {"lon": -5.5352, "lat": 42.620369}}, {"id": 6534183, "name": "Bre\u00f1a Alta", "country": "ES", "coord": {"lon": -17.803261, "lat": 28.652161}}, {"id": 2520800, "name": "Brena Alta", "country": "ES", "coord": {"lon": -17.783331, "lat": 28.65}}, {"id": 6357962, "name": "Molina de Arag\u00f3n", "country": "ES", "coord": {"lon": -1.83286, "lat": 40.86095}}, {"id": 3116595, "name": "Molina de Aragon", "country": "ES", "coord": {"lon": -1.88762, "lat": 40.843578}}, {"id": 2516231, "name": "La Alberca", "country": "ES", "coord": {"lon": -1.14162, "lat": 37.939758}}, {"id": 6534139, "name": "Santa Coloma de Farners", "country": "ES", "coord": {"lon": 2.62386, "lat": 41.87339}}, {"id": 3109982, "name": "Santa Coloma de Farners", "country": "ES", "coord": {"lon": 2.66667, "lat": 41.866669}}, {"id": 6355910, "name": "Entr\u00edn Bajo", "country": "ES", "coord": {"lon": -6.70319, "lat": 38.716141}}, {"id": 2517980, "name": "Entrin Bajo", "country": "ES", "coord": {"lon": -6.71349, "lat": 38.718552}}, {"id": 2522190, "name": "Albuj\u00f3n", "country": "ES", "coord": {"lon": -1.04816, "lat": 37.716648}}, {"id": 3125752, "name": "Castrillino", "country": "ES", "coord": {"lon": -5.5107, "lat": 42.654469}}, {"id": 3112304, "name": "Rand\u00edn", "country": "ES", "coord": {"lon": -7.87483, "lat": 41.905369}}, {"id": 6359283, "name": "Fresno de Torote", "country": "ES", "coord": {"lon": -3.40403, "lat": 40.60458}}, {"id": 3109092, "name": "Serracines", "country": "ES", "coord": {"lon": -3.39882, "lat": 40.62191}}, {"id": 3131075, "name": "Abella de la Conca", "country": "ES", "coord": {"lon": 1.09228, "lat": 42.161629}}, {"id": 6355315, "name": "Casas de Ves", "country": "ES", "coord": {"lon": -1.28893, "lat": 39.261478}}, {"id": 2520214, "name": "Cantoblanco", "country": "ES", "coord": {"lon": -1.25, "lat": 39.25}}, {"id": 3108725, "name": "Somosaguas", "country": "ES", "coord": {"lon": -3.79475, "lat": 40.424412}}, {"id": 3120499, "name": "H\u00famera", "country": "ES", "coord": {"lon": -3.78282, "lat": 40.429111}}, {"id": 6362354, "name": "Amorebieta-Etxano", "country": "ES", "coord": {"lon": -2.70601, "lat": 43.21986}}, {"id": 3120480, "name": "Ibarruri", "country": "ES", "coord": {"lon": -2.66667, "lat": 43.25}}, {"id": 6356491, "name": "Merindad de Cuesta-Urria", "country": "ES", "coord": {"lon": -3.37908, "lat": 42.863731}}, {"id": 3107184, "name": "Urr\u00eda", "country": "ES", "coord": {"lon": -3.45348, "lat": 42.846111}}, {"id": 6360684, "name": "Limpias", "country": "ES", "coord": {"lon": -3.42092, "lat": 43.37476}}, {"id": 3118415, "name": "Limpias", "country": "ES", "coord": {"lon": -3.41778, "lat": 43.364021}}, {"id": 6360656, "name": "B\u00e1rcena de Cicero", "country": "ES", "coord": {"lon": -3.48577, "lat": 43.405472}}, {"id": 3107499, "name": "Treto", "country": "ES", "coord": {"lon": -3.47025, "lat": 43.393478}}, {"id": 6360705, "name": "Reoc\u00edn", "country": "ES", "coord": {"lon": -4.1364, "lat": 43.348518}}, {"id": 3116776, "name": "Mijares", "country": "ES", "coord": {"lon": -4.07791, "lat": 43.36787}}, {"id": 6362373, "name": "Ea", "country": "ES", "coord": {"lon": -2.58334, "lat": 43.383991}}, {"id": 3123759, "name": "Ea", "country": "ES", "coord": {"lon": -2.58556, "lat": 43.379848}}, {"id": 6358748, "name": "Villaobispo de Otero", "country": "ES", "coord": {"lon": -6.05161, "lat": 42.5028}}, {"id": 3105180, "name": "Villaobispo de Otero", "country": "ES", "coord": {"lon": -6.05809, "lat": 42.500648}}, {"id": 6357224, "name": "Fuente Obejuna", "country": "ES", "coord": {"lon": -5.45186, "lat": 38.262321}}, {"id": 2517515, "name": "Fuente Obejuna", "country": "ES", "coord": {"lon": -5.41667, "lat": 38.26667}}, {"id": 6356025, "name": "Zalamea de la Serena", "country": "ES", "coord": {"lon": -5.71566, "lat": 38.652519}}, {"id": 2509365, "name": "Zalamea de la Serena", "country": "ES", "coord": {"lon": -5.66063, "lat": 38.65131}}, {"id": 2515303, "name": "Las Negras", "country": "ES", "coord": {"lon": -2.00473, "lat": 36.88015}}, {"id": 6356368, "name": "Belorado", "country": "ES", "coord": {"lon": -3.17459, "lat": 42.3964}}, {"id": 3110155, "name": "San Pedro del Monte", "country": "ES", "coord": {"lon": -3.1107, "lat": 42.415859}}, {"id": 3124249, "name": "Cruido", "country": "ES", "coord": {"lon": -8.85903, "lat": 42.778549}}, {"id": 6360045, "name": "Herrera de Pisuerga", "country": "ES", "coord": {"lon": -4.31222, "lat": 42.5555}}, {"id": 3120793, "name": "Herrera de Pisuerga", "country": "ES", "coord": {"lon": -4.33034, "lat": 42.594921}}, {"id": 6358306, "name": "Binaced", "country": "ES", "coord": {"lon": 0.21552, "lat": 41.81179}}, {"id": 3128017, "name": "Binaced", "country": "ES", "coord": {"lon": 0.20084, "lat": 41.825642}}, {"id": 6358966, "name": "Vielha e Mijaran", "country": "ES", "coord": {"lon": 0.77263, "lat": 42.68462}}, {"id": 3121559, "name": "Gar\u00f2s", "country": "ES", "coord": {"lon": 0.84745, "lat": 42.70023}}, {"id": 6360658, "name": "Bareyo", "country": "ES", "coord": {"lon": -3.61178, "lat": 43.491821}}, {"id": 3121001, "name": "G\u00fcemes", "country": "ES", "coord": {"lon": -3.63529, "lat": 43.455929}}, {"id": 3113555, "name": "Pilona", "country": "ES", "coord": {"lon": -5.36667, "lat": 43.349998}}, {"id": 7871423, "name": "Barrio de La Rueda", "country": "ES", "coord": {"lon": -3.48205, "lat": 43.405411}}, {"id": 2513634, "name": "Monte Lope Alvarez", "country": "ES", "coord": {"lon": -4.11372, "lat": 37.70319}}, {"id": 3123525, "name": "El Cuadr\u00f3n", "country": "ES", "coord": {"lon": -3.65724, "lat": 40.941261}}, {"id": 6355276, "name": "Ribera Baja/Erribera Beitia", "country": "ES", "coord": {"lon": -2.89734, "lat": 42.72319}}, {"id": 3111864, "name": "Rivabellosa", "country": "ES", "coord": {"lon": -2.91667, "lat": 42.716671}}, {"id": 3123972, "name": "Darm\u00f3s", "country": "ES", "coord": {"lon": 0.70734, "lat": 41.09766}}, {"id": 6360813, "name": "Espinar (El)", "country": "ES", "coord": {"lon": -4.2128, "lat": 40.72995}}, {"id": 3110099, "name": "San Rafael", "country": "ES", "coord": {"lon": -4.19051, "lat": 40.713112}}, {"id": 6360709, "name": "Riotuerto", "country": "ES", "coord": {"lon": -3.6953, "lat": 43.332649}}, {"id": 3119872, "name": "La Cavada", "country": "ES", "coord": {"lon": -3.70377, "lat": 43.351269}}, {"id": 3124403, "name": "Cospeito", "country": "ES", "coord": {"lon": -7.55, "lat": 43.216671}}, {"id": 6359841, "name": "Castro Caldelas", "country": "ES", "coord": {"lon": -7.41183, "lat": 42.383202}}, {"id": 3114055, "name": "Pedrouzos", "country": "ES", "coord": {"lon": -7.43333, "lat": 42.333328}}, {"id": 6361024, "name": "Palacios y Villafranca (Los)", "country": "ES", "coord": {"lon": -5.91361, "lat": 37.156818}}, {"id": 2514553, "name": "Los Palacios y Villafranca", "country": "ES", "coord": {"lon": -5.92433, "lat": 37.161812}}, {"id": 3116506, "name": "Mondo\u00f1edo", "country": "ES", "coord": {"lon": -7.35833, "lat": 43.426819}}, {"id": 6357631, "name": "Susqueda", "country": "ES", "coord": {"lon": 2.52139, "lat": 41.99287}}, {"id": 3108474, "name": "Susqueda", "country": "ES", "coord": {"lon": 2.51652, "lat": 41.97776}}, {"id": 6359407, "name": "Alcauc\u00edn", "country": "ES", "coord": {"lon": -4.13017, "lat": 36.904381}}, {"id": 2522138, "name": "Alcaucin", "country": "ES", "coord": {"lon": -4.11406, "lat": 36.903011}}, {"id": 2517975, "name": "Era de Soler", "country": "ES", "coord": {"lon": -0.23333, "lat": 38.51667}}, {"id": 6357295, "name": "Cerdido", "country": "ES", "coord": {"lon": -7.95411, "lat": 43.61459}}, {"id": 3125397, "name": "Cerdido", "country": "ES", "coord": {"lon": -8, "lat": 43.616669}}, {"id": 6355424, "name": "Callosa d'En Sarri\u00e0", "country": "ES", "coord": {"lon": -0.09824, "lat": 38.649368}}, {"id": 2520503, "name": "Callosa dEn Sarria", "country": "ES", "coord": {"lon": -0.11667, "lat": 38.650002}}, {"id": 3127628, "name": "Brihuega", "country": "ES", "coord": {"lon": -2.86966, "lat": 40.76049}}, {"id": 3116556, "name": "Molledo", "country": "ES", "coord": {"lon": -4.04239, "lat": 43.149738}}, {"id": 6360042, "name": "Guardo", "country": "ES", "coord": {"lon": -4.83561, "lat": 42.784672}}, {"id": 3121029, "name": "Guardo", "country": "ES", "coord": {"lon": -4.84823, "lat": 42.789661}}, {"id": 6360694, "name": "Penagos", "country": "ES", "coord": {"lon": -3.81486, "lat": 43.34129}}, {"id": 3108737, "name": "Somarriba", "country": "ES", "coord": {"lon": -3.79548, "lat": 43.357121}}, {"id": 2518193, "name": "El Raal", "country": "ES", "coord": {"lon": -1.01667, "lat": 38.033329}}, {"id": 3104348, "name": "Zamarramala", "country": "ES", "coord": {"lon": -4.13443, "lat": 40.966301}}, {"id": 6358169, "name": "Zumaia", "country": "ES", "coord": {"lon": -2.24611, "lat": 43.287651}}, {"id": 3104218, "name": "Zumaia", "country": "ES", "coord": {"lon": -2.25341, "lat": 43.294689}}, {"id": 6325070, "name": "Izaro", "country": "ES", "coord": {"lon": -2.25206, "lat": 43.30093}}, {"id": 6358649, "name": "Pajares de los Oteros", "country": "ES", "coord": {"lon": -5.46034, "lat": 42.348652}}, {"id": 3114615, "name": "Pajares de los Oteros", "country": "ES", "coord": {"lon": -5.47313, "lat": 42.330101}}, {"id": 3116341, "name": "Montejos del Camino", "country": "ES", "coord": {"lon": -5.68982, "lat": 42.584419}}, {"id": 3110396, "name": "San Mart\u00edn", "country": "ES", "coord": {"lon": -6.00365, "lat": 43.246658}}, {"id": 6361793, "name": "Pol\u00e1n", "country": "ES", "coord": {"lon": -4.24454, "lat": 39.816631}}, {"id": 2515619, "name": "La Puebla de Montalban", "country": "ES", "coord": {"lon": -4.35917, "lat": 39.862968}}, {"id": 6362096, "name": "Simat de la Valldigna", "country": "ES", "coord": {"lon": -0.33424, "lat": 39.036831}}, {"id": 2510870, "name": "Simat de la Valldigna", "country": "ES", "coord": {"lon": -0.31667, "lat": 39.033329}}, {"id": 2516343, "name": "Jauja", "country": "ES", "coord": {"lon": -4.65564, "lat": 37.302952}}, {"id": 6361712, "name": "Cobisa", "country": "ES", "coord": {"lon": -4.02153, "lat": 39.795841}}, {"id": 2519385, "name": "Cobisa", "country": "ES", "coord": {"lon": -4.02528, "lat": 39.804249}}, {"id": 3127998, "name": "Bitem", "country": "ES", "coord": {"lon": 0.53224, "lat": 40.85096}}, {"id": 6361552, "name": "Mart\u00edn del R\u00edo", "country": "ES", "coord": {"lon": -0.91749, "lat": 40.8349}}, {"id": 3117347, "name": "Martin del Rio", "country": "ES", "coord": {"lon": -0.89549, "lat": 40.844589}}, {"id": 2516311, "name": "Jin\u00e1mar", "country": "ES", "coord": {"lon": -15.41667, "lat": 28.033331}}, {"id": 6358717, "name": "Valderrey", "country": "ES", "coord": {"lon": -6.02064, "lat": 42.398651}}, {"id": 3106804, "name": "Valderrey", "country": "ES", "coord": {"lon": -6.02151, "lat": 42.394081}}, {"id": 6356898, "name": "Valencia de Alc\u00e1ntara", "country": "ES", "coord": {"lon": -7.23648, "lat": 39.4846}}, {"id": 2509950, "name": "Valencia de Alcantara", "country": "ES", "coord": {"lon": -7.24435, "lat": 39.41148}}, {"id": 6356280, "name": "Santa Maria de Palautordera", "country": "ES", "coord": {"lon": 2.44644, "lat": 41.684471}}, {"id": 3109764, "name": "Santa Maria de Palautordera", "country": "ES", "coord": {"lon": 2.45, "lat": 41.700001}}, {"id": 6360675, "name": "Entrambasaguas", "country": "ES", "coord": {"lon": -3.68523, "lat": 43.372669}}, {"id": 3123131, "name": "Entrambasaguas", "country": "ES", "coord": {"lon": -3.68072, "lat": 43.37846}}, {"id": 3115216, "name": "Ojeda", "country": "ES", "coord": {"lon": -3.50744, "lat": 42.755161}}, {"id": 2520990, "name": "Bernal", "country": "ES", "coord": {"lon": -0.98028, "lat": 37.725349}}, {"id": 6356979, "name": "Betx\u00ed", "country": "ES", "coord": {"lon": -0.19592, "lat": 39.92152}}, {"id": 2521198, "name": "Betxi", "country": "ES", "coord": {"lon": -0.2, "lat": 39.933331}}, {"id": 6360907, "name": "Santa Mar\u00eda la Real de Nieva", "country": "ES", "coord": {"lon": -4.42123, "lat": 41.01189}}, {"id": 3120145, "name": "Jemenu\u00f1o", "country": "ES", "coord": {"lon": -4.49434, "lat": 40.94754}}, {"id": 6359200, "name": "Palas de Rei", "country": "ES", "coord": {"lon": -7.90138, "lat": 42.869179}}, {"id": 3112000, "name": "Reposter\u00eda", "country": "ES", "coord": {"lon": -7.91667, "lat": 42.849998}}, {"id": 6359224, "name": "Viveiro", "country": "ES", "coord": {"lon": -7.58279, "lat": 43.655499}}, {"id": 3119344, "name": "Landrove", "country": "ES", "coord": {"lon": -7.6, "lat": 43.633331}}, {"id": 6359169, "name": "Begonte", "country": "ES", "coord": {"lon": -7.68628, "lat": 43.1647}}, {"id": 3126223, "name": "Carral", "country": "ES", "coord": {"lon": -7.65, "lat": 43.133331}}, {"id": 3115671, "name": "Navajeda", "country": "ES", "coord": {"lon": -3.70098, "lat": 43.364899}}, {"id": 6357219, "name": "Encinas Reales", "country": "ES", "coord": {"lon": -4.47018, "lat": 37.279388}}, {"id": 2518019, "name": "Encinas Reales", "country": "ES", "coord": {"lon": -4.48828, "lat": 37.274189}}, {"id": 6361183, "name": "R\u00e1banos (Los)", "country": "ES", "coord": {"lon": -2.47565, "lat": 41.685169}}, {"id": 3117950, "name": "Los R\u00e1banos", "country": "ES", "coord": {"lon": -2.47647, "lat": 41.718029}}, {"id": 6355450, "name": "Granja de Rocamora", "country": "ES", "coord": {"lon": -0.89534, "lat": 38.154911}}, {"id": 2517060, "name": "Granja de Rocamora", "country": "ES", "coord": {"lon": -0.8917, "lat": 38.151569}}, {"id": 3108615, "name": "Soto de Bureba", "country": "ES", "coord": {"lon": -3.29549, "lat": 42.676041}}, {"id": 6360935, "name": "Valverde del Majano", "country": "ES", "coord": {"lon": -4.20744, "lat": 40.95285}}, {"id": 3106395, "name": "Valverde del Majano", "country": "ES", "coord": {"lon": -4.23468, "lat": 40.95689}}, {"id": 3106693, "name": "Val\u00edn", "country": "ES", "coord": {"lon": -7.09284, "lat": 43.36285}}, {"id": 2514429, "name": "Los Urrutias", "country": "ES", "coord": {"lon": -0.83122, "lat": 37.683338}}, {"id": 3113614, "name": "Piedra", "country": "ES", "coord": {"lon": -4.84469, "lat": 43.41436}}, {"id": 6361286, "name": "el Catllar", "country": "ES", "coord": {"lon": 1.31205, "lat": 41.179729}}, {"id": 3118958, "name": "La Secuita", "country": "ES", "coord": {"lon": 1.27996, "lat": 41.204601}}, {"id": 6357588, "name": "Valeras (Las)", "country": "ES", "coord": {"lon": -2.14696, "lat": 39.807491}}, {"id": 2509939, "name": "Valeria", "country": "ES", "coord": {"lon": -2.15, "lat": 39.783329}}, {"id": 3115200, "name": "Olalla", "country": "ES", "coord": {"lon": -1.16033, "lat": 40.967579}}, {"id": 6355273, "name": "Oy\u00f3n-Oion", "country": "ES", "coord": {"lon": -2.43656, "lat": 42.539581}}, {"id": 3114697, "name": "Oyon", "country": "ES", "coord": {"lon": -2.43638, "lat": 42.505711}}, {"id": 3122717, "name": "Eulz", "country": "ES", "coord": {"lon": -2.07504, "lat": 42.69619}}, {"id": 3108519, "name": "Subiza", "country": "ES", "coord": {"lon": -1.67172, "lat": 42.717701}}, {"id": 3115816, "name": "Muru-Astr\u00e1in", "country": "ES", "coord": {"lon": -1.74098, "lat": 42.765221}}, {"id": 6361157, "name": "Medinaceli", "country": "ES", "coord": {"lon": -2.41892, "lat": 41.155472}}, {"id": 3117011, "name": "Medinaceli", "country": "ES", "coord": {"lon": -2.43476, "lat": 41.172241}}, {"id": 2512844, "name": "Peal de Becerro", "country": "ES", "coord": {"lon": -3.12148, "lat": 37.91338}}, {"id": 6361037, "name": "Roda de Andaluc\u00eda (La)", "country": "ES", "coord": {"lon": -4.78133, "lat": 37.20892}}, {"id": 2515554, "name": "La Roda de Andalucia", "country": "ES", "coord": {"lon": -4.77802, "lat": 37.203812}}, {"id": 3130934, "name": "Adrall", "country": "ES", "coord": {"lon": 1.40086, "lat": 42.326302}}, {"id": 6358342, "name": "Fonz", "country": "ES", "coord": {"lon": 0.23987, "lat": 42.01223}}, {"id": 3122252, "name": "Fonz", "country": "ES", "coord": {"lon": 0.25878, "lat": 42.010151}}, {"id": 6360167, "name": "Osorno la Mayor", "country": "ES", "coord": {"lon": -4.37886, "lat": 42.389439}}, {"id": 3114826, "name": "Osorno", "country": "ES", "coord": {"lon": -4.35558, "lat": 42.405762}}, {"id": 6358705, "name": "Torre del Bierzo", "country": "ES", "coord": {"lon": -6.31174, "lat": 42.572552}}, {"id": 3107813, "name": "Torre del Bierzo", "country": "ES", "coord": {"lon": -6.36675, "lat": 42.607689}}, {"id": 6534186, "name": "Fuencaliente De La Palma", "country": "ES", "coord": {"lon": -17.85013, "lat": 28.49329}}, {"id": 2517598, "name": "Fuencaliente de la Palma", "country": "ES", "coord": {"lon": -17.845289, "lat": 28.492359}}, {"id": 6357356, "name": "Vedra", "country": "ES", "coord": {"lon": -8.47539, "lat": 42.788319}}, {"id": 3106356, "name": "Vedra", "country": "ES", "coord": {"lon": -8.47636, "lat": 42.77816}}, {"id": 3129336, "name": "Artaza", "country": "ES", "coord": {"lon": -2.96784, "lat": 42.845959}}, {"id": 3128696, "name": "Bareyo", "country": "ES", "coord": {"lon": -3.60083, "lat": 43.466862}}, {"id": 6360213, "name": "Catoira", "country": "ES", "coord": {"lon": -8.72174, "lat": 42.663029}}, {"id": 3125602, "name": "Catoira", "country": "ES", "coord": {"lon": -8.72323, "lat": 42.66748}}, {"id": 3121107, "name": "Grillero", "country": "ES", "coord": {"lon": -5.76667, "lat": 43.200001}}, {"id": 3114719, "name": "Ouzande", "country": "ES", "coord": {"lon": -8.48333, "lat": 42.683331}}, {"id": 3117457, "name": "Marauri", "country": "ES", "coord": {"lon": -2.64187, "lat": 42.722172}}, {"id": 2511020, "name": "s'Arrac\u00f3", "country": "ES", "coord": {"lon": 2.39266, "lat": 39.578171}}, {"id": 2518213, "name": "El Puerto", "country": "ES", "coord": {"lon": -1.25639, "lat": 37.561378}}, {"id": 6355388, "name": "Algorfa", "country": "ES", "coord": {"lon": -0.77543, "lat": 38.066551}}, {"id": 2522001, "name": "Algorfa", "country": "ES", "coord": {"lon": -0.79646, "lat": 38.086361}}, {"id": 2522163, "name": "Alcala del Jucar", "country": "ES", "coord": {"lon": -1.43333, "lat": 39.200001}}, {"id": 6362120, "name": "Vilamarxant", "country": "ES", "coord": {"lon": -0.64787, "lat": 39.574371}}, {"id": 2509576, "name": "Vilamarxant", "country": "ES", "coord": {"lon": -0.61667, "lat": 39.566669}}, {"id": 3104205, "name": "Zurita", "country": "ES", "coord": {"lon": -3.99532, "lat": 43.343369}}, {"id": 6360686, "name": "Marina de Cudeyo", "country": "ES", "coord": {"lon": -3.76582, "lat": 43.4245}}, {"id": 3109026, "name": "Seti\u00e9n", "country": "ES", "coord": {"lon": -3.7326, "lat": 43.421879}}, {"id": 6358507, "name": "Lupi\u00f3n", "country": "ES", "coord": {"lon": -3.57789, "lat": 38.015781}}, {"id": 2514369, "name": "Lupion", "country": "ES", "coord": {"lon": -3.54699, "lat": 37.996529}}, {"id": 3120848, "name": "Heras", "country": "ES", "coord": {"lon": -3.76792, "lat": 43.395378}}, {"id": 6361195, "name": "San Esteban de Gormaz", "country": "ES", "coord": {"lon": -3.2284, "lat": 41.548141}}, {"id": 3119157, "name": "La Rasa", "country": "ES", "coord": {"lon": -3.10511, "lat": 41.53756}}, {"id": 6357090, "name": "Viver", "country": "ES", "coord": {"lon": -0.6328, "lat": 39.935909}}, {"id": 2509420, "name": "Viver", "country": "ES", "coord": {"lon": -0.6, "lat": 39.916672}}, {"id": 6362455, "name": "Almeida de Sayago", "country": "ES", "coord": {"lon": -6.0447, "lat": 41.264648}}, {"id": 3130309, "name": "Almeida", "country": "ES", "coord": {"lon": -6.07353, "lat": 41.266491}}, {"id": 6358698, "name": "Sariegos", "country": "ES", "coord": {"lon": -5.62702, "lat": 42.661819}}, {"id": 3126406, "name": "Carbajal de la Legua", "country": "ES", "coord": {"lon": -5.60699, "lat": 42.655811}}, {"id": 2513490, "name": "Moscari", "country": "ES", "coord": {"lon": 2.93627, "lat": 39.76482}}, {"id": 6356673, "name": "Villanueva de Gumiel", "country": "ES", "coord": {"lon": -3.6293, "lat": 41.74321}}, {"id": 3105253, "name": "Villanueva de Gumiel", "country": "ES", "coord": {"lon": -3.62658, "lat": 41.737782}}, {"id": 6359201, "name": "Pant\u00f3n", "country": "ES", "coord": {"lon": -7.63756, "lat": 42.5089}}, {"id": 3114410, "name": "Panton", "country": "ES", "coord": {"lon": -7.6, "lat": 42.51667}}, {"id": 6534071, "name": "la Jonquera", "country": "ES", "coord": {"lon": 2.87464, "lat": 42.416359}}, {"id": 3119559, "name": "la Jonquera", "country": "ES", "coord": {"lon": 2.87363, "lat": 42.417278}}, {"id": 6360241, "name": "Ponteareas", "country": "ES", "coord": {"lon": -8.48505, "lat": 42.18438}}, {"id": 3105875, "name": "Vilar", "country": "ES", "coord": {"lon": -8.48333, "lat": 42.23333}}, {"id": 3109935, "name": "Santa Cruz de Bezana", "country": "ES", "coord": {"lon": -3.90324, "lat": 43.443699}}, {"id": 3114331, "name": "Paradinas", "country": "ES", "coord": {"lon": -4.38993, "lat": 41.01252}}, {"id": 6355611, "name": "V\u00e9lez-Rubio", "country": "ES", "coord": {"lon": -2.05476, "lat": 37.594849}}, {"id": 2516793, "name": "Henares", "country": "ES", "coord": {"lon": -1.91902, "lat": 37.60638}}, {"id": 3108928, "name": "Silvela", "country": "ES", "coord": {"lon": -7.07323, "lat": 42.744709}}, {"id": 6360175, "name": "Artenara", "country": "ES", "coord": {"lon": -15.71131, "lat": 28.022421}}, {"id": 2510558, "name": "Tejeda", "country": "ES", "coord": {"lon": -15.61543, "lat": 27.995081}}, {"id": 6355879, "name": "Azuaga", "country": "ES", "coord": {"lon": -5.67974, "lat": 38.267429}}, {"id": 2521436, "name": "Azuaga", "country": "ES", "coord": {"lon": -5.68333, "lat": 38.26667}}, {"id": 6357564, "name": "Villanueva de la Jara", "country": "ES", "coord": {"lon": -2.0076, "lat": 39.422371}}, {"id": 2509558, "name": "Villanueva de la Jara", "country": "ES", "coord": {"lon": -1.93333, "lat": 39.433331}}, {"id": 3115128, "name": "Olloniego", "country": "ES", "coord": {"lon": -5.82357, "lat": 43.298779}}, {"id": 3130005, "name": "Ani\u00e9s", "country": "ES", "coord": {"lon": -0.57808, "lat": 42.304081}}, {"id": 6358755, "name": "Villaturiel", "country": "ES", "coord": {"lon": -5.52526, "lat": 42.534618}}, {"id": 3104773, "name": "Villaturiel", "country": "ES", "coord": {"lon": -5.48615, "lat": 42.518188}}, {"id": 6359335, "name": "Pi\u00f1u\u00e9car-Gandullas", "country": "ES", "coord": {"lon": -3.5978, "lat": 41.03574}}, {"id": 3113412, "name": "Pi\u00f1u\u00e9car", "country": "ES", "coord": {"lon": -3.6, "lat": 41.033329}}, {"id": 6355919, "name": "Fuente del Maestre", "country": "ES", "coord": {"lon": -6.4539, "lat": 38.554329}}, {"id": 2517547, "name": "Fuente del Maestre", "country": "ES", "coord": {"lon": -6.44782, "lat": 38.526562}}, {"id": 3129311, "name": "Arti\u00e9s", "country": "ES", "coord": {"lon": 0.87088, "lat": 42.7006}}, {"id": 3109945, "name": "Santa Cruz", "country": "ES", "coord": {"lon": -4.04129, "lat": 43.165619}}, {"id": 3121366, "name": "Godos", "country": "ES", "coord": {"lon": -1.10178, "lat": 40.911228}}, {"id": 6358636, "name": "Mansilla de las Mulas", "country": "ES", "coord": {"lon": -5.38405, "lat": 42.4995}}, {"id": 3117527, "name": "Mansilla de las Mulas", "country": "ES", "coord": {"lon": -5.41738, "lat": 42.498859}}, {"id": 6360214, "name": "Cerdedo", "country": "ES", "coord": {"lon": -8.38699, "lat": 42.534679}}, {"id": 3114126, "name": "Pedre", "country": "ES", "coord": {"lon": -8.43535, "lat": 42.529751}}, {"id": 3127259, "name": "Cabarceno", "country": "ES", "coord": {"lon": -3.82229, "lat": 43.358028}}, {"id": 6355871, "name": "Alburquerque", "country": "ES", "coord": {"lon": -6.94665, "lat": 39.232658}}, {"id": 2522183, "name": "Alburquerque", "country": "ES", "coord": {"lon": -7.00234, "lat": 39.22076}}, {"id": 6362717, "name": "Almonacid de la Cuba", "country": "ES", "coord": {"lon": -0.78654, "lat": 41.277061}}, {"id": 3128365, "name": "Belchite", "country": "ES", "coord": {"lon": -0.7505, "lat": 41.303249}}, {"id": 3109152, "name": "Seoane", "country": "ES", "coord": {"lon": -7.83986, "lat": 42.166431}}, {"id": 3116253, "name": "Montouto", "country": "ES", "coord": {"lon": -7.02769, "lat": 43.43642}}, {"id": 2520601, "name": "Cadiar", "country": "ES", "coord": {"lon": -3.1802, "lat": 36.945911}}, {"id": 6359225, "name": "Baralla", "country": "ES", "coord": {"lon": -7.23864, "lat": 42.932079}}, {"id": 3122273, "name": "Fontela", "country": "ES", "coord": {"lon": -7.16368, "lat": 42.991821}}, {"id": 3123103, "name": "Erantsus", "country": "ES", "coord": {"lon": -1.5, "lat": 42.833328}}, {"id": 6359649, "name": "Ezcabarte", "country": "ES", "coord": {"lon": -1.63533, "lat": 42.877289}}, {"id": 3115573, "name": "Navaz", "country": "ES", "coord": {"lon": -1.6773, "lat": 42.892731}}, {"id": 3108812, "name": "Sodupe", "country": "ES", "coord": {"lon": -3.04769, "lat": 43.204472}}, {"id": 6355364, "name": "Tobarra", "country": "ES", "coord": {"lon": -1.68061, "lat": 38.627071}}, {"id": 2510426, "name": "Tobarra", "country": "ES", "coord": {"lon": -1.69191, "lat": 38.592129}}, {"id": 6359173, "name": "Castroverde", "country": "ES", "coord": {"lon": -7.3426, "lat": 43.013409}}, {"id": 3125616, "name": "Castroverde", "country": "ES", "coord": {"lon": -7.32428, "lat": 43.030201}}, {"id": 3108815, "name": "Socobio", "country": "ES", "coord": {"lon": -3.94603, "lat": 43.31963}}, {"id": 6360983, "name": "Castilleja de Guzm\u00e1n", "country": "ES", "coord": {"lon": -6.05029, "lat": 37.409359}}, {"id": 2519739, "name": "Castilleja de Guzman", "country": "ES", "coord": {"lon": -6.05515, "lat": 37.40955}}, {"id": 3111069, "name": "Salcedo", "country": "ES", "coord": {"lon": -6.70404, "lat": 43.530369}}, {"id": 3112759, "name": "Puente-Avios", "country": "ES", "coord": {"lon": -4.07635, "lat": 43.407082}}, {"id": 3128733, "name": "Barcenilla", "country": "ES", "coord": {"lon": -3.95648, "lat": 43.38871}}, {"id": 6356556, "name": "Quintanilla Vivar", "country": "ES", "coord": {"lon": -3.68969, "lat": 42.41573}}, {"id": 3112425, "name": "Quintanilla-Vivar", "country": "ES", "coord": {"lon": -3.68849, "lat": 42.415852}}, {"id": 6359900, "name": "Verea", "country": "ES", "coord": {"lon": -7.99046, "lat": 42.10421}}, {"id": 3113141, "name": "Portela", "country": "ES", "coord": {"lon": -7.9773, "lat": 42.088531}}, {"id": 6358978, "name": "Vall de Card\u00f3s", "country": "ES", "coord": {"lon": 1.21745, "lat": 42.59409}}, {"id": 3111791, "name": "Ribera de Card\u00f3s", "country": "ES", "coord": {"lon": 1.22498, "lat": 42.56403}}, {"id": 2514842, "name": "Los Balcones", "country": "ES", "coord": {"lon": -2.942, "lat": 37.443031}}, {"id": 6358780, "name": "Almenar", "country": "ES", "coord": {"lon": 0.54525, "lat": 41.783649}}, {"id": 3130398, "name": "Alfarras", "country": "ES", "coord": {"lon": 0.58333, "lat": 41.816669}}, {"id": 6358422, "name": "Tamarite de Litera", "country": "ES", "coord": {"lon": 0.39098, "lat": 41.814411}}, {"id": 3108360, "name": "Tamarit de Llitera / Tamarite de Litera", "country": "ES", "coord": {"lon": 0.42214, "lat": 41.869099}}, {"id": 6534101, "name": "la Pera", "country": "ES", "coord": {"lon": 2.97422, "lat": 42.018921}}, {"id": 3112801, "name": "P\u00fabol", "country": "ES", "coord": {"lon": 2.98262, "lat": 42.013599}}, {"id": 6359942, "name": "Muros de Nal\u00f3n", "country": "ES", "coord": {"lon": -6.09677, "lat": 43.555248}}, {"id": 3110667, "name": "San Esteban de Pravia", "country": "ES", "coord": {"lon": -6.08745, "lat": 43.553799}}, {"id": 2514816, "name": "Los Blancos", "country": "ES", "coord": {"lon": -0.81136, "lat": 37.630821}}, {"id": 3115784, "name": "Naharros", "country": "ES", "coord": {"lon": -2.51003, "lat": 40.053242}}, {"id": 6357796, "name": "Alpujarra de la Sierra", "country": "ES", "coord": {"lon": -3.13128, "lat": 36.997131}}, {"id": 2509397, "name": "Yegen", "country": "ES", "coord": {"lon": -3.119, "lat": 36.98103}}, {"id": 6361637, "name": "Utrillas", "country": "ES", "coord": {"lon": -0.89396, "lat": 40.79921}}, {"id": 3107133, "name": "Utrillas", "country": "ES", "coord": {"lon": -0.84545, "lat": 40.812672}}, {"id": 3108691, "name": "Garape", "country": "ES", "coord": {"lon": -3.16667, "lat": 43.26667}}, {"id": 3123531, "name": "El Corrillo", "country": "ES", "coord": {"lon": -3.13333, "lat": 43.23333}}, {"id": 6355538, "name": "B\u00e9dar", "country": "ES", "coord": {"lon": -1.99762, "lat": 37.177959}}, {"id": 2522054, "name": "Alfa\u00edx", "country": "ES", "coord": {"lon": -1.9602, "lat": 37.141979}}, {"id": 6355472, "name": "Orba", "country": "ES", "coord": {"lon": -0.07022, "lat": 38.793442}}, {"id": 2513098, "name": "Orba", "country": "ES", "coord": {"lon": -0.06278, "lat": 38.780411}}, {"id": 6356716, "name": "Almaraz", "country": "ES", "coord": {"lon": -5.66953, "lat": 39.80843}}, {"id": 2521917, "name": "Almaraz", "country": "ES", "coord": {"lon": -5.67698, "lat": 39.814159}}, {"id": 6356810, "name": "Malpartida de C\u00e1ceres", "country": "ES", "coord": {"lon": -6.5067, "lat": 39.444809}}, {"id": 2514227, "name": "Malpartida de Caceres", "country": "ES", "coord": {"lon": -6.5076, "lat": 39.44664}}, {"id": 2515800, "name": "La Luz", "country": "ES", "coord": {"lon": -16.533331, "lat": 28.366671}}, {"id": 6358610, "name": "Cubillos del Sil", "country": "ES", "coord": {"lon": -6.56155, "lat": 42.642601}}, {"id": 3124162, "name": "Cubillos del Sil", "country": "ES", "coord": {"lon": -6.5636, "lat": 42.625191}}, {"id": 6355463, "name": "Monforte del Cid", "country": "ES", "coord": {"lon": -0.7044, "lat": 38.368629}}, {"id": 2515293, "name": "Las Norias", "country": "ES", "coord": {"lon": -0.71667, "lat": 38.383331}}, {"id": 2521775, "name": "Ambroz", "country": "ES", "coord": {"lon": -3.66257, "lat": 37.164631}}, {"id": 3109979, "name": "Santa Coloma de Queralt", "country": "ES", "coord": {"lon": 1.38333, "lat": 41.533329}}, {"id": 6359356, "name": "Santa Mar\u00eda de la Alameda", "country": "ES", "coord": {"lon": -4.24785, "lat": 40.591331}}, {"id": 3109794, "name": "Santa Maria de la Alameda", "country": "ES", "coord": {"lon": -4.25772, "lat": 40.594921}}, {"id": 2520696, "name": "Buzanada", "country": "ES", "coord": {"lon": -16.65514, "lat": 28.068541}}, {"id": 2510486, "name": "Tiagua", "country": "ES", "coord": {"lon": -13.6307, "lat": 29.0527}}, {"id": 3125982, "name": "Castandiello", "country": "ES", "coord": {"lon": -5.892, "lat": 43.279621}}, {"id": 3129126, "name": "Avion", "country": "ES", "coord": {"lon": -8.25, "lat": 42.383331}}, {"id": 6357191, "name": "Viso del Marqu\u00e9s", "country": "ES", "coord": {"lon": -3.53837, "lat": 38.500301}}, {"id": 2509437, "name": "Viso del Marques", "country": "ES", "coord": {"lon": -3.56348, "lat": 38.522079}}, {"id": 3123959, "name": "Dego", "country": "ES", "coord": {"lon": -5.13937, "lat": 43.334358}}, {"id": 2517111, "name": "Granadilla de Abona", "country": "ES", "coord": {"lon": -16.575991, "lat": 28.11882}}, {"id": 6358647, "name": "Onzonilla", "country": "ES", "coord": {"lon": -5.58775, "lat": 42.515049}}, {"id": 3115028, "name": "Onzonilla", "country": "ES", "coord": {"lon": -5.5816, "lat": 42.524349}}, {"id": 2520885, "name": "Bogarra", "country": "ES", "coord": {"lon": -2.2129, "lat": 38.58139}}, {"id": 6357293, "name": "Cee", "country": "ES", "coord": {"lon": -9.18985, "lat": 42.9557}}, {"id": 3112267, "name": "Raso", "country": "ES", "coord": {"lon": -9.16606, "lat": 42.950031}}, {"id": 2510285, "name": "Torremendo", "country": "ES", "coord": {"lon": -0.86532, "lat": 37.991508}}, {"id": 6534196, "name": "Tazacorte", "country": "ES", "coord": {"lon": -17.9293, "lat": 28.629}}, {"id": 2511430, "name": "San Borond\u00f3n", "country": "ES", "coord": {"lon": -17.93177, "lat": 28.634239}}, {"id": 6360612, "name": "Vitigudino", "country": "ES", "coord": {"lon": -6.41966, "lat": 41.012909}}, {"id": 3104501, "name": "Vitigudino", "country": "ES", "coord": {"lon": -6.43404, "lat": 41.009121}}, {"id": 6358587, "name": "Carracedelo", "country": "ES", "coord": {"lon": -6.7309, "lat": 42.557079}}, {"id": 3126237, "name": "Carracedelo", "country": "ES", "coord": {"lon": -6.73317, "lat": 42.556019}}, {"id": 3114082, "name": "Pedrosa de Duero", "country": "ES", "coord": {"lon": -3.98804, "lat": 41.712891}}, {"id": 6358497, "name": "Iruela (La)", "country": "ES", "coord": {"lon": -2.92798, "lat": 37.971272}}, {"id": 2520699, "name": "Burunchel", "country": "ES", "coord": {"lon": -2.9537, "lat": 37.9464}}, {"id": 7871418, "name": "Barrio El Bao", "country": "ES", "coord": {"lon": -3.49197, "lat": 43.412861}}, {"id": 6362231, "name": "Olmedo", "country": "ES", "coord": {"lon": -4.70881, "lat": 41.301609}}, {"id": 3115118, "name": "Olmedo", "country": "ES", "coord": {"lon": -4.68878, "lat": 41.28706}}, {"id": 6358113, "name": "Berastegi", "country": "ES", "coord": {"lon": -1.9651, "lat": 43.146488}}, {"id": 3128245, "name": "Berastegui", "country": "ES", "coord": {"lon": -1.98019, "lat": 43.124229}}, {"id": 6324952, "name": "Elizalde", "country": "ES", "coord": {"lon": -1.9833, "lat": 43.124352}}, {"id": 3107940, "name": "Toreno", "country": "ES", "coord": {"lon": -6.51236, "lat": 42.699551}}, {"id": 6355340, "name": "Molinicos", "country": "ES", "coord": {"lon": -2.29608, "lat": 38.504059}}, {"id": 2513753, "name": "Molinicos", "country": "ES", "coord": {"lon": -2.23939, "lat": 38.467171}}, {"id": 6357767, "name": "Polopos", "country": "ES", "coord": {"lon": -3.29864, "lat": 36.77948}}, {"id": 2516804, "name": "Haza del Trigo", "country": "ES", "coord": {"lon": -3.3111, "lat": 36.758339}}, {"id": 6356390, "name": "Carde\u00f1adijo", "country": "ES", "coord": {"lon": -3.66489, "lat": 42.29644}}, {"id": 3126310, "name": "Cardenadijo", "country": "ES", "coord": {"lon": -3.66779, "lat": 42.30217}}, {"id": 6357975, "name": "Ordial (El)", "country": "ES", "coord": {"lon": -3.12984, "lat": 41.11615}}, {"id": 3130498, "name": "Aldeanueva de Atienza", "country": "ES", "coord": {"lon": -3.1, "lat": 41.166672}}, {"id": 6357551, "name": "Valverde de J\u00facar", "country": "ES", "coord": {"lon": -2.23555, "lat": 39.703602}}, {"id": 2510688, "name": "Talayuelas", "country": "ES", "coord": {"lon": -2.23333, "lat": 39.683331}}, {"id": 6360075, "name": "Paredes de Nava", "country": "ES", "coord": {"lon": -4.67706, "lat": 42.170471}}, {"id": 3114273, "name": "Paredes de Nava", "country": "ES", "coord": {"lon": -4.69193, "lat": 42.153679}}, {"id": 3105971, "name": "Vigo", "country": "ES", "coord": {"lon": -6.62824, "lat": 43.5639}}, {"id": 6360865, "name": "Nava de la Asunci\u00f3n", "country": "ES", "coord": {"lon": -4.4905, "lat": 41.148891}}, {"id": 3115696, "name": "Nava de la Asuncion", "country": "ES", "coord": {"lon": -4.48751, "lat": 41.155861}}, {"id": 6359845, "name": "Cortegada", "country": "ES", "coord": {"lon": -8.15015, "lat": 42.209541}}, {"id": 3116857, "name": "Mer\u00e9ns", "country": "ES", "coord": {"lon": -8.1644, "lat": 42.235149}}, {"id": 2511331, "name": "Sant Joan de Labritja", "country": "ES", "coord": {"lon": 1.51397, "lat": 39.078911}}, {"id": 6534200, "name": "Vallehermoso", "country": "ES", "coord": {"lon": -17.28558, "lat": 28.153749}}, {"id": 2509887, "name": "Vallehermosa", "country": "ES", "coord": {"lon": -17.26664, "lat": 28.17944}}, {"id": 3123619, "name": "El Bustio", "country": "ES", "coord": {"lon": -4.5209, "lat": 43.376209}}, {"id": 3116969, "name": "Meis", "country": "ES", "coord": {"lon": -8.73045, "lat": 42.501221}}, {"id": 6358617, "name": "Folgoso de la Ribera", "country": "ES", "coord": {"lon": -6.33734, "lat": 42.65976}}, {"id": 3122367, "name": "Folgoso de la Ribera", "country": "ES", "coord": {"lon": -6.32035, "lat": 42.646931}}, {"id": 3126361, "name": "Carbay\u00edn", "country": "ES", "coord": {"lon": -5.63333, "lat": 43.349998}}, {"id": 6358882, "name": "Montferrer i Castellb\u00f2", "country": "ES", "coord": {"lon": 1.32756, "lat": 42.39999}}, {"id": 3129261, "name": "Asnurri", "country": "ES", "coord": {"lon": 1.42216, "lat": 42.445042}}, {"id": 3113272, "name": "Pola de Allande", "country": "ES", "coord": {"lon": -6.62152, "lat": 43.273071}}, {"id": 6356658, "name": "Villagonzalo Pedernales", "country": "ES", "coord": {"lon": -3.73359, "lat": 42.30051}}, {"id": 3105564, "name": "Villagonzalo-Pedernales", "country": "ES", "coord": {"lon": -3.73539, "lat": 42.301449}}, {"id": 6356233, "name": "Sant Feliu de Llobregat", "country": "ES", "coord": {"lon": 2.05577, "lat": 41.40163}}, {"id": 3110642, "name": "Sant Feliu de Llobregat", "country": "ES", "coord": {"lon": 2.05, "lat": 41.383331}}, {"id": 2509364, "name": "Zalamea la Real", "country": "ES", "coord": {"lon": -6.65978, "lat": 37.680119}}, {"id": 6356786, "name": "Guijo de Granadilla", "country": "ES", "coord": {"lon": -6.13608, "lat": 40.203442}}, {"id": 3120967, "name": "Guijo de Granadilla", "country": "ES", "coord": {"lon": -6.16339, "lat": 40.193508}}, {"id": 6356811, "name": "Malpartida de Plasencia", "country": "ES", "coord": {"lon": -6.04992, "lat": 39.931252}}, {"id": 2514225, "name": "Malpartida de Plasencia", "country": "ES", "coord": {"lon": -6.04609, "lat": 39.979622}}, {"id": 3107658, "name": "Totero", "country": "ES", "coord": {"lon": -3.84069, "lat": 43.299561}}, {"id": 6356742, "name": "Ca\u00f1averal", "country": "ES", "coord": {"lon": -6.37171, "lat": 39.80769}}, {"id": 2520295, "name": "Canaveral", "country": "ES", "coord": {"lon": -6.3913, "lat": 39.791981}}, {"id": 6357733, "name": "Lecr\u00edn", "country": "ES", "coord": {"lon": -3.53304, "lat": 36.950119}}, {"id": 2513694, "name": "Mond\u00fajar", "country": "ES", "coord": {"lon": -3.54747, "lat": 36.949821}}, {"id": 6360661, "name": "Cabu\u00e9rniga", "country": "ES", "coord": {"lon": -4.29452, "lat": 43.214828}}, {"id": 3108160, "name": "Ter\u00e1n", "country": "ES", "coord": {"lon": -4.30295, "lat": 43.221031}}, {"id": 6361004, "name": "Guillena", "country": "ES", "coord": {"lon": -6.08918, "lat": 37.60762}}, {"id": 2516855, "name": "Guillena", "country": "ES", "coord": {"lon": -6.05626, "lat": 37.542622}}, {"id": 3124559, "name": "Cornoces", "country": "ES", "coord": {"lon": -7.95, "lat": 42.416672}}, {"id": 7577093, "name": "Vilaller", "country": "ES", "coord": {"lon": 0.75831, "lat": 42.53421}}, {"id": 3124819, "name": "Coll", "country": "ES", "coord": {"lon": 0.7709, "lat": 42.472832}}, {"id": 3122710, "name": "O \u00c9zaro", "country": "ES", "coord": {"lon": -9.13136, "lat": 42.91127}}, {"id": 2521948, "name": "Aljucer", "country": "ES", "coord": {"lon": -1.15299, "lat": 37.955769}}, {"id": 3109802, "name": "Santa Mar\u00eda de Buil", "country": "ES", "coord": {"lon": 0.0989, "lat": 42.368019}}, {"id": 2518147, "name": "El Rompido", "country": "ES", "coord": {"lon": -7.12206, "lat": 37.217731}}, {"id": 2515676, "name": "La Parata", "country": "ES", "coord": {"lon": -1.99726, "lat": 37.418442}}, {"id": 6360997, "name": "Fuentes de Andaluc\u00eda", "country": "ES", "coord": {"lon": -5.33272, "lat": 37.52684}}, {"id": 2517500, "name": "Fuentes de Andalucia", "country": "ES", "coord": {"lon": -5.34615, "lat": 37.464088}}, {"id": 6357205, "name": "Benamej\u00ed", "country": "ES", "coord": {"lon": -4.54876, "lat": 37.24118}}, {"id": 2521130, "name": "Benameji", "country": "ES", "coord": {"lon": -4.54123, "lat": 37.26833}}, {"id": 6361874, "name": "Albalat dels Sorells", "country": "ES", "coord": {"lon": -0.34063, "lat": 39.54599}}, {"id": 2522244, "name": "Albalat dels Sorells", "country": "ES", "coord": {"lon": -0.35, "lat": 39.533329}}, {"id": 6359448, "name": "Colmenar", "country": "ES", "coord": {"lon": -4.32117, "lat": 36.913601}}, {"id": 2519352, "name": "Colmenar", "country": "ES", "coord": {"lon": -4.33557, "lat": 36.90519}}, {"id": 3114245, "name": "Parres", "country": "ES", "coord": {"lon": -5.15, "lat": 43.349998}}, {"id": 3111847, "name": "Ribadumia", "country": "ES", "coord": {"lon": -8.75, "lat": 42.51667}}, {"id": 6361983, "name": "Enguera", "country": "ES", "coord": {"lon": -0.84804, "lat": 38.98558}}, {"id": 2518011, "name": "Enguera", "country": "ES", "coord": {"lon": -0.68683, "lat": 38.97974}}, {"id": 2512414, "name": "Pont d\u2019Inca", "country": "ES", "coord": {"lon": 2.69407, "lat": 39.598141}}, {"id": 2515237, "name": "Las Rosas", "country": "ES", "coord": {"lon": -16.64323, "lat": 28.37351}}, {"id": 3123866, "name": "Domayo", "country": "ES", "coord": {"lon": -8.68333, "lat": 42.299999}}, {"id": 3104575, "name": "Vincios", "country": "ES", "coord": {"lon": -8.73333, "lat": 42.150002}}, {"id": 2517912, "name": "Esparragalico", "country": "ES", "coord": {"lon": -1.75619, "lat": 37.579781}}, {"id": 3120071, "name": "Junguitu", "country": "ES", "coord": {"lon": -2.59501, "lat": 42.872688}}, {"id": 6359492, "name": "Sierra de Yeguas", "country": "ES", "coord": {"lon": -4.86548, "lat": 37.16169}}, {"id": 2510895, "name": "Sierra de Yeguas", "country": "ES", "coord": {"lon": -4.86773, "lat": 37.124199}}, {"id": 6356225, "name": "Sant Celoni", "country": "ES", "coord": {"lon": 2.53943, "lat": 41.696018}}, {"id": 3110813, "name": "Sant Celoni", "country": "ES", "coord": {"lon": 2.48333, "lat": 41.683331}}, {"id": 2520505, "name": "Calles", "country": "ES", "coord": {"lon": -0.97057, "lat": 39.72118}}, {"id": 3116772, "name": "Mijarojos", "country": "ES", "coord": {"lon": -4.07241, "lat": 43.34169}}, {"id": 3120796, "name": "Herrera de Duero", "country": "ES", "coord": {"lon": -4.65405, "lat": 41.564121}}, {"id": 6359217, "name": "Sober", "country": "ES", "coord": {"lon": -7.55582, "lat": 42.441719}}, {"id": 6325502, "name": "Vilaoscura", "country": "ES", "coord": {"lon": -7.60447, "lat": 42.471939}}, {"id": 6358274, "name": "Almud\u00e9var", "country": "ES", "coord": {"lon": -0.58483, "lat": 42.06353}}, {"id": 3130279, "name": "Almudebar", "country": "ES", "coord": {"lon": -0.58141, "lat": 42.042549}}, {"id": 3128419, "name": "Becerrea", "country": "ES", "coord": {"lon": -7.1636, "lat": 42.856098}}, {"id": 3119461, "name": "Lamasap\u00edn", "country": "ES", "coord": {"lon": -8.95071, "lat": 42.925072}}, {"id": 6355546, "name": "Cantoria", "country": "ES", "coord": {"lon": -2.16057, "lat": 37.329979}}, {"id": 2520209, "name": "Cantoria", "country": "ES", "coord": {"lon": -2.19209, "lat": 37.35146}}, {"id": 3125661, "name": "Castrofoya", "country": "ES", "coord": {"lon": -7.12109, "lat": 42.379879}}, {"id": 6356696, "name": "Alfoz de Quintanadue\u00f1as", "country": "ES", "coord": {"lon": -3.74544, "lat": 42.408581}}, {"id": 3112530, "name": "Quintanadue\u00f1as", "country": "ES", "coord": {"lon": -3.73533, "lat": 42.384941}}, {"id": 6360782, "name": "Cantalejo", "country": "ES", "coord": {"lon": -3.92499, "lat": 41.259178}}, {"id": 3126513, "name": "Cantalejo", "country": "ES", "coord": {"lon": -3.92791, "lat": 41.257599}}, {"id": 6359927, "name": "Dega\u00f1a", "country": "ES", "coord": {"lon": -6.57007, "lat": 42.95121}}, {"id": 3125321, "name": "Cerredo", "country": "ES", "coord": {"lon": -6.48956, "lat": 42.946602}}, {"id": 2509846, "name": "Valsequillo de Gran Canaria", "country": "ES", "coord": {"lon": -15.49725, "lat": 27.98562}}, {"id": 3107923, "name": "Torla", "country": "ES", "coord": {"lon": -0.11209, "lat": 42.628021}}, {"id": 3124882, "name": "Codeso", "country": "ES", "coord": {"lon": -8.4, "lat": 42.799999}}, {"id": 6355327, "name": "Gineta (La)", "country": "ES", "coord": {"lon": -1.99701, "lat": 39.138069}}, {"id": 2515922, "name": "La Gineta", "country": "ES", "coord": {"lon": -1.99603, "lat": 39.114521}}, {"id": 3121727, "name": "Galizano", "country": "ES", "coord": {"lon": -3.67156, "lat": 43.469261}}, {"id": 3115355, "name": "N\u00f3utigos", "country": "ES", "coord": {"lon": -9.08097, "lat": 42.828732}}, {"id": 6360702, "name": "Ramales de la Victoria", "country": "ES", "coord": {"lon": -3.43947, "lat": 43.26355}}, {"id": 3128754, "name": "B\u00e1rcena", "country": "ES", "coord": {"lon": -3.43908, "lat": 43.282291}}, {"id": 2516034, "name": "La Cuesta", "country": "ES", "coord": {"lon": -16.286221, "lat": 28.467979}}, {"id": 6356579, "name": "Salas de los Infantes", "country": "ES", "coord": {"lon": -3.2722, "lat": 42.05072}}, {"id": 3111092, "name": "Salas de los Infantes", "country": "ES", "coord": {"lon": -3.28631, "lat": 42.022419}}, {"id": 6357196, "name": "Adamuz", "country": "ES", "coord": {"lon": -4.57101, "lat": 38.086941}}, {"id": 2522438, "name": "Adamuz", "country": "ES", "coord": {"lon": -4.52231, "lat": 38.026741}}, {"id": 6356934, "name": "Grazalema", "country": "ES", "coord": {"lon": -5.39333, "lat": 36.768688}}, {"id": 2521133, "name": "Benamahoma", "country": "ES", "coord": {"lon": -5.46656, "lat": 36.765049}}, {"id": 6358543, "name": "Villanueva del Arzobispo", "country": "ES", "coord": {"lon": -2.95204, "lat": 38.171291}}, {"id": 2509555, "name": "Villanueva del Arzobispo", "country": "ES", "coord": {"lon": -3.00742, "lat": 38.168419}}, {"id": 2510418, "name": "Toc\u00f3n", "country": "ES", "coord": {"lon": -3.96649, "lat": 37.238319}}, {"id": 6359740, "name": "Ol\u00f3riz", "country": "ES", "coord": {"lon": -1.59677, "lat": 42.641819}}, {"id": 3115095, "name": "Oloriz", "country": "ES", "coord": {"lon": -1.61276, "lat": 42.63522}}, {"id": 2512543, "name": "Pinedo", "country": "ES", "coord": {"lon": -0.33333, "lat": 39.416672}}, {"id": 6361948, "name": "Carcaixent", "country": "ES", "coord": {"lon": -0.45551, "lat": 39.10899}}, {"id": 2520150, "name": "Carcaixent", "country": "ES", "coord": {"lon": -0.45, "lat": 39.133331}}, {"id": 6358435, "name": "Valle de Bardaj\u00ed", "country": "ES", "coord": {"lon": 0.46714, "lat": 42.42733}}, {"id": 3128035, "name": "Biescas", "country": "ES", "coord": {"lon": 0.42241, "lat": 42.417629}}, {"id": 2518667, "name": "El Cabo de Gata", "country": "ES", "coord": {"lon": -2.24198, "lat": 36.782341}}, {"id": 6357771, "name": "Purullena", "country": "ES", "coord": {"lon": -3.19773, "lat": 37.343891}}, {"id": 2512131, "name": "Purullena", "country": "ES", "coord": {"lon": -3.19056, "lat": 37.317631}}, {"id": 6361409, "name": "Vilanova d'Escornalbou", "country": "ES", "coord": {"lon": 0.93067, "lat": 41.111881}}, {"id": 3116246, "name": "Montroig", "country": "ES", "coord": {"lon": 0.95926, "lat": 41.08675}}, {"id": 6356905, "name": "Villamiel", "country": "ES", "coord": {"lon": -6.81584, "lat": 40.14846}}, {"id": 3105367, "name": "Villamiel", "country": "ES", "coord": {"lon": -6.78424, "lat": 40.18634}}, {"id": 6360186, "name": "Las Palmas de Gran Canaria", "country": "ES", "coord": {"lon": -15.43898, "lat": 28.116541}}, {"id": 2510723, "name": "Tafira Baja", "country": "ES", "coord": {"lon": -15.44952, "lat": 28.07115}}, {"id": 6358675, "name": "Sabero", "country": "ES", "coord": {"lon": -5.1622, "lat": 42.839989}}, {"id": 3111187, "name": "Sabero", "country": "ES", "coord": {"lon": -5.14875, "lat": 42.83593}}, {"id": 3125072, "name": "Cifuentes", "country": "ES", "coord": {"lon": -2.62245, "lat": 40.786221}}, {"id": 6360669, "name": "Cillorigo de Li\u00e9bana", "country": "ES", "coord": {"lon": -4.63535, "lat": 43.210861}}, {"id": 3125699, "name": "Castro", "country": "ES", "coord": {"lon": -4.60293, "lat": 43.197102}}, {"id": 3108426, "name": "Taboada", "country": "ES", "coord": {"lon": -8.21667, "lat": 42.683331}}, {"id": 6360212, "name": "Ca\u00f1iza (A)", "country": "ES", "coord": {"lon": -8.29176, "lat": 42.190979}}, {"id": 3119890, "name": "A Ca\u00f1iza", "country": "ES", "coord": {"lon": -8.26667, "lat": 42.216671}}, {"id": 3112717, "name": "Puente Viesgo", "country": "ES", "coord": {"lon": -3.96817, "lat": 43.298149}}, {"id": 6358655, "name": "Pola de Gord\u00f3n (La)", "country": "ES", "coord": {"lon": -5.68185, "lat": 42.87553}}, {"id": 3125015, "name": "Ci\u00f1era", "country": "ES", "coord": {"lon": -5.63496, "lat": 42.885269}}, {"id": 6359423, "name": "Ardales", "country": "ES", "coord": {"lon": -4.83685, "lat": 36.88987}}, {"id": 2521661, "name": "Ardales", "country": "ES", "coord": {"lon": -4.84694, "lat": 36.87804}}, {"id": 6360183, "name": "Moya", "country": "ES", "coord": {"lon": -15.58829, "lat": 28.09059}}, {"id": 2514913, "name": "Lomo Blanco", "country": "ES", "coord": {"lon": -15.56522, "lat": 28.12649}}, {"id": 6358603, "name": "Congosto", "country": "ES", "coord": {"lon": -6.51489, "lat": 42.611328}}, {"id": 3130312, "name": "Alm\u00e1zcara", "country": "ES", "coord": {"lon": -6.50391, "lat": 42.594009}}, {"id": 3110640, "name": "Sant Feliu del Rac\u00f3", "country": "ES", "coord": {"lon": 2.06667, "lat": 41.616669}}, {"id": 3111975, "name": "Requesens", "country": "ES", "coord": {"lon": 2.93936, "lat": 42.45031}}, {"id": 6361562, "name": "Montalb\u00e1n", "country": "ES", "coord": {"lon": -0.79763, "lat": 40.849548}}, {"id": 3116441, "name": "Montalban", "country": "ES", "coord": {"lon": -0.80178, "lat": 40.832779}}, {"id": 3105148, "name": "Villaquilambre", "country": "ES", "coord": {"lon": -5.55835, "lat": 42.646851}}, {"id": 2518569, "name": "El Chaparral", "country": "ES", "coord": {"lon": -3.94203, "lat": 37.178028}}, {"id": 3110954, "name": "S\u00e1mano", "country": "ES", "coord": {"lon": -3.24086, "lat": 43.357738}}, {"id": 6361105, "name": "Candilichera", "country": "ES", "coord": {"lon": -2.29735, "lat": 41.73122}}, {"id": 3126617, "name": "Candilichera", "country": "ES", "coord": {"lon": -2.30123, "lat": 41.704342}}, {"id": 6355433, "name": "Confrides", "country": "ES", "coord": {"lon": -0.27639, "lat": 38.670849}}, {"id": 2522496, "name": "Abdet", "country": "ES", "coord": {"lon": -0.25726, "lat": 38.694221}}, {"id": 6360624, "name": "Candelaria", "country": "ES", "coord": {"lon": -16.384251, "lat": 28.35808}}, {"id": 2521286, "name": "Barranco Hondo", "country": "ES", "coord": {"lon": -16.349871, "lat": 28.403419}}, {"id": 3114905, "name": "Oroso", "country": "ES", "coord": {"lon": -8.25, "lat": 42.216671}}, {"id": 3107530, "name": "Tremado", "country": "ES", "coord": {"lon": -6.54101, "lat": 43.384621}}, {"id": 2521919, "name": "Almanzora", "country": "ES", "coord": {"lon": -2.13635, "lat": 37.349281}}, {"id": 3130749, "name": "Ajo", "country": "ES", "coord": {"lon": -3.61203, "lat": 43.478512}}, {"id": 2521846, "name": "Almuradiel", "country": "ES", "coord": {"lon": -3.49776, "lat": 38.513248}}, {"id": 6361026, "name": "Paradas", "country": "ES", "coord": {"lon": -5.48163, "lat": 37.285591}}, {"id": 2512933, "name": "Paradas", "country": "ES", "coord": {"lon": -5.49703, "lat": 37.29047}}, {"id": 6358891, "name": "Olius", "country": "ES", "coord": {"lon": 1.50853, "lat": 41.9897}}, {"id": 3115161, "name": "Olius", "country": "ES", "coord": {"lon": 1.5646, "lat": 42.010349}}, {"id": 3126171, "name": "Carriazo", "country": "ES", "coord": {"lon": -3.67169, "lat": 43.454491}}, {"id": 3106057, "name": "Viba\u00f1o", "country": "ES", "coord": {"lon": -4.89612, "lat": 43.400848}}, {"id": 6355413, "name": "Benimantell", "country": "ES", "coord": {"lon": -0.19861, "lat": 38.656239}}, {"id": 2516995, "name": "Guadalest", "country": "ES", "coord": {"lon": -0.19908, "lat": 38.6768}}, {"id": 2515321, "name": "Las Mercedes", "country": "ES", "coord": {"lon": -16.2953, "lat": 28.519501}}, {"id": 6544378, "name": "Cala d'en Bou", "country": "ES", "coord": {"lon": 1.29622, "lat": 38.967018}}, {"id": 3119212, "name": "La Pola de Gordon", "country": "ES", "coord": {"lon": -5.66768, "lat": 42.856579}}, {"id": 6359707, "name": "Lumbier", "country": "ES", "coord": {"lon": -1.26584, "lat": 42.654369}}, {"id": 3129794, "name": "Arboni\u00e9s", "country": "ES", "coord": {"lon": -1.25348, "lat": 42.679901}}, {"id": 6360171, "name": "Agaete", "country": "ES", "coord": {"lon": -15.69431, "lat": 28.10363}}, {"id": 2522423, "name": "Agaete", "country": "ES", "coord": {"lon": -15.69998, "lat": 28.100229}}, {"id": 3115823, "name": "Muros de Nalon", "country": "ES", "coord": {"lon": -6.10348, "lat": 43.54277}}, {"id": 6357353, "name": "Trazo", "country": "ES", "coord": {"lon": -8.52539, "lat": 42.996029}}, {"id": 3107546, "name": "Trazo", "country": "ES", "coord": {"lon": -8.53333, "lat": 43.01667}}, {"id": 3107796, "name": "Torrefeta", "country": "ES", "coord": {"lon": 1.27355, "lat": 41.753929}}, {"id": 2512168, "name": "Puerto Rey", "country": "ES", "coord": {"lon": -5.01667, "lat": 39.450001}}, {"id": 2516917, "name": "Gu\u00e1jar-Farag\u00fcit", "country": "ES", "coord": {"lon": -3.58518, "lat": 36.84074}}, {"id": 6357199, "name": "Almedinilla", "country": "ES", "coord": {"lon": -4.06024, "lat": 37.445148}}, {"id": 2521905, "name": "Almedinilla", "country": "ES", "coord": {"lon": -4.09052, "lat": 37.439018}}, {"id": 2516848, "name": "G\u00fcime", "country": "ES", "coord": {"lon": -13.61369, "lat": 28.973}}, {"id": 6358602, "name": "Cistierna", "country": "ES", "coord": {"lon": -5.11194, "lat": 42.80798}}, {"id": 3124970, "name": "Cistierna", "country": "ES", "coord": {"lon": -5.12664, "lat": 42.80344}}, {"id": 6356548, "name": "Quintanaortu\u00f1o", "country": "ES", "coord": {"lon": -3.6842, "lat": 42.450439}}, {"id": 3112513, "name": "Quintanaortuno", "country": "ES", "coord": {"lon": -3.68333, "lat": 42.450001}}, {"id": 3119914, "name": "La Cal", "country": "ES", "coord": {"lon": -7.25, "lat": 42.349998}}, {"id": 6358565, "name": "Benavides", "country": "ES", "coord": {"lon": -5.93395, "lat": 42.536228}}, {"id": 3128290, "name": "Benavides", "country": "ES", "coord": {"lon": -5.89442, "lat": 42.504421}}, {"id": 3104847, "name": "Villasana de Mena", "country": "ES", "coord": {"lon": -3.28253, "lat": 43.10017}}, {"id": 2512146, "name": "Punta del Hidalgo", "country": "ES", "coord": {"lon": -16.332541, "lat": 28.562019}}, {"id": 6358910, "name": "el Pont de Suert", "country": "ES", "coord": {"lon": 0.74389, "lat": 42.406601}}, {"id": 3120328, "name": "Irgo", "country": "ES", "coord": {"lon": 0.77238, "lat": 42.444962}}, {"id": 2511382, "name": "San Francisco de Paula", "country": "ES", "coord": {"lon": -15.43681, "lat": 28.049561}}, {"id": 6358607, "name": "Cuadros", "country": "ES", "coord": {"lon": -5.65328, "lat": 42.717369}}, {"id": 3126030, "name": "Cascantes", "country": "ES", "coord": {"lon": -5.63717, "lat": 42.765491}}, {"id": 3118612, "name": "Leci\u00f1ana del Camino", "country": "ES", "coord": {"lon": -2.98397, "lat": 42.743221}}, {"id": 2515727, "name": "La Murta", "country": "ES", "coord": {"lon": -1.21073, "lat": 37.82774}}, {"id": 3114863, "name": "Oru\u00f1a", "country": "ES", "coord": {"lon": -3.95261, "lat": 43.40337}}, {"id": 3111789, "name": "Riberas", "country": "ES", "coord": {"lon": -6.06743, "lat": 43.506351}}, {"id": 6358520, "name": "Puente de G\u00e9nave", "country": "ES", "coord": {"lon": -2.82559, "lat": 38.337929}}, {"id": 2512238, "name": "Puente de Genave", "country": "ES", "coord": {"lon": -2.8032, "lat": 38.355438}}, {"id": 3112254, "name": "Razbona", "country": "ES", "coord": {"lon": -3.17577, "lat": 40.853958}}, {"id": 6356417, "name": "Coru\u00f1a del Conde", "country": "ES", "coord": {"lon": -3.39688, "lat": 41.759022}}, {"id": 3112506, "name": "Quintanarraya", "country": "ES", "coord": {"lon": -3.33855, "lat": 41.787022}}, {"id": 6358627, "name": "Ig\u00fce\u00f1a", "country": "ES", "coord": {"lon": -6.26501, "lat": 42.737209}}, {"id": 3113292, "name": "Pobladura de las Regueras", "country": "ES", "coord": {"lon": -6.22992, "lat": 42.69746}}, {"id": 3115655, "name": "Navalespino", "country": "ES", "coord": {"lon": -4.26604, "lat": 40.588341}}, {"id": 3108408, "name": "Tagle", "country": "ES", "coord": {"lon": -4.07846, "lat": 43.42345}}, {"id": 6359341, "name": "Rascafr\u00eda", "country": "ES", "coord": {"lon": -3.90268, "lat": 40.86211}}, {"id": 3112276, "name": "Rascafria", "country": "ES", "coord": {"lon": -3.87898, "lat": 40.904072}}, {"id": 3117867, "name": "Lozoyuela", "country": "ES", "coord": {"lon": -3.61742, "lat": 40.925961}}, {"id": 3112323, "name": "Ramallosa", "country": "ES", "coord": {"lon": -8.81763, "lat": 42.114231}}, {"id": 6359562, "name": "Am\u00e9scoa Baja", "country": "ES", "coord": {"lon": -2.12914, "lat": 42.771118}}, {"id": 3128688, "name": "Bar\u00edndano", "country": "ES", "coord": {"lon": -2.13061, "lat": 42.765781}}, {"id": 3130077, "name": "And\u00e9s", "country": "ES", "coord": {"lon": -6.7, "lat": 43.549999}}, {"id": 6355974, "name": "Quintana de la Serena", "country": "ES", "coord": {"lon": -5.73849, "lat": 38.769699}}, {"id": 2512099, "name": "Quintana de la Serena", "country": "ES", "coord": {"lon": -5.67233, "lat": 38.745949}}, {"id": 3105456, "name": "Villaluenga", "country": "ES", "coord": {"lon": -3.26365, "lat": 42.959991}}, {"id": 6358896, "name": "Os de Balaguer", "country": "ES", "coord": {"lon": 0.70195, "lat": 41.892139}}, {"id": 3108271, "name": "Tartareu", "country": "ES", "coord": {"lon": 0.7172, "lat": 41.921249}}, {"id": 6361144, "name": "Garray", "country": "ES", "coord": {"lon": -2.49639, "lat": 41.83744}}, {"id": 3121549, "name": "Garray", "country": "ES", "coord": {"lon": -2.44592, "lat": 41.81617}}, {"id": 3113067, "name": "Posadina", "country": "ES", "coord": {"lon": -6.5609, "lat": 42.633469}}, {"id": 6358341, "name": "Fiscal", "country": "ES", "coord": {"lon": -0.11913, "lat": 42.49868}}, {"id": 3122418, "name": "Fiscal", "country": "ES", "coord": {"lon": -0.12094, "lat": 42.495609}}, {"id": 3104229, "name": "Zubiri", "country": "ES", "coord": {"lon": -1.50341, "lat": 42.931339}}, {"id": 2509561, "name": "Villanueva de la Concepci\u00f3n", "country": "ES", "coord": {"lon": -4.53041, "lat": 36.930271}}, {"id": 6360588, "name": "Villagonzalo de Tormes", "country": "ES", "coord": {"lon": -5.50707, "lat": 40.90044}}, {"id": 3105565, "name": "Villagonzalo de Tormes", "country": "ES", "coord": {"lon": -5.49664, "lat": 40.892208}}, {"id": 3129958, "name": "Antezana de \u00c1lava", "country": "ES", "coord": {"lon": -2.7259, "lat": 42.888088}}, {"id": 6358963, "name": "les Valls de Valira", "country": "ES", "coord": {"lon": 1.46254, "lat": 42.445229}}, {"id": 3114848, "name": "Os de Civ\u00eds", "country": "ES", "coord": {"lon": 1.44076, "lat": 42.511211}}, {"id": 3106519, "name": "Vallina", "country": "ES", "coord": {"lon": -5.71667, "lat": 43.366669}}, {"id": 3123450, "name": "Elizondo", "country": "ES", "coord": {"lon": -1.51785, "lat": 43.148281}}, {"id": 3121971, "name": "Fuencaliente de Medina", "country": "ES", "coord": {"lon": -2.45846, "lat": 41.135899}}, {"id": 3104486, "name": "Viveda", "country": "ES", "coord": {"lon": -4.064, "lat": 43.379108}}, {"id": 6355254, "name": "Bernedo", "country": "ES", "coord": {"lon": -2.52471, "lat": 42.708809}}, {"id": 3107161, "name": "Urturi", "country": "ES", "coord": {"lon": -2.50694, "lat": 42.657188}}, {"id": 6355595, "name": "Ser\u00f3n", "country": "ES", "coord": {"lon": -2.55926, "lat": 37.348728}}, {"id": 2510944, "name": "Seron", "country": "ES", "coord": {"lon": -2.50913, "lat": 37.344849}}, {"id": 2512252, "name": "Puebla de Soto", "country": "ES", "coord": {"lon": -1.19618, "lat": 37.978519}}, {"id": 6358471, "name": "Cabra del Santo Cristo", "country": "ES", "coord": {"lon": -3.22911, "lat": 37.695641}}, {"id": 2520641, "name": "Cabra del Santo Cristo", "country": "ES", "coord": {"lon": -3.28765, "lat": 37.703789}}, {"id": 6361145, "name": "Golmayo", "country": "ES", "coord": {"lon": -2.64966, "lat": 41.722542}}, {"id": 3121345, "name": "Golmayo", "country": "ES", "coord": {"lon": -2.52267, "lat": 41.766201}}, {"id": 6361100, "name": "Burgo de Osma-Ciudad de Osma", "country": "ES", "coord": {"lon": -3.06524, "lat": 41.60363}}, {"id": 3123622, "name": "El Burgo de Osma", "country": "ES", "coord": {"lon": -3.06522, "lat": 41.586189}}, {"id": 6358319, "name": "Canfranc", "country": "ES", "coord": {"lon": -0.47851, "lat": 42.75573}}, {"id": 3126580, "name": "Canfranc", "country": "ES", "coord": {"lon": -0.52563, "lat": 42.716282}}, {"id": 3105913, "name": "Vilaller", "country": "ES", "coord": {"lon": 0.71686, "lat": 42.476238}}, {"id": 3113225, "name": "el Pont de Suert", "country": "ES", "coord": {"lon": 0.74171, "lat": 42.40815}}, {"id": 3109933, "name": "Santa Cruz de Campezo", "country": "ES", "coord": {"lon": -2.35115, "lat": 42.669682}}, {"id": 3108463, "name": "Tabanera del Monte", "country": "ES", "coord": {"lon": -4.06581, "lat": 40.938469}}, {"id": 6359964, "name": "Santa Eulalia de Oscos", "country": "ES", "coord": {"lon": -7.02121, "lat": 43.261501}}, {"id": 3110509, "name": "San Juli\u00e1n", "country": "ES", "coord": {"lon": -7.00095, "lat": 43.258072}}, {"id": 3114823, "name": "Ostitz", "country": "ES", "coord": {"lon": -1.61667, "lat": 42.916672}}, {"id": 6360660, "name": "Cabez\u00f3n de Li\u00e9bana", "country": "ES", "coord": {"lon": -4.53294, "lat": 43.129822}}, {"id": 3127222, "name": "Cabezon de Liebana", "country": "ES", "coord": {"lon": -4.5763, "lat": 43.134369}}, {"id": 6359935, "name": "Illas", "country": "ES", "coord": {"lon": -5.96855, "lat": 43.498192}}, {"id": 3105985, "name": "Viescas", "country": "ES", "coord": {"lon": -5.96667, "lat": 43.5}}, {"id": 6358576, "name": "Bustillo del P\u00e1ramo", "country": "ES", "coord": {"lon": -5.80995, "lat": 42.436489}}, {"id": 3110145, "name": "San Pedro de Pegas", "country": "ES", "coord": {"lon": -5.8745, "lat": 42.450378}}, {"id": 3111134, "name": "Sag\u00fc\u00e9s", "country": "ES", "coord": {"lon": -1.72316, "lat": 42.785301}}, {"id": 3121634, "name": "Ganzo", "country": "ES", "coord": {"lon": -4.06539, "lat": 43.360641}}, {"id": 6361769, "name": "Navahermosa", "country": "ES", "coord": {"lon": -4.47207, "lat": 39.656288}}, {"id": 2513346, "name": "Navahermosa", "country": "ES", "coord": {"lon": -4.47012, "lat": 39.635262}}, {"id": 2517574, "name": "Fuente-Alamo de Murcia", "country": "ES", "coord": {"lon": -1.1, "lat": 37.700001}}, {"id": 6358402, "name": "Sah\u00fan", "country": "ES", "coord": {"lon": 0.46856, "lat": 42.605301}}, {"id": 3123070, "name": "Eriste", "country": "ES", "coord": {"lon": 0.49267, "lat": 42.58987}}, {"id": 6359956, "name": "Quir\u00f3s", "country": "ES", "coord": {"lon": -5.98046, "lat": 43.157082}}, {"id": 3109747, "name": "Santa Marina", "country": "ES", "coord": {"lon": -5.96209, "lat": 43.14994}}, {"id": 6358721, "name": "Valdevimbre", "country": "ES", "coord": {"lon": -5.64121, "lat": 42.413471}}, {"id": 3106748, "name": "Valdevimbre", "country": "ES", "coord": {"lon": -5.61975, "lat": 42.41959}}, {"id": 3104220, "name": "Zulueta", "country": "ES", "coord": {"lon": -1.57928, "lat": 42.74506}}, {"id": 3124721, "name": "Comuni\u00f3n", "country": "ES", "coord": {"lon": -2.96667, "lat": 42.716671}}, {"id": 3116544, "name": "Mombeltran", "country": "ES", "coord": {"lon": -5.01749, "lat": 40.259869}}, {"id": 2516934, "name": "Guadiana del Caudillo", "country": "ES", "coord": {"lon": -6.69092, "lat": 38.929371}}, {"id": 3127200, "name": "Caborana", "country": "ES", "coord": {"lon": -5.75158, "lat": 43.174919}}, {"id": 6355510, "name": "La Vall de Laguar", "country": "ES", "coord": {"lon": -0.12202, "lat": 38.768719}}, {"id": 2520448, "name": "Campell", "country": "ES", "coord": {"lon": -0.10397, "lat": 38.780258}}, {"id": 2517586, "name": "Fuensanta", "country": "ES", "coord": {"lon": -1.11544, "lat": 37.940632}}, {"id": 3106467, "name": "Valnera", "country": "ES", "coord": {"lon": -3.43333, "lat": 43.183331}}, {"id": 6357342, "name": "Rois", "country": "ES", "coord": {"lon": -8.70247, "lat": 42.793949}}, {"id": 3111420, "name": "Rois", "country": "ES", "coord": {"lon": -8.70528, "lat": 42.762951}}, {"id": 6355667, "name": "Cill\u00e1n", "country": "ES", "coord": {"lon": -4.98911, "lat": 40.699989}}, {"id": 3111720, "name": "Rinconada", "country": "ES", "coord": {"lon": -5.03084, "lat": 40.722118}}, {"id": 3109859, "name": "Santa Isabel", "country": "ES", "coord": {"lon": -0.82914, "lat": 41.667042}}, {"id": 6355991, "name": "Solana de los Barros", "country": "ES", "coord": {"lon": -6.5665, "lat": 38.736691}}, {"id": 2510839, "name": "Solana de los Barros", "country": "ES", "coord": {"lon": -6.539, "lat": 38.725269}}, {"id": 6359398, "name": "Villar del Olmo", "country": "ES", "coord": {"lon": -3.23688, "lat": 40.334141}}, {"id": 3105046, "name": "Villar del Olmo", "country": "ES", "coord": {"lon": -3.23399, "lat": 40.334679}}, {"id": 6357006, "name": "Chert/Xert", "country": "ES", "coord": {"lon": 0.15819, "lat": 40.519829}}, {"id": 3125163, "name": "Chert/Xert", "country": "ES", "coord": {"lon": 0.15831, "lat": 40.51944}}, {"id": 6356724, "name": "Benquerencia", "country": "ES", "coord": {"lon": -6.08433, "lat": 39.30677}}, {"id": 2521034, "name": "Benquerencia", "country": "ES", "coord": {"lon": -6.08465, "lat": 39.30994}}, {"id": 6360203, "name": "Vega de San Mateo", "country": "ES", "coord": {"lon": -15.55304, "lat": 27.999411}}, {"id": 2509799, "name": "Vega de San Mateo", "country": "ES", "coord": {"lon": -15.5333, "lat": 28.008921}}, {"id": 3122838, "name": "Espinosa de los Monteros", "country": "ES", "coord": {"lon": -3.55365, "lat": 43.077541}}, {"id": 6355326, "name": "Fuentealbilla", "country": "ES", "coord": {"lon": -1.58619, "lat": 39.232899}}, {"id": 2517573, "name": "Fuentealbilla", "country": "ES", "coord": {"lon": -1.55, "lat": 39.26667}}, {"id": 3118227, "name": "Llofriu", "country": "ES", "coord": {"lon": 3.13333, "lat": 41.933331}}, {"id": 3126431, "name": "Carand\u00eda", "country": "ES", "coord": {"lon": -3.97566, "lat": 43.335178}}, {"id": 3108668, "name": "Sorribas", "country": "ES", "coord": {"lon": -5.25627, "lat": 43.36837}}, {"id": 3106418, "name": "Valtuille de Abajo", "country": "ES", "coord": {"lon": -6.76442, "lat": 42.595798}}, {"id": 6355270, "name": "Arraia-Maeztu", "country": "ES", "coord": {"lon": -2.44683, "lat": 42.74284}}, {"id": 3117712, "name": "Maestu", "country": "ES", "coord": {"lon": -2.44699, "lat": 42.738911}}, {"id": 6360844, "name": "Lastrilla (La)", "country": "ES", "coord": {"lon": -4.0905, "lat": 40.968979}}, {"id": 3119541, "name": "La Lastrilla", "country": "ES", "coord": {"lon": -4.10468, "lat": 40.96817}}, {"id": 3119252, "name": "La Penilla", "country": "ES", "coord": {"lon": -3.94653, "lat": 43.285561}}, {"id": 6951000, "name": "Villanueva De Colombres", "country": "ES", "coord": {"lon": -4.53333, "lat": 43.366699}}, {"id": 6359844, "name": "Coles", "country": "ES", "coord": {"lon": -7.83961, "lat": 42.410061}}, {"id": 3124828, "name": "Coles", "country": "ES", "coord": {"lon": -7.83333, "lat": 42.400002}}, {"id": 6359418, "name": "Alozaina", "country": "ES", "coord": {"lon": -4.86413, "lat": 36.738319}}, {"id": 2521838, "name": "Alozaina", "country": "ES", "coord": {"lon": -4.85761, "lat": 36.72736}}, {"id": 6362116, "name": "Vallada", "country": "ES", "coord": {"lon": -0.70784, "lat": 38.898289}}, {"id": 2513794, "name": "Mogente", "country": "ES", "coord": {"lon": -0.7515, "lat": 38.87598}}, {"id": 6356651, "name": "Villadiego", "country": "ES", "coord": {"lon": -4.00549, "lat": 42.549568}}, {"id": 3105661, "name": "Villadiego", "country": "ES", "coord": {"lon": -4.00958, "lat": 42.515888}}, {"id": 2510766, "name": "Sucina", "country": "ES", "coord": {"lon": -0.94122, "lat": 37.89064}}, {"id": 6360736, "name": "Valdeolea", "country": "ES", "coord": {"lon": -4.18501, "lat": 42.907261}}, {"id": 3126875, "name": "Camesa", "country": "ES", "coord": {"lon": -4.1651, "lat": 42.8946}}, {"id": 6359994, "name": "Baltan\u00e1s", "country": "ES", "coord": {"lon": -4.19167, "lat": 41.946709}}, {"id": 3128924, "name": "Baltanas", "country": "ES", "coord": {"lon": -4.24656, "lat": 41.937752}}, {"id": 6360862, "name": "Mozoncillo", "country": "ES", "coord": {"lon": -4.1856, "lat": 41.150421}}, {"id": 3115973, "name": "Mozoncillo", "country": "ES", "coord": {"lon": -4.18753, "lat": 41.14539}}, {"id": 6359807, "name": "Yerri", "country": "ES", "coord": {"lon": -1.98989, "lat": 42.72718}}, {"id": 3131110, "name": "Ab\u00e1rzuza", "country": "ES", "coord": {"lon": -2.02269, "lat": 42.727219}}, {"id": 3115813, "name": "Murugarren", "country": "ES", "coord": {"lon": -2.0093, "lat": 42.702499}}, {"id": 3128846, "name": "Baquedano", "country": "ES", "coord": {"lon": -2.11982, "lat": 42.783821}}, {"id": 6359438, "name": "Canillas de Aceituno", "country": "ES", "coord": {"lon": -4.10089, "lat": 36.864109}}, {"id": 2520254, "name": "Canillas de Aceituno", "country": "ES", "coord": {"lon": -4.08254, "lat": 36.873032}}, {"id": 6357763, "name": "Pinos Genil", "country": "ES", "coord": {"lon": -3.50289, "lat": 37.16153}}, {"id": 2512511, "name": "Pinos Genil", "country": "ES", "coord": {"lon": -3.50215, "lat": 37.16346}}, {"id": 6534177, "name": "Vilob\u00ed d'Onyar", "country": "ES", "coord": {"lon": 2.73467, "lat": 41.886009}}, {"id": 3111004, "name": "Salitja", "country": "ES", "coord": {"lon": 2.74727, "lat": 41.907829}}, {"id": 3114849, "name": "Os de Balaguer", "country": "ES", "coord": {"lon": 0.72017, "lat": 41.873138}}, {"id": 6357340, "name": "Rianxo", "country": "ES", "coord": {"lon": -8.78443, "lat": 42.671478}}, {"id": 3129288, "name": "Asadelos", "country": "ES", "coord": {"lon": -8.79088, "lat": 42.678219}}, {"id": 2520814, "name": "Br\u00e1cana", "country": "ES", "coord": {"lon": -3.94504, "lat": 37.22739}}, {"id": 6359978, "name": "Villay\u00f3n", "country": "ES", "coord": {"lon": -6.70759, "lat": 43.421398}}, {"id": 3127427, "name": "Busmente", "country": "ES", "coord": {"lon": -6.69433, "lat": 43.4259}}, {"id": 3123849, "name": "Donalbay", "country": "ES", "coord": {"lon": -7.69146, "lat": 43.12973}}, {"id": 3129784, "name": "Arcabell", "country": "ES", "coord": {"lon": 1.48233, "lat": 42.430759}}, {"id": 3108383, "name": "Talarn", "country": "ES", "coord": {"lon": 0.90068, "lat": 42.185749}}, {"id": 6358055, "name": "Trillo", "country": "ES", "coord": {"lon": -2.56074, "lat": 40.67144}}, {"id": 3129084, "name": "Aza\u00f1\u00f3n", "country": "ES", "coord": {"lon": -2.54393, "lat": 40.686539}}, {"id": 2513411, "name": "Mures", "country": "ES", "coord": {"lon": -3.82124, "lat": 37.42326}}, {"id": 6361867, "name": "Ador", "country": "ES", "coord": {"lon": -0.24581, "lat": 38.933399}}, {"id": 2522432, "name": "Ador", "country": "ES", "coord": {"lon": -0.22247, "lat": 38.918228}}, {"id": 3121197, "name": "Grandas de Salime", "country": "ES", "coord": {"lon": -6.8757, "lat": 43.215542}}, {"id": 6358311, "name": "Bolta\u00f1a", "country": "ES", "coord": {"lon": 0.01159, "lat": 42.4249}}, {"id": 3127858, "name": "Boltana", "country": "ES", "coord": {"lon": 0.06802, "lat": 42.445499}}, {"id": 3107270, "name": "Undiano", "country": "ES", "coord": {"lon": -1.76371, "lat": 42.758579}}, {"id": 3104868, "name": "Villarrodrigo de las Regueras", "country": "ES", "coord": {"lon": -5.53369, "lat": 42.63501}}, {"id": 3119077, "name": "Larrasoa\u00f1a", "country": "ES", "coord": {"lon": -1.54112, "lat": 42.902191}}, {"id": 3114207, "name": "Pastoriza", "country": "ES", "coord": {"lon": -7.1657, "lat": 43.093079}}, {"id": 2509933, "name": "Valladolises", "country": "ES", "coord": {"lon": -1.12334, "lat": 37.777111}}, {"id": 3127650, "name": "Brens", "country": "ES", "coord": {"lon": -9.18333, "lat": 42.950001}}, {"id": 6358846, "name": "Gavet de la Conca", "country": "ES", "coord": {"lon": 0.97131, "lat": 42.078739}}, {"id": 3120270, "name": "Isona", "country": "ES", "coord": {"lon": 1.04618, "lat": 42.11758}}, {"id": 3123395, "name": "Elosu", "country": "ES", "coord": {"lon": -2.67929, "lat": 42.975262}}, {"id": 6356179, "name": "Orist\u00e0", "country": "ES", "coord": {"lon": 2.07065, "lat": 41.951241}}, {"id": 3115094, "name": "Olost", "country": "ES", "coord": {"lon": 2.09458, "lat": 41.985401}}, {"id": 6357207, "name": "Bujalance", "country": "ES", "coord": {"lon": -4.33857, "lat": 37.938011}}, {"id": 2520735, "name": "Bujalance", "country": "ES", "coord": {"lon": -4.38074, "lat": 37.895561}}, {"id": 6359730, "name": "Nazar", "country": "ES", "coord": {"lon": -2.28044, "lat": 42.639568}}, {"id": 3115543, "name": "Nazar", "country": "ES", "coord": {"lon": -2.27966, "lat": 42.63686}}, {"id": 3125324, "name": "Cerrazo", "country": "ES", "coord": {"lon": -4.1231, "lat": 43.364861}}, {"id": 3107406, "name": "Tuesta", "country": "ES", "coord": {"lon": -3.02512, "lat": 42.809731}}, {"id": 6357816, "name": "Alcolea del Pinar", "country": "ES", "coord": {"lon": -2.48127, "lat": 40.989552}}, {"id": 3121615, "name": "Garbajosa", "country": "ES", "coord": {"lon": -2.43087, "lat": 41.047859}}, {"id": 3124313, "name": "Covarrubias", "country": "ES", "coord": {"lon": -2.5701, "lat": 41.4478}}, {"id": 3115097, "name": "Olombrada", "country": "ES", "coord": {"lon": -4.16071, "lat": 41.414921}}, {"id": 3110701, "name": "Sando\u00f1ana", "country": "ES", "coord": {"lon": -3.87473, "lat": 43.26738}}, {"id": 6357178, "name": "Torre de Juan Abad", "country": "ES", "coord": {"lon": -3.24846, "lat": 38.580341}}, {"id": 2516449, "name": "Infantes", "country": "ES", "coord": {"lon": -3.01219, "lat": 38.736691}}, {"id": 3114118, "name": "Pedre\u00f1a", "country": "ES", "coord": {"lon": -3.76944, "lat": 43.43927}}, {"id": 6357804, "name": "Cuevas del Campo", "country": "ES", "coord": {"lon": -2.89435, "lat": 37.603771}}, {"id": 2518981, "name": "Cuevas del Campo", "country": "ES", "coord": {"lon": -2.92938, "lat": 37.607552}}, {"id": 6357786, "name": "V\u00e9lez de Benaudalla", "country": "ES", "coord": {"lon": -3.49026, "lat": 36.831161}}, {"id": 2509771, "name": "Velez de Benaudalla", "country": "ES", "coord": {"lon": -3.51539, "lat": 36.832439}}, {"id": 6359953, "name": "Ponga", "country": "ES", "coord": {"lon": -5.17249, "lat": 43.182171}}, {"id": 3128359, "name": "Bele\u00f1o", "country": "ES", "coord": {"lon": -5.16387, "lat": 43.190681}}, {"id": 2516406, "name": "Jabal\u00ed Nuevo", "country": "ES", "coord": {"lon": -1.21697, "lat": 37.986019}}, {"id": 3107563, "name": "Trasona", "country": "ES", "coord": {"lon": -5.86667, "lat": 43.549999}}, {"id": 6356391, "name": "Carde\u00f1ajimeno", "country": "ES", "coord": {"lon": -3.61931, "lat": 42.33139}}, {"id": 3126308, "name": "Cardenajimeno", "country": "ES", "coord": {"lon": -3.62103, "lat": 42.330379}}, {"id": 3120275, "name": "Islares", "country": "ES", "coord": {"lon": -3.29988, "lat": 43.404419}}, {"id": 3108344, "name": "Tanda", "country": "ES", "coord": {"lon": -5.20307, "lat": 43.197868}}, {"id": 3106687, "name": "Vali\u00f1as", "country": "ES", "coord": {"lon": -8.6537, "lat": 42.555012}}, {"id": 3128320, "name": "Belorado", "country": "ES", "coord": {"lon": -3.19133, "lat": 42.420479}}, {"id": 2509545, "name": "Villanueva del Rio y Minas", "country": "ES", "coord": {"lon": -5.71369, "lat": 37.655022}}, {"id": 3130396, "name": "Alfocea", "country": "ES", "coord": {"lon": -0.95149, "lat": 41.724682}}, {"id": 6359519, "name": "Campos del R\u00edo", "country": "ES", "coord": {"lon": -1.36849, "lat": 38.06205}}, {"id": 2520402, "name": "Campos del Rio", "country": "ES", "coord": {"lon": -1.35306, "lat": 38.039661}}, {"id": 3115032, "name": "Ontoria", "country": "ES", "coord": {"lon": -4.2142, "lat": 43.30785}}, {"id": 6358322, "name": "Casbas de Huesca", "country": "ES", "coord": {"lon": -0.16714, "lat": 42.196072}}, {"id": 3120063, "name": "Junzano", "country": "ES", "coord": {"lon": -0.12858, "lat": 42.136768}}, {"id": 3115417, "name": "Nocelo da Pena", "country": "ES", "coord": {"lon": -7.57902, "lat": 42.061909}}, {"id": 2520419, "name": "Campo Arc\u00eds", "country": "ES", "coord": {"lon": -1.16667, "lat": 39.433331}}, {"id": 2512716, "name": "Pe\u00f1ascosa", "country": "ES", "coord": {"lon": -2.40991, "lat": 38.67215}}, {"id": 6355768, "name": "Navas del Marqu\u00e9s (Las)", "country": "ES", "coord": {"lon": -4.34626, "lat": 40.594971}}, {"id": 3118888, "name": "Las Navas del Marques", "country": "ES", "coord": {"lon": -4.33449, "lat": 40.60244}}, {"id": 3113510, "name": "Pi\u00f1eira", "country": "ES", "coord": {"lon": -7.25029, "lat": 42.876919}}, {"id": 6360664, "name": "Campoo de Yuso", "country": "ES", "coord": {"lon": -3.98589, "lat": 43.032711}}, {"id": 3124619, "name": "Corconte", "country": "ES", "coord": {"lon": -3.89503, "lat": 43.041}}, {"id": 3128060, "name": "Betren", "country": "ES", "coord": {"lon": 0.8096, "lat": 42.697479}}, {"id": 6361492, "name": "Castellote", "country": "ES", "coord": {"lon": -0.34924, "lat": 40.748089}}, {"id": 3125880, "name": "Castellote", "country": "ES", "coord": {"lon": -0.31975, "lat": 40.799999}}, {"id": 6357795, "name": "El Valle", "country": "ES", "coord": {"lon": -3.60047, "lat": 36.927769}}, {"id": 2511925, "name": "Rest\u00e1bal", "country": "ES", "coord": {"lon": -3.58283, "lat": 36.92931}}, {"id": 3111214, "name": "Rutis", "country": "ES", "coord": {"lon": -8.38333, "lat": 43.316669}}, {"id": 3123839, "name": "Donillas", "country": "ES", "coord": {"lon": -6.05979, "lat": 42.636478}}, {"id": 6357410, "name": "Ca\u00f1izares", "country": "ES", "coord": {"lon": -2.20184, "lat": 40.528332}}, {"id": 3126550, "name": "Canizares", "country": "ES", "coord": {"lon": -2.19201, "lat": 40.5187}}, {"id": 3106008, "name": "Vieiro", "country": "ES", "coord": {"lon": -7.10968, "lat": 43.083279}}, {"id": 6360699, "name": "Polanco", "country": "ES", "coord": {"lon": -4.02076, "lat": 43.383411}}, {"id": 3112318, "name": "Ramera", "country": "ES", "coord": {"lon": -4.03832, "lat": 43.377762}}, {"id": 3110916, "name": "San Adriano", "country": "ES", "coord": {"lon": -6, "lat": 43.566669}}, {"id": 6358472, "name": "Cambil", "country": "ES", "coord": {"lon": -3.57091, "lat": 37.65905}}, {"id": 2520476, "name": "Cambil", "country": "ES", "coord": {"lon": -3.56538, "lat": 37.67934}}, {"id": 6362564, "name": "Morales del Vino", "country": "ES", "coord": {"lon": -5.72664, "lat": 41.442879}}, {"id": 3116179, "name": "Morales del Vino", "country": "ES", "coord": {"lon": -5.7307, "lat": 41.447361}}, {"id": 6361193, "name": "Royo (El)", "country": "ES", "coord": {"lon": -2.67195, "lat": 41.92469}}, {"id": 3123282, "name": "El Royo", "country": "ES", "coord": {"lon": -2.64618, "lat": 41.90871}}, {"id": 3128156, "name": "Bernueces", "country": "ES", "coord": {"lon": -5.6323, "lat": 43.511292}}, {"id": 6355464, "name": "Mon\u00f3var/Mon\u00f2ver", "country": "ES", "coord": {"lon": -0.92208, "lat": 38.428089}}, {"id": 2519903, "name": "Casas del Se\u00f1or", "country": "ES", "coord": {"lon": -0.95325, "lat": 38.405418}}, {"id": 6356478, "name": "Lerma", "country": "ES", "coord": {"lon": -3.77105, "lat": 42.000252}}, {"id": 3118511, "name": "Lerma", "country": "ES", "coord": {"lon": -3.75978, "lat": 42.026089}}, {"id": 6355483, "name": "Rafal", "country": "ES", "coord": {"lon": -0.84765, "lat": 38.107391}}, {"id": 2512075, "name": "Rafal", "country": "ES", "coord": {"lon": -0.84904, "lat": 38.10458}}, {"id": 6355504, "name": "Tormos", "country": "ES", "coord": {"lon": -0.06262, "lat": 38.80537}}, {"id": 2512070, "name": "R\u00e1fol de Almunia", "country": "ES", "coord": {"lon": -0.05171, "lat": 38.821201}}, {"id": 3120840, "name": "Herbosa", "country": "ES", "coord": {"lon": -3.9016, "lat": 42.974602}}, {"id": 3122453, "name": "Figueres", "country": "ES", "coord": {"lon": 2.96163, "lat": 42.266449}}, {"id": 2520965, "name": "B\u00e9znar", "country": "ES", "coord": {"lon": -3.54155, "lat": 36.927391}}, {"id": 6358348, "name": "Gra\u00f1\u00e9n", "country": "ES", "coord": {"lon": -0.3405, "lat": 41.931599}}, {"id": 3121161, "name": "Granen", "country": "ES", "coord": {"lon": -0.36941, "lat": 41.94104}}, {"id": 2510487, "name": "Tharsis", "country": "ES", "coord": {"lon": -7.11826, "lat": 37.604599}}, {"id": 6359175, "name": "Corgo (O)", "country": "ES", "coord": {"lon": -7.46032, "lat": 42.934029}}, {"id": 3125724, "name": "Castrill\u00f3n", "country": "ES", "coord": {"lon": -7.38333, "lat": 42.933331}}, {"id": 3118535, "name": "Lentomil", "country": "ES", "coord": {"lon": -7.1303, "lat": 43.251659}}, {"id": 6356843, "name": "Plasencia", "country": "ES", "coord": {"lon": -6.14341, "lat": 40.01244}}, {"id": 3113331, "name": "Plasencia", "country": "ES", "coord": {"lon": -6.08845, "lat": 40.031158}}, {"id": 3130214, "name": "Altza", "country": "ES", "coord": {"lon": -1.93424, "lat": 43.31609}}, {"id": 6355249, "name": "Asparrena", "country": "ES", "coord": {"lon": -2.32653, "lat": 42.89996}}, {"id": 3129822, "name": "Araya", "country": "ES", "coord": {"lon": -2.31314, "lat": 42.893452}}, {"id": 6359864, "name": "Mel\u00f3n", "country": "ES", "coord": {"lon": -8.21587, "lat": 42.275909}}, {"id": 3116939, "name": "Melon", "country": "ES", "coord": {"lon": -8.214, "lat": 42.260159}}, {"id": 6357317, "name": "Mi\u00f1o", "country": "ES", "coord": {"lon": -8.1767, "lat": 43.351521}}, {"id": 3116729, "name": "Mino", "country": "ES", "coord": {"lon": -8.2, "lat": 43.349998}}, {"id": 6357586, "name": "Campos del Para\u00edso", "country": "ES", "coord": {"lon": -2.70615, "lat": 40.022099}}, {"id": 3126191, "name": "Carrascosa del Campo", "country": "ES", "coord": {"lon": -2.73675, "lat": 40.037701}}, {"id": 6357304, "name": "Dumbr\u00eda", "country": "ES", "coord": {"lon": -8.68926, "lat": 43.01355}}, {"id": 3122458, "name": "Figueiroa", "country": "ES", "coord": {"lon": -9.11476, "lat": 42.991421}}, {"id": 6359037, "name": "Cervera del R\u00edo Alhama", "country": "ES", "coord": {"lon": -1.96604, "lat": 42.031319}}, {"id": 3125297, "name": "Cervera del Rio Alhama", "country": "ES", "coord": {"lon": -1.95531, "lat": 42.005169}}, {"id": 3128311, "name": "Belvis de Jarama", "country": "ES", "coord": {"lon": -3.54763, "lat": 40.56076}}, {"id": 6358327, "name": "Castiello de Jaca", "country": "ES", "coord": {"lon": -0.55781, "lat": 42.646191}}, {"id": 3125841, "name": "Castiello de Jaca", "country": "ES", "coord": {"lon": -0.5502, "lat": 42.629639}}, {"id": 6355252, "name": "Barrundia", "country": "ES", "coord": {"lon": -2.5071, "lat": 42.913769}}, {"id": 3120814, "name": "H\u00e9rmua", "country": "ES", "coord": {"lon": -2.4781, "lat": 42.91721}}, {"id": 6361412, "name": "Vila-rodona", "country": "ES", "coord": {"lon": 1.36844, "lat": 41.311588}}, {"id": 3130783, "name": "Aiguam\u00farcia", "country": "ES", "coord": {"lon": 1.36667, "lat": 41.333328}}, {"id": 6362694, "name": "Vi\u00f1as", "country": "ES", "coord": {"lon": -6.45028, "lat": 41.78458}}, {"id": 3104583, "name": "Vinas", "country": "ES", "coord": {"lon": -6.47116, "lat": 41.7733}}, {"id": 3123499, "name": "El Espinar", "country": "ES", "coord": {"lon": -4.24724, "lat": 40.718842}}, {"id": 2512707, "name": "Pe\u00f1olite", "country": "ES", "coord": {"lon": -2.79776, "lat": 38.324581}}, {"id": 6357777, "name": "Santa Fe", "country": "ES", "coord": {"lon": -3.73812, "lat": 37.19241}}, {"id": 2518397, "name": "El Jau", "country": "ES", "coord": {"lon": -3.74102, "lat": 37.196289}}, {"id": 6359719, "name": "Miranda de Arga", "country": "ES", "coord": {"lon": -1.83125, "lat": 42.484249}}, {"id": 3116692, "name": "Miranda de Arga", "country": "ES", "coord": {"lon": -1.82758, "lat": 42.483372}}, {"id": 3118861, "name": "Las Presillas", "country": "ES", "coord": {"lon": -3.9864, "lat": 43.33017}}, {"id": 2515539, "name": "La Sabinita", "country": "ES", "coord": {"lon": -16.497841, "lat": 28.17964}}, {"id": 6355593, "name": "Santa Fe de Mond\u00fajar", "country": "ES", "coord": {"lon": -2.53247, "lat": 36.976429}}, {"id": 2515194, "name": "Las Yeseras de Gal\u00e1char", "country": "ES", "coord": {"lon": -2.53333, "lat": 36.966671}}, {"id": 3105523, "name": "Villalba", "country": "ES", "coord": {"lon": -7.05598, "lat": 43.215031}}, {"id": 6359963, "name": "San Mart\u00edn de Oscos", "country": "ES", "coord": {"lon": -6.93665, "lat": 43.276119}}, {"id": 3108559, "name": "Soutelo", "country": "ES", "coord": {"lon": -6.92352, "lat": 43.300388}}, {"id": 6356389, "name": "Carcedo de Burgos", "country": "ES", "coord": {"lon": -3.62343, "lat": 42.286331}}, {"id": 3126323, "name": "Carcedo de Burgos", "country": "ES", "coord": {"lon": -3.62274, "lat": 42.286961}}, {"id": 2511349, "name": "San Juan", "country": "ES", "coord": {"lon": -0.87841, "lat": 38.619251}}, {"id": 6360672, "name": "Corrales de Buelna (Los)", "country": "ES", "coord": {"lon": -4.08442, "lat": 43.263149}}, {"id": 3128558, "name": "Barros", "country": "ES", "coord": {"lon": -4.07733, "lat": 43.279148}}, {"id": 3126982, "name": "Calo", "country": "ES", "coord": {"lon": -8.95586, "lat": 42.715569}}, {"id": 6360202, "name": "Valleseco", "country": "ES", "coord": {"lon": -15.58029, "lat": 28.04796}}, {"id": 2509864, "name": "Valleseco", "country": "ES", "coord": {"lon": -15.57623, "lat": 28.043301}}, {"id": 6358514, "name": "Noalejo", "country": "ES", "coord": {"lon": -3.64986, "lat": 37.538879}}, {"id": 2520435, "name": "Campillo de Arenas", "country": "ES", "coord": {"lon": -3.63552, "lat": 37.555351}}, {"id": 6359349, "name": "Rozas de Puerto Real", "country": "ES", "coord": {"lon": -4.51167, "lat": 40.305061}}, {"id": 3111305, "name": "Rozas de Puerto Real", "country": "ES", "coord": {"lon": -4.48333, "lat": 40.316669}}, {"id": 3128186, "name": "Berg\u00fcenda", "country": "ES", "coord": {"lon": -3.04577, "lat": 42.777748}}, {"id": 6355558, "name": "Fond\u00f3n", "country": "ES", "coord": {"lon": -2.85868, "lat": 36.981869}}, {"id": 2517712, "name": "Fondon", "country": "ES", "coord": {"lon": -2.85957, "lat": 36.980202}}, {"id": 2521682, "name": "Arbuniel", "country": "ES", "coord": {"lon": -3.53684, "lat": 37.62793}}, {"id": 3125109, "name": "Chozas de Arriba", "country": "ES", "coord": {"lon": -5.70016, "lat": 42.520618}}, {"id": 6357769, "name": "Puebla de Don Fadrique", "country": "ES", "coord": {"lon": -2.41046, "lat": 37.943909}}, {"id": 2519154, "name": "Cortijos Nuevos del Campo", "country": "ES", "coord": {"lon": -2.33981, "lat": 37.857639}}, {"id": 3112574, "name": "Quijas", "country": "ES", "coord": {"lon": -4.13371, "lat": 43.350052}}, {"id": 3105208, "name": "Villanueva de Mena", "country": "ES", "coord": {"lon": -3.30154, "lat": 43.101822}}, {"id": 3129952, "name": "Antimio de Arriba", "country": "ES", "coord": {"lon": -5.64632, "lat": 42.514061}}, {"id": 3117677, "name": "Maho\u00f1o", "country": "ES", "coord": {"lon": -3.91452, "lat": 43.417671}}, {"id": 6358523, "name": "Rus", "country": "ES", "coord": {"lon": -3.45572, "lat": 38.078121}}, {"id": 2511651, "name": "Rus", "country": "ES", "coord": {"lon": -3.46254, "lat": 38.047588}}, {"id": 6357522, "name": "San Clemente", "country": "ES", "coord": {"lon": -2.43607, "lat": 39.431461}}, {"id": 2511411, "name": "San Clemente", "country": "ES", "coord": {"lon": -2.42819, "lat": 39.404099}}, {"id": 6360000, "name": "Becerril de Campos", "country": "ES", "coord": {"lon": -4.62413, "lat": 42.120449}}, {"id": 3128416, "name": "Becerril de Campos", "country": "ES", "coord": {"lon": -4.64152, "lat": 42.10841}}, {"id": 3123625, "name": "Elburgo", "country": "ES", "coord": {"lon": -2.54513, "lat": 42.84972}}, {"id": 3110353, "name": "San Mart\u00edn del Obispo", "country": "ES", "coord": {"lon": -4.75446, "lat": 42.515839}}, {"id": 3126864, "name": "Caminomorisco", "country": "ES", "coord": {"lon": -6.28923, "lat": 40.32719}}, {"id": 6358733, "name": "Villablino", "country": "ES", "coord": {"lon": -6.34327, "lat": 42.977921}}, {"id": 3127205, "name": "Caboalles de Abajo", "country": "ES", "coord": {"lon": -6.37015, "lat": 42.952381}}, {"id": 6358044, "name": "Torrej\u00f3n del Rey", "country": "ES", "coord": {"lon": -3.34781, "lat": 40.661579}}, {"id": 3107782, "name": "Torrejon del Rey", "country": "ES", "coord": {"lon": -3.33376, "lat": 40.64325}}, {"id": 3113847, "name": "Pe\u00f3n", "country": "ES", "coord": {"lon": -5.53333, "lat": 43.48333}}, {"id": 6356530, "name": "Pe\u00f1aranda de Duero", "country": "ES", "coord": {"lon": -3.45323, "lat": 41.687119}}, {"id": 3113909, "name": "Penaranda de Duero", "country": "ES", "coord": {"lon": -3.47863, "lat": 41.688492}}, {"id": 6355937, "name": "Lob\u00f3n", "country": "ES", "coord": {"lon": -6.62259, "lat": 38.837791}}, {"id": 2514964, "name": "Lobon", "country": "ES", "coord": {"lon": -6.62365, "lat": 38.848759}}, {"id": 6355786, "name": "Piedrah\u00edta", "country": "ES", "coord": {"lon": -5.33113, "lat": 40.4743}}, {"id": 3113596, "name": "Piedrahita", "country": "ES", "coord": {"lon": -5.32832, "lat": 40.464748}}, {"id": 3121037, "name": "Guardamino", "country": "ES", "coord": {"lon": -3.4447, "lat": 43.260609}}, {"id": 6358119, "name": "Deba", "country": "ES", "coord": {"lon": -2.35382, "lat": 43.294571}}, {"id": 3129401, "name": "Arriola", "country": "ES", "coord": {"lon": -2.34907, "lat": 43.28035}}, {"id": 2517748, "name": "F\u00e9lix", "country": "ES", "coord": {"lon": -2.65845, "lat": 36.86911}}, {"id": 6355600, "name": "Tabernas", "country": "ES", "coord": {"lon": -2.36265, "lat": 37.048222}}, {"id": 2510746, "name": "Tabernas", "country": "ES", "coord": {"lon": -2.39084, "lat": 37.049919}}, {"id": 3120242, "name": "Itza", "country": "ES", "coord": {"lon": -1.7294, "lat": 42.836639}}, {"id": 6359178, "name": "Folgoso do Courel", "country": "ES", "coord": {"lon": -7.15925, "lat": 42.608768}}, {"id": 3114670, "name": "Paderne", "country": "ES", "coord": {"lon": -7.18964, "lat": 42.658482}}, {"id": 3112761, "name": "Ponteareas", "country": "ES", "coord": {"lon": -8.5, "lat": 42.183331}}, {"id": 3108516, "name": "Sucs", "country": "ES", "coord": {"lon": 0.41182, "lat": 41.702141}}, {"id": 6359673, "name": "Ig\u00fazquiza", "country": "ES", "coord": {"lon": -2.09246, "lat": 42.64082}}, {"id": 3120423, "name": "Iguzquiza", "country": "ES", "coord": {"lon": -2.08551, "lat": 42.645451}}, {"id": 3130475, "name": "Aldeatejada", "country": "ES", "coord": {"lon": -5.69273, "lat": 40.92168}}, {"id": 6534182, "name": "Barlovento", "country": "ES", "coord": {"lon": -17.810261, "lat": 28.81642}}, {"id": 2516033, "name": "La Cuesta", "country": "ES", "coord": {"lon": -17.78034, "lat": 28.82024}}, {"id": 3104322, "name": "Zaramillo", "country": "ES", "coord": {"lon": -3.01667, "lat": 43.23333}}, {"id": 3120830, "name": "Her\u00edas", "country": "ES", "coord": {"lon": -5.81667, "lat": 43.099998}}, {"id": 2518498, "name": "El Draguito", "country": "ES", "coord": {"lon": -16.565929, "lat": 28.11253}}, {"id": 3108739, "name": "Somahoz", "country": "ES", "coord": {"lon": -4.06235, "lat": 43.246479}}, {"id": 6358594, "name": "Castrocalb\u00f3n", "country": "ES", "coord": {"lon": -5.99552, "lat": 42.208839}}, {"id": 3125682, "name": "Castrocalbon", "country": "ES", "coord": {"lon": -5.98226, "lat": 42.19706}}, {"id": 3125396, "name": "C\u00e9rdigo", "country": "ES", "coord": {"lon": -3.26624, "lat": 43.399422}}, {"id": 6534188, "name": "Hermigua", "country": "ES", "coord": {"lon": -17.1924, "lat": 28.168289}}, {"id": 2516785, "name": "Hermigua", "country": "ES", "coord": {"lon": -17.19051, "lat": 28.16766}}, {"id": 6359918, "name": "Cangas del Narcea", "country": "ES", "coord": {"lon": -6.54246, "lat": 43.115471}}, {"id": 3126572, "name": "Cangas del Narcea", "country": "ES", "coord": {"lon": -6.55, "lat": 43.183331}}, {"id": 6355246, "name": "Artziniega", "country": "ES", "coord": {"lon": -3.13179, "lat": 43.130482}}, {"id": 3129752, "name": "Arciniega", "country": "ES", "coord": {"lon": -3.12972, "lat": 43.121449}}, {"id": 6358596, "name": "Castropodame", "country": "ES", "coord": {"lon": -6.43513, "lat": 42.574188}}, {"id": 3125633, "name": "Castropodame", "country": "ES", "coord": {"lon": -6.46837, "lat": 42.57943}}, {"id": 2516860, "name": "Guia de Isora", "country": "ES", "coord": {"lon": -16.77947, "lat": 28.21154}}, {"id": 6360378, "name": "Fuente de San Esteban (La)", "country": "ES", "coord": {"lon": -6.18058, "lat": 40.80722}}, {"id": 3119705, "name": "La Fuente de San Esteban", "country": "ES", "coord": {"lon": -6.25852, "lat": 40.801609}}, {"id": 6359486, "name": "Rinc\u00f3n de la Victoria", "country": "ES", "coord": {"lon": -4.27101, "lat": 36.724571}}, {"id": 2511852, "name": "Rincon de la Victoria", "country": "ES", "coord": {"lon": -4.27583, "lat": 36.717152}}, {"id": 3116292, "name": "Montfull\u00e1", "country": "ES", "coord": {"lon": 2.76117, "lat": 41.967739}}, {"id": 6359869, "name": "Mu\u00ed\u00f1os", "country": "ES", "coord": {"lon": -7.96819, "lat": 41.953041}}, {"id": 3124337, "name": "Couso de Salas", "country": "ES", "coord": {"lon": -7.92387, "lat": 41.962662}}, {"id": 3118024, "name": "Los Corrales de Buelna", "country": "ES", "coord": {"lon": -4.07262, "lat": 43.26358}}, {"id": 3111078, "name": "Salceda de Caselas", "country": "ES", "coord": {"lon": -8.58333, "lat": 42.099998}}, {"id": 3111081, "name": "Salceda", "country": "ES", "coord": {"lon": -8.56667, "lat": 42.116669}}, {"id": 6359902, "name": "Viana do Bolo", "country": "ES", "coord": {"lon": -7.07125, "lat": 42.15081}}, {"id": 3120497, "name": "Humoso", "country": "ES", "coord": {"lon": -7.0654, "lat": 42.134411}}, {"id": 2518120, "name": "El Saler", "country": "ES", "coord": {"lon": -0.33333, "lat": 39.383331}}, {"id": 2518972, "name": "Cuevas de Reyllo", "country": "ES", "coord": {"lon": -1.24241, "lat": 37.734612}}, {"id": 6358279, "name": "Ang\u00fc\u00e9s", "country": "ES", "coord": {"lon": -0.1495, "lat": 42.0826}}, {"id": 3130021, "name": "Angues", "country": "ES", "coord": {"lon": -0.15298, "lat": 42.111092}}, {"id": 6361689, "name": "Calera y Chozas", "country": "ES", "coord": {"lon": -5.00804, "lat": 39.879101}}, {"id": 2520528, "name": "Calera y Chozas", "country": "ES", "coord": {"lon": -4.98213, "lat": 39.882778}}, {"id": 6361255, "name": "Altafulla", "country": "ES", "coord": {"lon": 1.38422, "lat": 41.154881}}, {"id": 3119120, "name": "la Riera de Gai\u00e0", "country": "ES", "coord": {"lon": 1.36667, "lat": 41.166672}}, {"id": 3110678, "name": "San Esteban de Gormaz", "country": "ES", "coord": {"lon": -3.20418, "lat": 41.57436}}, {"id": 6358708, "name": "Turcia", "country": "ES", "coord": {"lon": -5.88833, "lat": 42.560051}}, {"id": 3129514, "name": "Armellada", "country": "ES", "coord": {"lon": -5.86311, "lat": 42.552052}}, {"id": 6359698, "name": "Leoz", "country": "ES", "coord": {"lon": -1.57566, "lat": 42.585941}}, {"id": 3129342, "name": "Artari\u00e1in", "country": "ES", "coord": {"lon": -1.57671, "lat": 42.616531}}, {"id": 6358590, "name": "Carucedo", "country": "ES", "coord": {"lon": -6.79336, "lat": 42.482712}}, {"id": 3126135, "name": "Carucedo", "country": "ES", "coord": {"lon": -6.76565, "lat": 42.490292}}, {"id": 6355822, "name": "Santa Mar\u00eda del Berrocal", "country": "ES", "coord": {"lon": -5.41107, "lat": 40.506149}}, {"id": 3109790, "name": "Santa Maria del Berrocal", "country": "ES", "coord": {"lon": -5.40483, "lat": 40.50845}}, {"id": 3130574, "name": "Alcolea del Pinar", "country": "ES", "coord": {"lon": -2.46645, "lat": 41.03569}}, {"id": 6358361, "name": "Lalueza", "country": "ES", "coord": {"lon": -0.25488, "lat": 41.871841}}, {"id": 3119512, "name": "Lalueza", "country": "ES", "coord": {"lon": -0.25493, "lat": 41.83968}}, {"id": 6359941, "name": "Morc\u00edn", "country": "ES", "coord": {"lon": -5.89314, "lat": 43.263721}}, {"id": 3129638, "name": "Argam\u00e9", "country": "ES", "coord": {"lon": -5.88415, "lat": 43.300339}}, {"id": 3119319, "name": "la Nou de Bergued\u00e0", "country": "ES", "coord": {"lon": 1.88333, "lat": 42.166672}}, {"id": 6357255, "name": "Santaella", "country": "ES", "coord": {"lon": -4.8706, "lat": 37.546059}}, {"id": 2511170, "name": "Santaella", "country": "ES", "coord": {"lon": -4.84362, "lat": 37.562939}}, {"id": 3119124, "name": "La Ribera", "country": "ES", "coord": {"lon": -6.33333, "lat": 42.616669}}, {"id": 3119950, "name": "La Bodega", "country": "ES", "coord": {"lon": -0.07066, "lat": 40.23991}}, {"id": 2509707, "name": "Ventas de Zafarraya", "country": "ES", "coord": {"lon": -4.12142, "lat": 36.958118}}, {"id": 3112568, "name": "Quincoces de Yuso", "country": "ES", "coord": {"lon": -3.24261, "lat": 42.989262}}, {"id": 6360016, "name": "Castrej\u00f3n de la Pe\u00f1a", "country": "ES", "coord": {"lon": -4.60134, "lat": 42.798382}}, {"id": 3125771, "name": "Castrejon de la Pena", "country": "ES", "coord": {"lon": -4.59901, "lat": 42.807949}}, {"id": 6362619, "name": "San Cebri\u00e1n de Castro", "country": "ES", "coord": {"lon": -5.79378, "lat": 41.717602}}, {"id": 3110818, "name": "San Cebrian de Castro", "country": "ES", "coord": {"lon": -5.75605, "lat": 41.706322}}, {"id": 2509941, "name": "Valera de Abajo", "country": "ES", "coord": {"lon": -2.15, "lat": 39.76667}}, {"id": 6359490, "name": "Sayalonga", "country": "ES", "coord": {"lon": -4.00548, "lat": 36.797871}}, {"id": 2511009, "name": "Sayalonga", "country": "ES", "coord": {"lon": -4.01325, "lat": 36.798191}}, {"id": 2517049, "name": "Grazalema", "country": "ES", "coord": {"lon": -5.36839, "lat": 36.760181}}, {"id": 3111375, "name": "Ron", "country": "ES", "coord": {"lon": -6.94692, "lat": 43.27536}}, {"id": 6356008, "name": "Valverde de Legan\u00e9s", "country": "ES", "coord": {"lon": -6.97977, "lat": 38.664162}}, {"id": 2509834, "name": "Valverde de Leganes", "country": "ES", "coord": {"lon": -6.98036, "lat": 38.670589}}, {"id": 3118364, "name": "Lires", "country": "ES", "coord": {"lon": -9.2448, "lat": 42.997551}}, {"id": 6357312, "name": "Malpica de Berganti\u00f1os", "country": "ES", "coord": {"lon": -8.82271, "lat": 43.314941}}, {"id": 3117606, "name": "Malpica", "country": "ES", "coord": {"lon": -8.81052, "lat": 43.3228}}, {"id": 2520575, "name": "Cala Figuera", "country": "ES", "coord": {"lon": 3.17136, "lat": 39.330002}}, {"id": 6359381, "name": "Valdeolmos-Alalpardo", "country": "ES", "coord": {"lon": -3.46148, "lat": 40.63842}},