[{"id": 1685006, "name": "Tabiauan", "country": "PH", "coord": {"lon": 121.893547, "lat": 6.02806}}, {"id": 1685071, "name": "Tabango", "country": "PH", "coord": {"lon": 124.373001, "lat": 11.3077}}, {"id": 1685102, "name": "Tabalong", "country": "PH", "coord": {"lon": 123.812309, "lat": 9.62157}}, {"id": 1685125, "name": "Tabaan", "country": "PH", "coord": {"lon": 120.51667, "lat": 16.299999}}, {"id": 1685161, "name": "Suyo", "country": "PH", "coord": {"lon": 120.525398, "lat": 16.9762}}, {"id": 1685166, "name": "Suyan", "country": "PH", "coord": {"lon": 125.385277, "lat": 6.06028}}, {"id": 1685196, "name": "Suso", "country": "PH", "coord": {"lon": 120.461098, "lat": 17.3594}}, {"id": 1685203, "name": "Surup", "country": "PH", "coord": {"lon": 126.145576, "lat": 6.39035}}, {"id": 1685270, "name": "Sungai", "country": "PH", "coord": {"lon": 124.402779, "lat": 8.45139}}, {"id": 1685286, "name": "Sumpong", "country": "PH", "coord": {"lon": 125.118332, "lat": 8.16333}}, {"id": 1685296, "name": "Sumisip", "country": "PH", "coord": {"lon": 121.97139, "lat": 6.41972}}, {"id": 1685302, "name": "Sumilao", "country": "PH", "coord": {"lon": 124.945557, "lat": 8.28722}}, {"id": 1685340, "name": "Sumagui", "country": "PH", "coord": {"lon": 121.474022, "lat": 12.79532}}, {"id": 1685360, "name": "Sumabnit", "country": "PH", "coord": {"lon": 120.583199, "lat": 16.0303}}, {"id": 1685366, "name": "Sulucan", "country": "PH", "coord": {"lon": 120.933327, "lat": 14.8}}, {"id": 1685378, "name": "Sultan Kudarat", "country": "PH", "coord": {"lon": 124.257782, "lat": 7.22889}}, {"id": 1685391, "name": "Sulop", "country": "PH", "coord": {"lon": 125.343613, "lat": 6.59861}}, {"id": 1685401, "name": "Sulit", "country": "PH", "coord": {"lon": 125.020561, "lat": 6.23611}}, {"id": 1685418, "name": "Sulat", "country": "PH", "coord": {"lon": 125.454437, "lat": 11.81028}}, {"id": 1685422, "name": "Sulangan", "country": "PH", "coord": {"lon": 123.722801, "lat": 11.1373}}, {"id": 1685423, "name": "Sulangan", "country": "PH", "coord": {"lon": 125.826401, "lat": 10.936}}, {"id": 1685424, "name": "Sulangan", "country": "PH", "coord": {"lon": 122.690002, "lat": 10.83}}, {"id": 1685434, "name": "Sula", "country": "PH", "coord": {"lon": 120.395531, "lat": 15.45725}}, {"id": 1685476, "name": "Sugpon", "country": "PH", "coord": {"lon": 120.515701, "lat": 16.843399}}, {"id": 1685484, "name": "Sugod", "country": "PH", "coord": {"lon": 124.080498, "lat": 12.987}}, {"id": 1685499, "name": "Sugcad", "country": "PH", "coord": {"lon": 123.699997, "lat": 13.36667}}, {"id": 1685506, "name": "Sugbongkogon", "country": "PH", "coord": {"lon": 124.791107, "lat": 8.95694}}, {"id": 1685520, "name": "Sugal", "country": "PH", "coord": {"lon": 125.46167, "lat": 5.66222}}, {"id": 1685532, "name": "Sudipen", "country": "PH", "coord": {"lon": 120.4617, "lat": 16.9056}}, {"id": 1685549, "name": "Suklayin", "country": "PH", "coord": {"lon": 121.550301, "lat": 15.7574}}, {"id": 1685556, "name": "Sibusob", "country": "PH", "coord": {"lon": 120.494698, "lat": 16.226999}}, {"id": 1685578, "name": "Subic", "country": "PH", "coord": {"lon": 120.940132, "lat": 13.94859}}, {"id": 1685609, "name": "Saaban", "country": "PH", "coord": {"lon": 121.368721, "lat": 13.1305}}, {"id": 1685615, "name": "Suba", "country": "PH", "coord": {"lon": 121.010201, "lat": 10.8438}}, {"id": 1685625, "name": "Suz-on", "country": "PH", "coord": {"lon": 125.638329, "lat": 7.66278}}, {"id": 1685634, "name": "Sual", "country": "PH", "coord": {"lon": 120.094139, "lat": 16.06682}}, {"id": 1685681, "name": "Soyung", "country": "PH", "coord": {"lon": 121.665497, "lat": 16.7001}}, {"id": 1685692, "name": "South Upi", "country": "PH", "coord": {"lon": 124.150002, "lat": 6.83333}}, {"id": 1685800, "name": "Songculan", "country": "PH", "coord": {"lon": 123.828972, "lat": 9.62966}}, {"id": 1685831, "name": "Solsona", "country": "PH", "coord": {"lon": 120.769722, "lat": 18.09333}}, {"id": 1685850, "name": "Solo", "country": "PH", "coord": {"lon": 120.901192, "lat": 13.74691}}, {"id": 1685867, "name": "Soledad", "country": "PH", "coord": {"lon": 120.983902, "lat": 15.4282}}, {"id": 1685882, "name": "Solana", "country": "PH", "coord": {"lon": 124.770561, "lat": 8.62306}}, {"id": 1685915, "name": "Sogod", "country": "PH", "coord": {"lon": 123.316673, "lat": 13.83333}}, {"id": 1685918, "name": "Sogod", "country": "PH", "coord": {"lon": 122.684311, "lat": 12.38044}}, {"id": 1685923, "name": "Sogod", "country": "PH", "coord": {"lon": 123.99472, "lat": 10.75083}}, {"id": 1685925, "name": "Sogod", "country": "PH", "coord": {"lon": 124.9814, "lat": 10.3847}}, {"id": 1685936, "name": "Socorro", "country": "PH", "coord": {"lon": 121.411667, "lat": 13.05833}}, {"id": 1685938, "name": "Socorro", "country": "PH", "coord": {"lon": 125.966667, "lat": 9.62139}}, {"id": 1686007, "name": "Sison", "country": "PH", "coord": {"lon": 120.515282, "lat": 16.173889}}, {"id": 1686008, "name": "Sison", "country": "PH", "coord": {"lon": 120.510002, "lat": 16.173}}, {"id": 1686009, "name": "Sison", "country": "PH", "coord": {"lon": 125.52861, "lat": 9.66028}}, {"id": 1686039, "name": "Siruma", "country": "PH", "coord": {"lon": 123.25, "lat": 14}}, {"id": 1686045, "name": "Sirib", "country": "PH", "coord": {"lon": 125.407219, "lat": 7.13333}}, {"id": 1686047, "name": "Siraway", "country": "PH", "coord": {"lon": 122.139717, "lat": 7.58528}}, {"id": 1686066, "name": "Siquijor", "country": "PH", "coord": {"lon": 123.514999, "lat": 9.2142}}, {"id": 1686078, "name": "Sipocot", "country": "PH", "coord": {"lon": 122.976196, "lat": 13.768}}, {"id": 1686123, "name": "Siocon", "country": "PH", "coord": {"lon": 122.135277, "lat": 7.70611}}, {"id": 1686141, "name": "Sinuknipan", "country": "PH", "coord": {"lon": 122.637497, "lat": 13.8894}}, {"id": 1686144, "name": "Sinubong", "country": "PH", "coord": {"lon": 121.925278, "lat": 7.02806}}, {"id": 1686159, "name": "Sinonoc", "country": "PH", "coord": {"lon": 123.8461, "lat": 8.3096}}, {"id": 1686164, "name": "Sinolon", "country": "PH", "coord": {"lon": 124.814438, "lat": 6.24389}}, {"id": 1686170, "name": "Sinubong", "country": "PH", "coord": {"lon": 125.930801, "lat": 8.0684}}, {"id": 1686175, "name": "Sinisian", "country": "PH", "coord": {"lon": 120.844009, "lat": 13.9156}}, {"id": 1686187, "name": "Siniloan", "country": "PH", "coord": {"lon": 121.446297, "lat": 14.4216}}, {"id": 1686191, "name": "Sinilian", "country": "PH", "coord": {"lon": 120.459396, "lat": 15.6952}}, {"id": 1686228, "name": "Sindon", "country": "PH", "coord": {"lon": 122.015137, "lat": 17.060341}}, {"id": 1686234, "name": "Sindangan", "country": "PH", "coord": {"lon": 122.997398, "lat": 8.2376}}, {"id": 1686244, "name": "Sinayawan", "country": "PH", "coord": {"lon": 125.309441, "lat": 6.7125}}, {"id": 1686250, "name": "Sinawilan", "country": "PH", "coord": {"lon": 125.246391, "lat": 6.75444}}, {"id": 1686290, "name": "Sinamar", "country": "PH", "coord": {"lon": 121.566673, "lat": 16.9}}, {"id": 1686311, "name": "Sinala", "country": "PH", "coord": {"lon": 120.974632, "lat": 13.8057}}, {"id": 1686318, "name": "Sinait", "country": "PH", "coord": {"lon": 120.458298, "lat": 17.8664}}, {"id": 1686319, "name": "Sinait", "country": "PH", "coord": {"lon": 120.583061, "lat": 15.53861}}, {"id": 1686335, "name": "Sinacaban", "country": "PH", "coord": {"lon": 123.839897, "lat": 8.2864}}, {"id": 1686355, "name": "Simunul", "country": "PH", "coord": {"lon": 119.849442, "lat": 4.89833}}, {"id": 1686387, "name": "Simimbaan", "country": "PH", "coord": {"lon": 121.582443, "lat": 17.11574}}, {"id": 1686407, "name": "Simanu Sur", "country": "PH", "coord": {"lon": 121.835152, "lat": 17.482821}}, {"id": 1686422, "name": "Simala", "country": "PH", "coord": {"lon": 123.616478, "lat": 9.97326}}, {"id": 1686435, "name": "Silway 7", "country": "PH", "coord": {"lon": 125.120682, "lat": 6.17711}}, {"id": 1686436, "name": "Silvino Lobos", "country": "PH", "coord": {"lon": 124.833328, "lat": 12.3}}, {"id": 1686455, "name": "Silongin", "country": "PH", "coord": {"lon": 122.521393, "lat": 13.29972}}, {"id": 1686467, "name": "Sillon", "country": "PH", "coord": {"lon": 123.767502, "lat": 11.199}}, {"id": 1686502, "name": "Silawit", "country": "PH", "coord": {"lon": 121.756393, "lat": 16.878889}}, {"id": 1686545, "name": "Silanga", "country": "PH", "coord": {"lon": 124.843063, "lat": 11.81806}}, {"id": 1686559, "name": "Silago", "country": "PH", "coord": {"lon": 125.161797, "lat": 10.5291}}, {"id": 1686564, "name": "Silae", "country": "PH", "coord": {"lon": 125.282501, "lat": 8.15889}}, {"id": 1686572, "name": "Silab", "country": "PH", "coord": {"lon": 123.179199, "lat": 9.4383}}, {"id": 1686582, "name": "Sikatuna", "country": "PH", "coord": {"lon": 123.975098, "lat": 9.6883}}, {"id": 1686615, "name": "Sigma", "country": "PH", "coord": {"lon": 122.666199, "lat": 11.4214}}, {"id": 1686631, "name": "Sigay", "country": "PH", "coord": {"lon": 120.599998, "lat": 17.08333}}, {"id": 1686632, "name": "Sigay", "country": "PH", "coord": {"lon": 120.579437, "lat": 17.04528}}, {"id": 1686636, "name": "Cigaras", "country": "PH", "coord": {"lon": 121.429802, "lat": 14.2266}}, {"id": 1686652, "name": "Sierra Bullones", "country": "PH", "coord": {"lon": 124.292099, "lat": 9.8081}}, {"id": 1686655, "name": "Siempre Viva", "country": "PH", "coord": {"lon": 121.632942, "lat": 17.228741}}, {"id": 1686668, "name": "Sico Uno", "country": "PH", "coord": {"lon": 121.371231, "lat": 13.8301}}, {"id": 1686678, "name": "Siclong", "country": "PH", "coord": {"lon": 121.2239, "lat": 15.5808}}, {"id": 1686712, "name": "Sibutao", "country": "PH", "coord": {"lon": 123.485901, "lat": 8.5916}}, {"id": 1686725, "name": "Sibulan", "country": "PH", "coord": {"lon": 121.933327, "lat": 14.75}}, {"id": 1686732, "name": "Sibulan", "country": "PH", "coord": {"lon": 125.462219, "lat": 6.93361}}, {"id": 1686735, "name": "Sibul", "country": "PH", "coord": {"lon": 121, "lat": 15.8}}, {"id": 1686737, "name": "Sibul", "country": "PH", "coord": {"lon": 121.0616, "lat": 15.169}}, {"id": 1686760, "name": "Sibuco", "country": "PH", "coord": {"lon": 122.065559, "lat": 7.29111}}, {"id": 1686767, "name": "Sibucao", "country": "PH", "coord": {"lon": 122.887001, "lat": 10.4179}}, {"id": 1686777, "name": "Sibonga", "country": "PH", "coord": {"lon": 123.617104, "lat": 10.0168}}, {"id": 1686819, "name": "Sibalom", "country": "PH", "coord": {"lon": 122.017799, "lat": 10.79}}, {"id": 1686840, "name": "Sibaguan", "country": "PH", "coord": {"lon": 122.71389, "lat": 11.55778}}, {"id": 1686847, "name": "Sibagat", "country": "PH", "coord": {"lon": 125.697502, "lat": 8.8225}}, {"id": 1686858, "name": "Siayan", "country": "PH", "coord": {"lon": 123.099998, "lat": 8.26667}}, {"id": 1686862, "name": "Siay", "country": "PH", "coord": {"lon": 122.86306, "lat": 7.69611}}, {"id": 1686868, "name": "Siaton", "country": "PH", "coord": {"lon": 123.033897, "lat": 9.0648}}, {"id": 1686874, "name": "Siasi", "country": "PH", "coord": {"lon": 120.814499, "lat": 5.5462}}, {"id": 1686878, "name": "Siari", "country": "PH", "coord": {"lon": 122.988098, "lat": 8.3245}}, {"id": 1686940, "name": "Sevilla", "country": "PH", "coord": {"lon": 124.048286, "lat": 9.70383}}, {"id": 1686954, "name": "Sergio Osmena Sr", "country": "PH", "coord": {"lon": 123.5, "lat": 8.16667}}, {"id": 1686956, "name": "Seres", "country": "PH", "coord": {"lon": 123.262901, "lat": 8.4803}}, {"id": 1686959, "name": "Salunayan", "country": "PH", "coord": {"lon": 124.497498, "lat": 7.15444}}, {"id": 1686985, "name": "Semut", "country": "PH", "coord": {"lon": 122.218887, "lat": 6.66361}}, {"id": 1686992, "name": "Semirara", "country": "PH", "coord": {"lon": 121.398613, "lat": 12.06967}}, {"id": 1687014, "name": "Siguinon", "country": "PH", "coord": {"lon": 124.680603, "lat": 10.9423}}, {"id": 1687038, "name": "Sebaste", "country": "PH", "coord": {"lon": 122.094498, "lat": 11.5901}}, {"id": 1687039, "name": "Sebaste", "country": "PH", "coord": {"lon": 122.656998, "lat": 10.4963}}, {"id": 1687058, "name": "Saysain", "country": "PH", "coord": {"lon": 120.392502, "lat": 14.56111}}, {"id": 1687132, "name": "Satan", "country": "PH", "coord": {"lon": 124.408607, "lat": 6.86306}}, {"id": 1687147, "name": "Sarrat", "country": "PH", "coord": {"lon": 120.647003, "lat": 18.1574}}, {"id": 1687167, "name": "Saraza", "country": "PH", "coord": {"lon": 117.779999, "lat": 8.73556}}, {"id": 1687186, "name": "Sarangani", "country": "PH", "coord": {"lon": 125.463608, "lat": 5.40333}}, {"id": 1687203, "name": "Sapu Padidu", "country": "PH", "coord": {"lon": 125.266937, "lat": 5.91722}}, {"id": 1687206, "name": "Sapol", "country": "PH", "coord": {"lon": 121.189301, "lat": 13.365}}, {"id": 1687238, "name": "Sapian", "country": "PH", "coord": {"lon": 122.602699, "lat": 11.4943}}, {"id": 1687275, "name": "Sapang Dalaga", "country": "PH", "coord": {"lon": 123.562401, "lat": 8.5399}}, {"id": 1687291, "name": "Sapang Bato", "country": "PH", "coord": {"lon": 121.122223, "lat": 15.59167}}, {"id": 1687302, "name": "Sapang", "country": "PH", "coord": {"lon": 120.524498, "lat": 15.7032}}, {"id": 1687321, "name": "Sapadun", "country": "PH", "coord": {"lon": 124.25, "lat": 7.48333}}, {"id": 1687322, "name": "Sapad", "country": "PH", "coord": {"lon": 123.833328, "lat": 7.85}}, {"id": 1687343, "name": "Sapa", "country": "PH", "coord": {"lon": 120.324097, "lat": 5.1544}}, {"id": 1687383, "name": "San Vicente", "country": "PH", "coord": {"lon": 120.373611, "lat": 17.596939}}, {"id": 1687410, "name": "San Vicente", "country": "PH", "coord": {"lon": 120.818901, "lat": 15.2124}}, {"id": 1687419, "name": "San Vicente", "country": "PH", "coord": {"lon": 120.751671, "lat": 14.94806}}, {"id": 1687428, "name": "San Vicente", "country": "PH", "coord": {"lon": 122.873299, "lat": 14.1061}}, {"id": 1687432, "name": "San Vicente", "country": "PH", "coord": {"lon": 122.204437, "lat": 13.89889}}, {"id": 1687435, "name": "San Vicente", "country": "PH", "coord": {"lon": 123.199997, "lat": 13.7}}, {"id": 1687442, "name": "San Vicente", "country": "PH", "coord": {"lon": 123.053299, "lat": 13.5737}}, {"id": 1687444, "name": "San Vicente", "country": "PH", "coord": {"lon": 123.372902, "lat": 13.4527}}, {"id": 1687445, "name": "San Vicente", "country": "PH", "coord": {"lon": 123.415833, "lat": 13.4025}}, {"id": 1687446, "name": "San Vincente", "country": "PH", "coord": {"lon": 121.175003, "lat": 13.4068}}, {"id": 1687451, "name": "San Vicente", "country": "PH", "coord": {"lon": 123.433403, "lat": 13.2615}}, {"id": 1687457, "name": "San Vicente", "country": "PH", "coord": {"lon": 123.82222, "lat": 12.97806}}, {"id": 1687461, "name": "San Vicente", "country": "PH", "coord": {"lon": 124.099998, "lat": 12.27111}}, {"id": 1687470, "name": "San Vicente", "country": "PH", "coord": {"lon": 124.565697, "lat": 11.1183}}, {"id": 1687474, "name": "San Vicente", "country": "PH", "coord": {"lon": 119.26667, "lat": 10.55}}, {"id": 1687485, "name": "San Vicente", "country": "PH", "coord": {"lon": 125.816673, "lat": 7.83333}}, {"id": 1687486, "name": "San Vicente", "country": "PH", "coord": {"lon": 125.034439, "lat": 7.65111}}, {"id": 1687488, "name": "San Vicente", "country": "PH", "coord": {"lon": 124.794724, "lat": 6.44972}}, {"id": 1687513, "name": "Santo Tomas", "country": "PH", "coord": {"lon": 121.764549, "lat": 17.399719}}, {"id": 1687517, "name": "Santo Tomas", "country": "PH", "coord": {"lon": 120.379204, "lat": 16.2798}}, {"id": 1687522, "name": "Santo Tomas", "country": "PH", "coord": {"lon": 120.950829, "lat": 15.75389}}, {"id": 1687528, "name": "Santo Tomas", "country": "PH", "coord": {"lon": 120.800003, "lat": 15.0333}}, {"id": 1687533, "name": "Santo Tomas", "country": "PH", "coord": {"lon": 121.5, "lat": 14.18333}}, {"id": 1687542, "name": "Santo Tomas", "country": "PH", "coord": {"lon": 125.803886, "lat": 8.18583}}, {"id": 1687543, "name": "Santo Tomas", "country": "PH", "coord": {"lon": 125.623329, "lat": 7.53361}}, {"id": 1687564, "name": "Santo Rosario", "country": "PH", "coord": {"lon": 120.861198, "lat": 15.6447}}, {"id": 1687570, "name": "Santo Rosario", "country": "PH", "coord": {"lon": 120.891296, "lat": 15.434}}, {"id": 1687599, "name": "Santor", "country": "PH", "coord": {"lon": 121.108742, "lat": 14.09549}}, {"id": 1687614, "name": "Santo Nino", "country": "PH", "coord": {"lon": 121.569099, "lat": 17.886101}}, {"id": 1687623, "name": "Santo Nino", "country": "PH", "coord": {"lon": 120.636429, "lat": 15.34036}}, {"id": 1687642, "name": "Santo Nino", "country": "PH", "coord": {"lon": 121.132797, "lat": 13.8489}}, {"id": 1687645, "name": "Santo Nino", "country": "PH", "coord": {"lon": 121.095833, "lat": 13.69972}}, {"id": 1687651, "name": "Santo Nino", "country": "PH", "coord": {"lon": 123.968201, "lat": 13.1043}}, {"id": 1687653, "name": "Santo Nino", "country": "PH", "coord": {"lon": 124.449203, "lat": 11.9263}}, {"id": 1687662, "name": "Santo Nino", "country": "PH", "coord": {"lon": 124.561668, "lat": 11.06306}}, {"id": 1687665, "name": "Santa Nino", "country": "PH", "coord": {"lon": 123.788399, "lat": 10.689}}, {"id": 1687670, "name": "Santo Nino", "country": "PH", "coord": {"lon": 125.625282, "lat": 7.62361}}, {"id": 1687671, "name": "Santo Nino", "country": "PH", "coord": {"lon": 125.705276, "lat": 7.32778}}, {"id": 1687674, "name": "Santo Nino", "country": "PH", "coord": {"lon": 124.697502, "lat": 6.435}}, {"id": 1687685, "name": "Santol", "country": "PH", "coord": {"lon": 120.460403, "lat": 16.771999}}, {"id": 1687702, "name": "Santol", "country": "PH", "coord": {"lon": 122.994698, "lat": 10.1725}}, {"id": 1687713, "name": "Santo Domingo", "country": "PH", "coord": {"lon": 120.410828, "lat": 17.635281}}, {"id": 1687714, "name": "Santo Domingo", "country": "PH", "coord": {"lon": 121.753342, "lat": 17.158239}}, {"id": 1687721, "name": "Santo Domingo", "country": "PH", "coord": {"lon": 120.876999, "lat": 15.5873}}, {"id": 1687724, "name": "Santa Domingo", "country": "PH", "coord": {"lon": 120.761902, "lat": 15.0736}}, {"id": 1687727, "name": "Santo Domingo", "country": "PH", "coord": {"lon": 120.588097, "lat": 14.9541}}, {"id": 1687733, "name": "Santo Domingo", "country": "PH", "coord": {"lon": 122.888298, "lat": 14.1338}}, {"id": 1687738, "name": "Santo Domingo", "country": "PH", "coord": {"lon": 123.166672, "lat": 13.7}}, {"id": 1687742, "name": "Santo Domingo", "country": "PH", "coord": {"lon": 123.43222, "lat": 13.41944}}, {"id": 1687744, "name": "Santo Domingo", "country": "PH", "coord": {"lon": 123.777222, "lat": 13.23528}}, {"id": 1687752, "name": "Santo Cristo", "country": "PH", "coord": {"lon": 120.59333, "lat": 15.33836}}, {"id": 1687753, "name": "Santo Cristo", "country": "PH", "coord": {"lon": 120.884201, "lat": 15.2907}}, {"id": 1687777, "name": "Santa Angel", "country": "PH", "coord": {"lon": 122.6408, "lat": 11.3068}}, {"id": 1687780, "name": "Santisimo Rosario", "country": "PH", "coord": {"lon": 121.30806, "lat": 13.995}}, {"id": 1687800, "name": "Santiago", "country": "PH", "coord": {"lon": 120.444901, "lat": 17.2939}}, {"id": 1687812, "name": "Santiago", "country": "PH", "coord": {"lon": 120.520103, "lat": 14.8995}}, {"id": 1687818, "name": "Santiago", "country": "PH", "coord": {"lon": 121.279442, "lat": 14.01861}}, {"id": 1687825, "name": "Santiago", "country": "PH", "coord": {"lon": 122.911667, "lat": 11.05806}}, {"id": 1687827, "name": "Santiago", "country": "PH", "coord": {"lon": 124.306602, "lat": 10.5897}}, {"id": 1687834, "name": "Santiago", "country": "PH", "coord": {"lon": 126.573334, "lat": 7.28889}}, {"id": 1687838, "name": "San Teodoro", "country": "PH", "coord": {"lon": 121.019302, "lat": 13.4375}}, {"id": 1687847, "name": "Santa Teresita", "country": "PH", "coord": {"lon": 121.912697, "lat": 18.2472}}, {"id": 1687848, "name": "Santa Teresita", "country": "PH", "coord": {"lon": 120.981392, "lat": 13.86639}}, {"id": 1687849, "name": "Santa Teresita", "country": "PH", "coord": {"lon": 123.439438, "lat": 13.48833}}, {"id": 1687855, "name": "Santa Teresa Primera", "country": "PH", "coord": {"lon": 120.556999, "lat": 14.9253}}, {"id": 1687860, "name": "Santa Teresa", "country": "PH", "coord": {"lon": 121.112511, "lat": 12.25186}}, {"id": 1687862, "name": "Santa Teresa", "country": "PH", "coord": {"lon": 122.560402, "lat": 10.58546}}, {"id": 1687868, "name": "Santa Rosa Sur", "country": "PH", "coord": {"lon": 122.723297, "lat": 14.259}}, {"id": 1687874, "name": "Hacienda Santa Rosa", "country": "PH", "coord": {"lon": 123.101196, "lat": 10.57226}}, {"id": 1687888, "name": "Santa Rosa", "country": "PH", "coord": {"lon": 120.937798, "lat": 15.4238}}, {"id": 1687889, "name": "Santa Rosa", "country": "PH", "coord": {"lon": 120.617027, "lat": 15.36756}}, {"id": 1687893, "name": "Santa Rosa", "country": "PH", "coord": {"lon": 120.879311, "lat": 14.42612}}, {"id": 1687898, "name": "Santa Rosa", "country": "PH", "coord": {"lon": 122.366669, "lat": 13.55}}, {"id": 1687929, "name": "Santa Rita", "country": "PH", "coord": {"lon": 120.860802, "lat": 15.6175}}, {"id": 1687936, "name": "Santa Rita", "country": "PH", "coord": {"lon": 120.611702, "lat": 14.9993}}, {"id": 1687938, "name": "Santa Rita", "country": "PH", "coord": {"lon": 120.6968, "lat": 14.9789}}, {"id": 1687943, "name": "Santa Rita", "country": "PH", "coord": {"lon": 124.942497, "lat": 11.4502}}, {"id": 1687956, "name": "Santa Praxedes", "country": "PH", "coord": {"lon": 121, "lat": 18.566669}}, {"id": 1687960, "name": "Santa Paz", "country": "PH", "coord": {"lon": 124.783333, "lat": 10.26667}}, {"id": 1687965, "name": "Santander", "country": "PH", "coord": {"lon": 123.329102, "lat": 9.4156}}, {"id": 1687976, "name": "Santa Monica", "country": "PH", "coord": {"lon": 120.717529, "lat": 15.35786}}, {"id": 1687993, "name": "Santa Monica", "country": "PH", "coord": {"lon": 122.453331, "lat": 10.73639}}, {"id": 1687994, "name": "Santa Monica", "country": "PH", "coord": {"lon": 126.03833, "lat": 10.02}}, {"id": 1688012, "name": "Santa Maria", "country": "PH", "coord": {"lon": 121.661247, "lat": 18.149481}}, {"id": 1688015, "name": "Santa Maria", "country": "PH", "coord": {"lon": 121.75222, "lat": 17.466391}}, {"id": 1688016, "name": "Santa Maria", "country": "PH", "coord": {"lon": 120.480797, "lat": 17.366501}}, {"id": 1688025, "name": "Santa Maria", "country": "PH", "coord": {"lon": 120.700279, "lat": 15.98083}}, {"id": 1688029, "name": "Santa Maria", "country": "PH", "coord": {"lon": 120.4282, "lat": 15.6379}}, {"id": 1688031, "name": "Santa Maria", "country": "PH", "coord": {"lon": 120.792503, "lat": 15.5232}}, {"id": 1688042, "name": "Santa Maria", "country": "PH", "coord": {"lon": 120.963608, "lat": 14.82083}}, {"id": 1688044, "name": "Santa Maria", "country": "PH", "coord": {"lon": 121.428596, "lat": 14.4719}}, {"id": 1688051, "name": "Santa Maria", "country": "PH", "coord": {"lon": 121.460411, "lat": 12.57883}}, {"id": 1688055, "name": "Santa Maria", "country": "PH", "coord": {"lon": 126.162498, "lat": 8.03333}}, {"id": 1688056, "name": "Santa Maria", "country": "PH", "coord": {"lon": 126.445, "lat": 7.99167}}, {"id": 1688066, "name": "Santa Margarita", "country": "PH", "coord": {"lon": 124.657784, "lat": 12.03778}}, {"id": 1688069, "name": "Santa Marcela", "country": "PH", "coord": {"lon": 121.433327, "lat": 18.283331}}, {"id": 1688072, "name": "Santa Magdalena", "country": "PH", "coord": {"lon": 124.109299, "lat": 12.648}}, {"id": 1688088, "name": "Santa Lucia", "country": "PH", "coord": {"lon": 120.772499, "lat": 15.4759}}, {"id": 1688090, "name": "Santa Lucia", "country": "PH", "coord": {"lon": 120.486427, "lat": 15.36806}}, {"id": 1688091, "name": "Santa Lucia", "country": "PH", "coord": {"lon": 121.006104, "lat": 15.2097}}, {"id": 1688107, "name": "Santa Lucia", "country": "PH", "coord": {"lon": 121.433327, "lat": 14.03333}}, {"id": 1688115, "name": "Santa Justina", "country": "PH", "coord": {"lon": 123.473099, "lat": 13.3967}}, {"id": 1688118, "name": "Santa Juliana", "country": "PH", "coord": {"lon": 120.428627, "lat": 15.32826}}, {"id": 1688119, "name": "Santa Josefa", "country": "PH", "coord": {"lon": 126.029999, "lat": 7.99111}}, {"id": 1688136, "name": "Santa Ines West", "country": "PH", "coord": {"lon": 120.465599, "lat": 15.564}}, {"id": 1688145, "name": "Santa Ignacia", "country": "PH", "coord": {"lon": 120.435799, "lat": 15.6169}}, {"id": 1688154, "name": "Santa Filomena", "country": "PH", "coord": {"lon": 123.344627, "lat": 9.75181}}, {"id": 1688161, "name": "Santa Fe", "country": "PH", "coord": {"lon": 120.938103, "lat": 16.1595}}, {"id": 1688162, "name": "Santa Fe", "country": "PH", "coord": {"lon": 120.210197, "lat": 15.0103}}, {"id": 1688164, "name": "Santa Fe", "country": "PH", "coord": {"lon": 121.99411, "lat": 12.15656}}, {"id": 1688169, "name": "Santa Fe", "country": "PH", "coord": {"lon": 124.916107, "lat": 11.18556}}, {"id": 1688170, "name": "Santa Fe", "country": "PH", "coord": {"lon": 124.907784, "lat": 11.14667}}, {"id": 1688171, "name": "Santa Fe", "country": "PH", "coord": {"lon": 123.805801, "lat": 11.1544}}, {"id": 1688172, "name": "Santa Fe", "country": "PH", "coord": {"lon": 124.771942, "lat": 10.2375}}, {"id": 1688175, "name": "Santa Fe", "country": "PH", "coord": {"lon": 124.78083, "lat": 8.3425}}, {"id": 1688185, "name": "Santa Elena", "country": "PH", "coord": {"lon": 122.382462, "lat": 14.17023}}, {"id": 1688217, "name": "Santa Cruz", "country": "PH", "coord": {"lon": 121.310516, "lat": 18.51646}}, {"id": 1688225, "name": "Santa Cruz", "country": "PH", "coord": {"lon": 120.452217, "lat": 17.08556}}, {"id": 1688238, "name": "Santa Cruz", "country": "PH", "coord": {"lon": 120.8517, "lat": 15.3079}}, {"id": 1688257, "name": "Santa Cruz", "country": "PH", "coord": {"lon": 121.283333, "lat": 14.11667}}, {"id": 1688258, "name": "Santa Cruz", "country": "PH", "coord": {"lon": 121.357224, "lat": 14.02056}}, {"id": 1688262, "name": "Santa Cruz", "country": "PH", "coord": {"lon": 121.188698, "lat": 13.865}}, {"id": 1688271, "name": "Santa Cruz", "country": "PH", "coord": {"lon": 122.027496, "lat": 13.4758}}, {"id": 1688275, "name": "Santa Cruz", "country": "PH", "coord": {"lon": 120.722603, "lat": 13.0736}}, {"id": 1688278, "name": "Santa Cruz", "country": "PH", "coord": {"lon": 124.056602, "lat": 12.8763}}, {"id": 1688298, "name": "Santa Cruz", "country": "PH", "coord": {"lon": 124.3386, "lat": 10.6514}}, {"id": 1688299, "name": "Santa Cruz", "country": "PH", "coord": {"lon": 123.0821, "lat": 10.63376}}, {"id": 1688307, "name": "Santa Cruz", "country": "PH", "coord": {"lon": 123.414001, "lat": 10.0068}}, {"id": 1688313, "name": "Santa Cruz", "country": "PH", "coord": {"lon": 123.099167, "lat": 9.5375}}, {"id": 1688321, "name": "Santa Cruz", "country": "PH", "coord": {"lon": 125.413063, "lat": 6.83694}}, {"id": 1688338, "name": "Santa Clara", "country": "PH", "coord": {"lon": 121.060562, "lat": 13.75361}}, {"id": 1688340, "name": "Santa Clara", "country": "PH", "coord": {"lon": 122.059998, "lat": 6.6782}}, {"id": 1688342, "name": "Santa Cecilia", "country": "PH", "coord": {"lon": 122.249718, "lat": 14.10417}}, {"id": 1688343, "name": "Santa Catalina Sur", "country": "PH", "coord": {"lon": 121.43306, "lat": 13.87167}}, {"id": 1688345, "name": "Santa Catalina Norte", "country": "PH", "coord": {"lon": 121.357498, "lat": 13.87083}}, {"id": 1688351, "name": "Santa Catalina", "country": "PH", "coord": {"lon": 120.359169, "lat": 17.59667}}, {"id": 1688359, "name": "Santa Catalina", "country": "PH", "coord": {"lon": 121.34333, "lat": 14.12167}}, {"id": 1688368, "name": "Santa Brigida", "country": "PH", "coord": {"lon": 121.489014, "lat": 12.56783}}, {"id": 1688376, "name": "Santa Barbara", "country": "PH", "coord": {"lon": 120.796898, "lat": 15.3859}}, {"id": 1688382, "name": "Santa Barbara", "country": "PH", "coord": {"lon": 122.534439, "lat": 10.82306}}, {"id": 1688393, "name": "Santa Ana", "country": "PH", "coord": {"lon": 122.147751, "lat": 18.46986}}, {"id": 1688411, "name": "Santa Ana", "country": "PH", "coord": {"lon": 125.564438, "lat": 9.19278}}, {"id": 1688414, "name": "Santa Ana", "country": "PH", "coord": {"lon": 124.783333, "lat": 8.51667}}, {"id": 1688420, "name": "Santa", "country": "PH", "coord": {"lon": 120.434799, "lat": 17.486}}, {"id": 1688432, "name": "San Sebastian", "country": "PH", "coord": {"lon": 120.363609, "lat": 17.62583}}, {"id": 1688438, "name": "San Sebastian", "country": "PH", "coord": {"lon": 123.593903, "lat": 13.7283}}, {"id": 1688440, "name": "San Sebastian", "country": "PH", "coord": {"lon": 125.018059, "lat": 11.71}}, {"id": 1688456, "name": "San Roque Dau", "country": "PH", "coord": {"lon": 120.574097, "lat": 14.9784}}, {"id": 1688462, "name": "San Roque", "country": "PH", "coord": {"lon": 123.754173, "lat": 13.15472}}, {"id": 1688480, "name": "San Roque", "country": "PH", "coord": {"lon": 120.651833, "lat": 15.26146}}, {"id": 1688488, "name": "San Roque", "country": "PH", "coord": {"lon": 120.933701, "lat": 15.011}}, {"id": 1688537, "name": "San Roque", "country": "PH", "coord": {"lon": 123.742203, "lat": 13.2837}}, {"id": 1688543, "name": "San Roque", "country": "PH", "coord": {"lon": 124.0839, "lat": 12.7393}}, {"id": 1688545, "name": "San Roque", "country": "PH", "coord": {"lon": 124.866669, "lat": 12.53333}}, {"id": 1688556, "name": "San Roque", "country": "PH", "coord": {"lon": 125.01667, "lat": 11.05}}, {"id": 1688566, "name": "San Roque", "country": "PH", "coord": {"lon": 123.744102, "lat": 10.6043}}, {"id": 1688588, "name": "San Roque", "country": "PH", "coord": {"lon": 124.322617, "lat": 10.0919}}, {"id": 1688590, "name": "San Ricardo", "country": "PH", "coord": {"lon": 120.972702, "lat": 15.5959}}, {"id": 1688591, "name": "San Ricardo", "country": "PH", "coord": {"lon": 125.276703, "lat": 9.9128}}, {"id": 1688594, "name": "San Remigio", "country": "PH", "coord": {"lon": 123.938103, "lat": 11.0809}}, {"id": 1688595, "name": "San Remigio", "country": "PH", "coord": {"lon": 122.087502, "lat": 10.83278}}, {"id": 1688607, "name": "San Ramon", "country": "PH", "coord": {"lon": 120.707603, "lat": 17.4135}}, {"id": 1688610, "name": "San Ramon", "country": "PH", "coord": {"lon": 123.540001, "lat": 13.7221}}, {"id": 1688611, "name": "San Ramon", "country": "PH", "coord": {"lon": 123.0383, "lat": 13.6181}}, {"id": 1688642, "name": "San Rafael", "country": "PH", "coord": {"lon": 120.962219, "lat": 14.94833}}, {"id": 1688643, "name": "San Rafael", "country": "PH", "coord": {"lon": 120.694504, "lat": 14.9056}}, {"id": 1688653, "name": "San Rafael", "country": "PH", "coord": {"lon": 121.414703, "lat": 14.1284}}, {"id": 1688665, "name": "San Rafael", "country": "PH", "coord": {"lon": 123.599998, "lat": 13.21667}}, {"id": 1688666, "name": "San Rafael", "country": "PH", "coord": {"lon": 122.959999, "lat": 13.09417}}, {"id": 1688670, "name": "San Rafael", "country": "PH", "coord": {"lon": 123.682297, "lat": 12.8905}}, {"id": 1688674, "name": "San Rafael", "country": "PH", "coord": {"lon": 122.827301, "lat": 11.1781}}, {"id": 1688682, "name": "San Rafael", "country": "PH", "coord": {"lon": 126.455833, "lat": 7.76389}}, {"id": 1688687, "name": "San Quintin", "country": "PH", "coord": {"lon": 120.519897, "lat": 17.5424}}, {"id": 1688688, "name": "San Quintin", "country": "PH", "coord": {"lon": 120.813202, "lat": 15.9854}}, {"id": 1688692, "name": "Songuil", "country": "PH", "coord": {"lon": 120.389801, "lat": 15.9883}}, {"id": 1688696, "name": "San Policarpo", "country": "PH", "coord": {"lon": 125.507202, "lat": 12.1791}}, {"id": 1688697, "name": "San Policarpio", "country": "PH", "coord": {"lon": 124.5625, "lat": 12.0675}}, {"id": 1688715, "name": "San Pedro Apartado", "country": "PH", "coord": {"lon": 120.566109, "lat": 15.83528}}, {"id": 1688725, "name": "San Pedro", "country": "PH", "coord": {"lon": 121.883331, "lat": 17.200001}}, {"id": 1688754, "name": "San Pedro One", "country": "PH", "coord": {"lon": 121.145363, "lat": 14.05341}}, {"id": 1688761, "name": "San Pedro", "country": "PH", "coord": {"lon": 121.010406, "lat": 12.46084}}, {"id": 1688762, "name": "San Pedro", "country": "PH", "coord": {"lon": 124, "lat": 12.01667}}, {"id": 1688774, "name": "San Pedro", "country": "PH", "coord": {"lon": 124.819702, "lat": 10.961}}, {"id": 1688776, "name": "San Pedro", "country": "PH", "coord": {"lon": 121.949898, "lat": 10.8018}}, {"id": 1688780, "name": "San Pedro", "country": "PH", "coord": {"lon": 126.517502, "lat": 7.34194}}, {"id": 1688786, "name": "San Patricio", "country": "PH", "coord": {"lon": 120.7295, "lat": 15.0953}}, {"id": 1688789, "name": "Lloren", "country": "PH", "coord": {"lon": 120.432899, "lat": 16.333099}}, {"id": 1688797, "name": "San Pascual", "country": "PH", "coord": {"lon": 122.979172, "lat": 13.12972}}, {"id": 1688800, "name": "San Pascual", "country": "PH", "coord": {"lon": 124.428703, "lat": 9.9538}}, {"id": 1688838, "name": "San Pablo", "country": "PH", "coord": {"lon": 123.1418, "lat": 10.91234}}, {"id": 1688844, "name": "San Pablo", "country": "PH", "coord": {"lon": 123.460831, "lat": 7.65639}}, {"id": 1688860, "name": "San Nicolas", "country": "PH", "coord": {"lon": 120.633331, "lat": 18.15}}, {"id": 1688864, "name": "San Nicolas", "country": "PH", "coord": {"lon": 120.762398, "lat": 16.070299}}, {"id": 1688868, "name": "San Nicolas", "country": "PH", "coord": {"lon": 120.676498, "lat": 15.5841}}, {"id": 1688874, "name": "San Nicolas", "country": "PH", "coord": {"lon": 120.7938, "lat": 15.0427}}, {"id": 1688880, "name": "San Nicolas", "country": "PH", "coord": {"lon": 120.077026, "lat": 14.94909}}, {"id": 1688887, "name": "San Nicolas", "country": "PH", "coord": {"lon": 120.950996, "lat": 13.92825}}, {"id": 1688899, "name": "San Nicolas", "country": "PH", "coord": {"lon": 122.518402, "lat": 11.3213}}, {"id": 1688901, "name": "San Nicolas", "country": "PH", "coord": {"lon": 122.49556, "lat": 10.68444}}, {"id": 1688913, "name": "San Narciso", "country": "PH", "coord": {"lon": 122.565002, "lat": 13.57028}}, {"id": 1688965, "name": "San Miguel", "country": "PH", "coord": {"lon": 121.373199, "lat": 14.2013}}, {"id": 1688975, "name": "San Miguel", "country": "PH", "coord": {"lon": 121.198303, "lat": 13.874}}, {"id": 1688979, "name": "San Miguel", "country": "PH", "coord": {"lon": 124.302597, "lat": 13.6414}}, {"id": 1688983, "name": "San Miguel", "country": "PH", "coord": {"lon": 123.400002, "lat": 13.41667}}, {"id": 1688991, "name": "San Miguel", "country": "PH", "coord": {"lon": 124.832497, "lat": 11.26722}}, {"id": 1688993, "name": "San Miguel", "country": "PH", "coord": {"lon": 122.542503, "lat": 11.2146}}, {"id": 1688998, "name": "San Miguel", "country": "PH", "coord": {"lon": 122.465561, "lat": 10.78}}, {"id": 1689002, "name": "San Miguel", "country": "PH", "coord": {"lon": 122.589897, "lat": 10.59606}}, {"id": 1689004, "name": "San Miguel", "country": "PH", "coord": {"lon": 123.084167, "lat": 10.54194}}, {"id": 1689005, "name": "San Miguel", "country": "PH", "coord": {"lon": 123.024719, "lat": 10.415}}, {"id": 1689010, "name": "San Miguel", "country": "PH", "coord": {"lon": 124.341103, "lat": 9.9869}}, {"id": 1689012, "name": "San Miguel", "country": "PH", "coord": {"lon": 124.326401, "lat": 9.8851}}, {"id": 1689016, "name": "San Miguel", "country": "PH", "coord": {"lon": 123.285301, "lat": 9.2239}}, {"id": 1689018, "name": "San Miguel", "country": "PH", "coord": {"lon": 125.945, "lat": 8.96889}}, {"id": 1689020, "name": "San Miguel", "country": "PH", "coord": {"lon": 124.753891, "lat": 8.03}}, {"id": 1689021, "name": "San Miguel", "country": "PH", "coord": {"lon": 123.267502, "lat": 7.64833}}, {"id": 1689023, "name": "San Miguel", "country": "PH", "coord": {"lon": 125.676392, "lat": 7.485}}, {"id": 1689026, "name": "San Miguel", "country": "PH", "coord": {"lon": 124.695282, "lat": 6.48944}}, {"id": 1689054, "name": "San Mateo", "country": "PH", "coord": {"lon": 120.798302, "lat": 15.2062}}, {"id": 1689078, "name": "San Martin", "country": "PH", "coord": {"lon": 124.771393, "lat": 8.56111}}, {"id": 1689080, "name": "San Mariano", "country": "PH", "coord": {"lon": 122.014038, "lat": 16.982651}}, {"id": 1689084, "name": "San Mariano", "country": "PH", "coord": {"lon": 120.870201, "lat": 15.3208}}, {"id": 1689086, "name": "San Mariano", "country": "PH", "coord": {"lon": 121.437912, "lat": 12.64143}}, {"id": 1689106, "name": "San Manuel", "country": "PH", "coord": {"lon": 121.635742, "lat": 17.02375}}, {"id": 1689107, "name": "San Manuel", "country": "PH", "coord": {"lon": 120.668701, "lat": 16.064699}}, {"id": 1689108, "name": "San Manuel", "country": "PH", "coord": {"lon": 120.608612, "lat": 15.79917}}, {"id": 1689111, "name": "San Manuel", "country": "PH", "coord": {"lon": 120.665001, "lat": 15.49028}}, {"id": 1689123, "name": "San Luis", "country": "PH", "coord": {"lon": 121.831108, "lat": 16.967501}}, {"id": 1689127, "name": "San Luis", "country": "PH", "coord": {"lon": 121.5205, "lat": 15.7208}}, {"id": 1689134, "name": "San Luis", "country": "PH", "coord": {"lon": 120.916527, "lat": 13.85469}}, {"id": 1689144, "name": "San Luis", "country": "PH", "coord": {"lon": 125.743889, "lat": 8.47806}}, {"id": 1689145, "name": "San Luis", "country": "PH", "coord": {"lon": 125, "lat": 8.48333}}, {"id": 1689146, "name": "San Luis", "country": "PH", "coord": {"lon": 126.551109, "lat": 7.44139}}, {"id": 1689154, "name": "San Lucas", "country": "PH", "coord": {"lon": 123.203201, "lat": 13.7062}}, {"id": 1689159, "name": "San Lorenzo", "country": "PH", "coord": {"lon": 120.630501, "lat": 18.132299}}, {"id": 1689160, "name": "San Lorenzo", "country": "PH", "coord": {"lon": 119.962196, "lat": 15.4862}}, {"id": 1689168, "name": "Sanlibo", "country": "PH", "coord": {"lon": 120.550003, "lat": 15.91667}}, {"id": 1689177, "name": "Sankanan", "country": "PH", "coord": {"lon": 124.858063, "lat": 8.31556}}, {"id": 1689191, "name": "San Julian", "country": "PH", "coord": {"lon": 125.455833, "lat": 11.75361}}, {"id": 1689220, "name": "San Juan de Mata", "country": "PH", "coord": {"lon": 120.529167, "lat": 15.53556}}, {"id": 1689236, "name": "San Juan", "country": "PH", "coord": {"lon": 120.458328, "lat": 17.74222}}, {"id": 1689237, "name": "San Juan", "country": "PH", "coord": {"lon": 120.732399, "lat": 17.682899}}, {"id": 1689238, "name": "San Juan", "country": "PH", "coord": {"lon": 121.747452, "lat": 17.405621}}, {"id": 1689249, "name": "San Juan", "country": "PH", "coord": {"lon": 120.341393, "lat": 16.66861}}, {"id": 1689268, "name": "San Juan", "country": "PH", "coord": {"lon": 120.064796, "lat": 15.2897}}, {"id": 1689276, "name": "San Juan", "country": "PH", "coord": {"lon": 120.672997, "lat": 15.0191}}, {"id": 1689299, "name": "San Juan", "country": "PH", "coord": {"lon": 121.229309, "lat": 14.05715}}, {"id": 1689308, "name": "San Juan", "country": "PH", "coord": {"lon": 122.58139, "lat": 13.52361}}, {"id": 1689332, "name": "San Juan", "country": "PH", "coord": {"lon": 124.539169, "lat": 11.00056}}, {"id": 1689341, "name": "San Juan", "country": "PH", "coord": {"lon": 122.865097, "lat": 10.3865}}, {"id": 1689344, "name": "San Juan", "country": "PH", "coord": {"lon": 125.17556, "lat": 10.26694}}, {"id": 1689350, "name": "San Juan", "country": "PH", "coord": {"lon": 123.492599, "lat": 9.1603}}, {"id": 1689383, "name": "Malino", "country": "PH", "coord": {"lon": 120.672699, "lat": 15.1257}}, {"id": 1689399, "name": "San Jose de Buan", "country": "PH", "coord": {"lon": 125.025101, "lat": 12.0529}}, {"id": 1689413, "name": "San Jose", "country": "PH", "coord": {"lon": 121.871246, "lat": 17.892691}}, {"id": 1689416, "name": "San Jose", "country": "PH", "coord": {"lon": 121.599998, "lat": 17.15}}, {"id": 1689433, "name": "Tabaco", "country": "PH", "coord": {"lon": 120.934898, "lat": 15.6414}}, {"id": 1689448, "name": "San Jose", "country": "PH", "coord": {"lon": 120.783302, "lat": 15.0333}}, {"id": 1689485, "name": "San Jose", "country": "PH", "coord": {"lon": 121.1045, "lat": 13.8784}}, {"id": 1689486, "name": "San Jose", "country": "PH", "coord": {"lon": 120.949509, "lat": 13.85209}}, {"id": 1689488, "name": "San Jose", "country": "PH", "coord": {"lon": 123.517799, "lat": 13.6993}}, {"id": 1689501, "name": "San Jose", "country": "PH", "coord": {"lon": 123.371361, "lat": 13.24629}}, {"id": 1689507, "name": "San Jose", "country": "PH", "coord": {"lon": 124.487503, "lat": 12.5296}}, {"id": 1689515, "name": "Agcogon", "country": "PH", "coord": {"lon": 121.959106, "lat": 12.06146}}, {"id": 1689532, "name": "San Jose", "country": "PH", "coord": {"lon": 125.035278, "lat": 10.98889}}, {"id": 1689538, "name": "San Jose", "country": "PH", "coord": {"lon": 122.53389, "lat": 10.77028}}, {"id": 1689554, "name": "San Jose", "country": "PH", "coord": {"lon": 118.756943, "lat": 9.80056}}, {"id": 1689557, "name": "San Jose", "country": "PH", "coord": {"lon": 123.23806, "lat": 9.41194}}, {"id": 1689562, "name": "San Jose", "country": "PH", "coord": {"lon": 125.070282, "lat": 7.73667}}, {"id": 1689578, "name": "San Jorge", "country": "PH", "coord": {"lon": 124.823891, "lat": 11.98083}}, {"id": 1689589, "name": "San Joaquin", "country": "PH", "coord": {"lon": 121.218643, "lat": 14.04695}}, {"id": 1689593, "name": "San Joaquin", "country": "PH", "coord": {"lon": 124.431938, "lat": 12.16639}}, {"id": 1689597, "name": "San Joaquin", "country": "PH", "coord": {"lon": 122.139702, "lat": 10.588}}, {"id": 1689603, "name": "San Jacinto", "country": "PH", "coord": {"lon": 120.438301, "lat": 16.072599}}, {"id": 1689605, "name": "San Jacinto", "country": "PH", "coord": {"lon": 120.666397, "lat": 15.5446}}, {"id": 1689607, "name": "San Jacinto", "country": "PH", "coord": {"lon": 123.733704, "lat": 12.5677}}, {"id": 1689609, "name": "Catigbian", "country": "PH", "coord": {"lon": 123.999397, "lat": 9.8501}}, {"id": 1689623, "name": "San Isidro Laug", "country": "PH", "coord": {"lon": 120.7509, "lat": 15.0471}}, {"id": 1689635, "name": "San Isidro", "country": "PH", "coord": {"lon": 120.6035, "lat": 17.465}}, {"id": 1689639, "name": "San Isidro", "country": "PH", "coord": {"lon": 121.616669, "lat": 16.73333}}, {"id": 1689655, "name": "San Isidro", "country": "PH", "coord": {"lon": 120.640503, "lat": 15.235}}, {"id": 1689663, "name": "San Isidro", "country": "PH", "coord": {"lon": 120.817497, "lat": 15.0199}}, {"id": 1689682, "name": "San Isidro", "country": "PH", "coord": {"lon": 121.3983, "lat": 14.2086}}, {"id": 1689693, "name": "San Isidro", "country": "PH", "coord": {"lon": 121.109497, "lat": 14.03353}}, {"id": 1689704, "name": "San Isidro", "country": "PH", "coord": {"lon": 121.230797, "lat": 13.7686}}, {"id": 1689714, "name": "San Isidro", "country": "PH", "coord": {"lon": 122.242783, "lat": 13.6325}}, {"id": 1689732, "name": "San Isidro", "country": "PH", "coord": {"lon": 123.857224, "lat": 12.97417}}, {"id": 1689740, "name": "San Isidro", "country": "PH", "coord": {"lon": 124.33139, "lat": 12.38806}}, {"id": 1689750, "name": "San Isidro", "country": "PH", "coord": {"lon": 124.352097, "lat": 11.4062}}, {"id": 1689761, "name": "San Isidro", "country": "PH", "coord": {"lon": 124.430397, "lat": 10.9629}}, {"id": 1689773, "name": "San Isidro", "country": "PH", "coord": {"lon": 123.733498, "lat": 10.5508}}, {"id": 1689786, "name": "San Isidro", "country": "PH", "coord": {"lon": 126.088608, "lat": 9.93694}}, {"id": 1689787, "name": "San Isidro", "country": "PH", "coord": {"lon": 123.883331, "lat": 9.91667}}, {"id": 1689789, "name": "San Isidro", "country": "PH", "coord": {"lon": 123.9617, "lat": 9.8075}}, {"id": 1689790, "name": "San Isidro", "country": "PH", "coord": {"lon": 124.252701, "lat": 9.7712}}, {"id": 1689800, "name": "San Isidro", "country": "PH", "coord": {"lon": 124.593063, "lat": 8.25833}}, {"id": 1689811, "name": "Batobato", "country": "PH", "coord": {"lon": 126.084579, "lat": 6.82522}}, {"id": 1689830, "name": "San Ildefonso", "country": "PH", "coord": {"lon": 120.396667, "lat": 17.622219}}, {"id": 1689846, "name": "San Ignacio", "country": "PH", "coord": {"lon": 126.48838, "lat": 7.1189}}, {"id": 1689852, "name": "San Guillermo", "country": "PH", "coord": {"lon": 121.809799, "lat": 16.725401}}, {"id": 1689867, "name": "San Gregorio", "country": "PH", "coord": {"lon": 121.263901, "lat": 14.0297}}, {"id": 1689893, "name": "Sanghan", "country": "PH", "coord": {"lon": 125.572777, "lat": 9.08556}}, {"id": 1689911, "name": "Sangay", "country": "PH", "coord": {"lon": 124.044441, "lat": 6.445}}, {"id": 1689916, "name": "Sangat", "country": "PH", "coord": {"lon": 123.689598, "lat": 10.136}}, {"id": 1689930, "name": "San Gabriel", "country": "PH", "coord": {"lon": 120.403061, "lat": 16.67556}}, {"id": 1689931, "name": "San Gabriel", "country": "PH", "coord": {"lon": 120.464401, "lat": 15.7634}}, {"id": 1689939, "name": "San Gabriel", "country": "PH", "coord": {"lon": 123.099998, "lat": 13.56667}}, {"id": 1689954, "name": "Del Monte", "country": "PH", "coord": {"lon": 121.0177, "lat": 14.6418}}, {"id": 1689969, "name": "San Francisco", "country": "PH", "coord": {"lon": 120.436798, "lat": 15.6287}}, {"id": 1689979, "name": "San Francisco", "country": "PH", "coord": {"lon": 120.555161, "lat": 14.95676}}, {"id": 1689988, "name": "San Francisco", "country": "PH", "coord": {"lon": 121.248062, "lat": 13.89806}}, {"id": 1689989, "name": "San Francisco", "country": "PH", "coord": {"lon": 122.300003, "lat": 13.78333}}, {"id": 1689996, "name": "San Francisco", "country": "PH", "coord": {"lon": 123.75, "lat": 13.31667}}, {"id": 1689997, "name": "San Francisco", "country": "PH", "coord": {"lon": 123.789169, "lat": 13.03778}}, {"id": 1689999, "name": "San Francisco", "country": "PH", "coord": {"lon": 123.906387, "lat": 12.72472}}, {"id": 1690005, "name": "San Francisco", "country": "PH", "coord": {"lon": 122.050507, "lat": 11.31961}}, {"id": 1690011, "name": "San Francisco", "country": "PH", "coord": {"lon": 124.381599, "lat": 10.6461}}, {"id": 1690014, "name": "San Francisco", "country": "PH", "coord": {"lon": 124.310982, "lat": 10.16018}}, {"id": 1690015, "name": "San Francisco", "country": "PH", "coord": {"lon": 125.160561, "lat": 10.06}}, {"id": 1690016, "name": "San Francisco", "country": "PH", "coord": {"lon": 125.424721, "lat": 9.77694}}, {"id": 1690017, "name": "San Francisco", "country": "PH", "coord": {"lon": 125.485558, "lat": 9.52806}}, {"id": 1690034, "name": "San Fernando", "country": "PH", "coord": {"lon": 121.132401, "lat": 16.3892}}, {"id": 1690043, "name": "San Fernando", "country": "PH", "coord": {"lon": 123.145302, "lat": 13.5656}}, {"id": 1690045, "name": "San Fernando", "country": "PH", "coord": {"lon": 123.762199, "lat": 12.4833}}, {"id": 1690046, "name": "San Fernando", "country": "PH", "coord": {"lon": 122.60041, "lat": 12.30364}}, {"id": 1690050, "name": "San Fernando", "country": "PH", "coord": {"lon": 123.249901, "lat": 11.4585}}, {"id": 1690056, "name": "San Fernando", "country": "PH", "coord": {"lon": 123.07, "lat": 10.71028}}, {"id": 1690082, "name": "San Felipe", "country": "PH", "coord": {"lon": 120.599998, "lat": 15.81667}}, {"id": 1690088, "name": "San Felipe", "country": "PH", "coord": {"lon": 122.929497, "lat": 14.0184}}, {"id": 1690094, "name": "San Fabian", "country": "PH", "coord": {"lon": 120.405602, "lat": 16.1231}}, {"id": 1690095, "name": "San Fabian", "country": "PH", "coord": {"lon": 120.906197, "lat": 15.601}}, {"id": 1690100, "name": "San Eugenio", "country": "PH", "coord": {"lon": 120.357002, "lat": 16.3598}}, {"id": 1690106, "name": "San Esteban", "country": "PH", "coord": {"lon": 120.445099, "lat": 17.329901}}, {"id": 1690117, "name": "San Enrique", "country": "PH", "coord": {"lon": 122.655998, "lat": 11.0712}}, {"id": 1690118, "name": "San Enrique", "country": "PH", "coord": {"lon": 122.717201, "lat": 10.6539}}, {"id": 1690119, "name": "San Enrique", "country": "PH", "coord": {"lon": 122.850403, "lat": 10.4161}}, {"id": 1690122, "name": "San Emilio", "country": "PH", "coord": {"lon": 120.611671, "lat": 17.22611}}, {"id": 1690127, "name": "San Eduardo", "country": "PH", "coord": {"lon": 125.450302, "lat": 12.1679}}, {"id": 1690140, "name": "Sandolot", "country": "PH", "coord": {"lon": 123.01944, "lat": 9.10472}}, {"id": 1690144, "name": "San Dionisio", "country": "PH", "coord": {"lon": 123.096397, "lat": 11.271}}, {"id": 1690158, "name": "San Diego", "country": "PH", "coord": {"lon": 121.486702, "lat": 14.1872}}, {"id": 1690160, "name": "San Diego", "country": "PH", "coord": {"lon": 120.625504, "lat": 14.0422}}, {"id": 1690170, "name": "Sandiat", "country": "PH", "coord": {"lon": 121.66584, "lat": 17.074039}}, {"id": 1690172, "name": "Sandayong Sur", "country": "PH", "coord": {"lon": 123.998894, "lat": 10.49583}}, {"id": 1690183, "name": "San Cristobal", "country": "PH", "coord": {"lon": 120.76667, "lat": 15.56667}}, {"id": 1690191, "name": "San Clemente", "country": "PH", "coord": {"lon": 120.359001, "lat": 15.7124}}, {"id": 1690198, "name": "San Celestio", "country": "PH", "coord": {"lon": 121.236389, "lat": 13.92556}}, {"id": 1690200, "name": "San Casimiro", "country": "PH", "coord": {"lon": 120.78083, "lat": 15.55306}}, {"id": 1690213, "name": "San Carlos", "country": "PH", "coord": {"lon": 120.762703, "lat": 15.0389}}, {"id": 1690214, "name": "San Carlos", "country": "PH", "coord": {"lon": 121.2416, "lat": 13.8422}}, {"id": 1690220, "name": "San Carlos", "country": "PH", "coord": {"lon": 125.077499, "lat": 7.95972}}, {"id": 1690233, "name": "San Bernardino", "country": "PH", "coord": {"lon": 121.753853, "lat": 17.40382}}, {"id": 1690245, "name": "San Benito", "country": "PH", "coord": {"lon": 120.427498, "lat": 14.85083}}, {"id": 1690253, "name": "San Benito", "country": "PH", "coord": {"lon": 126.006943, "lat": 9.95778}}, {"id": 1690257, "name": "San Basilio", "country": "PH", "coord": {"lon": 120.583702, "lat": 15.0335}}, {"id": 1690275, "name": "San Aquilino", "country": "PH", "coord": {"lon": 121.48671, "lat": 12.59743}}, {"id": 1690295, "name": "San Antonio", "country": "PH", "coord": {"lon": 121.792641, "lat": 17.27323}}, {"id": 1690303, "name": "San Antonio", "country": "PH", "coord": {"lon": 121.109169, "lat": 16.350281}}, {"id": 1690314, "name": "San Antonio", "country": "PH", "coord": {"lon": 120.671631, "lat": 15.28636}}, {"id": 1690317, "name": "San Antonio", "country": "PH", "coord": {"lon": 120.688599, "lat": 15.1511}}, {"id": 1690320, "name": "San Antonio", "country": "PH", "coord": {"lon": 120.610901, "lat": 14.9687}}, {"id": 1690321, "name": "San Antonio", "country": "PH", "coord": {"lon": 120.086731, "lat": 14.94659}}, {"id": 1690336, "name": "San Antonio", "country": "PH", "coord": {"lon": 121.5, "lat": 14.2}}, {"id": 1690344, "name": "San Antonio", "country": "PH", "coord": {"lon": 121.284721, "lat": 13.88889}}, {"id": 1690357, "name": "San Antonio", "country": "PH", "coord": {"lon": 123.432503, "lat": 13.35889}}, {"id": 1690370, "name": "San Antonio", "country": "PH", "coord": {"lon": 124.279099, "lat": 12.4129}}, {"id": 1690376, "name": "San Antonio", "country": "PH", "coord": {"lon": 125.010834, "lat": 11.27778}}, {"id": 1690389, "name": "San Antonio", "country": "PH", "coord": {"lon": 122.449997, "lat": 10.8}}, {"id": 1690402, "name": "San Antonio", "country": "PH", "coord": {"lon": 125.739723, "lat": 7.12}}, {"id": 1690409, "name": "San Anton", "country": "PH", "coord": {"lon": 120.919701, "lat": 15.3457}}, {"id": 1690428, "name": "San Andres", "country": "PH", "coord": {"lon": 120.778, "lat": 15.7222}}, {"id": 1690433, "name": "San Andres", "country": "PH", "coord": {"lon": 121.216667, "lat": 14.05}}, {"id": 1690434, "name": "San Andres", "country": "PH", "coord": {"lon": 121.150002, "lat": 14}}, {"id": 1690437, "name": "San Andres", "country": "PH", "coord": {"lon": 124.099998, "lat": 13.6}}, {"id": 1690438, "name": "San Andres", "country": "PH", "coord": {"lon": 122.677498, "lat": 13.32194}}, {"id": 1690439, "name": "San Andres", "country": "PH", "coord": {"lon": 123.779503, "lat": 13.2614}}, {"id": 1690456, "name": "San Alfonso", "country": "PH", "coord": {"lon": 126.42028, "lat": 7.78028}}, {"id": 1690459, "name": "San Alejandro", "country": "PH", "coord": {"lon": 120.8601, "lat": 15.5497}}, {"id": 1690493, "name": "San Agustin", "country": "PH", "coord": {"lon": 120.606003, "lat": 14.9903}}, {"id": 1690499, "name": "San Agustin", "country": "PH", "coord": {"lon": 120.150002, "lat": 14.93333}}, {"id": 1690508, "name": "San Agustin", "country": "PH", "coord": {"lon": 123.264099, "lat": 13.574}}, {"id": 1690511, "name": "San Agustin", "country": "PH", "coord": {"lon": 123.417702, "lat": 13.3263}}, {"id": 1690512, "name": "San Agustin", "country": "PH", "coord": {"lon": 121.304817, "lat": 13.27729}}, {"id": 1690514, "name": "San Agustin", "country": "PH", "coord": {"lon": 122.131393, "lat": 12.56889}}, {"id": 1690516, "name": "San Agustin", "country": "PH", "coord": {"lon": 120.989311, "lat": 12.41984}}, {"id": 1690528, "name": "San Agustin", "country": "PH", "coord": {"lon": 123.783333, "lat": 9.63333}}, {"id": 1690554, "name": "Sampiro", "country": "PH", "coord": {"lon": 121.384171, "lat": 13.78417}}, {"id": 1690563, "name": "Sampao", "country": "PH", "coord": {"lon": 125.66111, "lat": 7.59389}}, {"id": 1690564, "name": "Sampao", "country": "PH", "coord": {"lon": 124.595558, "lat": 6.87667}}, {"id": 1690578, "name": "Sampaloc", "country": "PH", "coord": {"lon": 120.866669, "lat": 15.81667}}, {"id": 1690582, "name": "Sampaloc", "country": "PH", "coord": {"lon": 121.638611, "lat": 14.16083}}, {"id": 1690583, "name": "Sampaloc", "country": "PH", "coord": {"lon": 120.970978, "lat": 14.08776}}, {"id": 1690591, "name": "Sampagar", "country": "PH", "coord": {"lon": 124.955276, "lat": 7.51389}}, {"id": 1690598, "name": "Samon", "country": "PH", "coord": {"lon": 120.655281, "lat": 15.93972}}, {"id": 1690607, "name": "Sambuluan", "country": "PH", "coord": {"lon": 124.699997, "lat": 6.88333}}, {"id": 1690623, "name": "Samboan", "country": "PH", "coord": {"lon": 123.3069, "lat": 9.5276}}, {"id": 1690681, "name": "San Salvador", "country": "PH", "coord": {"lon": 122.835281, "lat": 11.00278}}, {"id": 1690684, "name": "Salvador", "country": "PH", "coord": {"lon": 123.843613, "lat": 7.89528}}, {"id": 1690687, "name": "Salvacion I", "country": "PH", "coord": {"lon": 120.915901, "lat": 15.8396}}, {"id": 1690700, "name": "Salvacion", "country": "PH", "coord": {"lon": 123.473801, "lat": 13.6017}}, {"id": 1690702, "name": "Salvacion", "country": "PH", "coord": {"lon": 123.376503, "lat": 13.4633}}, {"id": 1690710, "name": "Salvacion", "country": "PH", "coord": {"lon": 123.616669, "lat": 13.06667}}, {"id": 1690718, "name": "Salvacion", "country": "PH", "coord": {"lon": 125.039001, "lat": 12.6151}}, {"id": 1690721, "name": "Salvacion", "country": "PH", "coord": {"lon": 119.932808, "lat": 12.13287}}, {"id": 1690729, "name": "Salvacion", "country": "PH", "coord": {"lon": 122.616669, "lat": 10.68333}}, {"id": 1690731, "name": "Salvacion", "country": "PH", "coord": {"lon": 122.533203, "lat": 10.4441}}, {"id": 1690736, "name": "Salvacion", "country": "PH", "coord": {"lon": 126.208061, "lat": 8.71278}}, {"id": 1690737, "name": "Salvacion", "country": "PH", "coord": {"lon": 125.699173, "lat": 8.6775}}, {"id": 1690741, "name": "Salvacion", "country": "PH", "coord": {"lon": 126.133331, "lat": 7.98333}}, {"id": 1690774, "name": "Salug", "country": "PH", "coord": {"lon": 122.783333, "lat": 8.11472}}, {"id": 1690823, "name": "Salogon", "country": "PH", "coord": {"lon": 123.522499, "lat": 13.6586}}, {"id": 1690866, "name": "Salinungan Proper", "country": "PH", "coord": {"lon": 121.61454, "lat": 16.869061}}, {"id": 1690869, "name": "Salingogan", "country": "PH", "coord": {"lon": 123.192299, "lat": 13.4333}}, {"id": 1690880, "name": "Salinas", "country": "PH", "coord": {"lon": 121.018799, "lat": 16.369499}}, {"id": 1690889, "name": "Salimbao", "country": "PH", "coord": {"lon": 124.253326, "lat": 7.2225}}, {"id": 1690891, "name": "Salimbalan", "country": "PH", "coord": {"lon": 124.721939, "lat": 8.27417}}, {"id": 1690908, "name": "Salcedo", "country": "PH", "coord": {"lon": 120.539436, "lat": 17.15472}}, {"id": 1690909, "name": "Salcedo", "country": "PH", "coord": {"lon": 120.599998, "lat": 15.85722}}, {"id": 1690910, "name": "Salcedo", "country": "PH", "coord": {"lon": 121.467422, "lat": 12.81052}}, {"id": 1690912, "name": "Salcedo", "country": "PH", "coord": {"lon": 125.665001, "lat": 11.14694}}, {"id": 1690920, "name": "Salaza", "country": "PH", "coord": {"lon": 119.955299, "lat": 15.4541}}, {"id": 1690934, "name": "Salay", "country": "PH", "coord": {"lon": 124.789169, "lat": 8.85917}}, {"id": 1690937, "name": "Salawagan", "country": "PH", "coord": {"lon": 125.114998, "lat": 7.70528}}, {"id": 1690955, "name": "Salapungan", "country": "PH", "coord": {"lon": 120.929001, "lat": 15.1337}}, {"id": 1690984, "name": "Salamanca", "country": "PH", "coord": {"lon": 123.529999, "lat": 10.74655}}, {"id": 1691045, "name": "Saint Bernard", "country": "PH", "coord": {"lon": 125.183327, "lat": 10.28333}}, {"id": 1691060, "name": "Sagurong", "country": "PH", "coord": {"lon": 122.959396, "lat": 13.7805}}, {"id": 1691061, "name": "Sagunto", "country": "PH", "coord": {"lon": 120.5149, "lat": 16.200701}}, {"id": 1691084, "name": "Saguing", "country": "PH", "coord": {"lon": 125.078056, "lat": 6.98028}}, {"id": 1691086, "name": "Saguiaran", "country": "PH", "coord": {"lon": 124.269997, "lat": 8.03306}}, {"id": 1691090, "name": "Sagud Baley", "country": "PH", "coord": {"lon": 120.390999, "lat": 16.1166}}, {"id": 1691091, "name": "Saguday", "country": "PH", "coord": {"lon": 121.563797, "lat": 16.542801}}, {"id": 1691103, "name": "Sagrada Familia", "country": "PH", "coord": {"lon": 123.397697, "lat": 13.269}}, {"id": 1691106, "name": "Sagrada", "country": "PH", "coord": {"lon": 123.452698, "lat": 13.5301}}, {"id": 1691107, "name": "Sagpon", "country": "PH", "coord": {"lon": 123.73333, "lat": 13.15}}, {"id": 1691123, "name": "Sagnay", "country": "PH", "coord": {"lon": 123.522499, "lat": 13.6029}}, {"id": 1691137, "name": "Sagbayan", "country": "PH", "coord": {"lon": 124.091904, "lat": 9.9144}}, {"id": 1691152, "name": "Sagay", "country": "PH", "coord": {"lon": 124.724297, "lat": 9.1059}}, {"id": 1691166, "name": "Sagasa", "country": "PH", "coord": {"lon": 122.895279, "lat": 10.46917}}, {"id": 1691168, "name": "Sagasa", "country": "PH", "coord": {"lon": 124.574722, "lat": 6.77389}}, {"id": 1691172, "name": "Sagang", "country": "PH", "coord": {"lon": 123.072197, "lat": 10.3612}}, {"id": 1691173, "name": "Susana", "country": "PH", "coord": {"lon": 121.152199, "lat": 15.5689}}, {"id": 1691174, "name": "Sagana", "country": "PH", "coord": {"lon": 121.486717, "lat": 12.72252}}, {"id": 1691184, "name": "Sagada", "country": "PH", "coord": {"lon": 120.899597, "lat": 17.084}}, {"id": 1691193, "name": "Sadsalan", "country": "PH", "coord": {"lon": 124.622223, "lat": 6.82306}}, {"id": 1691194, "name": "Sadsadan", "country": "PH", "coord": {"lon": 120.866699, "lat": 16.9333}}, {"id": 1691210, "name": "Sadanga", "country": "PH", "coord": {"lon": 121.017242, "lat": 17.16514}}, {"id": 1691259, "name": "Sabtang", "country": "PH", "coord": {"lon": 121.871567, "lat": 20.335661}}, {"id": 1691274, "name": "Sablig", "country": "PH", "coord": {"lon": 119.990097, "lat": 16.264299}}, {"id": 1691286, "name": "Sablan", "country": "PH", "coord": {"lon": 120.495399, "lat": 16.493}}, {"id": 1691329, "name": "Sabangan", "country": "PH", "coord": {"lon": 120.923203, "lat": 17.003599}}, {"id": 1691341, "name": "Sabang", "country": "PH", "coord": {"lon": 120.250702, "lat": 14.6951}}, {"id": 1691344, "name": "Sabang", "country": "PH", "coord": {"lon": 120.803612, "lat": 14.30556}}, {"id": 1691346, "name": "Sabang Indan", "country": "PH", "coord": {"lon": 122.9151, "lat": 14.2194}}, {"id": 1691350, "name": "Sabang", "country": "PH", "coord": {"lon": 120.711113, "lat": 14.06333}}, {"id": 1691355, "name": "Sabang", "country": "PH", "coord": {"lon": 123.578102, "lat": 13.7218}}, {"id": 1691360, "name": "Sabang", "country": "PH", "coord": {"lon": 120.973701, "lat": 13.5092}}, {"id": 1691363, "name": "Sabang", "country": "PH", "coord": {"lon": 123.933327, "lat": 12.73333}}, {"id": 1691398, "name": "Saavedra", "country": "PH", "coord": {"lon": 123.371582, "lat": 9.98517}}, {"id": 1691442, "name": "Roxas", "country": "PH", "coord": {"lon": 121.517601, "lat": 12.5835}}, {"id": 1691463, "name": "Rotunda", "country": "PH", "coord": {"lon": 124.889999, "lat": 6.52194}}, {"id": 1691480, "name": "Rosario", "country": "PH", "coord": {"lon": 120.486298, "lat": 16.2304}}, {"id": 1691487, "name": "Rosario", "country": "PH", "coord": {"lon": 121.204781, "lat": 13.84544}}, {"id": 1691488, "name": "Rosario", "country": "PH", "coord": {"lon": 122.283333, "lat": 13.85}}, {"id": 1691489, "name": "Rosario", "country": "PH", "coord": {"lon": 121.203613, "lat": 13.845}}, {"id": 1691491, "name": "Rosario", "country": "PH", "coord": {"lon": 124.425003, "lat": 12.5223}}, {"id": 1691492, "name": "Rosario", "country": "PH", "coord": {"lon": 122.301903, "lat": 11.5832}}, {"id": 1691499, "name": "Rosario", "country": "PH", "coord": {"lon": 126.003326, "lat": 8.38694}}, {"id": 1691509, "name": "Rosales", "country": "PH", "coord": {"lon": 120.632782, "lat": 15.89444}}, {"id": 1691525, "name": "Ronda", "country": "PH", "coord": {"lon": 123.4095, "lat": 9.999}}, {"id": 1691530, "name": "Rominimbang", "country": "PH", "coord": {"lon": 124.300003, "lat": 7.5}}, {"id": 1691561, "name": "Rogongon", "country": "PH", "coord": {"lon": 124.333328, "lat": 8.23333}}, {"id": 1691592, "name": "Rizal", "country": "PH", "coord": {"lon": 121.346603, "lat": 17.8486}}, {"id": 1691594, "name": "Liwan", "country": "PH", "coord": {"lon": 121.632004, "lat": 17.5191}}, {"id": 1691597, "name": "Rizal", "country": "PH", "coord": {"lon": 121.555283, "lat": 16.718611}}, {"id": 1691612, "name": "Rizal", "country": "PH", "coord": {"lon": 121.391296, "lat": 14.1095}}, {"id": 1691614, "name": "Rizal", "country": "PH", "coord": {"lon": 122.283333, "lat": 13.95}}, {"id": 1691618, "name": "Rizal", "country": "PH", "coord": {"lon": 121.158607, "lat": 13.88361}}, {"id": 1691625, "name": "Rizal", "country": "PH", "coord": {"lon": 123.914169, "lat": 12.97722}}, {"id": 1691626, "name": "Rizal", "country": "PH", "coord": {"lon": 124.1343, "lat": 12.8864}}, {"id": 1691629, "name": "Rizal", "country": "PH", "coord": {"lon": 120.966667, "lat": 12.46667}}, {"id": 1691642, "name": "Rizal", "country": "PH", "coord": {"lon": 122.860703, "lat": 11.4454}}, {"id": 1691645, "name": "Rizal", "country": "PH", "coord": {"lon": 124.579437, "lat": 11.17639}}, {"id": 1691654, "name": "Rizal", "country": "PH", "coord": {"lon": 123.421944, "lat": 10.87528}}, {"id": 1691662, "name": "Rizal", "country": "PH", "coord": {"lon": 122.633331, "lat": 10.68333}}, {"id": 1691673, "name": "Rizal", "country": "PH", "coord": {"lon": 125.483887, "lat": 9.78056}}, {"id": 1691674, "name": "Rizal", "country": "PH", "coord": {"lon": 125.398613, "lat": 8.92917}}, {"id": 1691695, "name": "Rissing", "country": "PH", "coord": {"lon": 120.434502, "lat": 16.8752}}, {"id": 1691703, "name": "Rio Tuba", "country": "PH", "coord": {"lon": 117.431686, "lat": 8.50613}}, {"id": 1691712, "name": "Rimus", "country": "PH", "coord": {"lon": 120.396599, "lat": 16.8764}}, {"id": 1691713, "name": "Rimpeso", "country": "PH", "coord": {"lon": 124.100281, "lat": 7.02389}}, {"id": 1691769, "name": "Reina Mercedes", "country": "PH", "coord": {"lon": 121.826637, "lat": 16.985451}}, {"id": 1691779, "name": "Hacienda Refugio", "country": "PH", "coord": {"lon": 123.444504, "lat": 10.52166}}, {"id": 1691803, "name": "Recodo", "country": "PH", "coord": {"lon": 123.736954, "lat": 11.94914}}, {"id": 1691806, "name": "Robonkon", "country": "PH", "coord": {"lon": 123.418701, "lat": 7.7535}}, {"id": 1691811, "name": "Real", "country": "PH", "coord": {"lon": 120.346802, "lat": 15.8085}}, {"id": 1691812, "name": "Real", "country": "PH", "coord": {"lon": 121.604721, "lat": 14.6625}}, {"id": 1691862, "name": "Rapu-Rapu", "country": "PH", "coord": {"lon": 124.125603, "lat": 13.1866}}, {"id": 1691872, "name": "Ransang", "country": "PH", "coord": {"lon": 117.582779, "lat": 8.96028}}, {"id": 1691899, "name": "Ranao", "country": "PH", "coord": {"lon": 119.815498, "lat": 16.2076}}, {"id": 1691903, "name": "Ramos", "country": "PH", "coord": {"lon": 121.61306, "lat": 16.698891}}, {"id": 1691909, "name": "Ramon Magsaysay", "country": "PH", "coord": {"lon": 123.509438, "lat": 8.00194}}, {"id": 1691919, "name": "Ramain", "country": "PH", "coord": {"lon": 124.345284, "lat": 7.97083}}, {"id": 1691929, "name": "Rajal Norte", "country": "PH", "coord": {"lon": 120.871201, "lat": 15.4377}}, {"id": 1691941, "name": "Ragay", "country": "PH", "coord": {"lon": 122.792297, "lat": 13.8183}}, {"id": 1691946, "name": "Ragan Norte", "country": "PH", "coord": {"lon": 121.774239, "lat": 17.32563}}, {"id": 1691948, "name": "Ragandang", "country": "PH", "coord": {"lon": 124.120644, "lat": 6.66386}}, {"id": 1691968, "name": "Quitang", "country": "PH", "coord": {"lon": 123.052902, "lat": 13.5513}}, {"id": 1691973, "name": "Quisao", "country": "PH", "coord": {"lon": 121.334396, "lat": 14.4347}}, {"id": 1691976, "name": "Quirino", "country": "PH", "coord": {"lon": 120.669998, "lat": 17.15556}}, {"id": 1691977, "name": "Quirino", "country": "PH", "coord": {"lon": 121.699997, "lat": 17.133329}}, {"id": 1691995, "name": "Quipot", "country": "PH", "coord": {"lon": 121.315826, "lat": 13.93167}}, {"id": 1691996, "name": "Quipot", "country": "PH", "coord": {"lon": 123, "lat": 11.28333}}, {"id": 1692018, "name": "Quintong", "country": "PH", "coord": {"lon": 120.26722, "lat": 15.99528}}, {"id": 1692032, "name": "Quinipot", "country": "PH", "coord": {"lon": 122.220284, "lat": 7.18028}}, {"id": 1692052, "name": "Kinatakutan", "country": "PH", "coord": {"lon": 122.47583, "lat": 13.9525}}, {"id": 1692063, "name": "Quinarayan", "country": "PH", "coord": {"lon": 120.472198, "lat": 17.444099}}, {"id": 1692066, "name": "Quinapundan", "country": "PH", "coord": {"lon": 125.521942, "lat": 11.15833}}, {"id": 1692100, "name": "Quinagaringan", "country": "PH", "coord": {"lon": 122.585564, "lat": 11.11972}}, {"id": 1692113, "name": "Quinabigan", "country": "PH", "coord": {"lon": 121.478119, "lat": 12.9936}}, {"id": 1692136, "name": "Quilo-quilo", "country": "PH", "coord": {"lon": 121.220901, "lat": 13.8638}}, {"id": 1692147, "name": "Quiling", "country": "PH", "coord": {"lon": 120.543892, "lat": 18.068331}}, {"id": 1692174, "name": "Quibal", "country": "PH", "coord": {"lon": 121.811348, "lat": 17.7159}}, {"id": 1692196, "name": "Quezon", "country": "PH", "coord": {"lon": 121.606537, "lat": 17.31303}}, {"id": 1692197, "name": "Quezon", "country": "PH", "coord": {"lon": 121.26667, "lat": 16.5}}, {"id": 1692201, "name": "Quezon", "country": "PH", "coord": {"lon": 122.182503, "lat": 14.00944}}, {"id": 1692205, "name": "Quezon", "country": "PH", "coord": {"lon": 123.949997, "lat": 12.6}}, {"id": 1692210, "name": "Quezon", "country": "PH", "coord": {"lon": 123.282501, "lat": 10.42917}}, {"id": 1692211, "name": "Quezon", "country": "PH", "coord": {"lon": 118.031387, "lat": 9.24111}}, {"id": 1692287, "name": "Putol", "country": "PH", "coord": {"lon": 120.727501, "lat": 13.9922}}, {"id": 1692291, "name": "Putlod", "country": "PH", "coord": {"lon": 120.8675, "lat": 15.3706}}, {"id": 1692300, "name": "Puting Kahoy", "country": "PH", "coord": {"lon": 121.030998, "lat": 14.2157}}, {"id": 1692302, "name": "Putingkahoy", "country": "PH", "coord": {"lon": 121.32753, "lat": 13.83023}}, {"id": 1692318, "name": "Putiao", "country": "PH", "coord": {"lon": 123.714798, "lat": 13.0195}}, {"id": 1692330, "name": "Putat", "country": "PH", "coord": {"lon": 123.846901, "lat": 10.7858}}, {"id": 1692360, "name": "Puro Pinget", "country": "PH", "coord": {"lon": 120.357224, "lat": 17.68083}}, {"id": 1692364, "name": "Puro", "country": "PH", "coord": {"lon": 123.382698, "lat": 12.4841}}, {"id": 1692367, "name": "Puricay", "country": "PH", "coord": {"lon": 124.069572, "lat": 6.68614}}, {"id": 1692373, "name": "Porais", "country": "PH", "coord": {"lon": 121.042778, "lat": 15.75444}}, {"id": 1692376, "name": "Purac", "country": "PH", "coord": {"lon": 120.016899, "lat": 15.252}}, {"id": 1692377, "name": "Pura", "country": "PH", "coord": {"lon": 120.648003, "lat": 15.6248}}, {"id": 1692398, "name": "Pontian", "country": "PH", "coord": {"lon": 124.900284, "lat": 8.28111}}, {"id": 1692400, "name": "Punta Silum", "country": "PH", "coord": {"lon": 124.26944, "lat": 8.38167}}, {"id": 1692416, "name": "Punta Paddaya", "country": "PH", "coord": {"lon": 121.755051, "lat": 18.318371}}, {"id": 1692419, "name": "Punta", "country": "PH", "coord": {"lon": 121.307404, "lat": 14.2914}}, {"id": 1692424, "name": "Punta", "country": "PH", "coord": {"lon": 122.009697, "lat": 12.2441}}, {"id": 1692429, "name": "Punta", "country": "PH", "coord": {"lon": 125.339996, "lat": 8.98972}}, {"id": 1692444, "name": "Punolu", "country": "PH", "coord": {"lon": 124.583328, "lat": 7.05}}, {"id": 1692460, "name": "Pongol", "country": "PH", "coord": {"lon": 124.748329, "lat": 8.27861}}, {"id": 1692475, "name": "Puncan", "country": "PH", "coord": {"lon": 120.9907, "lat": 15.9071}}, {"id": 1692477, "name": "Punay", "country": "PH", "coord": {"lon": 121.198059, "lat": 5.96139}}, {"id": 1692479, "name": "Punao", "country": "PH", "coord": {"lon": 123.400002, "lat": 10.56667}}, {"id": 1692481, "name": "Punang", "country": "PH", "coord": {"lon": 118.0495, "lat": 9.0169}}, {"id": 1692491, "name": "Pulung Santol", "country": "PH", "coord": {"lon": 120.560501, "lat": 15.0456}}, {"id": 1692493, "name": "Pulungmasle", "country": "PH", "coord": {"lon": 120.5429, "lat": 15.0102}}, {"id": 1692522, "name": "Pulong Sampaloc", "country": "PH", "coord": {"lon": 121.060898, "lat": 14.9611}}, {"id": 1692529, "name": "Pulong Gubat", "country": "PH", "coord": {"lon": 120.900002, "lat": 14.86667}}, {"id": 1692549, "name": "Pulo", "country": "PH", "coord": {"lon": 120.928497, "lat": 15.246}}, {"id": 1692550, "name": "Pulo", "country": "PH", "coord": {"lon": 121.014702, "lat": 14.9622}}, {"id": 1692603, "name": "Pulangbato", "country": "PH", "coord": {"lon": 121.398613, "lat": 13.7475}}, {"id": 1692650, "name": "Pugo", "country": "PH", "coord": {"lon": 120.467003, "lat": 16.3221}}, {"id": 1692688, "name": "Puerto Galera", "country": "PH", "coord": {"lon": 120.954803, "lat": 13.5006}}, {"id": 1692691, "name": "Puerto Bello", "country": "PH", "coord": {"lon": 124.535103, "lat": 10.9733}}, {"id": 1692699, "name": "Puelay", "country": "PH", "coord": {"lon": 120.574173, "lat": 15.885}}, {"id": 1692706, "name": "Pudoc", "country": "PH", "coord": {"lon": 120.4235, "lat": 16.921499}}, {"id": 1692708, "name": "Pudoc North", "country": "PH", "coord": {"lon": 120.370277, "lat": 17.60667}}, {"id": 1692730, "name": "Pualas", "country": "PH", "coord": {"lon": 123.848061, "lat": 8.01722}}, {"id": 1692731, "name": "Pualas", "country": "PH", "coord": {"lon": 124.071053, "lat": 7.81624}}, {"id": 1692746, "name": "Prosperidad", "country": "PH", "coord": {"lon": 123.306389, "lat": 10.51611}}, {"id": 1692754, "name": "Progreso", "country": "PH", "coord": {"lon": 122.085564, "lat": 13.90361}}, {"id": 1692763, "name": "Prinza", "country": "PH", "coord": {"lon": 121.133331, "lat": 14.2}}, {"id": 1692776, "name": "Prieto Diaz", "country": "PH", "coord": {"lon": 124.193893, "lat": 13.04167}}, {"id": 1692780, "name": "President Roxas", "country": "PH", "coord": {"lon": 122.927902, "lat": 11.431}}, {"id": 1692781, "name": "President Roxas", "country": "PH", "coord": {"lon": 125.055832, "lat": 7.15444}}, {"id": 1692784, "name": "President Quirino", "country": "PH", "coord": {"lon": 124.737221, "lat": 6.70389}}, {"id": 1692788, "name": "Pitogo", "country": "PH", "coord": {"lon": 124.553299, "lat": 10.1214}}, {"id": 1692792, "name": "Parabcan", "country": "PH", "coord": {"lon": 123.745003, "lat": 13.7088}}, {"id": 1692795, "name": "Prinza", "country": "PH", "coord": {"lon": 120.654091, "lat": 13.99679}}, {"id": 1692800, "name": "Prado", "country": "PH", "coord": {"lon": 120.517601, "lat": 14.8814}}, {"id": 1692802, "name": "Pozorrubio", "country": "PH", "coord": {"lon": 120.543999, "lat": 16.111}}, {"id": 1692817, "name": "Pototan", "country": "PH", "coord": {"lon": 122.635201, "lat": 10.9437}}, {"id": 1692820, "name": "Potot", "country": "PH", "coord": {"lon": 123.431908, "lat": 12.20345}}, {"id": 1692825, "name": "Patong", "country": "PH", "coord": {"lon": 125.28521, "lat": 12.33643}}, {"id": 1692844, "name": "Potia", "country": "PH", "coord": {"lon": 121.48333, "lat": 16.85}}, {"id": 1692861, "name": "San Vicente", "country": "PH", "coord": {"lon": 122.150352, "lat": 18.50746}}, {"id": 1692871, "name": "Port Barton", "country": "PH", "coord": {"lon": 119.247223, "lat": 10.47556}}, {"id": 1692901, "name": "Poro", "country": "PH", "coord": {"lon": 124.408699, "lat": 10.6292}}, {"id": 1692937, "name": "Poona-Piagapo", "country": "PH", "coord": {"lon": 124.116669, "lat": 8.08333}}, {"id": 1692977, "name": "Pontevedra", "country": "PH", "coord": {"lon": 122.832497, "lat": 11.4812}}, {"id": 1692978, "name": "Pontevedra", "country": "PH", "coord": {"lon": 122.868202, "lat": 10.3746}}, {"id": 1692985, "name": "Ponso", "country": "PH", "coord": {"lon": 123.517097, "lat": 13.291}}, {"id": 1692989, "name": "Ponot", "country": "PH", "coord": {"lon": 123.022202, "lat": 8.452}}, {"id": 1692996, "name": "Ponong", "country": "PH", "coord": {"lon": 122.626099, "lat": 11.0829}}, {"id": 1693018, "name": "Pung-Pang", "country": "PH", "coord": {"lon": 125.463333, "lat": 6.4975}}, {"id": 1693020, "name": "Pantukan", "country": "PH", "coord": {"lon": 125.89917, "lat": 7.16333}}, {"id": 1693047, "name": "Pondaguitan", "country": "PH", "coord": {"lon": 126.17778, "lat": 6.36115}}, {"id": 1693056, "name": "Puloypuloy", "country": "PH", "coord": {"lon": 124.096001, "lat": 6.63517}}, {"id": 1693066, "name": "Polopina", "country": "PH", "coord": {"lon": 123.165901, "lat": 11.2068}}, {"id": 1693069, "name": "Polonoling", "country": "PH", "coord": {"lon": 124.96833, "lat": 6.285}}, {"id": 1693072, "name": "Polong", "country": "PH", "coord": {"lon": 120.4207, "lat": 15.9045}}, {"id": 1693075, "name": "Polong", "country": "PH", "coord": {"lon": 120.200897, "lat": 15.9771}}, {"id": 1693089, "name": "Polo", "country": "PH", "coord": {"lon": 119.94944, "lat": 16.19833}}, {"id": 1693092, "name": "Pulo", "country": "PH", "coord": {"lon": 121.633331, "lat": 14.71667}}, {"id": 1693100, "name": "Polo", "country": "PH", "coord": {"lon": 122.312202, "lat": 11.5844}}, {"id": 1693104, "name": "Polo", "country": "PH", "coord": {"lon": 123.18222, "lat": 9.48222}}, {"id": 1693106, "name": "Polo", "country": "PH", "coord": {"lon": 125.112503, "lat": 6.26472}}, {"id": 1693112, "name": "Polloc", "country": "PH", "coord": {"lon": 124.220833, "lat": 7.35528}}, {"id": 1693125, "name": "Polillo", "country": "PH", "coord": {"lon": 121.939171, "lat": 14.71222}}, {"id": 1693142, "name": "Polange", "country": "PH", "coord": {"lon": 124.631111, "lat": 12.39667}}, {"id": 1693145, "name": "Polanco", "country": "PH", "coord": {"lon": 123.361702, "lat": 8.5329}}, {"id": 1693150, "name": "Polahongon", "country": "PH", "coord": {"lon": 124.969398, "lat": 10.5288}}, {"id": 1693156, "name": "Pola", "country": "PH", "coord": {"lon": 121.441521, "lat": 13.14379}}, {"id": 1693171, "name": "Pagonisili", "country": "PH", "coord": {"lon": 120.258102, "lat": 15.8189}}, {"id": 1693201, "name": "Poctol", "country": "PH", "coord": {"lon": 121.432037, "lat": 13.81952}}, {"id": 1693238, "name": "Plaridel", "country": "PH", "coord": {"lon": 121, "lat": 15.65}}, {"id": 1693243, "name": "Plaridel", "country": "PH", "coord": {"lon": 122.020279, "lat": 13.95111}}, {"id": 1693248, "name": "Plaridel", "country": "PH", "coord": {"lon": 123.491386, "lat": 10.89944}}, {"id": 1693250, "name": "Plaridel", "country": "PH", "coord": {"lon": 124.764503, "lat": 10.5667}}, {"id": 1693253, "name": "Plaridel", "country": "PH", "coord": {"lon": 118.50174, "lat": 9.3786}}, {"id": 1693255, "name": "Plaridel", "country": "PH", "coord": {"lon": 123.710098, "lat": 8.6214}}, {"id": 1693268, "name": "Placer", "country": "PH", "coord": {"lon": 123.918404, "lat": 11.8687}}, {"id": 1693270, "name": "Placer", "country": "PH", "coord": {"lon": 125.602501, "lat": 9.65417}}, {"id": 1693280, "name": "Pitogo", "country": "PH", "coord": {"lon": 121.312149, "lat": 5.88823}}, {"id": 1693303, "name": "Pitogo", "country": "PH", "coord": {"lon": 122.088058, "lat": 13.78472}}, {"id": 1693307, "name": "Pitogo", "country": "PH", "coord": {"lon": 121.090408, "lat": 12.50744}}, {"id": 1693320, "name": "Pitogo", "country": "PH", "coord": {"lon": 123.311096, "lat": 7.4546}}, {"id": 1693394, "name": "Limbuhan", "country": "PH", "coord": {"lon": 124.05011, "lat": 11.88376}}, {"id": 1693396, "name": "Pio Duran", "country": "PH", "coord": {"lon": 123.444962, "lat": 13.02928}}, {"id": 1693406, "name": "Pinukpuk", "country": "PH", "coord": {"lon": 121.400002, "lat": 17.616671}}, {"id": 1693407, "name": "Pinukpuk", "country": "PH", "coord": {"lon": 121.363327, "lat": 17.57222}}, {"id": 1693409, "name": "Pinugay", "country": "PH", "coord": {"lon": 121.262299, "lat": 14.5967}}, {"id": 1693410, "name": "Pintuyan", "country": "PH", "coord": {"lon": 125.249397, "lat": 9.9441}}, {"id": 1693436, "name": "Pinoma", "country": "PH", "coord": {"lon": 121.720833, "lat": 16.876671}}, {"id": 1693440, "name": "Pinokawan", "country": "PH", "coord": {"lon": 123.2939, "lat": 10.34118}}, {"id": 1693461, "name": "Pinit", "country": "PH", "coord": {"lon": 123.414001, "lat": 13.5686}}, {"id": 1693468, "name": "Pinili", "country": "PH", "coord": {"lon": 120.527802, "lat": 17.9517}}, {"id": 1693491, "name": "Pines", "country": "PH", "coord": {"lon": 123.807503, "lat": 8.45222}}, {"id": 1693502, "name": "Pandasan", "country": "PH", "coord": {"lon": 125.8535, "lat": 7.2838}}, {"id": 1693506, "name": "Pindangan Centro", "country": "PH", "coord": {"lon": 120.551392, "lat": 15.86056}}, {"id": 1693510, "name": "Pinayagan Norte", "country": "PH", "coord": {"lon": 123.949997, "lat": 9.93333}}, {"id": 1693529, "name": "Pinaring", "country": "PH", "coord": {"lon": 124.310562, "lat": 7.22889}}, {"id": 1693590, "name": "Pinamopoan", "country": "PH", "coord": {"lon": 124.573891, "lat": 11.31472}}, {"id": 1693603, "name": "Pinambaran", "country": "PH", "coord": {"lon": 120.9785, "lat": 15.2018}}, {"id": 1693641, "name": "Pinahan", "country": "PH", "coord": {"lon": 121.062103, "lat": 15.6266}}, {"id": 1693652, "name": "Pinagsibaan", "country": "PH", "coord": {"lon": 121.321182, "lat": 13.8348}}, {"id": 1693661, "name": "Pinagsabangan", "country": "PH", "coord": {"lon": 121.26812, "lat": 13.26559}}, {"id": 1693721, "name": "Panadtaban", "country": "PH", "coord": {"lon": 124.642776, "lat": 6.90083}}, {"id": 1693742, "name": "Pina", "country": "PH", "coord": {"lon": 122.638199, "lat": 10.63956}}, {"id": 1693749, "name": "Pimbalayan", "country": "PH", "coord": {"lon": 124.672501, "lat": 6.86917}}, {"id": 1693785, "name": "Pilig", "country": "PH", "coord": {"lon": 121.773888, "lat": 17.342779}}, {"id": 1693794, "name": "Pili", "country": "PH", "coord": {"lon": 123.316673, "lat": 13.66667}}, {"id": 1693798, "name": "Pili", "country": "PH", "coord": {"lon": 121.520317, "lat": 13.0664}}, {"id": 1693799, "name": "Pili", "country": "PH", "coord": {"lon": 123.864166, "lat": 12.98056}}, {"id": 1693805, "name": "Pili", "country": "PH", "coord": {"lon": 123.014702, "lat": 11.1196}}, {"id": 1693835, "name": "Pilar", "country": "PH", "coord": {"lon": 120.595398, "lat": 17.4165}}, {"id": 1693840, "name": "Pilar", "country": "PH", "coord": {"lon": 123.672401, "lat": 12.9231}}, {"id": 1693843, "name": "Pilar", "country": "PH", "coord": {"lon": 122.9963, "lat": 11.487}}, {"id": 1693844, "name": "Pilar", "country": "PH", "coord": {"lon": 124.566101, "lat": 10.8065}}, {"id": 1693848, "name": "Pilar", "country": "PH", "coord": {"lon": 126.099442, "lat": 9.865}}, {"id": 1693849, "name": "Pilar", "country": "PH", "coord": {"lon": 124.327301, "lat": 9.829}}, {"id": 1693874, "name": "Pikit", "country": "PH", "coord": {"lon": 124.671944, "lat": 7.05444}}, {"id": 1693902, "name": "Pigkelegan", "country": "PH", "coord": {"lon": 124.324722, "lat": 7.23111}}, {"id": 1693903, "name": "Pigcawayan", "country": "PH", "coord": {"lon": 124.42556, "lat": 7.27722}}, {"id": 1693927, "name": "Pidsandawan", "country": "PH", "coord": {"lon": 124.590828, "lat": 6.93222}}, {"id": 1693935, "name": "Pidigan", "country": "PH", "coord": {"lon": 120.590302, "lat": 17.57}}, {"id": 1693941, "name": "Piddig", "country": "PH", "coord": {"lon": 120.717499, "lat": 18.165501}}, {"id": 1693970, "name": "Piat", "country": "PH", "coord": {"lon": 121.477997, "lat": 17.790501}}, {"id": 1693981, "name": "Pias", "country": "PH", "coord": {"lon": 121.07473, "lat": 15.34526}}, {"id": 1693982, "name": "Pias-Pias", "country": "PH", "coord": {"lon": 120.559898, "lat": 15.0198}}, {"id": 1693987, "name": "Piape I", "country": "PH", "coord": {"lon": 121.972397, "lat": 10.7288}}, {"id": 1694028, "name": "Perrelos", "country": "PH", "coord": {"lon": 123.673798, "lat": 10.1169}}, {"id": 1694045, "name": "Perez", "country": "PH", "coord": {"lon": 121.923058, "lat": 14.195}}, {"id": 1694072, "name": "Penarrubia", "country": "PH", "coord": {"lon": 120.651901, "lat": 17.564699}}, {"id": 1694089, "name": "Penablanca", "country": "PH", "coord": {"lon": 121.786652, "lat": 17.62421}}, {"id": 1694091, "name": "Pina", "country": "PH", "coord": {"lon": 124.403893, "lat": 12.19361}}, {"id": 1694092, "name": "Pena", "country": "PH", "coord": {"lon": 123.9384, "lat": 12.089}}, {"id": 1694114, "name": "Pedtad", "country": "PH", "coord": {"lon": 124.814438, "lat": 7.16056}}, {"id": 1694158, "name": "Paypay", "country": "PH", "coord": {"lon": 123.976196, "lat": 11.2152}}, {"id": 1694167, "name": "Payocpoc Sur", "country": "PH", "coord": {"lon": 120.328056, "lat": 16.49444}}, {"id": 1694199, "name": "Payapa", "country": "PH", "coord": {"lon": 120.892059, "lat": 13.99804}}, {"id": 1694209, "name": "Payao", "country": "PH", "coord": {"lon": 122.949997, "lat": 10.18333}}, {"id": 1694210, "name": "Payao", "country": "PH", "coord": {"lon": 122.80278, "lat": 7.58667}}, {"id": 1694234, "name": "Pawing", "country": "PH", "coord": {"lon": 125.002777, "lat": 11.18}}, {"id": 1694236, "name": "Pawili", "country": "PH", "coord": {"lon": 123.283333, "lat": 13.51667}}, {"id": 1694241, "name": "Pawican", "country": "PH", "coord": {"lon": 123.970596, "lat": 12.0741}}, {"id": 1694250, "name": "Pawak", "country": "PH", "coord": {"lon": 124.25647, "lat": 8.01634}}, {"id": 1694252, "name": "Pawa", "country": "PH", "coord": {"lon": 123.73278, "lat": 13.17472}}, {"id": 1694253, "name": "Pawa", "country": "PH", "coord": {"lon": 123.891502, "lat": 13.1335}}, {"id": 1694258, "name": "Pawa", "country": "PH", "coord": {"lon": 122.81736, "lat": 11.56285}}, {"id": 1694262, "name": "Pavia", "country": "PH", "coord": {"lon": 122.545563, "lat": 10.77611}}, {"id": 1694267, "name": "Paulba", "country": "PH", "coord": {"lon": 123.462517, "lat": 13.17875}}, {"id": 1694286, "name": "Pau", "country": "PH", "coord": {"lon": 120.716667, "lat": 15.03333}}, {"id": 1694297, "name": "Patonan", "country": "PH", "coord": {"lon": 123.472298, "lat": 10.56816}}, {"id": 1694317, "name": "Pattao", "country": "PH", "coord": {"lon": 121.815948, "lat": 18.249269}}, {"id": 1694319, "name": "Patrocinio", "country": "PH", "coord": {"lon": 124.845558, "lat": 8.6125}}, {"id": 1694327, "name": "Patria", "country": "PH", "coord": {"lon": 122.017097, "lat": 11.7403}}, {"id": 1694331, "name": "Patpata Segundo", "country": "PH", "coord": {"lon": 120.433327, "lat": 17.183331}}, {"id": 1694338, "name": "Pato-o", "country": "PH", "coord": {"lon": 122.06472, "lat": 12.43056}}, {"id": 1694365, "name": "Patnongon", "country": "PH", "coord": {"lon": 121.993698, "lat": 10.9132}}, {"id": 1694369, "name": "Patnanungan", "country": "PH", "coord": {"lon": 122.183327, "lat": 14.78333}}, {"id": 1694382, "name": "Patindeguen", "country": "PH", "coord": {"lon": 124.498329, "lat": 7.21972}}, {"id": 1694383, "name": "Patin-ay", "country": "PH", "coord": {"lon": 125.937218, "lat": 8.55056}}, {"id": 1694396, "name": "Patique", "country": "PH", "coord": {"lon": 122.8993, "lat": 10.237}}, {"id": 1694403, "name": "Pateros", "country": "PH", "coord": {"lon": 121.072601, "lat": 14.5391}}, {"id": 1694412, "name": "Patayak", "country": "PH", "coord": {"lon": 120.431801, "lat": 15.963}}, {"id": 1694418, "name": "Patawag", "country": "PH", "coord": {"lon": 122.620827, "lat": 8.10639}}, {"id": 1694432, "name": "Patao", "country": "PH", "coord": {"lon": 123.692497, "lat": 11.2202}}, {"id": 1694475, "name": "Patabog", "country": "PH", "coord": {"lon": 122.456108, "lat": 13.45306}}, {"id": 1694477, "name": "Pata", "country": "PH", "coord": {"lon": 121.501801, "lat": 17.7152}}, {"id": 1694484, "name": "Pasuquin", "country": "PH", "coord": {"lon": 120.617699, "lat": 18.3328}}, {"id": 1694491, "name": "Pastrana", "country": "PH", "coord": {"lon": 124.885559, "lat": 11.13667}}, {"id": 1694514, "name": "Pasong Kawayan I", "country": "PH", "coord": {"lon": 120.870506, "lat": 14.34745}}, {"id": 1694556, "name": "Pasil", "country": "PH", "coord": {"lon": 121.133331, "lat": 17.383329}}, {"id": 1694559, "name": "Pasil", "country": "PH", "coord": {"lon": 122.609802, "lat": 10.8378}}, {"id": 1694579, "name": "Pasig", "country": "PH", "coord": {"lon": 121.064957, "lat": 14.58699}}, {"id": 1694585, "name": "Pasibi West", "country": "PH", "coord": {"lon": 120.368401, "lat": 15.8456}}, {"id": 1694589, "name": "Pasian", "country": "PH", "coord": {"lon": 126.067223, "lat": 7.92806}}, {"id": 1694631, "name": "Pasacao", "country": "PH", "coord": {"lon": 123.042603, "lat": 13.5118}}, {"id": 1694660, "name": "Parista", "country": "PH", "coord": {"lon": 120.9282, "lat": 15.8536}}, {"id": 1694663, "name": "Parioc Segundo", "country": "PH", "coord": {"lon": 120.466667, "lat": 17.16667}}, {"id": 1694667, "name": "Paringao", "country": "PH", "coord": {"lon": 120.324173, "lat": 16.571671}}, {"id": 1694680, "name": "Parian Dakula", "country": "PH", "coord": {"lon": 120.771942, "lat": 5.55667}}, {"id": 1694687, "name": "Parion", "country": "PH", "coord": {"lon": 122.697197, "lat": 11.4748}}, {"id": 1694759, "name": "Parangan", "country": "PH", "coord": {"lon": 119.938332, "lat": 5.08389}}, {"id": 1694767, "name": "Parang", "country": "PH", "coord": {"lon": 120.449303, "lat": 14.6331}}, {"id": 1694773, "name": "Parang", "country": "PH", "coord": {"lon": 125.942078, "lat": 9.28149}}, {"id": 1694776, "name": "Parang", "country": "PH", "coord": {"lon": 120.905602, "lat": 5.9137}}, {"id": 1694792, "name": "Paraiso", "country": "PH", "coord": {"lon": 124.810829, "lat": 6.47361}}, {"id": 1694803, "name": "Paradahan", "country": "PH", "coord": {"lon": 120.860458, "lat": 14.32335}}, {"id": 1694807, "name": "Paracelis", "country": "PH", "coord": {"lon": 121.466667, "lat": 17.26667}}, {"id": 1694812, "name": "Paracale", "country": "PH", "coord": {"lon": 122.788101, "lat": 14.2804}}, {"id": 1694863, "name": "Paulba", "country": "PH", "coord": {"lon": 123.249603, "lat": 13.7136}}, {"id": 1694871, "name": "Paoay", "country": "PH", "coord": {"lon": 120.522102, "lat": 18.0616}}, {"id": 1694895, "name": "Panukulan", "country": "PH", "coord": {"lon": 121.814438, "lat": 14.93333}}, {"id": 1694898, "name": "Panognawan", "country": "PH", "coord": {"lon": 124.004997, "lat": 11.1619}}, {"id": 1694929, "name": "Pantijan No 2", "country": "PH", "coord": {"lon": 120.80056, "lat": 14.23306}}, {"id": 1694941, "name": "Pantay Na Matanda", "country": "PH", "coord": {"lon": 121.121109, "lat": 14.1175}}, {"id": 1694949, "name": "Pantar", "country": "PH", "coord": {"lon": 124.258331, "lat": 8.06611}}, {"id": 1694956, "name": "Pantao-Ragat", "country": "PH", "coord": {"lon": 124.152496, "lat": 8.05667}}, {"id": 1694964, "name": "Pantao", "country": "PH", "coord": {"lon": 123.327103, "lat": 13.1944}}, {"id": 1694988, "name": "Pantabangan", "country": "PH", "coord": {"lon": 121.144302, "lat": 15.8113}}, {"id": 1694992, "name": "Pansoy", "country": "PH", "coord": {"lon": 122.598892, "lat": 13.1825}}, {"id": 1695002, "name": "Pansol", "country": "PH", "coord": {"lon": 121.243202, "lat": 13.8866}}, {"id": 1695053, "name": "Panlinlang", "country": "PH", "coord": {"lon": 120.699997, "lat": 15.18333}}, {"id": 1695065, "name": "Panlaitan", "country": "PH", "coord": {"lon": 119.84861, "lat": 12.11907}}, {"id": 1695082, "name": "Panitan", "country": "PH", "coord": {"lon": 122.772499, "lat": 11.466}}, {"id": 1695083, "name": "Panitian", "country": "PH", "coord": {"lon": 118.086403, "lat": 9.0965}}, {"id": 1695100, "name": "Paniqui", "country": "PH", "coord": {"lon": 123.382103, "lat": 12.4532}}, {"id": 1695107, "name": "Panique", "country": "PH", "coord": {"lon": 122.015282, "lat": 12.47972}}, {"id": 1695137, "name": "Panikihan", "country": "PH", "coord": {"lon": 122.13472, "lat": 13.90278}}, {"id": 1695142, "name": "Panikian", "country": "PH", "coord": {"lon": 125.9338, "lat": 9.32935}}, {"id": 1695144, "name": "Panikian", "country": "PH", "coord": {"lon": 126.024178, "lat": 7.0107}}, {"id": 1695175, "name": "Pangyan", "country": "PH", "coord": {"lon": 125.281113, "lat": 5.70083}}, {"id": 1695180, "name": "Simbahan", "country": "PH", "coord": {"lon": 120.583603, "lat": 6.3032}}, {"id": 1695185, "name": "Pangulayan", "country": "PH", "coord": {"lon": 121.447922, "lat": 13.0398}}, {"id": 1695194, "name": "Panguiranan", "country": "PH", "coord": {"lon": 123.318512, "lat": 12.06986}}, {"id": 1695220, "name": "Pangpang", "country": "PH", "coord": {"lon": 120.309174, "lat": 15.93944}}, {"id": 1695227, "name": "Pangpang", "country": "PH", "coord": {"lon": 125.073997, "lat": 12.5692}}, {"id": 1695250, "name": "Pangobilian", "country": "PH", "coord": {"lon": 117.859444, "lat": 8.80111}}, {"id": 1695262, "name": "Panglao", "country": "PH", "coord": {"lon": 123.745827, "lat": 9.57806}}, {"id": 1695284, "name": "Pangil", "country": "PH", "coord": {"lon": 120.907784, "lat": 14.20102}}, {"id": 1695292, "name": "Pangian", "country": "PH", "coord": {"lon": 125.54528, "lat": 6.46278}}, {"id": 1695324, "name": "Pangdan", "country": "PH", "coord": {"lon": 124.916672, "lat": 11.74444}}, {"id": 1695330, "name": "Pangdan", "country": "PH", "coord": {"lon": 123.7379, "lat": 10.23078}}, {"id": 1695360, "name": "Pangascasan", "country": "PH", "coord": {"lon": 120.086639, "lat": 16.116911}}, {"id": 1695377, "name": "Pangapisan", "country": "PH", "coord": {"lon": 119.984444, "lat": 16.19639}}, {"id": 1695383, "name": "Pangao", "country": "PH", "coord": {"lon": 121.125557, "lat": 13.91722}}, {"id": 1695391, "name": "Pangantocan", "country": "PH", "coord": {"lon": 124.8125, "lat": 7.84722}}, {"id": 1695399, "name": "Panganiban", "country": "PH", "coord": {"lon": 120.7752, "lat": 16.0075}}, {"id": 1695400, "name": "Panganiban", "country": "PH", "coord": {"lon": 124.300301, "lat": 13.9076}}, {"id": 1695427, "name": "Pangal Sur", "country": "PH", "coord": {"lon": 121.663101, "lat": 16.617599}}, {"id": 1695438, "name": "Pangabuan", "country": "PH", "coord": {"lon": 123.695831, "lat": 8.05694}}, {"id": 1695444, "name": "Pang", "country": "PH", "coord": {"lon": 121.2883, "lat": 5.94837}}, {"id": 1695455, "name": "Pando", "country": "PH", "coord": {"lon": 120.684731, "lat": 15.39395}}, {"id": 1695504, "name": "New Pandanon", "country": "PH", "coord": {"lon": 123.147499, "lat": 10.55696}}, {"id": 1695506, "name": "Pandan Niog", "country": "PH", "coord": {"lon": 120.563103, "lat": 6.2282}}, {"id": 1695546, "name": "Pandan", "country": "PH", "coord": {"lon": 124.169403, "lat": 14.0453}}, {"id": 1695547, "name": "Pandan", "country": "PH", "coord": {"lon": 123.081497, "lat": 13.7421}}, {"id": 1695555, "name": "Pandan", "country": "PH", "coord": {"lon": 122.094902, "lat": 11.7195}}, {"id": 1695566, "name": "Pandan", "country": "PH", "coord": {"lon": 124.727798, "lat": 9.2388}}, {"id": 1695594, "name": "Pancol", "country": "PH", "coord": {"lon": 119.415703, "lat": 10.8715}}, {"id": 1695598, "name": "Pance", "country": "PH", "coord": {"lon": 120.620102, "lat": 15.6885}}, {"id": 1695602, "name": "Panaytayon", "country": "PH", "coord": {"lon": 123.98333, "lat": 9.95}}, {"id": 1695614, "name": "Panayacan", "country": "PH", "coord": {"lon": 122.223602, "lat": 11.7603}}, {"id": 1695619, "name": "Panay", "country": "PH", "coord": {"lon": 122.794167, "lat": 11.55778}}, {"id": 1695620, "name": "Pan-an", "country": "PH", "coord": {"lon": 123.840279, "lat": 8.21917}}, {"id": 1695622, "name": "Panay", "country": "PH", "coord": {"lon": 124.638329, "lat": 6.49778}}, {"id": 1695693, "name": "Pananaw", "country": "PH", "coord": {"lon": 121.214722, "lat": 5.98111}}, {"id": 1695702, "name": "Panan", "country": "PH", "coord": {"lon": 120.027199, "lat": 15.2134}}, {"id": 1695728, "name": "Panalo-on", "country": "PH", "coord": {"lon": 123.75, "lat": 7.91667}}, {"id": 1695734, "name": "Panalipan", "country": "PH", "coord": {"lon": 124.021667, "lat": 10.64833}}, {"id": 1695736, "name": "Panalingaan", "country": "PH", "coord": {"lon": 117.423058, "lat": 8.78417}}, {"id": 1695751, "name": "Panacan", "country": "PH", "coord": {"lon": 118.408203, "lat": 9.24627}}, {"id": 1695802, "name": "Panabuan", "country": "PH", "coord": {"lon": 120.9627, "lat": 5.9616}}, {"id": 1695808, "name": "Panabingan", "country": "PH", "coord": {"lon": 120.767502, "lat": 15.3764}}, {"id": 1695830, "name": "Pamplona", "country": "PH", "coord": {"lon": 121.34111, "lat": 18.466391}}, {"id": 1695833, "name": "Pamplona", "country": "PH", "coord": {"lon": 123.081596, "lat": 13.5916}}, {"id": 1695834, "name": "Pamplona", "country": "PH", "coord": {"lon": 123.119202, "lat": 9.4724}}, {"id": 1695887, "name": "Pambujan", "country": "PH", "coord": {"lon": 124.927597, "lat": 12.5642}}, {"id": 1695893, "name": "Pambuhan", "country": "PH", "coord": {"lon": 123.083702, "lat": 13.9736}}, {"id": 1695898, "name": "Pambisan", "country": "PH", "coord": {"lon": 121.412819, "lat": 13.0137}}, {"id": 1695909, "name": "Pamatawan", "country": "PH", "coord": {"lon": 120.213631, "lat": 14.92779}}, {"id": 1695921, "name": "Pamantingan", "country": "PH", "coord": {"lon": 124.458893, "lat": 6.70444}}, {"id": 1695956, "name": "Palusapig", "country": "PH", "coord": {"lon": 120.862778, "lat": 15.68417}}, {"id": 1695982, "name": "Paluan", "country": "PH", "coord": {"lon": 120.462303, "lat": 13.416}}, {"id": 1695994, "name": "Palsong", "country": "PH", "coord": {"lon": 123.296303, "lat": 13.4248}}, {"id": 1696017, "name": "Palompon", "country": "PH", "coord": {"lon": 124.3843, "lat": 11.0508}}, {"id": 1696023, "name": "Palomoc", "country": "PH", "coord": {"lon": 122.582901, "lat": 7.9153}}, {"id": 1696047, "name": "Palma Gil", "country": "PH", "coord": {"lon": 125.629173, "lat": 7.64222}}, {"id": 1696061, "name": "Palkan", "country": "PH", "coord": {"lon": 125.03167, "lat": 6.29639}}, {"id": 1696105, "name": "Palimbang", "country": "PH", "coord": {"lon": 124.189438, "lat": 6.21056}}, {"id": 1696136, "name": "Palian", "country": "PH", "coord": {"lon": 124.910561, "lat": 6.37389}}, {"id": 1696140, "name": "Palhi", "country": "PH", "coord": {"lon": 124.806198, "lat": 10.6498}}, {"id": 1696141, "name": "Palguyod", "country": "PH", "coord": {"lon": 120.519997, "lat": 16.1227}}, {"id": 1696145, "name": "Palestina", "country": "PH", "coord": {"lon": 123.249001, "lat": 13.6117}}, {"id": 1696147, "name": "Paldit", "country": "PH", "coord": {"lon": 120.533333, "lat": 16.16667}}, {"id": 1696188, "name": "Palauig", "country": "PH", "coord": {"lon": 119.904503, "lat": 15.435}}, {"id": 1696217, "name": "Palaroo", "country": "PH", "coord": {"lon": 124.483002, "lat": 11.4056}}, {"id": 1696234, "name": "Palapag", "country": "PH", "coord": {"lon": 125.1147, "lat": 12.5458}}, {"id": 1696256, "name": "Palanit", "country": "PH", "coord": {"lon": 124.343407, "lat": 12.32134}}, {"id": 1696261, "name": "Palangue", "country": "PH", "coord": {"lon": 120.811394, "lat": 14.28417}}, {"id": 1696289, "name": "Palanas", "country": "PH", "coord": {"lon": 123.9216, "lat": 12.1458}}, {"id": 1696312, "name": "Palampas", "country": "PH", "coord": {"lon": 123.404716, "lat": 10.52778}}, {"id": 1696333, "name": "Palali", "country": "PH", "coord": {"lon": 122.48571, "lat": 14.30622}}, {"id": 1696354, "name": "Palahanan Uno", "country": "PH", "coord": {"lon": 121.356392, "lat": 13.83113}}, {"id": 1696360, "name": "Palagao Norte", "country": "PH", "coord": {"lon": 121.699051, "lat": 18.04319}}, {"id": 1696368, "name": "Palacpalac", "country": "PH", "coord": {"lon": 120.530502, "lat": 16.131201}}, {"id": 1696395, "name": "Pakil", "country": "PH", "coord": {"lon": 121.4786, "lat": 14.3835}}, {"id": 1696398, "name": "Pakiad", "country": "PH", "coord": {"lon": 122.52417, "lat": 10.71278}}, {"id": 1696416, "name": "Pajo", "country": "PH", "coord": {"lon": 124.013802, "lat": 11.2306}}, {"id": 1696428, "name": "Paitan Este", "country": "PH", "coord": {"lon": 120.031639, "lat": 16.08532}}, {"id": 1696431, "name": "Paitan Norte", "country": "PH", "coord": {"lon": 120.73333, "lat": 15.83333}}, {"id": 1696437, "name": "Paitan", "country": "PH", "coord": {"lon": 124.871391, "lat": 6.65972}}, {"id": 1696448, "name": "Paiisa", "country": "PH", "coord": {"lon": 121.35611, "lat": 13.925}}, {"id": 1696482, "name": "Pagudpud", "country": "PH", "coord": {"lon": 120.786797, "lat": 18.5616}}, {"id": 1696505, "name": "Pagsanjan", "country": "PH", "coord": {"lon": 121.4552, "lat": 14.2732}}, {"id": 1696512, "name": "Pagsanghan", "country": "PH", "coord": {"lon": 124.721199, "lat": 11.9657}}, {"id": 1696524, "name": "Pagsangahan", "country": "PH", "coord": {"lon": 122.54306, "lat": 13.21583}}, {"id": 1696529, "name": "Pagsanahan Norte", "country": "PH", "coord": {"lon": 120.445801, "lat": 17.9193}}, {"id": 1696538, "name": "Pagsabangan", "country": "PH", "coord": {"lon": 125.749443, "lat": 7.48111}}, {"id": 1696652, "name": "Pagatin", "country": "PH", "coord": {"lon": 124.475281, "lat": 6.97306}}, {"id": 1696662, "name": "Pag-asa", "country": "PH", "coord": {"lon": 125.683891, "lat": 7.57556}}, {"id": 1696679, "name": "Pagangan", "country": "PH", "coord": {"lon": 124.595284, "lat": 7.11444}}, {"id": 1696684, "name": "Pagalungan", "country": "PH", "coord": {"lon": 124.700829, "lat": 7.05667}}, {"id": 1696738, "name": "Padre Zamora", "country": "PH", "coord": {"lon": 123.25, "lat": 10.06667}}, {"id": 1696742, "name": "Padre Garcia", "country": "PH", "coord": {"lon": 121.213898, "lat": 13.8791}}, {"id": 1696744, "name": "Padre Burgos", "country": "PH", "coord": {"lon": 121.814438, "lat": 13.92028}}, {"id": 1696746, "name": "Padre Burgos", "country": "PH", "coord": {"lon": 125.019173, "lat": 10.03694}}, {"id": 1696751, "name": "Padong", "country": "PH", "coord": {"lon": 120.756668, "lat": 18.052219}}, {"id": 1696761, "name": "Padaya", "country": "PH", "coord": {"lon": 121.782951, "lat": 18.307671}}, {"id": 1696767, "name": "Padapada", "country": "PH", "coord": {"lon": 120.516296, "lat": 15.5517}}, {"id": 1696772, "name": "Padang", "country": "PH", "coord": {"lon": 123.765503, "lat": 13.2196}}, {"id": 1696780, "name": "Padada", "country": "PH", "coord": {"lon": 125.345001, "lat": 6.64111}}, {"id": 1696808, "name": "Pacoroman", "country": "PH", "coord": {"lon": 121.0877, "lat": 15.6597}}, {"id": 1696828, "name": "Paclolo", "country": "PH", "coord": {"lon": 121.173508, "lat": 12.37675}}, {"id": 1696886, "name": "Paatan", "country": "PH", "coord": {"lon": 124.923889, "lat": 7.11972}}, {"id": 1696896, "name": "Paagahan", "country": "PH", "coord": {"lon": 121.401001, "lat": 14.4447}},