[{"id": 2514297, "name": "Mahora", "country": "ES", "coord": {"lon": -1.73333, "lat": 39.216671}}, {"id": 3117677, "name": "Maho\u00f1o", "country": "ES", "coord": {"lon": -3.91452, "lat": 43.417671}}, {"id": 1264352, "name": "Mahrauli", "country": "IN", "coord": {"lon": 77.183334, "lat": 28.516666}}, {"id": 2874426, "name": "Mahrenholz", "country": "DE", "coord": {"lon": 10.46667, "lat": 52.666672}}, {"id": 2772115, "name": "Mahresdorf", "country": "AT", "coord": {"lon": 16.033331, "lat": 47.73333}}, {"id": 2874423, "name": "Mahring", "country": "DE", "coord": {"lon": 12.53333, "lat": 49.916672}}, {"id": 1264351, "name": "Mahroni", "country": "IN", "coord": {"lon": 78.728798, "lat": 24.586201}}, {"id": 5036295, "name": "Mahtomedi", "country": "US", "coord": {"lon": -92.951599, "lat": 45.069691}}, {"id": 1264344, "name": "Mahudha", "country": "IN", "coord": {"lon": 72.933327, "lat": 22.816669}}, {"id": 1801485, "name": "Mahuiling", "country": "CN", "coord": {"lon": 115.801659, "lat": 29.44614}}, {"id": 1264331, "name": "Mahur", "country": "IN", "coord": {"lon": 93.116669, "lat": 25.16667}}, {"id": 2331493, "name": "Mahuta", "country": "NG", "coord": {"lon": 4.98436, "lat": 11.55254}}, {"id": 878121, "name": "Mahuta", "country": "TZ", "coord": {"lon": 39.450001, "lat": -10.86667}}, {"id": 1264323, "name": "Mahwah", "country": "IN", "coord": {"lon": 76.933334, "lat": 27.049999}}, {"id": 6686755, "name": "Mah\u0101b\u0101d", "country": "IR", "coord": {"lon": 45.7229, "lat": 36.749901}}, {"id": 1264337, "name": "Mah\u016bli", "country": "IN", "coord": {"lon": 82.98333, "lat": 26.633329}}, {"id": 331743, "name": "Mai Albo", "country": "ER", "coord": {"lon": 38.5, "lat": 15.11667}}, {"id": 1608857, "name": "Mai Kaen", "country": "TH", "coord": {"lon": 101.666862, "lat": 6.60975}}, {"id": 331697, "name": "Mai-ti", "country": "ER", "coord": {"lon": 42.216671, "lat": 13}}, {"id": 8010582, "name": "Maia", "country": "PT", "coord": {"lon": -8.60257, "lat": 41.242538}}, {"id": 2738014, "name": "Maia", "country": "PT", "coord": {"lon": -8.6199, "lat": 41.235741}}, {"id": 617830, "name": "Maiac", "country": "MD", "coord": {"lon": 29.38583, "lat": 47.237499}}, {"id": 6358875, "name": "Maials", "country": "ES", "coord": {"lon": 0.49764, "lat": 41.334549}}, {"id": 3117108, "name": "Maials", "country": "ES", "coord": {"lon": 0.5, "lat": 41.366669}}, {"id": 2874414, "name": "Maibach", "country": "DE", "coord": {"lon": 8.57183, "lat": 50.379238}}, {"id": 1857769, "name": "Maibara", "country": "JP", "coord": {"lon": 136.283325, "lat": 35.316669}}, {"id": 1264322, "name": "Maibong", "country": "IN", "coord": {"lon": 93.166672, "lat": 25.299999}}, {"id": 1703560, "name": "Maibu", "country": "PH", "coord": {"lon": 124.79361, "lat": 6.57}}, {"id": 674066, "name": "Maicanesti", "country": "RO", "coord": {"lon": 27.5, "lat": 45.5}}, {"id": 3675657, "name": "Maicao", "country": "CO", "coord": {"lon": -72.24321, "lat": 11.38321}}, {"id": 6361550, "name": "Maicas", "country": "ES", "coord": {"lon": -0.88939, "lat": 40.965488}}, {"id": 3117676, "name": "Maicas", "country": "ES", "coord": {"lon": -0.89041, "lat": 40.967079}}, {"id": 2996727, "name": "Maiche", "country": "FR", "coord": {"lon": 6.80308, "lat": 47.251598}}, {"id": 2524331, "name": "Maida", "country": "IT", "coord": {"lon": 16.363001, "lat": 38.860191}}, {"id": 2062428, "name": "Maida Vale", "country": "AU", "coord": {"lon": 116.027641, "lat": -31.95187}}, {"id": 1133456, "name": "Maidan Khulah", "country": "AF", "coord": {"lon": 69.781197, "lat": 33.649158}}, {"id": 1456960, "name": "Maidan Shahr", "country": "AF", "coord": {"lon": 68.86618, "lat": 34.395611}}, {"id": 2874391, "name": "Maidbronn", "country": "DE", "coord": {"lon": 9.97444, "lat": 49.847221}}, {"id": 4477779, "name": "Maiden", "country": "US", "coord": {"lon": -81.211746, "lat": 35.575691}}, {"id": 6621541, "name": "Maidenbower", "country": "GB", "coord": {"lon": -0.15286, "lat": 51.107811}}, {"id": 2643186, "name": "Maidenhead", "country": "GB", "coord": {"lon": -0.71986, "lat": 51.522789}}, {"id": 2159072, "name": "Maidenwell", "country": "AU", "coord": {"lon": 151.800003, "lat": -26.85}}, {"id": 72752, "name": "Maidi", "country": "YE", "coord": {"lon": 42.812988, "lat": 16.321011}}, {"id": 2996726, "name": "Maidieres", "country": "FR", "coord": {"lon": 6.03988, "lat": 48.900291}}, {"id": 1928621, "name": "Maidiping", "country": "CN", "coord": {"lon": 110.358589, "lat": 29.49155}}, {"id": 6064356, "name": "Maidstone", "country": "CA", "coord": {"lon": -109.284782, "lat": 53.100159}}, {"id": 2643179, "name": "Maidstone", "country": "GB", "coord": {"lon": 0.51667, "lat": 51.26667}}, {"id": 7290572, "name": "Maidstone District", "country": "GB", "coord": {"lon": 0.52837, "lat": 51.275299}}, {"id": 2331447, "name": "Maiduguri", "country": "NG", "coord": {"lon": 13.16027, "lat": 11.84644}}, {"id": 7286419, "name": "Maienfeld", "country": "CH", "coord": {"lon": 9.56247, "lat": 47.027119}}, {"id": 2659787, "name": "Maienfeld", "country": "CH", "coord": {"lon": 9.53115, "lat": 47.004719}}, {"id": 2874381, "name": "Maienluft", "country": "DE", "coord": {"lon": 10.36667, "lat": 50.666672}}, {"id": 2524329, "name": "Maiera", "country": "IT", "coord": {"lon": 15.85078, "lat": 39.716801}}, {"id": 2524328, "name": "Maierato", "country": "IT", "coord": {"lon": 16.186501, "lat": 38.707779}}, {"id": 7873380, "name": "Maierdorf", "country": "AT", "coord": {"lon": 15.85394, "lat": 46.902229}}, {"id": 2772105, "name": "Maierdorf", "country": "AT", "coord": {"lon": 15.84972, "lat": 46.892502}}, {"id": 2874319, "name": "Maierhofen", "country": "DE", "coord": {"lon": 10.05, "lat": 47.650002}}, {"id": 6557196, "name": "Maierh\u00f6fen", "country": "DE", "coord": {"lon": 10.05, "lat": 47.650002}}, {"id": 674061, "name": "Maieru", "country": "RO", "coord": {"lon": 24.75, "lat": 47.400002}}, {"id": 674059, "name": "Maierus", "country": "RO", "coord": {"lon": 25.533331, "lat": 45.900002}}, {"id": 2962666, "name": "Maigh Eo", "country": "IE", "coord": {"lon": -9.25, "lat": 53.900002}}, {"id": 2874288, "name": "Maign", "country": "DE", "coord": {"lon": 13.2, "lat": 48.716671}}, {"id": 2996722, "name": "Maignelay-Montigny", "country": "FR", "coord": {"lon": 2.51667, "lat": 49.549999}}, {"id": 1703554, "name": "Maigo", "country": "PH", "coord": {"lon": 123.958298, "lat": 8.1613}}, {"id": 1264317, "name": "Maihar", "country": "IN", "coord": {"lon": 80.75, "lat": 24.26667}}, {"id": 6557285, "name": "Maihingen", "country": "DE", "coord": {"lon": 10.5, "lat": 48.9333}}, {"id": 2874284, "name": "Maihingen", "country": "DE", "coord": {"lon": 10.5, "lat": 48.933331}}, {"id": 6555203, "name": "Maikammer", "country": "DE", "coord": {"lon": 8.1425, "lat": 49.306301}}, {"id": 2874282, "name": "Maikammer", "country": "DE", "coord": {"lon": 8.13167, "lat": 49.305279}}, {"id": 1703544, "name": "Mailag", "country": "PH", "coord": {"lon": 125.137497, "lat": 7.97028}}, {"id": 1264310, "name": "Mailani", "country": "IN", "coord": {"lon": 80.349998, "lat": 28.283331}}, {"id": 7871766, "name": "Mailberg", "country": "AT", "coord": {"lon": 16.184019, "lat": 48.67543}}, {"id": 2772083, "name": "Mailberg", "country": "AT", "coord": {"lon": 16.18132, "lat": 48.67379}}, {"id": 2874270, "name": "Mailheim", "country": "DE", "coord": {"lon": 10.5, "lat": 49.5}}, {"id": 5850492, "name": "Maili", "country": "US", "coord": {"lon": -158.180283, "lat": 21.42194}}, {"id": 2874267, "name": "Mailing", "country": "DE", "coord": {"lon": 11.97999, "lat": 47.939579}}, {"id": 1800391, "name": "Mailing", "country": "CN", "coord": {"lon": 113.644691, "lat": 33.7742}}, {"id": 2996711, "name": "Maillane", "country": "FR", "coord": {"lon": 4.78152, "lat": 43.831139}}, {"id": 6433879, "name": "Maillas", "country": "FR", "coord": {"lon": -0.18333, "lat": 44.25}}, {"id": 2996710, "name": "Maillas", "country": "FR", "coord": {"lon": -0.1955, "lat": 44.24754}}, {"id": 2996696, "name": "Maillezais", "country": "FR", "coord": {"lon": -0.73963, "lat": 46.372669}}, {"id": 2996693, "name": "Maillot", "country": "FR", "coord": {"lon": 3.30784, "lat": 48.175571}}, {"id": 2996687, "name": "Mailly-le-Camp", "country": "FR", "coord": {"lon": 4.21303, "lat": 48.66526}}, {"id": 6433880, "name": "Maill\u00e8res", "country": "FR", "coord": {"lon": -0.43333, "lat": 44.033329}}, {"id": 2996702, "name": "Maill\u00e8res", "country": "FR", "coord": {"lon": -0.44289, "lat": 44.02924}}, {"id": 2159065, "name": "Mailors Flat", "country": "AU", "coord": {"lon": 142.466675, "lat": -38.299999}}, {"id": 1171502, "name": "Mailsi", "country": "PK", "coord": {"lon": 72.175827, "lat": 29.80028}}, {"id": 3845254, "name": "Maimara", "country": "AR", "coord": {"lon": -65.407967, "lat": -23.62392}}, {"id": 1703539, "name": "Maimbung", "country": "PH", "coord": {"lon": 121.02935, "lat": 5.9272}}, {"id": 2159062, "name": "Maimuru", "country": "AU", "coord": {"lon": 148.266663, "lat": -34.26667}}, {"id": 6941781, "name": "Main Beach", "country": "AU", "coord": {"lon": 153.426605, "lat": -27.97879}}, {"id": 6064382, "name": "Main Brook", "country": "CA", "coord": {"lon": -56.014759, "lat": 51.18338}}, {"id": 6064393, "name": "Main Centre", "country": "CA", "coord": {"lon": -107.351311, "lat": 50.58337}}, {"id": 2874242, "name": "Main-Kinzig-Kreis", "country": "DE", "coord": {"lon": 9.30472, "lat": 50.25}}, {"id": 3220782, "name": "Main-Tauber-Kreis", "country": "DE", "coord": {"lon": 9.72222, "lat": 49.559441}}, {"id": 2874229, "name": "Main-Taunus-Kreis", "country": "DE", "coord": {"lon": 8.43417, "lat": 50.109718}}, {"id": 1264301, "name": "Mainaguri", "country": "IN", "coord": {"lon": 88.816673, "lat": 26.566669}}, {"id": 6362842, "name": "Mainar", "country": "ES", "coord": {"lon": -1.29886, "lat": 41.21645}}, {"id": 3117672, "name": "Mainar", "country": "ES", "coord": {"lon": -1.30292, "lat": 41.19276}}, {"id": 2874263, "name": "Mainaschaff", "country": "DE", "coord": {"lon": 9.09, "lat": 49.98167}}, {"id": 6556954, "name": "Mainaschaff", "country": "DE", "coord": {"lon": 9.09, "lat": 49.981701}}, {"id": 2874259, "name": "Mainbach", "country": "DE", "coord": {"lon": 11.06667, "lat": 48.51667}}, {"id": 2874254, "name": "Mainbernheim", "country": "DE", "coord": {"lon": 10.219, "lat": 49.707939}}, {"id": 2874252, "name": "Mainburg", "country": "DE", "coord": {"lon": 11.78333, "lat": 48.650002}}, {"id": 2996674, "name": "Maincy", "country": "FR", "coord": {"lon": 2.70017, "lat": 48.54977}}, {"id": 2159053, "name": "Maindample", "country": "AU", "coord": {"lon": 145.933334, "lat": -37.033329}}, {"id": 1703531, "name": "Maindang", "country": "PH", "coord": {"lon": 124.845001, "lat": 6.59556}}, {"id": 1264297, "name": "Maindargi", "country": "IN", "coord": {"lon": 76.300003, "lat": 17.466669}}, {"id": 1280645, "name": "Maindong", "country": "CN", "coord": {"lon": 85.416672, "lat": 31.33333}}, {"id": 4971068, "name": "Maine", "country": "US", "coord": {"lon": -69.249771, "lat": 45.50032}}, {"id": 2441447, "name": "Maine-Soroa", "country": "NE", "coord": {"lon": 12.0241, "lat": 13.21139}}, {"id": 2874248, "name": "Mainflingen", "country": "DE", "coord": {"lon": 9.02578, "lat": 50.03101}}, {"id": 2996660, "name": "Maing", "country": "FR", "coord": {"lon": 3.48446, "lat": 50.307911}}, {"id": 6555550, "name": "Mainhardt", "country": "DE", "coord": {"lon": 9.55639, "lat": 49.076099}}, {"id": 2874246, "name": "Mainhardt", "country": "DE", "coord": {"lon": 9.55639, "lat": 49.076111}}, {"id": 1703518, "name": "Mainit", "country": "PH", "coord": {"lon": 125.523064, "lat": 9.535}}, {"id": 1703519, "name": "Mainit", "country": "PH", "coord": {"lon": 123.359497, "lat": 9.4335}}, {"id": 1703521, "name": "Mainit", "country": "PH", "coord": {"lon": 117.818298, "lat": 8.8436}}, {"id": 1703502, "name": "Mainit Norte", "country": "PH", "coord": {"lon": 121.966667, "lat": 14.16667}}, {"id": 2874239, "name": "Mainleus", "country": "DE", "coord": {"lon": 11.38333, "lat": 50.099998}}, {"id": 1264292, "name": "Mainpuri", "country": "IN", "coord": {"lon": 79.01667, "lat": 27.23333}}, {"id": 3845251, "name": "Mainque", "country": "AR", "coord": {"lon": -67.300003, "lat": -39.066669}}, {"id": 2874233, "name": "Mainschhorn", "country": "DE", "coord": {"lon": 9.00621, "lat": 52.63213}}, {"id": 6557012, "name": "Mainstockheim", "country": "DE", "coord": {"lon": 10.15, "lat": 49.783298}}, {"id": 2874231, "name": "Mainstockheim", "country": "DE", "coord": {"lon": 10.15, "lat": 49.783329}}, {"id": 2643172, "name": "Mainstone", "country": "GB", "coord": {"lon": -3.08333, "lat": 52.48333}}, {"id": 2874230, "name": "Maintal", "country": "DE", "coord": {"lon": 8.83333, "lat": 50.150002}}, {"id": 2996653, "name": "Maintenon", "country": "FR", "coord": {"lon": 1.57847, "lat": 48.58704}}, {"id": 1061912, "name": "Maintirano", "country": "MG", "coord": {"lon": 44.01667, "lat": -18.066669}}, {"id": 2996645, "name": "Mainvilliers", "country": "FR", "coord": {"lon": 1.45607, "lat": 48.450039}}, {"id": 2874225, "name": "Mainz", "country": "DE", "coord": {"lon": 8.27111, "lat": 50}}, {"id": 2935350, "name": "Mainz-Drais", "country": "DE", "coord": {"lon": 8.18917, "lat": 49.975281}}, {"id": 2933907, "name": "Mainz-Ebersheim", "country": "DE", "coord": {"lon": 8.24083, "lat": 49.912781}}, {"id": 2874217, "name": "Mainzholzen", "country": "DE", "coord": {"lon": 9.75, "lat": 51.883331}}, {"id": 2874212, "name": "Mainzweiler", "country": "DE", "coord": {"lon": 7.11667, "lat": 49.416672}}, {"id": 3174220, "name": "Maiolati Spontini", "country": "IT", "coord": {"lon": 13.12177, "lat": 43.477661}}, {"id": 8012313, "name": "Maiorga", "country": "PT", "coord": {"lon": -8.9776, "lat": 39.577869}}, {"id": 3174214, "name": "Maiori", "country": "IT", "coord": {"lon": 14.6407, "lat": 40.648479}}, {"id": 3880992, "name": "Maipo", "country": "CL", "coord": {"lon": -70.783333, "lat": -33.73333}}, {"id": 3880980, "name": "Maip\u00fa", "country": "CL", "coord": {"lon": -70.76667, "lat": -33.51667}}, {"id": 3430946, "name": "Maip\u00fa", "country": "AR", "coord": {"lon": -57.880939, "lat": -36.86274}}, {"id": 3633341, "name": "Maiquetia", "country": "VE", "coord": {"lon": -66.954849, "lat": 10.59621}}, {"id": 3458136, "name": "Maiquinique", "country": "BR", "coord": {"lon": -40.266109, "lat": -15.62111}}, {"id": 6535368, "name": "Mairago", "country": "IT", "coord": {"lon": 9.57836, "lat": 45.25177}}, {"id": 3910901, "name": "Mairana", "country": "BO", "coord": {"lon": -63.933331, "lat": -18.116671}}, {"id": 1264285, "name": "Mairang", "country": "IN", "coord": {"lon": 91.633331, "lat": 25.566669}}, {"id": 3174209, "name": "Mairano", "country": "IT", "coord": {"lon": 10.07957, "lat": 45.449181}}, {"id": 6362543, "name": "Maire de Castroponce", "country": "ES", "coord": {"lon": -5.78119, "lat": 42.114899}}, {"id": 3117669, "name": "Maire de Castroponce", "country": "ES", "coord": {"lon": -5.78475, "lat": 42.112831}}, {"id": 6220360, "name": "Mairehau", "country": "NZ", "coord": {"lon": 172.640137, "lat": -43.498329}}, {"id": 6361013, "name": "Mairena del Alcor", "country": "ES", "coord": {"lon": -5.74201, "lat": 37.345322}}, {"id": 2514288, "name": "Mairena del Alcor", "country": "ES", "coord": {"lon": -5.74952, "lat": 37.373009}}, {"id": 6361014, "name": "Mairena del Aljarafe", "country": "ES", "coord": {"lon": -6.07384, "lat": 37.335758}}, {"id": 2514287, "name": "Mairena del Aljarafe", "country": "ES", "coord": {"lon": -6.06391, "lat": 37.344608}}, {"id": 3458134, "name": "Mairi", "country": "BR", "coord": {"lon": -40.148891, "lat": -11.71139}}, {"id": 3458132, "name": "Mairinque", "country": "BR", "coord": {"lon": -47.183331, "lat": -23.54583}}, {"id": 3458131, "name": "Mairipora", "country": "BR", "coord": {"lon": -46.58667, "lat": -23.318609}}, {"id": 6322363, "name": "Mairipor\u00e3", "country": "BR", "coord": {"lon": -46.559921, "lat": -23.32126}}, {"id": 1264282, "name": "Mairwa", "country": "IN", "coord": {"lon": 84.150002, "lat": 26.23333}}, {"id": 532277, "name": "Mais", "country": "RU", "coord": {"lon": 46.02879, "lat": 53.8741}}, {"id": 6556226, "name": "Maisach", "country": "DE", "coord": {"lon": 11.26315, "lat": 48.216351}}, {"id": 2874200, "name": "Maisach", "country": "DE", "coord": {"lon": 11.26667, "lat": 48.216671}}, {"id": 2772062, "name": "Maisbirbaum", "country": "AT", "coord": {"lon": 16.299999, "lat": 48.5}}, {"id": 6553926, "name": "Maisborn", "country": "DE", "coord": {"lon": 7.58333, "lat": 50.083302}}, {"id": 2874193, "name": "Maisborn", "country": "DE", "coord": {"lon": 7.58333, "lat": 50.083328}}, {"id": 2996628, "name": "Maisdon-sur-Sevre", "country": "FR", "coord": {"lon": -1.38, "lat": 47.097141}}, {"id": 2643169, "name": "Maisemore", "country": "GB", "coord": {"lon": -2.27371, "lat": 51.88958}}, {"id": 7872242, "name": "Maishofen", "country": "AT", "coord": {"lon": 12.80358, "lat": 47.366131}}, {"id": 2772060, "name": "Maishofen", "country": "AT", "coord": {"lon": 12.8, "lat": 47.366669}}, {"id": 2996621, "name": "Maisnil-les-Ruitz", "country": "FR", "coord": {"lon": 2.58992, "lat": 50.453419}}, {"id": 6439143, "name": "Maison-Maugis", "country": "FR", "coord": {"lon": 0.7, "lat": 48.450001}}, {"id": 2996595, "name": "Maison-Maugis", "country": "FR", "coord": {"lon": 0.70326, "lat": 48.451679}}, {"id": 6427305, "name": "Maisoncelles-Pelvey", "country": "FR", "coord": {"lon": -0.66667, "lat": 49.049999}}, {"id": 2996602, "name": "Maisoncelles-Pelvey", "country": "FR", "coord": {"lon": -0.67283, "lat": 49.056938}}, {"id": 6427304, "name": "Maisoncelles-la-Jourdan", "country": "FR", "coord": {"lon": -0.85, "lat": 48.799999}}, {"id": 2996603, "name": "Maisoncelles-la-Jourdan", "country": "FR", "coord": {"lon": -0.84988, "lat": 48.801189}}, {"id": 2996588, "name": "Maisonnettes", "country": "FR", "coord": {"lon": 4.43333, "lat": 45.150002}}, {"id": 6452024, "name": "Maisons-Alfort", "country": "FR", "coord": {"lon": 2.43333, "lat": 48.799999}}, {"id": 2996568, "name": "Maisons-Alfort", "country": "FR", "coord": {"lon": 2.43945, "lat": 48.81171}}, {"id": 6444007, "name": "Maisons-Laffitte", "country": "FR", "coord": {"lon": 2.15, "lat": 48.950001}}, {"id": 2996564, "name": "Maisons-Laffitte", "country": "FR", "coord": {"lon": 2.14521, "lat": 48.952641}}, {"id": 7286421, "name": "Maisprach", "country": "CH", "coord": {"lon": 7.84575, "lat": 47.52227}}, {"id": 2659786, "name": "Maisprach", "country": "CH", "coord": {"lon": 7.84705, "lat": 47.524578}}, {"id": 3721711, "name": "Maissade", "country": "HT", "coord": {"lon": -72.133331, "lat": 19.16667}}, {"id": 3174206, "name": "Maissana", "country": "IT", "coord": {"lon": 9.53588, "lat": 44.33675}}, {"id": 2772058, "name": "Maissau", "country": "AT", "coord": {"lon": 15.81667, "lat": 48.566669}}, {"id": 7871767, "name": "Maissau", "country": "AT", "coord": {"lon": 15.81676, "lat": 48.570839}}, {"id": 2996559, "name": "Maisse", "country": "FR", "coord": {"lon": 2.37902, "lat": 48.395241}}, {"id": 2331303, "name": "Maitama", "country": "NG", "coord": {"lon": 7.49444, "lat": 9.10306}}, {"id": 6556291, "name": "Maitenbeth", "country": "DE", "coord": {"lon": 12.1, "lat": 48.150002}}, {"id": 2874157, "name": "Maitenbeth", "country": "DE", "coord": {"lon": 12.1, "lat": 48.150002}}, {"id": 3880952, "name": "Maitencillo", "country": "CL", "coord": {"lon": -71.116669, "lat": -30.16667}}, {"id": 2067214, "name": "Maitland", "country": "AU", "coord": {"lon": 137.666672, "lat": -34.383331}}, {"id": 2159045, "name": "Maitland", "country": "AU", "coord": {"lon": 151.550003, "lat": -32.73333}}, {"id": 4163220, "name": "Maitland", "country": "US", "coord": {"lon": -81.363121, "lat": 28.627781}}, {"id": 2159040, "name": "Maitland Municipality", "country": "AU", "coord": {"lon": 151.550003, "lat": -32.73333}}, {"id": 1703471, "name": "Maitum", "country": "PH", "coord": {"lon": 124.498611, "lat": 6.03917}}, {"id": 1978282, "name": "Maitum", "country": "PH", "coord": {"lon": 124.502777, "lat": 6.04194}}, {"id": 6553927, "name": "Maitzborn", "country": "DE", "coord": {"lon": 7.43333, "lat": 49.9333}}, {"id": 2874155, "name": "Maitzborn", "country": "DE", "coord": {"lon": 7.43333, "lat": 49.933331}}, {"id": 370838, "name": "Maiurno", "country": "SD", "coord": {"lon": 33.666672, "lat": 13.41667}}, {"id": 2331267, "name": "Maiyema", "country": "NG", "coord": {"lon": 4.36766, "lat": 12.08411}}, {"id": 3497204, "name": "Maizal", "country": "DO", "coord": {"lon": -71.027344, "lat": 19.636551}}, {"id": 3845228, "name": "Maizales", "country": "AR", "coord": {"lon": -60.963322, "lat": -33.317322}}, {"id": 4274980, "name": "Maize", "country": "US", "coord": {"lon": -97.46727, "lat": 37.779179}}, {"id": 6427308, "name": "Maizet", "country": "FR", "coord": {"lon": -0.46667, "lat": 49.083328}}, {"id": 2996549, "name": "Maizet", "country": "FR", "coord": {"lon": -0.47326, "lat": 49.078838}}, {"id": 2996540, "name": "Maizieres-la-Grande-Paroisse", "country": "FR", "coord": {"lon": 3.78573, "lat": 48.51012}}, {"id": 2996538, "name": "Maizieres-les-Metz", "country": "FR", "coord": {"lon": 6.16052, "lat": 49.207539}}, {"id": 6427309, "name": "Maizi\u00e8res", "country": "FR", "coord": {"lon": -0.15, "lat": 49.01667}}, {"id": 2996543, "name": "Maizi\u00e8res", "country": "FR", "coord": {"lon": -0.15899, "lat": 49.01683}}, {"id": 1857766, "name": "Maizuru", "country": "JP", "coord": {"lon": 135.333328, "lat": 35.450001}}, {"id": 1636825, "name": "Maja", "country": "ID", "coord": {"lon": 106.363602, "lat": -6.6559}}, {"id": 6359305, "name": "Majadahonda", "country": "ES", "coord": {"lon": -3.86993, "lat": 40.47385}}, {"id": 3117667, "name": "Majadahonda", "country": "ES", "coord": {"lon": -3.87182, "lat": 40.47353}}, {"id": 3880906, "name": "Majadas", "country": "CL", "coord": {"lon": -70.916672, "lat": -27.216669}}, {"id": 6356809, "name": "Majadas", "country": "ES", "coord": {"lon": -5.77591, "lat": 39.955029}}, {"id": 2514279, "name": "Majadas", "country": "ES", "coord": {"lon": -5.74589, "lat": 39.942909}}, {"id": 6357939, "name": "Majaelrayo", "country": "ES", "coord": {"lon": -3.34255, "lat": 41.140469}}, {"id": 3117665, "name": "Majaelrayo", "country": "ES", "coord": {"lon": -3.30257, "lat": 41.112598}}, {"id": 3675637, "name": "Majagual", "country": "CO", "coord": {"lon": -74.620377, "lat": 8.53886}}, {"id": 3497176, "name": "Majagual", "country": "DO", "coord": {"lon": -69.836159, "lat": 19.04134}}, {"id": 3704771, "name": "Majagual-Gold Hill", "country": "PA", "coord": {"lon": -79.883331, "lat": 9.35}}, {"id": 7845380, "name": "Majalaya", "country": "ID", "coord": {"lon": 106.606903, "lat": -7.3378}}, {"id": 1636816, "name": "Majalengka", "country": "ID", "coord": {"lon": 108.227783, "lat": -6.83611}}, {"id": 7780375, "name": "Majamasjid", "country": "ID", "coord": {"lon": 106.093102, "lat": -6.3288}}, {"id": 3117664, "name": "Majan", "country": "ES", "coord": {"lon": -2.30268, "lat": 41.46888}}, {"id": 7085937, "name": "Majan", "country": "ID", "coord": {"lon": 116.311897, "lat": -8.73}}, {"id": 7579532, "name": "Majan", "country": "ID", "coord": {"lon": 111.902397, "lat": -8.0393}}, {"id": 2514273, "name": "Majaneque", "country": "ES", "coord": {"lon": -4.86667, "lat": 37.833328}}, {"id": 1965931, "name": "Majang Tengah", "country": "ID", "coord": {"lon": 112.720573, "lat": -8.19706}}, {"id": 6535597, "name": "Majano", "country": "IT", "coord": {"lon": 13.06162, "lat": 46.187519}}, {"id": 8060978, "name": "Majasem", "country": "ID", "coord": {"lon": 111.255898, "lat": -6.7624}}, {"id": 6425524, "name": "Majastres", "country": "FR", "coord": {"lon": 6.3, "lat": 43.916672}}, {"id": 2996533, "name": "Majastres", "country": "FR", "coord": {"lon": 6.28931, "lat": 43.91338}}, {"id": 1703450, "name": "Majayjay", "country": "PH", "coord": {"lon": 121.4729, "lat": 14.1463}}, {"id": 2469386, "name": "Majaz al Bab", "country": "TN", "coord": {"lon": 9.61231, "lat": 36.649639}}, {"id": 282941, "name": "Majdal Bani Fadil", "country": "PS", "coord": {"lon": 35.363781, "lat": 32.083569}}, {"id": 765514, "name": "Majdan Krolewski", "country": "PL", "coord": {"lon": 21.746149, "lat": 50.379349}}, {"id": 788357, "name": "Majdanpek", "country": "RS", "coord": {"lon": 21.945959, "lat": 44.427711}}, {"id": 1636808, "name": "Majenang", "country": "ID", "coord": {"lon": 108.764198, "lat": -7.2975}}, {"id": 1636806, "name": "Majene", "country": "ID", "coord": {"lon": 118.970703, "lat": -3.5403}}, {"id": 155244, "name": "Majengo", "country": "TZ", "coord": {"lon": 38.98333, "lat": -5.15}}, {"id": 1969668, "name": "Majennang", "country": "ID", "coord": {"lon": 119.6091, "lat": -3.9728}}, {"id": 3071272, "name": "Majetin", "country": "CZ", "coord": {"lon": 17.333139, "lat": 49.498081}}, {"id": 1264244, "name": "Majholi", "country": "IN", "coord": {"lon": 79.916672, "lat": 23.5}}, {"id": 7413744, "name": "Maji", "country": "CN", "coord": {"lon": 102.989433, "lat": 35.447338}}, {"id": 1909636, "name": "Majia", "country": "CN", "coord": {"lon": 107.70742, "lat": 34.310532}}, {"id": 1910279, "name": "Majia", "country": "CN", "coord": {"lon": 108.458328, "lat": 34.85833}}, {"id": 6912419, "name": "Majiaba", "country": "CN", "coord": {"lon": 105.997581, "lat": 32.801189}}, {"id": 1801454, "name": "Majiadian", "country": "CN", "coord": {"lon": 117.266113, "lat": 39.65778}}, {"id": 1801520, "name": "Majiang", "country": "CN", "coord": {"lon": 113.544167, "lat": 26.713329}}, {"id": 6422322, "name": "Majiang", "country": "CN", "coord": {"lon": 111.839996, "lat": 25.97028}}, {"id": 1919782, "name": "Majiao", "country": "CN", "coord": {"lon": 116.708893, "lat": 23.270821}}, {"id": 7905353, "name": "Majiao", "country": "CN", "coord": {"lon": 114.929482, "lat": 30.063589}}, {"id": 1801401, "name": "Majie", "country": "CN", "coord": {"lon": 102.636108, "lat": 25.033331}}, {"id": 1817048, "name": "Majie", "country": "CN", "coord": {"lon": 103.258614, "lat": 24.6863}}, {"id": 7340460, "name": "Majie", "country": "CN", "coord": {"lon": 104.957748, "lat": 33.45945}}, {"id": 1801398, "name": "Majin", "country": "CN", "coord": {"lon": 118.409172, "lat": 29.30311}}, {"id": 1636800, "name": "Majingklak", "country": "ID", "coord": {"lon": 108.675697, "lat": -7.3051}}, {"id": 1264241, "name": "Majitha", "country": "IN", "coord": {"lon": 74.954437, "lat": 31.758329}}, {"id": 3395880, "name": "Major Isidoro", "country": "BR", "coord": {"lon": -36.985001, "lat": -9.53222}}, {"id": 3395876, "name": "Major Sales", "country": "BR", "coord": {"lon": -38.323891, "lat": -6.40611}}, {"id": 2159037, "name": "Majorca", "country": "AU", "coord": {"lon": 143.800003, "lat": -37.116669}}, {"id": 6619708, "name": "Majorna", "country": "SE", "coord": {"lon": 11.91605, "lat": 57.691952}}, {"id": 3195898, "name": "Majsperk", "country": "SI", "coord": {"lon": 15.73361, "lat": 46.351669}}, {"id": 2035867, "name": "Majuanzi", "country": "CN", "coord": {"lon": 124.369766, "lat": 41.525459}}, {"id": 2035866, "name": "Majunying", "country": "CN", "coord": {"lon": 113.224716, "lat": 40.090832}}, {"id": 3195895, "name": "Majur", "country": "RS", "coord": {"lon": 19.65444, "lat": 44.769718}}, {"id": 2159023, "name": "Majura", "country": "AU", "coord": {"lon": 149.199997, "lat": -35.26667}}, {"id": 2113779, "name": "Majuro", "country": "MH", "coord": {"lon": 171.380264, "lat": 7.08971}}, {"id": 7303505, "name": "Majuro Atoll", "country": "MH", "coord": {"lon": 171.199997, "lat": 7.15}}, {"id": 34717, "name": "Majzar", "country": "YE", "coord": {"lon": 44.775002, "lat": 15.85}}, {"id": 6361154, "name": "Maj\u00e1n", "country": "ES", "coord": {"lon": -2.29761, "lat": 41.468441}}, {"id": 2257925, "name": "Makabana", "country": "CG", "coord": {"lon": 12.60556, "lat": -3.46333}}, {"id": 2566971, "name": "Makabandilou", "country": "CG", "coord": {"lon": 12.67, "lat": -4.20694}}, {"id": 2112019, "name": "Makabe", "country": "JP", "coord": {"lon": 140.100006, "lat": 36.26667}}, {"id": 6692518, "name": "Makadi Bay", "country": "EG", "coord": {"lon": 33.899521, "lat": 26.99123}}, {"id": 5850511, "name": "Makaha", "country": "US", "coord": {"lon": -158.217499, "lat": 21.46944}}, {"id": 5850522, "name": "Makaha Valley", "country": "US", "coord": {"lon": -158.203888, "lat": 21.48222}}, {"id": 1283088, "name": "Makaising", "country": "NP", "coord": {"lon": 84.683334, "lat": 27.883333}}, {"id": 7262761, "name": "Makakilo", "country": "US", "coord": {"lon": -158.086548, "lat": 21.352369}}, {"id": 5850554, "name": "Makakilo City", "country": "US", "coord": {"lon": -158.085831, "lat": 21.346939}}, {"id": 1636798, "name": "Makale", "country": "ID", "coord": {"lon": 119.853897, "lat": -3.1019}}, {"id": 933456, "name": "Makaleng", "country": "BW", "coord": {"lon": 27.283331, "lat": -20.9}}, {"id": 2406473, "name": "Makali", "country": "SL", "coord": {"lon": -11.66667, "lat": 8.63333}}, {"id": 3430943, "name": "Makalle", "country": "AR", "coord": {"lon": -59.286961, "lat": -27.206869}}, {"id": 7037430, "name": "Makam", "country": "ID", "coord": {"lon": 113.215401, "lat": -8.0033}}, {"id": 422232, "name": "Makamba", "country": "BI", "coord": {"lon": 29.804001, "lat": -4.1348}}, {"id": 155187, "name": "Makanya", "country": "TZ", "coord": {"lon": 37.833328, "lat": -4.36667}}, {"id": 532133, "name": "Makar'yevo", "country": "RU", "coord": {"lon": 45.055, "lat": 56.089169}}, {"id": 2187942, "name": "Makarau", "country": "NZ", "coord": {"lon": 174.5, "lat": -36.549999}}, {"id": 532264, "name": "Makarely", "country": "RU", "coord": {"lon": 30.633333, "lat": 65.666664}}, {"id": 7601361, "name": "Makarikha", "country": "RU", "coord": {"lon": 36.130901, "lat": 56.265499}}, {"id": 2020575, "name": "Makarinino", "country": "RU", "coord": {"lon": 109.116669, "lat": 53.450001}}, {"id": 702337, "name": "Makariv", "country": "UA", "coord": {"lon": 29.811279, "lat": 50.464081}}, {"id": 7973039, "name": "Makarkot", "country": "NP", "coord": {"lon": 84.117218, "lat": 27.622061}}, {"id": 2123614, "name": "Makarov", "country": "RU", "coord": {"lon": 142.800003, "lat": 48.633331}}, {"id": 532217, "name": "Makarovka", "country": "RU", "coord": {"lon": 37.863438, "lat": 54.83749}}, {"id": 532198, "name": "Makarovo", "country": "RU", "coord": {"lon": 38.316666, "lat": 56}}, {"id": 3195890, "name": "Makarska", "country": "HR", "coord": {"lon": 17.01778, "lat": 43.29694}}, {"id": 2228881, "name": "Makary", "country": "CM", "coord": {"lon": 14.46662, "lat": 12.5717}}, {"id": 532138, "name": "Makaryev", "country": "RU", "coord": {"lon": 43.806946, "lat": 57.879723}}, {"id": 532134, "name": "Makar\u2019yevo", "country": "RU", "coord": {"lon": 48.283333, "lat": 52.216667}}, {"id": 1622786, "name": "Makassar", "country": "ID", "coord": {"lon": 119.422096, "lat": -5.14}}, {"id": 7839184, "name": "Makata", "country": "MW", "coord": {"lon": 35.03046, "lat": -15.7872}}, {"id": 1703417, "name": "Makati City", "country": "PH", "coord": {"lon": 121.032692, "lat": 14.55027}}, {"id": 1704315, "name": "Makato", "country": "PH", "coord": {"lon": 122.292198, "lat": 11.712}}, {"id": 5850616, "name": "Makawao", "country": "US", "coord": {"lon": -156.313065, "lat": 20.856939}}, {"id": 6461049, "name": "Makedonci", "country": "BG", "coord": {"lon": 25.372219, "lat": 41.583328}}, {"id": 789629, "name": "Makedonska Kamenica", "country": "MK", "coord": {"lon": 22.59194, "lat": 42.02}}, {"id": 792257, "name": "Makedonski Brod", "country": "MK", "coord": {"lon": 21.215281, "lat": 41.513611}}, {"id": 4036247, "name": "Makefu", "country": "NU", "coord": {"lon": -169.916672, "lat": -18.98333}}, {"id": 1554363, "name": "Makeng", "country": "CN", "coord": {"lon": 117.084709, "lat": 29.924681}}, {"id": 2406410, "name": "Makeni", "country": "SL", "coord": {"lon": -11.96667, "lat": 8.56667}}, {"id": 2406407, "name": "Makeni", "country": "SL", "coord": {"lon": -12.05, "lat": 8.88333}}, {"id": 935542, "name": "Makes", "country": "RE", "coord": {"lon": 55.433331, "lat": -21.200001}}, {"id": 2187908, "name": "Maketu", "country": "NZ", "coord": {"lon": 176.449997, "lat": -37.76667}}, {"id": 532108, "name": "Makeyevo Pervoye", "country": "RU", "coord": {"lon": 39.133331, "lat": 54.666668}}, {"id": 532096, "name": "Makhachkala", "country": "RU", "coord": {"lon": 47.502361, "lat": 42.976379}}, {"id": 532092, "name": "Makhalino", "country": "RU", "coord": {"lon": 46.221081, "lat": 53.085442}}, {"id": 1608808, "name": "Makham", "country": "TH", "coord": {"lon": 102.195747, "lat": 12.67292}}, {"id": 608915, "name": "Makhambet", "country": "KZ", "coord": {"lon": 51.583328, "lat": 47.666672}}, {"id": 613125, "name": "Makhinjauri", "country": "GE", "coord": {"lon": 41.694012, "lat": 41.673851}}, {"id": 1264217, "name": "Makhjan", "country": "IN", "coord": {"lon": 73.500313, "lat": 17.2698}}, {"id": 804463, "name": "Makhoshepolyana", "country": "RU", "coord": {"lon": 40.299442, "lat": 44.455555}}, {"id": 625642, "name": "Makhovoye", "country": "BY", "coord": {"lon": 30.299999, "lat": 54.116669}}, {"id": 1264215, "name": "Makhu", "country": "IN", "coord": {"lon": 74.99778, "lat": 31.103331}}, {"id": 1857751, "name": "Maki", "country": "JP", "coord": {"lon": 138.883331, "lat": 37.75}}, {"id": 1703405, "name": "Makilala", "country": "PH", "coord": {"lon": 125.096939, "lat": 6.95167}}, {"id": 7576909, "name": "Makin Village", "country": "KI", "coord": {"lon": 172.983521, "lat": 3.3644}}, {"id": 1857736, "name": "Makinohara", "country": "JP", "coord": {"lon": 138.116669, "lat": 34.816669}}, {"id": 1521230, "name": "Makinsk", "country": "KZ", "coord": {"lon": 70.416939, "lat": 52.629169}}, {"id": 188121, "name": "Makinyambu", "country": "KE", "coord": {"lon": 38.299999, "lat": -3.31667}}, {"id": 1978438, "name": "Makir", "country": "PH", "coord": {"lon": 124.304169, "lat": 7.03083}}, {"id": 1701186, "name": "Makiwalo", "country": "PH", "coord": {"lon": 124.706001, "lat": 12.5101}}, {"id": 702320, "name": "Makiyivka", "country": "UA", "coord": {"lon": 37.925758, "lat": 48.047821}}, {"id": 2129327, "name": "Makkari", "country": "JP", "coord": {"lon": 140.802505, "lat": 42.757778}}, {"id": 2020559, "name": "Makkaveyevo", "country": "RU", "coord": {"lon": 113.945396, "lat": 51.75325}}, {"id": 646900, "name": "Makkola", "country": "FI", "coord": {"lon": 28.91667, "lat": 61.966671}}, {"id": 6943727, "name": "Makkovik", "country": "CA", "coord": {"lon": -59.168419, "lat": 55.08672}}, {"id": 2751253, "name": "Makkum", "country": "NL", "coord": {"lon": 5.67946, "lat": 53.095131}}, {"id": 2751254, "name": "Makkum", "country": "NL", "coord": {"lon": 5.40231, "lat": 53.054581}}, {"id": 717904, "name": "Maklar", "country": "HU", "coord": {"lon": 20.41667, "lat": 47.799999}}, {"id": 532023, "name": "Maklino", "country": "RU", "coord": {"lon": 36.469143, "lat": 54.99263}}, {"id": 717902, "name": "Mako", "country": "HU", "coord": {"lon": 20.48333, "lat": 46.216671}}, {"id": 933446, "name": "Makoba", "country": "BW", "coord": {"lon": 27.116671, "lat": -23.48333}}, {"id": 933313, "name": "Makobeng", "country": "BW", "coord": {"lon": 27.66766, "lat": -22.99637}}, {"id": 2874146, "name": "Makofen", "country": "DE", "coord": {"lon": 12.74474, "lat": 48.808949}}, {"id": 2399371, "name": "Makokou", "country": "GA", "coord": {"lon": 12.86419, "lat": 0.57381}}, {"id": 3195883, "name": "Makole", "country": "SI", "coord": {"lon": 15.66722, "lat": 46.317219}}, {"id": 729404, "name": "Makotsevo", "country": "BG", "coord": {"lon": 23.799999, "lat": 42.683331}}, {"id": 1801383, "name": "Makou", "country": "CN", "coord": {"lon": 115.761482, "lat": 28.956841}}, {"id": 2257879, "name": "Makoua", "country": "CG", "coord": {"lon": 15.63333, "lat": 0.00694}}, {"id": 2490297, "name": "Makouda", "country": "DZ", "coord": {"lon": 4.06273, "lat": 36.785671}}, {"id": 765442, "name": "Makow", "country": "PL", "coord": {"lon": 20.052111, "lat": 51.94696}}, {"id": 765430, "name": "Makow Mazowiecki", "country": "PL", "coord": {"lon": 21.100531, "lat": 52.864929}}, {"id": 3092517, "name": "Makow Podhalanski", "country": "PL", "coord": {"lon": 19.677111, "lat": 49.73008}}, {"id": 257975, "name": "Makrakomi", "country": "GR", "coord": {"lon": 22.116671, "lat": 38.933331}}, {"id": 1264206, "name": "Makrana", "country": "IN", "coord": {"lon": 74.716667, "lat": 27.049999}}, {"id": 257936, "name": "Makrinitsa", "country": "GR", "coord": {"lon": 22.98333, "lat": 39.400002}}, {"id": 257923, "name": "Makrisia", "country": "GR", "coord": {"lon": 21.6, "lat": 37.616669}}, {"id": 735347, "name": "Makrochorion", "country": "GR", "coord": {"lon": 22.25, "lat": 40.551392}}, {"id": 7668056, "name": "Makry Gialos", "country": "GR", "coord": {"lon": 25.972191, "lat": 35.037022}}, {"id": 257948, "name": "Makrychori", "country": "GR", "coord": {"lon": 22.48333, "lat": 39.799999}}, {"id": 257949, "name": "Makrychorion", "country": "GR", "coord": {"lon": 21.966391, "lat": 39.439999}}, {"id": 735348, "name": "Makrygialos", "country": "GR", "coord": {"lon": 22.602779, "lat": 40.416389}}, {"id": 531979, "name": "Maksatikha", "country": "RU", "coord": {"lon": 35.882542, "lat": 57.796951}}, {"id": 1264198, "name": "Maksi", "country": "IN", "coord": {"lon": 76.150002, "lat": 23.26667}}, {"id": 531901, "name": "Maksim", "country": "RU", "coord": {"lon": 57.222301, "lat": 62.616241}}, {"id": 2020556, "name": "Maksimikha", "country": "RU", "coord": {"lon": 108.716667, "lat": 53.25}}, {"id": 531919, "name": "Maksimovka", "country": "RU", "coord": {"lon": 36.846943, "lat": 55.963333}}, {"id": 531908, "name": "Maksimovo", "country": "RU", "coord": {"lon": 35.972946, "lat": 56.339619}}, {"id": 822693, "name": "Maksimovo", "country": "RU", "coord": {"lon": 30.597219, "lat": 56.375561}}, {"id": 531898, "name": "Maksimovo-Novogrushevskiy", "country": "RU", "coord": {"lon": 40.200001, "lat": 47.650002}}, {"id": 6607949, "name": "Maksimovskoye", "country": "RU", "coord": {"lon": 43.84, "lat": 56.52}}, {"id": 1521216, "name": "Maksut", "country": "KZ", "coord": {"lon": 62.997501, "lat": 52.158329}}, {"id": 2469341, "name": "Maktar", "country": "TN", "coord": {"lon": 9.20072, "lat": 35.857979}}, {"id": 2129324, "name": "Makubetsu", "country": "JP", "coord": {"lon": 141.821106, "lat": 45.371391}}, {"id": 188080, "name": "Makueni", "country": "KE", "coord": {"lon": 37.620338, "lat": -1.80409}}, {"id": 7780044, "name": "Makui", "country": "ID", "coord": {"lon": 105.8312, "lat": -6.3731}}, {"id": 1264196, "name": "Makum", "country": "IN", "coord": {"lon": 95.449997, "lat": 27.5}}, {"id": 155101, "name": "Makumbako", "country": "TZ", "coord": {"lon": 34.833328, "lat": -8.85}}, {"id": 155093, "name": "Makungu", "country": "TZ", "coord": {"lon": 35.283329, "lat": -8.73333}}, {"id": 7628283, "name": "Makur", "country": "FM", "coord": {"lon": 150.127502, "lat": 8.985}}, {"id": 7626967, "name": "Makur Municipality", "country": "FM", "coord": {"lon": 150.126007, "lat": 8.985}}, {"id": 1857712, "name": "Makurazaki", "country": "JP", "coord": {"lon": 130.316666, "lat": 31.26667}}, {"id": 2331140, "name": "Makurdi", "country": "NG", "coord": {"lon": 8.5121, "lat": 7.7411}}, {"id": 1500036, "name": "Makushino", "country": "RU", "coord": {"lon": 67.244171, "lat": 55.210281}}, {"id": 887648, "name": "Makuti", "country": "ZW", "coord": {"lon": 29.251921, "lat": -16.316481}}, {"id": 155076, "name": "Makuyuni", "country": "TZ", "coord": {"lon": 38.099998, "lat": -4.73333}}, {"id": 6064638, "name": "Makwa", "country": "CA", "coord": {"lon": -108.918159, "lat": 54.000198}}, {"id": 933437, "name": "Makwata", "country": "BW", "coord": {"lon": 27.299999, "lat": -23.283331}}, {"id": 1283085, "name": "Makw\u0101npur", "country": "NP", "coord": {"lon": 85.25, "lat": 27.41667}}, {"id": 7531204, "name": "Mak\u00f3w Mazowiecki", "country": "PL", "coord": {"lon": 21.093109, "lat": 52.861759}}, {"id": 7532983, "name": "Mak\u00f3w Podhala\u0144ski", "country": "PL", "coord": {"lon": 19.6607, "lat": 49.739799}}, {"id": 3845082, "name": "Mal Paso", "country": "AR", "coord": {"lon": -64.312477, "lat": -27.7377}}, {"id": 530397, "name": "Mal'tsev", "country": "RU", "coord": {"lon": 39.635277, "lat": 45.730556}}, {"id": 3935572, "name": "Mala", "country": "PE", "coord": {"lon": -76.630829, "lat": -12.65806}}, {"id": 2693152, "name": "Mala", "country": "SE", "coord": {"lon": 18.74243, "lat": 65.185013}}, {"id": 702246, "name": "Mala Bilozerka", "country": "UA", "coord": {"lon": 34.93457, "lat": 47.247372}}, {"id": 702231, "name": "Mala Danylivka", "country": "UA", "coord": {"lon": 36.165642, "lat": 50.063541}}, {"id": 3195839, "name": "Mala Kladusa", "country": "BA", "coord": {"lon": 15.85861, "lat": 45.134171}}, {"id": 788315, "name": "Mala Mostanica", "country": "RS", "coord": {"lon": 20.30278, "lat": 44.646111}}, {"id": 3071223, "name": "Mala Skala", "country": "CZ", "coord": {"lon": 15.19543, "lat": 50.646309}}, {"id": 3071213, "name": "Mala Strana", "country": "CZ", "coord": {"lon": 14.40449, "lat": 50.087742}}, {"id": 702153, "name": "Mala Tokmachka", "country": "UA", "coord": {"lon": 35.892929, "lat": 47.535629}}, {"id": 702147, "name": "Mala Vyska", "country": "UA", "coord": {"lon": 31.63657, "lat": 48.643082}}, {"id": 7535566, "name": "Mala Wies", "country": "PL", "coord": {"lon": 20.10223, "lat": 52.45779}}, {"id": 625614, "name": "Mala-Uzhanka", "country": "BY", "coord": {"lon": 26.566668, "lat": 53.299999}}, {"id": 188025, "name": "Malaba", "country": "KE", "coord": {"lon": 34.2756, "lat": 0.63457}}, {"id": 1703383, "name": "Malabag", "country": "PH", "coord": {"lon": 120.967506, "lat": 14.13938}}, {"id": 1703372, "name": "Malabago", "country": "PH", "coord": {"lon": 120.354698, "lat": 15.9743}}, {"id": 7610855, "name": "Malabai", "country": "ID", "coord": {"lon": 121.151398, "lat": -8.5605}}, {"id": 1703357, "name": "Malabanan", "country": "PH", "coord": {"lon": 121.133331, "lat": 14}}, {"id": 1703355, "name": "Malabanban Norte", "country": "PH", "coord": {"lon": 121.466667, "lat": 13.93333}}, {"id": 1703352, "name": "Malabang", "country": "PH", "coord": {"lon": 124.070282, "lat": 7.59028}}, {"id": 2159018, "name": "Malabar", "country": "AU", "coord": {"lon": 151.25, "lat": -33.966671}}, {"id": 8053113, "name": "Malabar", "country": "ID", "coord": {"lon": 108.467598, "lat": -7.4868}}, {"id": 8072407, "name": "Malabar", "country": "ID", "coord": {"lon": 108.686203, "lat": -7.3041}}, {"id": 4163232, "name": "Malabar", "country": "US", "coord": {"lon": -80.565613, "lat": 28.00363}}, {"id": 7389765, "name": "Malabhaga", "country": "ID", "coord": {"lon": 121.005699, "lat": -8.884}}, {"id": 908248, "name": "Malabo", "country": "ZM", "coord": {"lon": 28.66667, "lat": -13}}, {"id": 2309527, "name": "Malabo", "country": "GQ", "coord": {"lon": 8.78333, "lat": 3.75}}, {"id": 1703323, "name": "Malabog", "country": "PH", "coord": {"lon": 123.686501, "lat": 13.1738}}, {"id": 1703319, "name": "Malabon", "country": "PH", "coord": {"lon": 119.937897, "lat": 15.6361}}, {"id": 1703320, "name": "Malabon", "country": "PH", "coord": {"lon": 120.93972, "lat": 14.67333}}, {"id": 1703315, "name": "Malabor", "country": "PH", "coord": {"lon": 122.046608, "lat": 11.27292}}, {"id": 3430940, "name": "Malabrigo", "country": "AR", "coord": {"lon": -59.96957, "lat": -29.346359}}, {"id": 1703306, "name": "Malabugas", "country": "PH", "coord": {"lon": 122.767776, "lat": 9.36806}}, {"id": 1703298, "name": "Malabuyoc", "country": "PH", "coord": {"lon": 123.325203, "lat": 9.6525}}, {"id": 3458121, "name": "Malacacheta", "country": "BR", "coord": {"lon": -42.076672, "lat": -17.84222}}, {"id": 1703289, "name": "Malacampa", "country": "PH", "coord": {"lon": 120.409302, "lat": 15.6483}}, {"id": 3592753, "name": "Malacatan", "country": "GT", "coord": {"lon": -92.050003, "lat": 14.9}}, {"id": 3592751, "name": "Malacatancito", "country": "GT", "coord": {"lon": -91.51667, "lat": 15.21667}}, {"id": 3523697, "name": "Malacatepec", "country": "MX", "coord": {"lon": -98.300003, "lat": 18.933331}}, {"id": 3058897, "name": "Malacky", "country": "SK", "coord": {"lon": 17.021879, "lat": 48.436039}}, {"id": 5600035, "name": "Malad City", "country": "US", "coord": {"lon": -112.250801, "lat": 42.191589}}, {"id": 7286422, "name": "Maladers", "country": "CH", "coord": {"lon": 9.57234, "lat": 46.844688}}, {"id": 625625, "name": "Maladzyechna", "country": "BY", "coord": {"lon": 26.864361, "lat": 54.320518}}, {"id": 5881410, "name": "Malaeimi", "country": "AS", "coord": {"lon": -170.733887, "lat": -14.32278}}, {"id": 3675605, "name": "Malaga", "country": "CO", "coord": {"lon": -72.73233, "lat": 6.69903}}, {"id": 5802209, "name": "Malaga", "country": "US", "coord": {"lon": -120.20118, "lat": 47.372349}}, {"id": 2514256, "name": "Malaga", "country": "ES", "coord": {"lon": -4.42034, "lat": 36.720161}}, {"id": 1703269, "name": "Malaga", "country": "PH", "coord": {"lon": 124.379723, "lat": 12.23833}}, {"id": 3117651, "name": "Malaga del Fresno", "country": "ES", "coord": {"lon": -3.24465, "lat": 40.787399}}, {"id": 6534990, "name": "Malagnino", "country": "IT", "coord": {"lon": 10.11477, "lat": 45.134769}}, {"id": 2514252, "name": "Malagon", "country": "ES", "coord": {"lon": -3.85419, "lat": 39.166679}}, {"id": 1703243, "name": "Malagos", "country": "PH", "coord": {"lon": 125.422218, "lat": 7.185}}, {"id": 3845202, "name": "Malagueno", "country": "AR", "coord": {"lon": -64.358398, "lat": -31.46467}}, {"id": 6357941, "name": "Malaguilla", "country": "ES", "coord": {"lon": -3.26577, "lat": 40.83947}}, {"id": 3117648, "name": "Malaguilla", "country": "ES", "coord": {"lon": -3.2545, "lat": 40.819561}}, {"id": 6357146, "name": "Malag\u00f3n", "country": "ES", "coord": {"lon": -4.00053, "lat": 39.213921}}, {"id": 7389510, "name": "Malahar", "country": "ID", "coord": {"lon": 120.071899, "lat": -9.9492}}, {"id": 2962725, "name": "Malahide", "country": "IE", "coord": {"lon": -6.15444, "lat": 53.450829}}, {"id": 674038, "name": "Malaia", "country": "RO", "coord": {"lon": 24.033331, "lat": 45.349998}}, {"id": 1703220, "name": "Malaiba", "country": "PH", "coord": {"lon": 123.316673, "lat": 10.33333}}, {"id": 6445632, "name": "Malaincourt", "country": "FR", "coord": {"lon": 5.76667, "lat": 48.216671}}, {"id": 2996518, "name": "Malaincourt", "country": "FR", "coord": {"lon": 5.76402, "lat": 48.219398}}, {"id": 1703211, "name": "Malainen Luma", "country": "PH", "coord": {"lon": 120.788399, "lat": 14.2703}}, {"id": 1703221, "name": "Malajog", "country": "PH", "coord": {"lon": 124.479172, "lat": 12.11056}}, {"id": 370737, "name": "Malakal", "country": "SS", "coord": {"lon": 31.66048, "lat": 9.53342}}, {"id": 1171389, "name": "Malakand", "country": "PK", "coord": {"lon": 71.930428, "lat": 34.565609}}, {"id": 531820, "name": "Malakhovka", "country": "RU", "coord": {"lon": 38.02486, "lat": 55.647758}}, {"id": 531808, "name": "Malakhovo", "country": "RU", "coord": {"lon": 38.235558, "lat": 55.488335}}, {"id": 6609039, "name": "Malakhovo", "country": "RU", "coord": {"lon": 42.380001, "lat": 56.77}}, {"id": 531791, "name": "Malakhovskiye Vyselki", "country": "RU", "coord": {"lon": 40.299999, "lat": 54.950001}}, {"id": 6451972, "name": "Malakoff", "country": "FR", "coord": {"lon": 2.3, "lat": 48.816669}}, {"id": 2996514, "name": "Malakoff", "country": "FR", "coord": {"lon": 2.29998, "lat": 48.819988}}, {"id": 4708877, "name": "Malakoff", "country": "US", "coord": {"lon": -96.012466, "lat": 32.169601}}, {"id": 6064699, "name": "Malakwa", "country": "CA", "coord": {"lon": -118.802338, "lat": 50.933128}}, {"id": 1171376, "name": "Malakwal", "country": "PK", "coord": {"lon": 73.212341, "lat": 32.553619}}, {"id": 6457378, "name": "Malakwal City", "country": "PK", "coord": {"lon": 73.212196, "lat": 32.55492}}, {"id": 1453263, "name": "Malaky\u0101r K\u00ealay", "country": "AF", "coord": {"lon": 69.118011, "lat": 32.923309}}, {"id": 1703187, "name": "Malalag", "country": "PH", "coord": {"lon": 125.39917, "lat": 6.59583}}, {"id": 3174198, "name": "Malalbergo", "country": "IT", "coord": {"lon": 11.53221, "lat": 44.71867}}, {"id": 3675595, "name": "Malambo", "country": "CO", "coord": {"lon": -74.773857, "lat": 10.85953}}, {"id": 1703143, "name": "Malamig", "country": "PH", "coord": {"lon": 121.366669, "lat": 12.95}}, {"id": 1703134, "name": "Malamote", "country": "PH", "coord": {"lon": 124.940002, "lat": 7.07389}}, {"id": 2208265, "name": "Malampa Province", "country": "VU", "coord": {"lon": 167.75, "lat": -16.25}}, {"id": 155056, "name": "Malampaka", "country": "TZ", "coord": {"lon": 33.533329, "lat": -3.13333}}, {"id": 1703119, "name": "Malanay", "country": "PH", "coord": {"lon": 120.408798, "lat": 16.008801}}, {"id": 2159006, "name": "Malanda", "country": "AU", "coord": {"lon": 145.600006, "lat": -17.35}}, {"id": 1978565, "name": "Malandag", "country": "PH", "coord": {"lon": 125.242783, "lat": 6.30944}}, {"id": 1703116, "name": "Malanday", "country": "PH", "coord": {"lon": 121.1306, "lat": 14.7069}}, {"id": 1636722, "name": "Malang", "country": "ID", "coord": {"lon": 112.630402, "lat": -7.9797}}, {"id": 188011, "name": "Malanga", "country": "KE", "coord": {"lon": 34.43528, "lat": 0.12194}}, {"id": 1703108, "name": "Malangabang", "country": "PH", "coord": {"lon": 123.2062, "lat": 11.2367}}, {"id": 155052, "name": "Malangali", "country": "TZ", "coord": {"lon": 34.849998, "lat": -8.56667}}, {"id": 8058083, "name": "Malangan", "country": "ID", "coord": {"lon": 111.134102, "lat": -6.8033}}, {"id": 1703101, "name": "Malangas", "country": "PH", "coord": {"lon": 123.03167, "lat": 7.63028}}, {"id": 6728343, "name": "Malangas", "country": "PH", "coord": {"lon": 123.025497, "lat": 7.6192}}, {"id": 1636709, "name": "Malangbong", "country": "ID", "coord": {"lon": 108.087601, "lat": -7.0603}}, {"id": 1636704, "name": "Malangnengah", "country": "ID", "coord": {"lon": 106.359703, "lat": -6.529}}, {"id": 1283082, "name": "Malangwa", "country": "NP", "coord": {"lon": 85.558113, "lat": 26.856791}}, {"id": 2239861, "name": "Malanje", "country": "AO", "coord": {"lon": 14.92634, "lat": -9.96361}}, {"id": 2239862, "name": "Malanje", "country": "AO", "coord": {"lon": 16.34096, "lat": -9.54015}}, {"id": 2239858, "name": "Malanje Province", "country": "AO", "coord": {"lon": 16.825529, "lat": -9.67548}}, {"id": 3092490, "name": "Malanow", "country": "PL", "coord": {"lon": 18.391279, "lat": 51.953579}}, {"id": 6362843, "name": "Malanquilla", "country": "ES", "coord": {"lon": -1.87823, "lat": 41.577862}}, {"id": 3117647, "name": "Malanquilla", "country": "ES", "coord": {"lon": -1.87482, "lat": 41.568562}}, {"id": 2659784, "name": "Malans", "country": "CH", "coord": {"lon": 9.57527, "lat": 46.980961}}, {"id": 2996505, "name": "Malansac", "country": "FR", "coord": {"lon": -2.29543, "lat": 47.677238}}, {"id": 8063455, "name": "Malanshof", "country": "ZA", "coord": {"lon": 27.976, "lat": -26.0951}}, {"id": 2392837, "name": "Malanville", "country": "BJ", "coord": {"lon": 3.38989, "lat": 11.86846}}, {"id": 816451, "name": "Malan\u2019ino", "country": "RU", "coord": {"lon": 36.655556, "lat": 55.150002}}, {"id": 1702963, "name": "Malaoa", "country": "PH", "coord": {"lon": 120.278297, "lat": 15.9584}}, {"id": 1703062, "name": "Malapag", "country": "PH", "coord": {"lon": 124.816673, "lat": 7.13333}}, {"id": 1703051, "name": "Malapatan", "country": "PH", "coord": {"lon": 125.289436, "lat": 5.96917}}, {"id": 7610693, "name": "Malapaubhara", "country": "ID", "coord": {"lon": 121.124397, "lat": -8.6467}}, {"id": 7610616, "name": "Malapedo B", "country": "ID", "coord": {"lon": 120.913696, "lat": -8.918}}, {"id": 1264154, "name": "Malappuram", "country": "IN", "coord": {"lon": 76.066673, "lat": 11.06667}}, {"id": 125188, "name": "Malard", "country": "IR", "coord": {"lon": 50.9767, "lat": 35.665901}}, {"id": 3845181, "name": "Malarg\u00fce", "country": "AR", "coord": {"lon": -69.584267, "lat": -35.47546}}, {"id": 6695952, "name": "Malarm", "country": "HR", "coord": {"lon": 15.97716, "lat": 45.75758}}, {"id": 6064704, "name": "Malartic", "country": "CA", "coord": {"lon": -78.132828, "lat": 48.13348}}, {"id": 1703027, "name": "Malaruhatan", "country": "PH", "coord": {"lon": 120.680397, "lat": 14.0306}}, {"id": 625539, "name": "Malaryta", "country": "BY", "coord": {"lon": 24.073999, "lat": 51.790501}}, {"id": 1703020, "name": "Malasila", "country": "PH", "coord": {"lon": 125.12944, "lat": 6.94389}}, {"id": 1703012, "name": "Malasin", "country": "PH", "coord": {"lon": 121.785744, "lat": 16.80286}}, {"id": 1703013, "name": "Malasin", "country": "PH", "coord": {"lon": 121.106201, "lat": 16.304501}}, {"id": 1703010, "name": "Malasiqui", "country": "PH", "coord": {"lon": 120.414001, "lat": 15.9201}}, {"id": 1703005, "name": "Malasugui", "country": "PH", "coord": {"lon": 122.847099, "lat": 14.1439}}, {"id": 7567833, "name": "Malata", "country": "ID", "coord": {"lon": 119.384499, "lat": -9.4466}}, {"id": 1041510, "name": "Malatane", "country": "MZ", "coord": {"lon": 39.93306, "lat": -16.19194}}, {"id": 1703003, "name": "Malatap", "country": "PH", "coord": {"lon": 122.511902, "lat": 14.1871}}, {"id": 2996498, "name": "Malataverne", "country": "FR", "coord": {"lon": 4.75208, "lat": 44.48727}}, {"id": 304922, "name": "Malatya", "country": "TR", "coord": {"lon": 38.316669, "lat": 38.350182}}, {"id": 304919, "name": "Malatya", "country": "TR", "coord": {"lon": 38, "lat": 38.5}}, {"id": 2996495, "name": "Malaucene", "country": "FR", "coord": {"lon": 5.13294, "lat": 44.172401}}, {"id": 2996492, "name": "Malaunay", "country": "FR", "coord": {"lon": 1.04292, "lat": 49.5271}}, {"id": 8052139, "name": "Malausma Kidul", "country": "ID", "coord": {"lon": 108.251297, "lat": -7.044}}, {"id": 6440497, "name": "Malaussanne", "country": "FR", "coord": {"lon": -0.46667, "lat": 43.566669}}, {"id": 2996486, "name": "Malaussanne", "country": "FR", "coord": {"lon": -0.47274, "lat": 43.559052}}, {"id": 1264138, "name": "Malaut", "country": "IN", "coord": {"lon": 74.48333, "lat": 30.216669}}, {"id": 6440074, "name": "Malauzat", "country": "FR", "coord": {"lon": 3.05, "lat": 45.849998}}, {"id": 2996484, "name": "Malauzat", "country": "FR", "coord": {"lon": 3.053, "lat": 45.847462}}, {"id": 1264136, "name": "Malavalli", "country": "IN", "coord": {"lon": 77.083328, "lat": 12.38333}}, {"id": 1702962, "name": "Malawag", "country": "PH", "coord": {"lon": 123.283333, "lat": 13.38333}}, {"id": 7610814, "name": "Malawona", "country": "ID", "coord": {"lon": 121.230904, "lat": -8.6136}}, {"id": 646876, "name": "Malax", "country": "FI", "coord": {"lon": 21.58333, "lat": 62.916672}}, {"id": 646875, "name": "Malax", "country": "FI", "coord": {"lon": 21.573111, "lat": 62.942249}}, {"id": 1702953, "name": "Malay", "country": "PH", "coord": {"lon": 121.909111, "lat": 11.90027}}, {"id": 2996477, "name": "Malay-le-Grand", "country": "FR", "coord": {"lon": 3.34189, "lat": 48.175892}}, {"id": 1702949, "name": "Malaya", "country": "PH", "coord": {"lon": 121.338501, "lat": 14.3971}}, {"id": 570032, "name": "Malaya Chalmpushka", "country": "RU", "coord": {"lon": 33.230831, "lat": 69.050003}}, {"id": 531707, "name": "Malaya Chernogolovka", "country": "RU", "coord": {"lon": 38.383331, "lat": 56}}, {"id": 531691, "name": "Malaya Dubna", "country": "RU", "coord": {"lon": 38.958611, "lat": 55.875832}}, {"id": 531680, "name": "Malaya Gat'", "country": "RU", "coord": {"lon": 36.01667, "lat": 52.900002}}, {"id": 531564, "name": "Malaya Kulikovka", "country": "RU", "coord": {"lon": 36.166672, "lat": 52.900002}}, {"id": 531562, "name": "Malaya Kumuzh\u2019ya", "country": "RU", "coord": {"lon": 32.883331, "lat": 67.933334}}, {"id": 531556, "name": "Malaya Kushel\u00ebvka", "country": "RU", "coord": {"lon": 30.383333, "lat": 59.983334}}, {"id": 531483, "name": "Malaya Okhta", "country": "RU", "coord": {"lon": 30.4125, "lat": 59.928333}}, {"id": 531478, "name": "Malaya Orlovka", "country": "RU", "coord": {"lon": 30.716669, "lat": 58.216671}}, {"id": 531426, "name": "Malaya Purga", "country": "RU", "coord": {"lon": 53.004341, "lat": 56.55666}}, {"id": 531383, "name": "Malaya Serdoba", "country": "RU", "coord": {"lon": 44.951199, "lat": 52.466099}}, {"id": 531377, "name": "Malaya Setun\u2019", "country": "RU", "coord": {"lon": 37.383331, "lat": 55.716667}}, {"id": 818477, "name": "Malaya Slobodka", "country": "RU", "coord": {"lon": 36.024082, "lat": 54.442394}}, {"id": 531257, "name": "Malaya Vishera", "country": "RU", "coord": {"lon": 32.222179, "lat": 58.845379}}, {"id": 6417174, "name": "Malaya Volodarka", "country": "RU", "coord": {"lon": 37.958332, "lat": 55.49889}}, {"id": 531232, "name": "Malaya Yablonovka", "country": "RU", "coord": {"lon": 30.433332, "lat": 59.933334}}, {"id": 2020451, "name": "Malaya Yelanka", "country": "RU", "coord": {"lon": 104.056107, "lat": 52.361938}}, {"id": 1702944, "name": "Malayal", "country": "PH", "coord": {"lon": 121.942039, "lat": 7.20801}}, {"id": 1702934, "name": "Malaybalay", "country": "PH", "coord": {"lon": 125.083328, "lat": 8.15}}, {"id": 125185, "name": "Malayer", "country": "IR", "coord": {"lon": 48.823502, "lat": 34.296902}}, {"id": 1703238, "name": "Malayo-an", "country": "PH", "coord": {"lon": 123.009102, "lat": 11.0979}}, {"id": 1733045, "name": "Malaysia", "country": "MY", "coord": {"lon": 112.5, "lat": 2.5}}, {"id": 304916, "name": "Malazgirt", "country": "TR", "coord": {"lon": 42.540081, "lat": 39.142651}}, {"id": 1702912, "name": "Malbang", "country": "PH", "coord": {"lon": 125.04528, "lat": 5.85556}}, {"id": 6554460, "name": "Malberg", "country": "DE", "coord": {"lon": 6.58333, "lat": 50.049999}}, {"id": 2874142, "name": "Malberg", "country": "DE", "coord": {"lon": 6.58333, "lat": 50.049999}}, {"id": 6554461, "name": "Malbergweich", "country": "DE", "coord": {"lon": 6.55, "lat": 50.049999}}, {"id": 2874139, "name": "Malbergweich", "country": "DE", "coord": {"lon": 6.55, "lat": 50.049999}}, {"id": 3174190, "name": "Malborghetto Valbruna", "country": "IT", "coord": {"lon": 13.44, "lat": 46.512779}}, {"id": 7531264, "name": "Malbork", "country": "PL", "coord": {"lon": 19.04435, "lat": 54.028461}}, {"id": 3092472, "name": "Malbork", "country": "PL", "coord": {"lon": 19.0266, "lat": 54.035912}}, {"id": 6554349, "name": "Malborn", "country": "DE", "coord": {"lon": 6.98333, "lat": 49.716702}}, {"id": 2874137, "name": "Malborn", "country": "DE", "coord": {"lon": 6.98333, "lat": 49.716671}}, {"id": 1702889, "name": "Malbug", "country": "PH", "coord": {"lon": 123.646103, "lat": 12.0563}}, {"id": 1702892, "name": "Malbug", "country": "PH", "coord": {"lon": 123.340202, "lat": 9.7327}}, {"id": 3174188, "name": "Malcesine", "country": "IT", "coord": {"lon": 10.81088, "lat": 45.763691}}, {"id": 2874134, "name": "Malchen", "country": "DE", "coord": {"lon": 8.65167, "lat": 49.789169}}, {"id": 6460259, "name": "Malchika", "country": "BG", "coord": {"lon": 25.1, "lat": 43.416672}}, {"id": 729392, "name": "Malchika", "country": "BG", "coord": {"lon": 25.1, "lat": 43.416672}}, {"id": 2874131, "name": "Malchin", "country": "DE", "coord": {"lon": 12.78333, "lat": 53.73333}}, {"id": 6556529, "name": "Malching", "country": "DE", "coord": {"lon": 13.1924, "lat": 48.360802}}, {"id": 2874127, "name": "Malching", "country": "DE", "coord": {"lon": 13.18746, "lat": 48.31226}}, {"id": 2874122, "name": "Malchow", "country": "DE", "coord": {"lon": 12.4221, "lat": 53.47477}}, {"id": 2874120, "name": "Malchow", "country": "DE", "coord": {"lon": 13.48334, "lat": 52.583019}}, {"id": 6355942, "name": "Malcocinado", "country": "ES", "coord": {"lon": -5.70725, "lat": 38.13092}}, {"id": 2514243, "name": "Malcocinado", "country": "ES", "coord": {"lon": -5.68333, "lat": 38.116669}}, {"id": 3092468, "name": "Malczyce", "country": "PL", "coord": {"lon": 16.49365, "lat": 51.220379}}, {"id": 674030, "name": "Maldaeni", "country": "RO", "coord": {"lon": 24.933331, "lat": 44.116669}}, {"id": 674025, "name": "Maldaresti", "country": "RO", "coord": {"lon": 24, "lat": 45.116669}}, {"id": 2791858, "name": "Maldegem", "country": "BE", "coord": {"lon": 3.44716, "lat": 51.201462}}, {"id": 2791857, "name": "Maldegem", "country": "BE", "coord": {"lon": 3.44511, "lat": 51.207371}}, {"id": 2643162, "name": "Malden", "country": "GB", "coord": {"lon": -0.25, "lat": 51.400002}}, {"id": 4942939, "name": "Malden", "country": "US", "coord": {"lon": -71.066162, "lat": 42.425098}}, {"id": 4396871, "name": "Malden", "country": "US", "coord": {"lon": -89.966476, "lat": 36.556999}}, {"id": 2643160, "name": "Maldon", "country": "GB", "coord": {"lon": 0.67463, "lat": 51.731098}}, {"id": 2158988, "name": "Maldon", "country": "AU", "coord": {"lon": 144.083328, "lat": -36.98333}}, {"id": 7290545, "name": "Maldon District", "country": "GB", "coord": {"lon": 0.78731, "lat": 51.723282}}, {"id": 3441894, "name": "Maldonado", "country": "UY", "coord": {"lon": -54.950001, "lat": -34.900002}}, {"id": 3092467, "name": "Maldyty", "country": "PL", "coord": {"lon": 19.74398, "lat": 53.919811}}, {"id": 1282027, "name": "Male", "country": "MV", "coord": {"lon": 73.508881, "lat": 4.1748}}, {"id": 3174186, "name": "Male", "country": "IT", "coord": {"lon": 10.91287, "lat": 46.351608}}, {"id": 7021078, "name": "Male Sadove", "country": "UA", "coord": {"lon": 33.840729, "lat": 44.63913}}, {"id": 3071148, "name": "Male Svatonovice", "country": "CZ", "coord": {"lon": 16.04978, "lat": 50.533951}}, {"id": 2158985, "name": "Malebo", "country": "AU", "coord": {"lon": 147.266663, "lat": -35.066669}}, {"id": 3092461, "name": "Malec", "country": "PL", "coord": {"lon": 19.2453, "lat": 49.921059}}, {"id": 7456254, "name": "Maledona", "country": "ID", "coord": {"lon": 119.385201, "lat": -9.723}}, {"id": 1534565, "name": "Maleevsk", "country": "KZ", "coord": {"lon": 84.286987, "lat": 49.811779}}, {"id": 1264115, "name": "Malegaon", "country": "IN", "coord": {"lon": 74.533333, "lat": 20.549999}}, {"id": 2791852, "name": "Malegem", "country": "BE", "coord": {"lon": 4.06667, "lat": 50.883331}}, {"id": 6534550, "name": "Malegno", "country": "IT", "coord": {"lon": 10.27406, "lat": 45.95079}}, {"id": 3117638, "name": "Malejan", "country": "ES", "coord": {"lon": -1.54906, "lat": 41.827621}}, {"id": 6362844, "name": "Malej\u00e1n", "country": "ES", "coord": {"lon": -1.5469, "lat": 41.828659}}, {"id": 7648440, "name": "Malem", "country": "FM", "coord": {"lon": 163.026093, "lat": 5.28599}}, {"id": 7626933, "name": "Malem Municipality", "country": "FM", "coord": {"lon": 163.016846, "lat": 5.27507}}, {"id": 2996449, "name": "Malemort-du-Comtat", "country": "FR", "coord": {"lon": 5.15991, "lat": 44.020699}}, {"id": 2996448, "name": "Malemort-sur-Correze", "country": "FR", "coord": {"lon": 1.56193, "lat": 45.17009}}, {"id": 2693081, "name": "Malen", "country": "SE", "coord": {"lon": 12.85, "lat": 56.433331}}, {"id": 6551656, "name": "Malente", "country": "DE", "coord": {"lon": 10.5552, "lat": 54.1712}}, {"id": 2874111, "name": "Malente", "country": "DE", "coord": {"lon": 10.56667, "lat": 54.183331}}, {"id": 2874110, "name": "Malente-Gremsm\u00fchlen", "country": "DE", "coord": {"lon": 10.56667, "lat": 54.183331}}, {"id": 2158983, "name": "Maleny", "country": "AU", "coord": {"lon": 152.850006, "lat": -26.75}}, {"id": 6980613, "name": "Malen\u2019ke", "country": "UA", "coord": {"lon": 34.002399, "lat": 45.076889}}, {"id": 3174183, "name": "Maleo", "country": "IT", "coord": {"lon": 9.76146, "lat": 45.167469}}, {"id": 1264111, "name": "Maler Kotla", "country": "IN", "coord": {"lon": 75.883331, "lat": 30.51667}}, {"id": 3174182, "name": "Malesco", "country": "IT", "coord": {"lon": 8.49982, "lat": 46.126381}}, {"id": 6434639, "name": "Malesherbes", "country": "FR", "coord": {"lon": 2.41667, "lat": 48.299999}}, {"id": 2996444, "name": "Malesherbes", "country": "FR", "coord": {"lon": 2.40935, "lat": 48.295658}}, {"id": 3210920, "name": "Malesici", "country": "BA", "coord": {"lon": 18.27389, "lat": 44.73806}}, {"id": 257868, "name": "Malesina", "country": "GR", "coord": {"lon": 23.23333, "lat": 38.616669}}, {"id": 2996440, "name": "Malestroit", "country": "FR", "coord": {"lon": -2.38457, "lat": 47.809341}}, {"id": 6541968, "name": "Maletto", "country": "IT", "coord": {"lon": 14.86248, "lat": 37.82996}}, {"id": 2524322, "name": "Maletto", "country": "IT", "coord": {"lon": 14.86248, "lat": 37.82996}}, {"id": 531155, "name": "Malevanyy", "country": "RU", "coord": {"lon": 39.447224, "lat": 45.536388}}, {"id": 6610268, "name": "Maleyevo", "country": "RU", "coord": {"lon": 42.709999, "lat": 56.650002}}, {"id": 4566132, "name": "Maleza", "country": "PR", "coord": {"lon": -67.128242, "lat": 18.477171}}, {"id": 3071155, "name": "Male\u0161ice", "country": "CZ", "coord": {"lon": 14.52123, "lat": 50.087742}}, {"id": 2524321, "name": "Malfa", "country": "IT", "coord": {"lon": 14.83547, "lat": 38.57597}}, {"id": 3218746, "name": "Malga Fiorentina", "country": "IT", "coord": {"lon": 12.11306, "lat": 46.439171}}, {"id": 3174159, "name": "Malga Quarazza", "country": "IT", "coord": {"lon": 11.6, "lat": 46.116669}}, {"id": 6556563, "name": "Malgersdorf", "country": "DE", "coord": {"lon": 12.7478, "lat": 48.529301}}, {"id": 2874104, "name": "Malgersdorf", "country": "DE", "coord": {"lon": 12.75, "lat": 48.533329}}, {"id": 6534398, "name": "Malgesso", "country": "IT", "coord": {"lon": 8.67553, "lat": 45.827881}}, {"id": 531129, "name": "Malgobek", "country": "RU", "coord": {"lon": 44.59306, "lat": 43.509171}}, {"id": 6533991, "name": "Malgrat de Mar", "country": "ES", "coord": {"lon": 2.74479, "lat": 41.652699}}, {"id": 3117636, "name": "Malgrat de Mar", "country": "ES", "coord": {"lon": 2.74135, "lat": 41.646622}}, {"id": 3174154, "name": "Malgrate", "country": "IT", "coord": {"lon": 9.37704, "lat": 45.847679}}, {"id": 2996427, "name": "Malguenac", "country": "FR", "coord": {"lon": -3.05248, "lat": 48.080078}}, {"id": 2737979, "name": "Malha P\u00e3ozinho", "country": "PT", "coord": {"lon": -8.57195, "lat": 40.467701}}, {"id": 3395844, "name": "Malhada Cortada", "country": "BR", "coord": {"lon": -38.299999, "lat": -7.98333}}, {"id": 3458102, "name": "Malhada dos Bois", "country": "BR", "coord": {"lon": -36.924171, "lat": -10.34944}}, {"id": 3458093, "name": "Malhador", "country": "BR", "coord": {"lon": -37.304722, "lat": -10.65778}}, {"id": 1264099, "name": "Malhargarh", "country": "IN", "coord": {"lon": 74.98333, "lat": 24.283331}}, {"id": 5738839, "name": "Malheur County", "country": "US", "coord": {"lon": -117.667671, "lat": 43.25016}}, {"id": 1702860, "name": "Malhiao", "country": "PH", "coord": {"lon": 123.406403, "lat": 9.88487}}, {"id": 8012974, "name": "Malhou", "country": "PT", "coord": {"lon": -8.69883, "lat": 39.421532}}, {"id": 2266791, "name": "Malhou", "country": "PT", "coord": {"lon": -8.68484, "lat": 39.425819}}, {"id": 1801374, "name": "Mali", "country": "CN", "coord": {"lon": 104.740898, "lat": 23.126221}}, {"id": 2417886, "name": "Mali", "country": "GN", "coord": {"lon": -12.2982, "lat": 12.079}}, {"id": 3195707, "name": "Mali Igos", "country": "RS", "coord": {"lon": 19.665279, "lat": 45.708328}}, {"id": 3195674, "name": "Mali Losinj", "country": "HR", "coord": {"lon": 14.46861, "lat": 44.53056}}, {"id": 3195627, "name": "Mali Raven", "country": "HR", "coord": {"lon": 16.48333, "lat": 45.98333}}, {"id": 3195591, "name": "Mali Zvornik", "country": "RS", "coord": {"lon": 19.10651, "lat": 44.37344}}, {"id": 1264089, "name": "Mali and Munjeri", "country": "IN", "coord": {"lon": 73.866669, "lat": 18.533331}}, {"id": 257859, "name": "Malia", "country": "GR", "coord": {"lon": 25.466669, "lat": 35.283329}}, {"id": 1801368, "name": "Malian", "country": "CN", "coord": {"lon": 108.334053, "lat": 34.368809}}, {"id": 1801367, "name": "Malianchuan", "country": "CN", "coord": {"lon": 105.924347, "lat": 35.809589}}, {"id": 1801366, "name": "Maliang", "country": "CN", "coord": {"lon": 112.547928, "lat": 30.885651}}, {"id": 3117635, "name": "Malia\u00f1o", "country": "ES", "coord": {"lon": -3.83616, "lat": 43.41832}}, {"id": 1702843, "name": "Malibago", "country": "PH", "coord": {"lon": 122.022797, "lat": 13.2783}}, {"id": 1702824, "name": "Malibong East", "country": "PH", "coord": {"lon": 120.326897, "lat": 15.8466}}, {"id": 4586163, "name": "Malibu", "country": "US", "coord": {"lon": -79.707558, "lat": 34.193771}}, {"id": 5369906, "name": "Malibu", "country": "US", "coord": {"lon": -118.810089, "lat": 34.005009}}, {"id": 5369909, "name": "Malibu Beach", "country": "US", "coord": {"lon": -118.688423, "lat": 34.032791}}, {"id": 1702814, "name": "Malicboy", "country": "PH", "coord": {"lon": 121.789169, "lat": 13.97889}}, {"id": 2996420, "name": "Malicorne-sur-Sarthe", "country": "FR", "coord": {"lon": -0.08152, "lat": 47.813171}}, {"id": 1702807, "name": "Malidong", "country": "PH", "coord": {"lon": 123.459618, "lat": 13.01333}}, {"id": 4035236, "name": "Malie", "country": "WS", "coord": {"lon": -171.846893, "lat": -13.80044}}, {"id": 1702796, "name": "Maligaya", "country": "PH", "coord": {"lon": 120.889717, "lat": 15.67417}}, {"id": 1264085, "name": "Malihabad", "country": "IN", "coord": {"lon": 80.716667, "lat": 26.916668}}, {"id": 1702777, "name": "Maliig", "country": "PH", "coord": {"lon": 120.150322, "lat": 13.84556}}, {"id": 7411459, "name": "Maliiha", "country": "ID", "coord": {"lon": 119.019501, "lat": -9.5528}}, {"id": 2996413, "name": "Malijai", "country": "FR", "coord": {"lon": 6.03195, "lat": 44.046059}}, {"id": 187977, "name": "Malikisi", "country": "KE", "coord": {"lon": 34.421669, "lat": 0.67694}}, {"id": 1702771, "name": "Maliko", "country": "PH", "coord": {"lon": 125.473892, "lat": 9.75528}}, {"id": 1513255, "name": "Malikrabot", "country": "UZ", "coord": {"lon": 65.182121, "lat": 40.128979}}, {"id": 1636663, "name": "Malili", "country": "ID", "coord": {"lon": 121.094803, "lat": -2.6351}}, {"id": 1701582, "name": "Malilinao", "country": "PH", "coord": {"lon": 124.501106, "lat": 11.10694}}, {"id": 1702764, "name": "Malilipot", "country": "PH", "coord": {"lon": 123.716667, "lat": 13.3}}, {"id": 1702763, "name": "Malilipot", "country": "PH", "coord": {"lon": 123.738503, "lat": 13.3188}}, {"id": 2693049, "name": "Malilla", "country": "SE", "coord": {"lon": 15.80675, "lat": 57.38773}}, {"id": 1958659, "name": "Malim", "country": "PH", "coord": {"lon": 123.431198, "lat": 7.452}}, {"id": 1702756, "name": "Malimono", "country": "PH", "coord": {"lon": 125.402222, "lat": 9.61806}}, {"id": 2962722, "name": "Malin", "country": "IE", "coord": {"lon": -7.26667, "lat": 55.299999}}, {"id": 1801353, "name": "Malin", "country": "CN", "coord": {"lon": 110.64167, "lat": 26.455}}, {"id": 729380, "name": "Malina", "country": "BG", "coord": {"lon": 27.000429, "lat": 42.417881}}, {"id": 3523686, "name": "Malinalco", "country": "MX", "coord": {"lon": -99.5, "lat": 18.950001}}, {"id": 1702733, "name": "Malinao", "country": "PH", "coord": {"lon": 123.706902, "lat": 13.3992}}, {"id": 1702737, "name": "Malinao", "country": "PH", "coord": {"lon": 122.308296, "lat": 11.6439}}, {"id": 1702744, "name": "Malinao", "country": "PH", "coord": {"lon": 125.286667, "lat": 6.65917}}, {"id": 1702718, "name": "Malinao Ilaya", "country": "PH", "coord": {"lon": 121.833328, "lat": 14}}, {"id": 1702708, "name": "Malinaw", "country": "PH", "coord": {"lon": 125.193062, "lat": 8.825}}, {"id": 187968, "name": "Malindi", "country": "KE", "coord": {"lon": 40.119099, "lat": -3.21748}}, {"id": 1801345, "name": "Maling", "country": "CN", "coord": {"lon": 107.643257, "lat": 36.217571}}, {"id": 1978681, "name": "Malingao", "country": "PH", "coord": {"lon": 124.474998, "lat": 7.16083}}, {"id": 1702693, "name": "Malingin", "country": "PH", "coord": {"lon": 123.98333, "lat": 11.05}}, {"id": 1636652, "name": "Malingping", "country": "ID", "coord": {"lon": 106.01767, "lat": -6.77838}}, {"id": 674011, "name": "Malini", "country": "RO", "coord": {"lon": 26.08333, "lat": 47.466671}}, {"id": 531116, "name": "Malininskiy", "country": "RU", "coord": {"lon": 40.416672, "lat": 56.416672}}, {"id": 531098, "name": "Malino", "country": "RU", "coord": {"lon": 38.18, "lat": 55.111111}}, {"id": 1689383, "name": "Malino", "country": "PH", "coord": {"lon": 120.672699, "lat": 15.1257}}, {"id": 8020218, "name": "Malinovka", "country": "BY", "coord": {"lon": 27.437401, "lat": 53.857899}}, {"id": 625550, "name": "Malinovka", "country": "BY", "coord": {"lon": 30.35, "lat": 54.433334}}, {"id": 531017, "name": "Malinovka", "country": "RU", "coord": {"lon": 30.471666, "lat": 59.951668}}, {"id": 6903743, "name": "Malinovka", "country": "RU", "coord": {"lon": 102.875603, "lat": 53.219601}}, {"id": 8146308, "name": "Malinovka", "country": "BY", "coord": {"lon": 27.9471, "lat": 53.236698}}, {"id": 1521192, "name": "Malinovka", "country": "KZ", "coord": {"lon": 78.23333, "lat": 52.416672}}, {"id": 461715, "name": "Malinovo", "country": "RU", "coord": {"lon": 38.873055, "lat": 55.748333}}, {"id": 531012, "name": "Malinovo", "country": "RU", "coord": {"lon": 42.666668, "lat": 56.133331}}, {"id": 1499779, "name": "Malinovoye Ozero", "country": "RU", "coord": {"lon": 79.782501, "lat": 51.675282}}, {"id": 1539045, "name": "Malinovskiy", "country": "RU", "coord": {"lon": 62.839722, "lat": 61.195278}}, {"id": 1702678, "name": "Malinta", "country": "PH", "coord": {"lon": 123.557503, "lat": 12.30222}}, {"id": 6440075, "name": "Malintrat", "country": "FR", "coord": {"lon": 3.2, "lat": 45.816669}}, {"id": 2996411, "name": "Malintrat", "country": "FR", "coord": {"lon": 3.18718, "lat": 45.814461}}, {"id": 155016, "name": "Malinyi", "country": "TZ", "coord": {"lon": 36.133331, "lat": -8.93333}}, {"id": 6945997, "name": "Maliotenam", "country": "CA", "coord": {"lon": -66.181641, "lat": 50.211189}}, {"id": 782393, "name": "Maliq", "country": "AL", "coord": {"lon": 20.69972, "lat": 40.70583}}, {"id": 1702652, "name": "Malisbeng", "country": "PH", "coord": {"lon": 124.354721, "lat": 6.12}}, {"id": 788239, "name": "Malisevo", "country": "XK", "coord": {"lon": 20.745831, "lat": 42.48222}}, {"id": 174828, "name": "Malishka", "country": "AM", "coord": {"lon": 45.390041, "lat": 39.737579}}, {"id": 2996408, "name": "Malissard", "country": "FR", "coord": {"lon": 4.95915, "lat": 44.902012}}, {"id": 1702649, "name": "Malita", "country": "PH", "coord": {"lon": 125.611671, "lat": 6.415}}, {"id": 1702633, "name": "Malitbog", "country": "PH", "coord": {"lon": 121.465919, "lat": 12.75212}}, {"id": 1702635, "name": "Malitbog", "country": "PH", "coord": {"lon": 124.999168, "lat": 10.16}}, {"id": 1702637, "name": "Malitbog", "country": "PH", "coord": {"lon": 124.883057, "lat": 8.53389}}, {"id": 2524319, "name": "Malito", "country": "IT", "coord": {"lon": 16.2486, "lat": 39.154991}}, {"id": 1702615, "name": "Malitubog", "country": "PH", "coord": {"lon": 124.638062, "lat": 7.31556}}, {"id": 6912522, "name": "Maliu", "country": "CN", "coord": {"lon": 106.04673, "lat": 32.525928}}, {"id": 5477770, "name": "Maljamar", "country": "US", "coord": {"lon": -103.762733, "lat": 32.856232}}, {"id": 530994, "name": "Malka", "country": "RU", "coord": {"lon": 43.324169, "lat": 43.80389}}, {"id": 248250, "name": "Malka", "country": "JO", "coord": {"lon": 35.75013, "lat": 32.673809}}, {"id": 7302828, "name": "Malkajgiri", "country": "IN", "coord": {"lon": 78.526329, "lat": 17.447809}}, {"id": 1264075, "name": "Malkangiri", "country": "IN", "coord": {"lon": 81.900002, "lat": 18.35}}, {"id": 1264071, "name": "Malkapur", "country": "IN", "coord": {"lon": 76.199997, "lat": 20.883329}}, {"id": 1264074, "name": "Malkapur", "country": "IN", "coord": {"lon": 73.916672, "lat": 16.933331}}, {"id": 741771, "name": "Malkara", "country": "TR", "coord": {"lon": 26.90111, "lat": 40.889999}}, {"id": 2874097, "name": "Malkendorf", "country": "DE", "coord": {"lon": 10.65, "lat": 53.966671}}, {"id": 1264070, "name": "Malkera", "country": "IN", "coord": {"lon": 86.300003, "lat": 23.783331}}, {"id": 935005, "name": "Malkerns", "country": "SZ", "coord": {"lon": 31.183331, "lat": -26.566669}}, {"id": 2874096, "name": "Malkes", "country": "DE", "coord": {"lon": 9.58154, "lat": 50.557831}}, {"id": 765328, "name": "Malkinia Gorna", "country": "PL", "coord": {"lon": 22.02836, "lat": 52.6922}}, {"id": 6460403, "name": "Malko Kadievo", "country": "BG", "coord": {"lon": 25.700001, "lat": 42.366669}}, {"id": 729335, "name": "Malko Kadievo", "country": "BG", "coord": {"lon": 25.700001, "lat": 42.366669}}, {"id": 729322, "name": "Malko Turnovo", "country": "BG", "coord": {"lon": 27.533331, "lat": 41.98333}}, {"id": 2158977, "name": "Mallacoota", "country": "AU", "coord": {"lon": 149.75, "lat": -37.549999}}, {"id": 167408, "name": "Mallah", "country": "SY", "coord": {"lon": 36.857189, "lat": 32.50795}}, {"id": 6064804, "name": "Mallaig", "country": "CA", "coord": {"lon": -111.368523, "lat": 54.216881}}, {"id": 7839434, "name": "Mallala", "country": "AU", "coord": {"lon": 138.427826, "lat": -34.510349}}, {"id": 2067167, "name": "Mallala", "country": "AU", "coord": {"lon": 138.5, "lat": -34.450001}}, {"id": 2158973, "name": "Mallanganee", "country": "AU", "coord": {"lon": 152.716675, "lat": -28.91667}}, {"id": 1264050, "name": "Mallapuram", "country": "IN", "coord": {"lon": 78.25, "lat": 11.96667}}, {"id": 6534374, "name": "Mallare", "country": "IT", "coord": {"lon": 8.29695, "lat": 44.289341}}, {"id": 1264047, "name": "Mallasamudram", "country": "IN", "coord": {"lon": 78.033333, "lat": 11.48333}}, {"id": 352951, "name": "Mallawi", "country": "EG", "coord": {"lon": 30.84165, "lat": 27.7314}}, {"id": 2772046, "name": "Malleisten", "country": "AT", "coord": {"lon": 15.56667, "lat": 47.583328}}, {"id": 2996398, "name": "Mallemoisson", "country": "FR", "coord": {"lon": 6.12459, "lat": 44.04813}}, {"id": 2996397, "name": "Mallemort", "country": "FR", "coord": {"lon": 5.17945, "lat": 43.73172}}, {"id": 3117623, "name": "Mallen", "country": "ES", "coord": {"lon": -1.41994, "lat": 41.900639}}, {"id": 2874083, "name": "Mallendorf", "country": "DE", "coord": {"lon": 11.55, "lat": 51.116669}}, {"id": 6548201, "name": "Mallentin", "country": "DE", "coord": {"lon": 11.0667, "lat": 53.883301}}, {"id": 2874082, "name": "Mallentin", "country": "DE", "coord": {"lon": 11.06667, "lat": 53.883331}}, {"id": 7286425, "name": "Malleray", "country": "CH", "coord": {"lon": 7.26642, "lat": 47.238091}}, {"id": 2659781, "name": "Malleray", "country": "CH", "coord": {"lon": 7.27286, "lat": 47.238392}}, {"id": 3206682, "name": "Mallersdorf-Pfaffenberg", "country": "DE", "coord": {"lon": 12.23333, "lat": 48.76667}}, {"id": 3174144, "name": "Malles Venosta", "country": "IT", "coord": {"lon": 10.54655, "lat": 46.687908}}, {"id": 2996391, "name": "Mallet", "country": "FR", "coord": {"lon": 3.13333, "lat": 44.916672}}, {"id": 1702590, "name": "Mallig", "country": "PH", "coord": {"lon": 121.610741, "lat": 17.212839}}, {"id": 1702591, "name": "Mallig", "country": "PH", "coord": {"lon": 121.68306, "lat": 17.141109}}, {"id": 6548077, "name": "Mallin", "country": "DE", "coord": {"lon": 13.1333, "lat": 53.533298}}, {"id": 2874076, "name": "Mallin", "country": "DE", "coord": {"lon": 13.13333, "lat": 53.533329}}, {"id": 2617114, "name": "Malling", "country": "DK", "coord": {"lon": 10.19632, "lat": 56.03632}}, {"id": 2874070, "name": "Malliss", "country": "DE", "coord": {"lon": 11.31667, "lat": 53.216671}}, {"id": 6547957, "name": "Malli\u00df", "country": "DE", "coord": {"lon": 11.3167, "lat": 53.216702}}, {"id": 2874066, "name": "Mallnow", "country": "DE", "coord": {"lon": 14.5, "lat": 52.450001}}, {"id": 3880827, "name": "Malloa", "country": "CL", "coord": {"lon": -70.949997, "lat": -34.450001}}, {"id": 3880825, "name": "Malloco", "country": "CL", "coord": {"lon": -70.866669, "lat": -33.616669}}, {"id": 4813648, "name": "Mallory", "country": "US", "coord": {"lon": -81.837898, "lat": 37.730659}}, {"id": 2962714, "name": "Mallow", "country": "IE", "coord": {"lon": -8.63333, "lat": 52.133331}}, {"id": 1264041, "name": "Mallur", "country": "IN", "coord": {"lon": 78.133331, "lat": 11.55}}, {"id": 6362847, "name": "Mall\u00e9n", "country": "ES", "coord": {"lon": -1.43263, "lat": 41.896278}}, {"id": 3146508, "name": "Malm", "country": "NO", "coord": {"lon": 11.21716, "lat": 64.072144}}, {"id": 2791836, "name": "Malmaison", "country": "BE", "coord": {"lon": 5.69962, "lat": 49.897228}}, {"id": 2693002, "name": "Malmback", "country": "SE", "coord": {"lon": 14.46667, "lat": 57.583328}}, {"id": 604419, "name": "Malmberget", "country": "SE", "coord": {"lon": 20.654949, "lat": 67.175293}}, {"id": 2791834, "name": "Malmedy", "country": "BE", "coord": {"lon": 6.02794, "lat": 50.426861}}, {"id": 3364346, "name": "Malmesbury", "country": "ZA", "coord": {"lon": 18.72714, "lat": -33.4608}}, {"id": 2643146, "name": "Malmesbury", "country": "GB", "coord": {"lon": -2.09708, "lat": 51.581749}}, {"id": 2692972, "name": "Malmkoping", "country": "SE", "coord": {"lon": 16.73333, "lat": 59.133331}}, {"id": 5036359, "name": "Malmo", "country": "US", "coord": {"lon": -93.519409, "lat": 46.333839}}, {"id": 4477832, "name": "Malmo", "country": "US", "coord": {"lon": -78.098877, "lat": 34.265999}}, {"id": 2692969, "name": "Malmoe", "country": "SE", "coord": {"lon": 13.00073, "lat": 55.605869}}, {"id": 2158964, "name": "Malmsbury", "country": "AU", "coord": {"lon": 144.383331, "lat": -37.183331}}, {"id": 2692943, "name": "Malmslatt", "country": "SE", "coord": {"lon": 15.51647, "lat": 58.411018}}, {"id": 7261214, "name": "Malmstrom Air Force Base", "country": "US", "coord": {"lon": -111.183022, "lat": 47.505489}}, {"id": 530972, "name": "Malmyzh", "country": "RU", "coord": {"lon": 50.681801, "lat": 56.5205}}, {"id": 2791835, "name": "Malm\u00e9dy", "country": "BE", "coord": {"lon": 6.03029, "lat": 50.426128}}, {"id": 2692965, "name": "Malm\u00f6 Kommun", "country": "SE", "coord": {"lon": 13, "lat": 55.583328}}, {"id": 674006, "name": "Malnas", "country": "RO", "coord": {"lon": 25.83333, "lat": 46.01667}}, {"id": 6540571, "name": "Malnate", "country": "IT", "coord": {"lon": 8.88193, "lat": 45.790779}}, {"id": 3174141, "name": "Malnate", "country": "IT", "coord": {"lon": 8.88193, "lat": 45.790779}}, {"id": 7036367, "name": "Malo", "country": "ID", "coord": {"lon": 111.731697, "lat": -7.1071}}, {"id": 3174139, "name": "Malo", "country": "IT", "coord": {"lon": 11.40749, "lat": 45.660301}}, {"id": 788218, "name": "Malo Crnice", "country": "RS", "coord": {"lon": 21.285561, "lat": 44.55611}}, {"id": 6461167, "name": "Malo Konare", "country": "BG", "coord": {"lon": 24.433331, "lat": 42.200001}}, {"id": 729316, "name": "Malo Konare", "country": "BG", "coord": {"lon": 24.433331, "lat": 42.200001}}, {"id": 530966, "name": "Maloarkhangelsk", "country": "RU", "coord": {"lon": 36.503319, "lat": 52.400242}}, {"id": 530803, "name": "Maloboriskovo", "country": "RU", "coord": {"lon": 40.483334, "lat": 56.483334}}, {"id": 875292, "name": "Malobun\u2019kovo", "country": "RU", "coord": {"lon": 38.43, "lat": 55.877777}}, {"id": 1702554, "name": "Malocloc", "country": "PH", "coord": {"lon": 122.678329, "lat": 11.50583}}, {"id": 1702553, "name": "Maloco", "country": "PH", "coord": {"lon": 122.152, "lat": 11.7832}}, {"id": 765313, "name": "Malogoszcz", "country": "PL", "coord": {"lon": 20.264071, "lat": 50.812141}}, {"id": 1702544, "name": "Maloh", "country": "PH", "coord": {"lon": 122.9851, "lat": 9.056}}, {"id": 2659779, "name": "Maloja", "country": "CH", "coord": {"lon": 9.69594, "lat": 46.403481}}, {"id": 702073, "name": "Malokakhovka", "country": "UA", "coord": {"lon": 33.447899, "lat": 46.781422}}, {"id": 702072, "name": "Malokaterynivka", "country": "UA", "coord": {"lon": 35.253891, "lat": 47.6525}}, {"id": 1702540, "name": "Malolos", "country": "PH", "coord": {"lon": 120.811668, "lat": 14.84194}}, {"id": 530675, "name": "Maloluchinskoye", "country": "RU", "coord": {"lon": 39.866669, "lat": 56.516666}}, {"id": 1702539, "name": "Maloma", "country": "PH", "coord": {"lon": 120.063904, "lat": 15.1135}}, {"id": 717883, "name": "Malombirtokoss\u00e1g", "country": "HU", "coord": {"lon": 20.73333, "lat": 48.299999}}, {"id": 3092402, "name": "Malomice", "country": "PL", "coord": {"lon": 15.45004, "lat": 51.555969}}, {"id": 6461379, "name": "Malomir", "country": "BG", "coord": {"lon": 26.51667, "lat": 42.283329}}, {"id": 729313, "name": "Malomir", "country": "BG", "coord": {"lon": 26.51667, "lat": 42.283329}}, {"id": 3117613, "name": "Malon", "country": "ES", "coord": {"lon": -1.67199, "lat": 41.952351}}, {"id": 4163248, "name": "Malone", "country": "US", "coord": {"lon": -85.162148, "lat": 30.957689}}, {"id": 5125717, "name": "Malone", "country": "US", "coord": {"lon": -74.294899, "lat": 44.84866}}, {"id": 3174137, "name": "Malonno", "country": "IT", "coord": {"lon": 10.32066, "lat": 46.1241}}, {"id": 6064938, "name": "Malonton", "country": "CA", "coord": {"lon": -97.215973, "lat": 50.574718}}, {"id": 3071110, "name": "Malonty", "country": "CZ", "coord": {"lon": 14.57678, "lat": 48.686111}}, {"id": 702061, "name": "Malorichenske", "country": "UA", "coord": {"lon": 34.557892, "lat": 44.758881}}, {"id": 6534629, "name": "Malosco", "country": "IT", "coord": {"lon": 11.14627, "lat": 46.436111}}, {"id": 1801330, "name": "Malou", "country": "CN", "coord": {"lon": 112.98597, "lat": 33.679871}}, {"id": 2617112, "name": "Malov", "country": "DK", "coord": {"lon": 12.32327, "lat": 55.75528}}, {"id": 674003, "name": "Malovat", "country": "RO", "coord": {"lon": 22.73111, "lat": 44.704441}}, {"id": 1521180, "name": "Malovodnoye", "country": "KZ", "coord": {"lon": 77.696938, "lat": 43.51083}}, {"id": 7040022, "name": "Malovydne", "country": "UA", "coord": {"lon": 33.81052, "lat": 44.795849}}, {"id": 3146487, "name": "Maloy", "country": "NO", "coord": {"lon": 5.11362, "lat": 61.935349}}, {"id": 530849, "name": "Maloyaroslavets", "country": "RU", "coord": {"lon": 36.471851, "lat": 55.014568}}, {"id": 6608295, "name": "Maloye Chukhovo", "country": "RU", "coord": {"lon": 43.09, "lat": 56.650002}}, {"id": 608901, "name": "Maloye Ganyushkino", "country": "KZ", "coord": {"lon": 49.26667, "lat": 46.599998}}, {"id": 530759, "name": "Maloye Gridino", "country": "RU", "coord": {"lon": 39.349998, "lat": 55.483334}}, {"id": 873803, "name": "Maloye Ivanovskoye", "country": "RU", "coord": {"lon": 38.223309, "lat": 55.241829}}, {"id": 530632, "name": "Maloye Obozero", "country": "RU", "coord": {"lon": 35.216667, "lat": 61.900002}}, {"id": 530631, "name": "Maloye Obraztsovo", "country": "RU", "coord": {"lon": 38.150002, "lat": 54.916668}}, {"id": 530629, "name": "Maloye Ogryzlovo", "country": "RU", "coord": {"lon": 37.200001, "lat": 57}}, {"id": 817258, "name": "Maloye Petrovskoye", "country": "RU", "coord": {"lon": 37.510281, "lat": 55.205559}}, {"id": 530547, "name": "Maloye Shul\u2019gino", "country": "RU", "coord": {"lon": 42.450001, "lat": 59.533329}}, {"id": 530480, "name": "Maloye Verevo", "country": "RU", "coord": {"lon": 30.172779, "lat": 59.613609}}, {"id": 530456, "name": "Maloye Yashcherevo", "country": "RU", "coord": {"lon": 37.527718, "lat": 54.946533}}, {"id": 530441, "name": "Maloye Yusupovo", "country": "RU", "coord": {"lon": 37.966671, "lat": 55.5}}, {"id": 813247, "name": "Maloye Zamosh\u2019ye", "country": "BY", "coord": {"lon": 30.309999, "lat": 54.375278}}, {"id": 6360420, "name": "Malpartida", "country": "ES", "coord": {"lon": -5.23807, "lat": 40.7616}}, {"id": 3117612, "name": "Malpartida", "country": "ES", "coord": {"lon": -5.23149, "lat": 40.762691}}, {"id": 2514227, "name": "Malpartida de Caceres", "country": "ES", "coord": {"lon": -6.5076, "lat": 39.44664}}, {"id": 6355719, "name": "Malpartida de Corneja", "country": "ES", "coord": {"lon": -5.34848, "lat": 40.516521}}, {"id": 3117611, "name": "Malpartida de Corneja", "country": "ES", "coord": {"lon": -5.35026, "lat": 40.522079}}, {"id": 6356810, "name": "Malpartida de C\u00e1ceres", "country": "ES", "coord": {"lon": -6.5067, "lat": 39.444809}}, {"id": 6356811, "name": "Malpartida de Plasencia", "country": "ES", "coord": {"lon": -6.04992, "lat": 39.931252}}, {"id": 2514225, "name": "Malpartida de Plasencia", "country": "ES", "coord": {"lon": -6.04609, "lat": 39.979622}}, {"id": 6355943, "name": "Malpartida de la Serena", "country": "ES", "coord": {"lon": -5.62408, "lat": 38.698582}}, {"id": 2514226, "name": "Malpartida de la Serena", "country": "ES", "coord": {"lon": -5.64054, "lat": 38.674702}}, {"id": 2643145, "name": "Malpas", "country": "GB", "coord": {"lon": -2.76667, "lat": 53.01667}}, {"id": 3996776, "name": "Malpaso", "country": "MX", "coord": {"lon": -102.76667, "lat": 22.616671}}, {"id": 2514232, "name": "Malpa\u00eds", "country": "ES", "coord": {"lon": -16.366671, "lat": 28.35}}, {"id": 1264037, "name": "Malpe", "country": "IN", "coord": {"lon": 74.716667, "lat": 13.35}}, {"id": 3117606, "name": "Malpica", "country": "ES", "coord": {"lon": -8.81052, "lat": 43.3228}}, {"id": 2514219, "name": "Malpica", "country": "ES", "coord": {"lon": -4.54988, "lat": 39.897461}}, {"id": 6357312, "name": "Malpica de Berganti\u00f1os", "country": "ES", "coord": {"lon": -8.82271, "lat": 43.314941}}, {"id": 457676, "name": "Malpils", "country": "LV", "coord": {"lon": 24.96306, "lat": 57.011108}}, {"id": 2791825, "name": "Malplaqu\u00e9s", "country": "BE", "coord": {"lon": 4.68333, "lat": 50.566669}}, {"id": 1264033, "name": "Malpur", "country": "IN", "coord": {"lon": 73.449997, "lat": 23.35}}, {"id": 1264031, "name": "Malpura", "country": "IN", "coord": {"lon": 77.916664, "lat": 27.116667}}, {"id": 1264032, "name": "Malpura", "country": "IN", "coord": {"lon": 75.383331, "lat": 26.283331}}, {"id": 2204113, "name": "Malsa\u2019a", "country": "FJ", "coord": {"lon": 177.066666, "lat": -12.48333}}, {"id": 6555612, "name": "Malsch", "country": "DE", "coord": {"lon": 8.33333, "lat": 48.883301}}, {"id": 2874048, "name": "Malsch", "country": "DE", "coord": {"lon": 8.33333, "lat": 48.883331}}, {"id": 6555668, "name": "Malsch", "country": "DE", "coord": {"lon": 8.68278, "lat": 49.2472}}, {"id": 2874047, "name": "Malsch", "country": "DE", "coord": {"lon": 8.68278, "lat": 49.247219}}, {"id": 6548617, "name": "Malschwitz", "country": "DE", "coord": {"lon": 14.5167, "lat": 51.233299}}, {"id": 2874042, "name": "Malschwitz", "country": "DE", "coord": {"lon": 14.51667, "lat": 51.23333}}, {"id": 6553276, "name": "Malsfeld", "country": "DE", "coord": {"lon": 9.53333, "lat": 51.083302}}, {"id": 2874039, "name": "Malsfeld", "country": "DE", "coord": {"lon": 9.53333, "lat": 51.083328}}, {"id": 3071099, "name": "Malsice", "country": "CZ", "coord": {"lon": 14.57868, "lat": 49.363911}}, {"id": 4900942, "name": "Malta", "country": "US", "coord": {"lon": -88.860924, "lat": 41.929749}}, {"id": 5664486, "name": "Malta", "country": "US", "coord": {"lon": -107.874283, "lat": 48.359718}}, {"id": 3355624, "name": "Maltahohe", "country": "NA", "coord": {"lon": 16.98333, "lat": -24.83333}}, {"id": 1702492, "name": "Maltana", "country": "PH", "coord": {"lon": 124.937218, "lat": 6.4225}}, {"id": 7292224, "name": "Maltby", "country": "GB", "coord": {"lon": -1.17761, "lat": 53.414242}}, {"id": 2643144, "name": "Maltby", "country": "GB", "coord": {"lon": -1.2, "lat": 53.416672}}, {"id": 5802236, "name": "Maltby", "country": "US", "coord": {"lon": -122.113182, "lat": 47.805099}}, {"id": 741763, "name": "Maltepe", "country": "TR", "coord": {"lon": 29.155069, "lat": 40.935669}}, {"id": 2874030, "name": "Malter", "country": "DE", "coord": {"lon": 13.66176, "lat": 50.917591}}, {"id": 6555768, "name": "Malterdingen", "country": "DE", "coord": {"lon": 7.8, "lat": 48.166698}}, {"id": 2874028, "name": "Malterdingen", "country": "DE", "coord": {"lon": 7.8, "lat": 48.166672}}, {"id": 7286426, "name": "Malters", "country": "CH", "coord": {"lon": 8.19013, "lat": 47.042831}}, {"id": 2659776, "name": "Malters", "country": "CH", "coord": {"lon": 8.18193, "lat": 47.036282}}, {"id": 3174130, "name": "Maltignano", "country": "IT", "coord": {"lon": 13.05, "lat": 42.700001}}, {"id": 6535036, "name": "Maltignano", "country": "IT", "coord": {"lon": 13.68799, "lat": 42.832249}}, {"id": 2643142, "name": "Malton", "country": "GB", "coord": {"lon": -0.79669, "lat": 54.134541}}, {"id": 6427311, "name": "Maltot", "country": "FR", "coord": {"lon": -0.41667, "lat": 49.133331}}, {"id": 2996325, "name": "Maltot", "country": "FR", "coord": {"lon": -0.42274, "lat": 49.127838}}, {"id": 3523670, "name": "Maltrata", "country": "MX", "coord": {"lon": -97.26667, "lat": 18.799999}}, {"id": 2158955, "name": "Malu", "country": "AU", "coord": {"lon": 151.566666, "lat": -27.35}}, {"id": 673982, "name": "Malu Mare", "country": "RO", "coord": {"lon": 23.866671, "lat": 44.23333}}, {"id": 673986, "name": "Malu cu Flori", "country": "RO", "coord": {"lon": 25.200001, "lat": 45.150002}}, {"id": 1702487, "name": "Maluanluan", "country": "PH", "coord": {"lon": 121.423523, "lat": 13.0967}}, {"id": 6362846, "name": "Maluenda", "country": "ES", "coord": {"lon": -1.63488, "lat": 41.260078}}, {"id": 3117602, "name": "Maluenda", "country": "ES", "coord": {"lon": -1.61602, "lat": 41.28772}}, {"id": 1702459, "name": "Maluid", "country": "PH", "coord": {"lon": 120.652802, "lat": 15.5493}}, {"id": 1702457, "name": "Maluko", "country": "PH", "coord": {"lon": 124.953888, "lat": 8.375}}, {"id": 167375, "name": "Malula", "country": "SY", "coord": {"lon": 36.54689, "lat": 33.8442}}, {"id": 7411677, "name": "Malulla", "country": "ID", "coord": {"lon": 119.250702, "lat": -9.6266}}, {"id": 2331005, "name": "Malumfashi", "country": "NG", "coord": {"lon": 7.62175, "lat": 11.78529}}, {"id": 2331037, "name": "Malummaduri", "country": "NG", "coord": {"lon": 9.95729, "lat": 12.565}}, {"id": 1969497, "name": "Malunda", "country": "ID", "coord": {"lon": 118.855904, "lat": -3.013}}, {"id": 2692876, "name": "Malung", "country": "SE", "coord": {"lon": 13.71542, "lat": 60.683289}}, {"id": 1702442, "name": "Malungun", "country": "PH", "coord": {"lon": 125.28167, "lat": 6.27917}}, {"id": 1702439, "name": "Maluno", "country": "PH", "coord": {"lon": 121.96434, "lat": 16.99885}}, {"id": 1264010, "name": "Malur", "country": "IN", "coord": {"lon": 77.937782, "lat": 13.0075}}, {"id": 673977, "name": "Malureni", "country": "RO", "coord": {"lon": 24.799999, "lat": 45.099998}}, {"id": 1702431, "name": "Malusac", "country": "PH", "coord": {"lon": 120.621498, "lat": 14.8587}}, {"id": 1965638, "name": "Malusay", "country": "PH", "coord": {"lon": 123.271698, "lat": 10.1439}}, {"id": 1702425, "name": "Maluso", "country": "PH", "coord": {"lon": 121.875298, "lat": 6.543}}, {"id": 673964, "name": "Malusteni", "country": "RO", "coord": {"lon": 27.91667, "lat": 46.183331}}, {"id": 6362544, "name": "Malva", "country": "ES", "coord": {"lon": -5.49385, "lat": 41.65831}}, {"id": 3117600, "name": "Malva", "country": "ES", "coord": {"lon": -5.48657, "lat": 41.654671}}, {"id": 7286427, "name": "Malvaglia", "country": "CH", "coord": {"lon": 9.03857, "lat": 46.434978}}, {"id": 2659775, "name": "Malvaglia", "country": "CH", "coord": {"lon": 8.97921, "lat": 46.412819}}, {"id": 2524313, "name": "Malvagna", "country": "IT", "coord": {"lon": 15.05548, "lat": 37.917519}}, {"id": 1264007, "name": "Malvan", "country": "IN", "coord": {"lon": 73.466667, "lat": 16.066669}}, {"id": 1702415, "name": "Malvar", "country": "PH", "coord": {"lon": 121.150002, "lat": 14.03333}}, {"id": 1702413, "name": "Malvar", "country": "PH", "coord": {"lon": 121.158607, "lat": 14.04472}}, {"id": 8012535, "name": "Malveira", "country": "PT", "coord": {"lon": -9.26165, "lat": 38.930592}}, {"id": 2266777, "name": "Malveira", "country": "PT", "coord": {"lon": -9.25778, "lat": 38.932129}}, {"id": 2158952, "name": "Malvern", "country": "AU", "coord": {"lon": 145.028107, "lat": -37.862591}}, {"id": 979692, "name": "Malvern", "country": "ZA", "coord": {"lon": 30.925211, "lat": -29.88521}}, {"id": 979691, "name": "Malvern", "country": "ZA", "coord": {"lon": 28.10165, "lat": -26.203039}}, {"id": 3489603, "name": "Malvern", "country": "JM", "coord": {"lon": -77.70108, "lat": 17.97291}}, {"id": 4074452, "name": "Malvern", "country": "US", "coord": {"lon": -85.519096, "lat": 31.139339}}, {"id": 4120388, "name": "Malvern", "country": "US", "coord": {"lon": -92.81295, "lat": 34.362309}}, {"id": 4865974, "name": "Malvern", "country": "US", "coord": {"lon": -95.585281, "lat": 41.002781}}, {"id": 5161684, "name": "Malvern", "country": "US", "coord": {"lon": -81.181213, "lat": 40.69173}}, {"id": 5199600, "name": "Malvern", "country": "US", "coord": {"lon": -75.513809, "lat": 40.036221}}, {"id": 7932638, "name": "Malvern East", "country": "AU", "coord": {"lon": 145.042526, "lat": -37.87397}}, {"id": 7290655, "name": "Malvern Hills District", "country": "GB", "coord": {"lon": -2.40461, "lat": 52.16713}}, {"id": 2643140, "name": "Malvern Link", "country": "GB", "coord": {"lon": -2.31402, "lat": 52.128181}}, {"id": 5125734, "name": "Malverne", "country": "US", "coord": {"lon": -73.674019, "lat": 40.678989}}, {"id": 3174127, "name": "Malvicino", "country": "IT", "coord": {"lon": 8.41315, "lat": 44.559341}}, {"id": 3146469, "name": "Malvik", "country": "NO", "coord": {"lon": 10.79382, "lat": 63.410568}}, {"id": 3146470, "name": "Malvik", "country": "NO", "coord": {"lon": 10.68333, "lat": 63.433331}}, {"id": 2996306, "name": "Malville", "country": "FR", "coord": {"lon": -1.86226, "lat": 47.359051}}, {"id": 3845075, "name": "Malvinas", "country": "AR", "coord": {"lon": -65.283333, "lat": -26.91667}}, {"id": 3845073, "name": "Malvinas Argentinas", "country": "AR", "coord": {"lon": -64.066673, "lat": -31.383329}}, {"id": 2524312, "name": "Malvito", "country": "IT", "coord": {"lon": 16.05328, "lat": 39.599701}}, {"id": 6434375, "name": "Malvi\u00e8res", "country": "FR", "coord": {"lon": 3.73333, "lat": 45.333328}}, {"id": 2996310, "name": "Malvi\u00e8res", "country": "FR", "coord": {"lon": 3.73229, "lat": 45.337559}}, {"id": 1702486, "name": "Malway", "country": "PH", "coord": {"lon": 123.220299, "lat": 9.1319}}, {"id": 765286, "name": "Maly Plock", "country": "PL", "coord": {"lon": 22.02836, "lat": 53.303848}}, {"id": 154995, "name": "Malya", "country": "TZ", "coord": {"lon": 33.51667, "lat": -2.98333}}, {"id": 1499676, "name": "Malyavkinskiy", "country": "RU", "coord": {"lon": 60.533329, "lat": 54.01667}}, {"id": 625504, "name": "Malyavshchina", "country": "BY", "coord": {"lon": 27.6, "lat": 53.916668}}, {"id": 525460, "name": "Malygino", "country": "RU", "coord": {"lon": 38.599724, "lat": 55.711945}}, {"id": 6422379, "name": "Malygino", "country": "RU", "coord": {"lon": 41.156944, "lat": 56.410831}}, {"id": 717861, "name": "Malyi", "country": "HU", "coord": {"lon": 20.83333, "lat": 48.01667}}, {"id": 702116, "name": "Malyn", "country": "UA", "coord": {"lon": 29.238331, "lat": 50.772331}}, {"id": 530336, "name": "Malynchevskaya", "country": "RU", "coord": {"lon": 40.833328, "lat": 64.48333}}, {"id": 793657, "name": "Malynivka", "country": "UA", "coord": {"lon": 36.73333, "lat": 49.816669}}, {"id": 1499668, "name": "Malysheva", "country": "RU", "coord": {"lon": 61.40345, "lat": 57.118511}}, {"id": 6418080, "name": "Malyshovka", "country": "RU", "coord": {"lon": 103.82, "lat": 52.41}}, {"id": 6726330, "name": "Malyushina Dacha", "country": "RU", "coord": {"lon": 37.918461, "lat": 54.855728}}, {"id": 625495, "name": "Malyushychy", "country": "BY", "coord": {"lon": 26.066669, "lat": 53.48333}}, {"id": 823681, "name": "Malyy Akhun", "country": "RU", "coord": {"lon": 39.831112, "lat": 43.537224}}, {"id": 701965, "name": "Malyy Fontan", "country": "UA", "coord": {"lon": 30.766666, "lat": 46.433334}}, {"id": 529944, "name": "Malyy Irgiz", "country": "RU", "coord": {"lon": 48.383331, "lat": 52.183334}}, {"id": 6903717, "name": "Malyy Kutulik", "country": "RU", "coord": {"lon": 102.776001, "lat": 53.396198}}, {"id": 529885, "name": "Malyy Kyl", "country": "RU", "coord": {"lon": 59.133331, "lat": 54.900002}}, {"id": 701947, "name": "Malyy Mayak", "country": "UA", "coord": {"lon": 34.366669, "lat": 44.616669}}, {"id": 701932, "name": "Malyy Tokmak", "country": "UA", "coord": {"lon": 35.716667, "lat": 47.25}}, {"id": 529773, "name": "Malyy Tolkish", "country": "RU", "coord": {"lon": 50.934166, "lat": 55.343334}},