[{"id": 1270854, "name": "Govindgarh", "country": "IN", "coord": {"lon": 76.98333, "lat": 27.5}}, {"id": 1270856, "name": "Govindgarh", "country": "IN", "coord": {"lon": 81.300003, "lat": 24.383329}}, {"id": 6535861, "name": "Govone", "country": "IT", "coord": {"lon": 8.09404, "lat": 44.80444}}, {"id": 2023896, "name": "Govorikha", "country": "RU", "coord": {"lon": 101.699997, "lat": 54.299999}}, {"id": 819586, "name": "Govorovo", "country": "RU", "coord": {"lon": 37.431946, "lat": 55.652222}}, {"id": 1515917, "name": "Gov\u012d-Altay Aymag", "country": "MN", "coord": {"lon": 96, "lat": 45.5}}, {"id": 2055112, "name": "Gov\u012d-Sumber", "country": "MN", "coord": {"lon": 108.5, "lat": 46.5}}, {"id": 7036495, "name": "Gowa", "country": "ID", "coord": {"lon": 112.404999, "lat": -7.0487}}, {"id": 2164818, "name": "Gowan", "country": "AU", "coord": {"lon": 149.366669, "lat": -33.183331}}, {"id": 5118990, "name": "Gowanda", "country": "US", "coord": {"lon": -78.935867, "lat": 42.46312}}, {"id": 2164814, "name": "Gowangardie", "country": "AU", "coord": {"lon": 145.699997, "lat": -36.48333}}, {"id": 2164809, "name": "Gowar East", "country": "AU", "coord": {"lon": 143.416672, "lat": -36.549999}}, {"id": 771687, "name": "Gowarczow", "country": "PL", "coord": {"lon": 20.438351, "lat": 51.27845}}, {"id": 4388353, "name": "Gower", "country": "US", "coord": {"lon": -94.599403, "lat": 39.610828}}, {"id": 5963945, "name": "Gowganda", "country": "CA", "coord": {"lon": -80.766472, "lat": 47.650162}}, {"id": 771683, "name": "Goworowo", "country": "PL", "coord": {"lon": 21.55578, "lat": 52.900829}}, {"id": 2963918, "name": "Gowran", "country": "IE", "coord": {"lon": -7.07333, "lat": 52.62944}}, {"id": 4858687, "name": "Gowrie", "country": "US", "coord": {"lon": -94.290802, "lat": 42.280529}}, {"id": 2164797, "name": "Gowrie Junction", "country": "AU", "coord": {"lon": 151.883331, "lat": -27.48333}}, {"id": 2164796, "name": "Gowrie Park", "country": "AU", "coord": {"lon": 146.199997, "lat": -41.466671}}, {"id": 1219392, "name": "Gowurdak", "country": "TM", "coord": {"lon": 66.046562, "lat": 37.812439}}, {"id": 2648253, "name": "Goxhill", "country": "GB", "coord": {"lon": -0.33759, "lat": 53.67635}}, {"id": 3433715, "name": "Goya", "country": "AR", "coord": {"lon": -59.262562, "lat": -29.14003}}, {"id": 1842485, "name": "Goyang", "country": "KR", "coord": {"lon": 126.834999, "lat": 37.656391}}, {"id": 6690404, "name": "Goyave", "country": "GP", "coord": {"lon": -61.566669, "lat": 16.133329}}, {"id": 3579259, "name": "Goyave", "country": "GP", "coord": {"lon": -61.574009, "lat": 16.13517}}, {"id": 586482, "name": "Goychay Rayon", "country": "AZ", "coord": {"lon": 47.833328, "lat": 40.583328}}, {"id": 7839423, "name": "Goyder", "country": "AU", "coord": {"lon": 139.016556, "lat": -33.7164}}, {"id": 3433712, "name": "Goyeneche", "country": "AR", "coord": {"lon": -58.72353, "lat": -35.342949}}, {"id": 1270845, "name": "Goyerkata", "country": "IN", "coord": {"lon": 89.02565, "lat": 26.699841}}, {"id": 585967, "name": "Goygol Rayon", "country": "AZ", "coord": {"lon": 46.333328, "lat": 40.5}}, {"id": 746547, "name": "Goynucek", "country": "TR", "coord": {"lon": 35.525002, "lat": 40.39917}}, {"id": 746546, "name": "Goynuk", "country": "TR", "coord": {"lon": 30.78833, "lat": 40.40028}}, {"id": 559179, "name": "Goyty", "country": "RU", "coord": {"lon": 45.62278, "lat": 43.164169}}, {"id": 1863516, "name": "Goyuch\u014d", "country": "JP", "coord": {"lon": 137.316666, "lat": 34.833328}}, {"id": 243783, "name": "Goz Beida", "country": "TD", "coord": {"lon": 20.549999, "lat": 13.95}}, {"id": 771679, "name": "Gozd", "country": "PL", "coord": {"lon": 21.379141, "lat": 51.378319}}, {"id": 3098583, "name": "Gozdnica", "country": "PL", "coord": {"lon": 15.09856, "lat": 51.436298}}, {"id": 3098575, "name": "Gozdowo", "country": "PL", "coord": {"lon": 19.685011, "lat": 52.724548}}, {"id": 3098579, "name": "Gozd\u00f3w", "country": "PL", "coord": {"lon": 18.59857, "lat": 52.192299}}, {"id": 3015425, "name": "Gozini\u00e8re", "country": "FR", "coord": {"lon": 2.85591, "lat": 46.596951}}, {"id": 313825, "name": "Gozpinar", "country": "TR", "coord": {"lon": 41.457008, "lat": 37.97826}}, {"id": 747263, "name": "Gozyeri", "country": "TR", "coord": {"lon": 32.541672, "lat": 40.865959}}, {"id": 3175968, "name": "Gozzano", "country": "IT", "coord": {"lon": 8.43672, "lat": 45.746471}}, {"id": 6359930, "name": "Goz\u00f3n", "country": "ES", "coord": {"lon": -5.83855, "lat": 43.622009}}, {"id": 2918798, "name": "Go\u00dfenzugen", "country": "DE", "coord": {"lon": 9.45232, "lat": 48.243111}}, {"id": 2918791, "name": "Go\u00dffelden", "country": "DE", "coord": {"lon": 8.73333, "lat": 50.866669}}, {"id": 3015760, "name": "Go\u00e9lat", "country": "FR", "coord": {"lon": 2.42333, "lat": 46.490952}}, {"id": 6359666, "name": "Go\u00f1i", "country": "ES", "coord": {"lon": -1.88796, "lat": 42.83392}}, {"id": 7533380, "name": "Go\u0142dap", "country": "PL", "coord": {"lon": 22.2983, "lat": 54.313099}}, {"id": 771973, "name": "Go\u0142\u0105bki", "country": "PL", "coord": {"lon": 20.859779, "lat": 52.20319}}, {"id": 771712, "name": "Go\u015blinki", "country": "PL", "coord": {"lon": 20.471581, "lat": 51.794559}}, {"id": 261910, "name": "Gra Liyia", "country": "GR", "coord": {"lon": 25.683331, "lat": 35.01667}}, {"id": 2918505, "name": "Graach", "country": "DE", "coord": {"lon": 7.06667, "lat": 49.933331}}, {"id": 1000543, "name": "Graaff-Reinet", "country": "ZA", "coord": {"lon": 24.53075, "lat": -32.252151}}, {"id": 3367527, "name": "Graafwater", "country": "ZA", "coord": {"lon": 18.603189, "lat": -32.154659}}, {"id": 2918503, "name": "Graal", "country": "DE", "coord": {"lon": 12.23568, "lat": 54.24913}}, {"id": 2918498, "name": "Grabau", "country": "DE", "coord": {"lon": 10.52001, "lat": 53.513569}}, {"id": 6551436, "name": "Grabau", "country": "DE", "coord": {"lon": 10.51967, "lat": 53.51342}}, {"id": 6552267, "name": "Grabau", "country": "DE", "coord": {"lon": 10.2833, "lat": 53.799999}}, {"id": 2918497, "name": "Grabau", "country": "DE", "coord": {"lon": 10.28333, "lat": 53.799999}}, {"id": 2164789, "name": "Grabben Gullen", "country": "AU", "coord": {"lon": 149.399994, "lat": -34.533329}}, {"id": 559170, "name": "Grabchenki", "country": "RU", "coord": {"lon": 38.266666, "lat": 54.783333}}, {"id": 3207127, "name": "Grabe", "country": "DE", "coord": {"lon": 10.55, "lat": 51.216671}}, {"id": 3015424, "name": "Grabels", "country": "FR", "coord": {"lon": 3.79864, "lat": 43.647968}}, {"id": 2918465, "name": "Graben", "country": "DE", "coord": {"lon": 8.4811, "lat": 49.155941}}, {"id": 2918473, "name": "Graben", "country": "DE", "coord": {"lon": 12.48333, "lat": 47.933331}}, {"id": 2918463, "name": "Graben", "country": "DE", "coord": {"lon": 12.43333, "lat": 52.23333}}, {"id": 6552903, "name": "Graben", "country": "DE", "coord": {"lon": 10.8167, "lat": 48.200001}}, {"id": 2918468, "name": "Graben", "country": "DE", "coord": {"lon": 10.81667, "lat": 48.200001}}, {"id": 6555617, "name": "Graben-Neudorf", "country": "DE", "coord": {"lon": 8.48778, "lat": 49.1703}}, {"id": 3272459, "name": "Graben-Neudorf", "country": "DE", "coord": {"lon": 8.49243, "lat": 49.16695}}, {"id": 2918434, "name": "Grabenstatt", "country": "DE", "coord": {"lon": 12.55, "lat": 47.849998}}, {"id": 6555927, "name": "Grabenstetten", "country": "DE", "coord": {"lon": 9.46232, "lat": 48.5247}}, {"id": 2918431, "name": "Grabenstetten", "country": "DE", "coord": {"lon": 9.46155, "lat": 48.523972}}, {"id": 6556399, "name": "Grabenst\u00e4tt", "country": "DE", "coord": {"lon": 12.5475, "lat": 47.842201}}, {"id": 7873374, "name": "Grabersdorf", "country": "AT", "coord": {"lon": 15.82459, "lat": 46.843731}}, {"id": 2778191, "name": "Grabersdorf", "country": "AT", "coord": {"lon": 15.82472, "lat": 46.84306}}, {"id": 7531089, "name": "Grabica", "country": "PL", "coord": {"lon": 19.540239, "lat": 51.478458}}, {"id": 3098556, "name": "Grabica", "country": "PL", "coord": {"lon": 19.53137, "lat": 51.479889}}, {"id": 4920825, "name": "Grabill", "country": "US", "coord": {"lon": -84.966911, "lat": 41.21088}}, {"id": 7930855, "name": "Grabniki", "country": "BY", "coord": {"lon": 25.801399, "lat": 53.604301}}, {"id": 2711451, "name": "Grabo", "country": "SE", "coord": {"lon": 12.29954, "lat": 57.83625}}, {"id": 3367513, "name": "Grabouw", "country": "ZA", "coord": {"lon": 19.015091, "lat": -34.15152}}, {"id": 790277, "name": "Grabovac", "country": "RS", "coord": {"lon": 20.104719, "lat": 44.601391}}, {"id": 559158, "name": "Grabovo", "country": "RU", "coord": {"lon": 45.06395, "lat": 53.387508}}, {"id": 2918405, "name": "Grabow", "country": "DE", "coord": {"lon": 11.56667, "lat": 53.283329}}, {"id": 3098502, "name": "Grabow", "country": "PL", "coord": {"lon": 19.002569, "lat": 52.127171}}, {"id": 3098470, "name": "Grabow nad Prosna", "country": "PL", "coord": {"lon": 18.119289, "lat": 51.505959}}, {"id": 2918398, "name": "Grabowhofe", "country": "DE", "coord": {"lon": 12.6, "lat": 53.566669}}, {"id": 6548052, "name": "Grabowh\u00f6fe", "country": "DE", "coord": {"lon": 12.6, "lat": 53.5667}}, {"id": 771590, "name": "Grabowiec", "country": "PL", "coord": {"lon": 23.55057, "lat": 50.8209}}, {"id": 771566, "name": "Grabownica Starzenska", "country": "PL", "coord": {"lon": 22.077539, "lat": 49.658958}}, {"id": 3098453, "name": "Grabowo Koscierskie", "country": "PL", "coord": {"lon": 18.146919, "lat": 54.168159}}, {"id": 7285952, "name": "Grabs", "country": "CH", "coord": {"lon": 9.39448, "lat": 47.168308}}, {"id": 2660543, "name": "Grabs", "country": "CH", "coord": {"lon": 9.44395, "lat": 47.18248}}, {"id": 2918393, "name": "Grabsleben", "country": "DE", "coord": {"lon": 10.83333, "lat": 50.933331}}, {"id": 2918392, "name": "Grabstede", "country": "DE", "coord": {"lon": 8, "lat": 53.366669}}, {"id": 771545, "name": "Grab\u00f3w Rycki", "country": "PL", "coord": {"lon": 22.08506, "lat": 51.674759}}, {"id": 3199790, "name": "Gracac", "country": "HR", "coord": {"lon": 15.85472, "lat": 44.30056}}, {"id": 3199779, "name": "Gracanica", "country": "BA", "coord": {"lon": 18.309719, "lat": 44.703331}}, {"id": 3199784, "name": "Gracanica", "country": "BA", "coord": {"lon": 18.283331, "lat": 43.73333}}, {"id": 3015423, "name": "Gracay", "country": "FR", "coord": {"lon": 1.84734, "lat": 47.143711}}, {"id": 5964008, "name": "Grace Lake", "country": "CA", "coord": {"lon": -101.193031, "lat": 53.823689}}, {"id": 3199773, "name": "Gracec", "country": "HR", "coord": {"lon": 16.316669, "lat": 45.833328}}, {"id": 2164784, "name": "Gracemere", "country": "AU", "coord": {"lon": 150.449997, "lat": -23.433331}}, {"id": 3015422, "name": "Graces", "country": "FR", "coord": {"lon": -3.18533, "lat": 48.556511}}, {"id": 4157193, "name": "Graceville", "country": "US", "coord": {"lon": -85.516602, "lat": 30.95685}}, {"id": 2660542, "name": "Grachen", "country": "CH", "coord": {"lon": 7.8395, "lat": 46.196362}}, {"id": 559140, "name": "Grach\u00ebvka", "country": "RU", "coord": {"lon": 37.334721, "lat": 52.736111}}, {"id": 3527413, "name": "Graciano Sanchez", "country": "MX", "coord": {"lon": -99.283333, "lat": 23.91667}}, {"id": 3609586, "name": "Gracias", "country": "HN", "coord": {"lon": -88.583328, "lat": 14.58333}}, {"id": 3199765, "name": "Grad", "country": "SI", "coord": {"lon": 16.1, "lat": 46.799999}}, {"id": 3337532, "name": "Grad Zagreb", "country": "HR", "coord": {"lon": 15.9773, "lat": 45.813068}}, {"id": 3199742, "name": "Gradac", "country": "HR", "coord": {"lon": 17.815281, "lat": 45.313061}}, {"id": 3199744, "name": "Gradacac", "country": "BA", "coord": {"lon": 18.426941, "lat": 44.880829}}, {"id": 3175965, "name": "Gradara", "country": "IT", "coord": {"lon": 12.77125, "lat": 43.938869}}, {"id": 6461645, "name": "Gradec", "country": "BG", "coord": {"lon": 23.225, "lat": 42.89167}}, {"id": 790248, "name": "Gradec", "country": "MK", "coord": {"lon": 20.904169, "lat": 41.896111}}, {"id": 790249, "name": "Gradec", "country": "MK", "coord": {"lon": 22.509439, "lat": 41.848061}}, {"id": 6358623, "name": "Gradefes", "country": "ES", "coord": {"lon": -5.28208, "lat": 42.653709}}, {"id": 3121241, "name": "Gradefes", "country": "ES", "coord": {"lon": -5.22691, "lat": 42.623959}}, {"id": 731088, "name": "Gradevo", "country": "BG", "coord": {"lon": 23.200001, "lat": 41.916672}}, {"id": 3199732, "name": "Gradici", "country": "HR", "coord": {"lon": 16.049999, "lat": 45.700001}}, {"id": 6432244, "name": "Gradignan", "country": "FR", "coord": {"lon": -0.61667, "lat": 44.76667}}, {"id": 3015419, "name": "Gradignan", "country": "FR", "coord": {"lon": -0.61393, "lat": 44.772621}}, {"id": 8012532, "name": "Gradil", "country": "PT", "coord": {"lon": -9.27637, "lat": 38.967121}}, {"id": 2267576, "name": "Gradil", "country": "PT", "coord": {"lon": -9.28075, "lat": 38.981258}}, {"id": 676830, "name": "Gradinari", "country": "RO", "coord": {"lon": 21.59889, "lat": 45.11861}}, {"id": 676831, "name": "Gradinari", "country": "RO", "coord": {"lon": 24.26667, "lat": 44.566669}}, {"id": 678432, "name": "Gradinari", "country": "RO", "coord": {"lon": 25.815559, "lat": 44.39222}}, {"id": 3175961, "name": "Gradisca dIsonzo", "country": "IT", "coord": {"lon": 13.50167, "lat": 45.892502}}, {"id": 3199680, "name": "Gradiste", "country": "HR", "coord": {"lon": 18.706671, "lat": 45.14806}}, {"id": 676813, "name": "Gradistea", "country": "RO", "coord": {"lon": 27.383329, "lat": 45.26667}}, {"id": 676815, "name": "Gradistea", "country": "RO", "coord": {"lon": 23.816669, "lat": 44.866669}}, {"id": 676816, "name": "Gradistea", "country": "RO", "coord": {"lon": 26.283331, "lat": 44.666672}}, {"id": 676819, "name": "Gradistea", "country": "RO", "coord": {"lon": 27.216669, "lat": 44.23333}}, {"id": 708210, "name": "Gradizhsk", "country": "UA", "coord": {"lon": 33.136131, "lat": 49.234581}}, {"id": 731067, "name": "Gradnitsa", "country": "BG", "coord": {"lon": 24.966669, "lat": 42.950001}}, {"id": 6539651, "name": "Grado", "country": "IT", "coord": {"lon": 13.39484, "lat": 45.67741}}, {"id": 3175960, "name": "Grado", "country": "IT", "coord": {"lon": 13.38694, "lat": 45.678612}}, {"id": 6359931, "name": "Grado", "country": "ES", "coord": {"lon": -6.09978, "lat": 43.3134}}, {"id": 3121238, "name": "Grado", "country": "ES", "coord": {"lon": -6.07433, "lat": 43.388008}}, {"id": 6358347, "name": "Grado (El)", "country": "ES", "coord": {"lon": 0.20124, "lat": 42.122639}}, {"id": 3175957, "name": "Gradoli", "country": "IT", "coord": {"lon": 11.85485, "lat": 42.643532}}, {"id": 790217, "name": "Gradsko", "country": "MK", "coord": {"lon": 21.94278, "lat": 41.577499}}, {"id": 4537854, "name": "Grady County", "country": "US", "coord": {"lon": -97.900322, "lat": 35.033401}}, {"id": 731059, "name": "Grad\u016dt", "country": "BG", "coord": {"lon": 24.85, "lat": 41.599998}}, {"id": 2778127, "name": "Graen", "country": "AT", "coord": {"lon": 10.55, "lat": 47.5}}, {"id": 2660523, "name": "Graenichen", "country": "CH", "coord": {"lon": 8.10243, "lat": 47.359299}}, {"id": 2711174, "name": "Graenna", "country": "SE", "coord": {"lon": 14.46667, "lat": 58.01667}}, {"id": 2621101, "name": "Graested", "country": "DK", "coord": {"lon": 12.28512, "lat": 56.065578}}, {"id": 2710885, "name": "Graestorp", "country": "SE", "coord": {"lon": 12.68122, "lat": 58.332191}}, {"id": 2918371, "name": "Grafel", "country": "DE", "coord": {"lon": 9.33333, "lat": 53.383331}}, {"id": 2918370, "name": "Grafeld", "country": "DE", "coord": {"lon": 7.67429, "lat": 52.623791}}, {"id": 2918368, "name": "Grafelfing", "country": "DE", "coord": {"lon": 11.42939, "lat": 48.118778}}, {"id": 2918367, "name": "Grafenaschau", "country": "DE", "coord": {"lon": 11.11667, "lat": 47.650002}}, {"id": 2918365, "name": "Grafenau", "country": "DE", "coord": {"lon": 13.3974, "lat": 48.857681}}, {"id": 2918351, "name": "Grafenberg", "country": "DE", "coord": {"lon": 11.27644, "lat": 49.019859}}, {"id": 2918350, "name": "Grafenberg", "country": "DE", "coord": {"lon": 11.24983, "lat": 49.645401}}, {"id": 2918342, "name": "Grafendhron", "country": "DE", "coord": {"lon": 7, "lat": 49.799999}}, {"id": 2918338, "name": "Grafendorf", "country": "DE", "coord": {"lon": 9.75, "lat": 50.116669}}, {"id": 7873425, "name": "Grafendorf bei Hartberg", "country": "AT", "coord": {"lon": 15.98506, "lat": 47.346218}}, {"id": 2778154, "name": "Grafendorf bei Hartberg", "country": "AT", "coord": {"lon": 16, "lat": 47.349998}}, {"id": 7872912, "name": "Grafenegg", "country": "AT", "coord": {"lon": 15.74375, "lat": 48.43745}}, {"id": 2778152, "name": "Grafenegg", "country": "AT", "coord": {"lon": 15.73333, "lat": 48.416672}}, {"id": 2918324, "name": "Grafengehaig", "country": "DE", "coord": {"lon": 11.58333, "lat": 50.200001}}, {"id": 2918323, "name": "Grafenhain", "country": "DE", "coord": {"lon": 10.7, "lat": 50.816669}}, {"id": 2918321, "name": "Grafenhainichen", "country": "DE", "coord": {"lon": 12.45, "lat": 51.73333}}, {"id": 2918316, "name": "Grafenhausen", "country": "DE", "coord": {"lon": 7.76667, "lat": 48.283329}}, {"id": 6555909, "name": "Grafenhausen", "country": "DE", "coord": {"lon": 8.26667, "lat": 47.766701}}, {"id": 2918317, "name": "Grafenhausen", "country": "DE", "coord": {"lon": 8.26667, "lat": 47.76667}}, {"id": 2660541, "name": "Grafenort", "country": "CH", "coord": {"lon": 8.3744, "lat": 46.870171}}, {"id": 2918288, "name": "Grafenrheinfeld", "country": "DE", "coord": {"lon": 10.2, "lat": 50}}, {"id": 6557060, "name": "Grafenrheinfeld", "country": "DE", "coord": {"lon": 10.1982, "lat": 50.000198}}, {"id": 2918284, "name": "Grafenried", "country": "DE", "coord": {"lon": 13.01185, "lat": 49.095619}}, {"id": 2918282, "name": "Grafenroda", "country": "DE", "coord": {"lon": 10.8, "lat": 50.75}}, {"id": 7872738, "name": "Grafenschachen", "country": "AT", "coord": {"lon": 16.06283, "lat": 47.367401}}, {"id": 2778149, "name": "Grafenschachen", "country": "AT", "coord": {"lon": 16.066669, "lat": 47.366669}}, {"id": 7873081, "name": "Grafenschlag", "country": "AT", "coord": {"lon": 15.16036, "lat": 48.49324}}, {"id": 2778148, "name": "Grafenschlag", "country": "AT", "coord": {"lon": 15.16667, "lat": 48.5}}, {"id": 7871632, "name": "Grafenstein", "country": "AT", "coord": {"lon": 14.47533, "lat": 46.612572}}, {"id": 2778145, "name": "Grafenstein", "country": "AT", "coord": {"lon": 14.46667, "lat": 46.599998}}, {"id": 2918271, "name": "Grafenthal", "country": "DE", "coord": {"lon": 11.3, "lat": 50.533329}}, {"id": 6556630, "name": "Grafenwiesen", "country": "DE", "coord": {"lon": 12.8833, "lat": 49.200001}}, {"id": 2918260, "name": "Grafenwiesen", "country": "DE", "coord": {"lon": 12.88333, "lat": 49.200001}}, {"id": 2918258, "name": "Grafenwohr", "country": "DE", "coord": {"lon": 11.90667, "lat": 49.718891}}, {"id": 2778141, "name": "Grafenworth", "country": "AT", "coord": {"lon": 15.78333, "lat": 48.400002}}, {"id": 7871908, "name": "Grafenw\u00f6rth", "country": "AT", "coord": {"lon": 15.79075, "lat": 48.414169}}, {"id": 2918257, "name": "Grafertshofen", "country": "DE", "coord": {"lon": 10.16167, "lat": 48.294609}}, {"id": 6535367, "name": "Graffignana", "country": "IT", "coord": {"lon": 9.45436, "lat": 45.20647}}, {"id": 3175956, "name": "Graffignano", "country": "IT", "coord": {"lon": 12.20166, "lat": 42.572529}}, {"id": 6552362, "name": "Grafhorst", "country": "DE", "coord": {"lon": 10.95, "lat": 52.450001}}, {"id": 2918253, "name": "Grafhorst", "country": "DE", "coord": {"lon": 10.94513, "lat": 52.44482}}, {"id": 2918241, "name": "Grafing bei Munchen", "country": "DE", "coord": {"lon": 11.96797, "lat": 48.045959}}, {"id": 6556457, "name": "Grafling", "country": "DE", "coord": {"lon": 12.9833, "lat": 48.900002}}, {"id": 2918234, "name": "Grafling", "country": "DE", "coord": {"lon": 12.97511, "lat": 48.894909}}, {"id": 2918233, "name": "Graflkofen", "country": "DE", "coord": {"lon": 12.58333, "lat": 48.633331}}, {"id": 6556220, "name": "Grafrath", "country": "DE", "coord": {"lon": 11.1667, "lat": 48.116699}}, {"id": 2918232, "name": "Grafrath", "country": "DE", "coord": {"lon": 11.16667, "lat": 48.116669}}, {"id": 2918226, "name": "Grafschaft", "country": "DE", "coord": {"lon": 8.32626, "lat": 51.146191}}, {"id": 5191598, "name": "Grafton", "country": "US", "coord": {"lon": -79.208923, "lat": 40.4734}}, {"id": 2164771, "name": "Grafton", "country": "AU", "coord": {"lon": 152.933334, "lat": -29.683331}}, {"id": 4938048, "name": "Grafton", "country": "US", "coord": {"lon": -71.685623, "lat": 42.207039}}, {"id": 4807310, "name": "Grafton", "country": "US", "coord": {"lon": -80.018967, "lat": 39.340919}}, {"id": 5059419, "name": "Grafton", "country": "US", "coord": {"lon": -97.410629, "lat": 48.412209}}, {"id": 5086765, "name": "Grafton", "country": "US", "coord": {"lon": -71.94397, "lat": 43.558681}}, {"id": 5156170, "name": "Grafton", "country": "US", "coord": {"lon": -82.054588, "lat": 41.272549}}, {"id": 5254739, "name": "Grafton", "country": "US", "coord": {"lon": -87.953423, "lat": 43.319729}}, {"id": 5086766, "name": "Grafton Center", "country": "US", "coord": {"lon": -71.973419, "lat": 43.573959}}, {"id": 5086767, "name": "Grafton County", "country": "US", "coord": {"lon": -71.79953, "lat": 43.950069}}, {"id": 2648240, "name": "Grafton Flyford", "country": "GB", "coord": {"lon": -2.0509, "lat": 52.21069}}, {"id": 2918217, "name": "Grafwegen", "country": "DE", "coord": {"lon": 5.95, "lat": 51.75}}, {"id": 3175955, "name": "Graglia", "country": "IT", "coord": {"lon": 7.97802, "lat": 45.558559}}, {"id": 3015412, "name": "Gragnague", "country": "FR", "coord": {"lon": 1.58461, "lat": 43.680908}}, {"id": 6540684, "name": "Gragnano", "country": "IT", "coord": {"lon": 14.51234, "lat": 40.69561}}, {"id": 3175952, "name": "Gragnano", "country": "IT", "coord": {"lon": 14.51234, "lat": 40.69561}}, {"id": 3175950, "name": "Gragnano Trebbiense", "country": "IT", "coord": {"lon": 9.56896, "lat": 45.013161}}, {"id": 5795906, "name": "Graham", "country": "US", "coord": {"lon": -122.294281, "lat": 47.052879}}, {"id": 4468525, "name": "Graham", "country": "US", "coord": {"lon": -79.400581, "lat": 36.069031}}, {"id": 4694420, "name": "Graham", "country": "US", "coord": {"lon": -98.5895, "lat": 33.107059}}, {"id": 4272234, "name": "Graham County", "country": "US", "coord": {"lon": -99.883728, "lat": 39.35001}}, {"id": 2164754, "name": "Grahams Creek", "country": "AU", "coord": {"lon": 152.600006, "lat": -25.566669}}, {"id": 1000501, "name": "Grahamstown", "country": "ZA", "coord": {"lon": 26.532761, "lat": -33.304218}}, {"id": 2963912, "name": "Graigue", "country": "IE", "coord": {"lon": -7.8, "lat": 52.049999}}, {"id": 3308036, "name": "Graigueavoice", "country": "IE", "coord": {"lon": -7.46722, "lat": 52.815559}}, {"id": 2963905, "name": "Graiguenamanagh", "country": "IE", "coord": {"lon": -6.95472, "lat": 52.540279}}, {"id": 261913, "name": "Graikochorion", "country": "GR", "coord": {"lon": 20.295, "lat": 39.478889}}, {"id": 261912, "name": "Graik\u00f3s", "country": "GR", "coord": {"lon": 22.23333, "lat": 37.316669}}, {"id": 4388402, "name": "Grain Valley", "country": "US", "coord": {"lon": -94.198563, "lat": 39.015011}}, {"id": 6556240, "name": "Grainau", "country": "DE", "coord": {"lon": 11.02444, "lat": 47.47588}}, {"id": 2918204, "name": "Grainau", "country": "DE", "coord": {"lon": 11.02405, "lat": 47.476139}}, {"id": 6556471, "name": "Grainet", "country": "DE", "coord": {"lon": 13.65, "lat": 48.799999}}, {"id": 2918200, "name": "Grainet", "country": "DE", "coord": {"lon": 13.65, "lat": 48.799999}}, {"id": 5445498, "name": "Grainfield", "country": "US", "coord": {"lon": -100.465141, "lat": 39.113621}}, {"id": 5964189, "name": "Grainland", "country": "CA", "coord": {"lon": -106.551247, "lat": 50.98336}}, {"id": 2648232, "name": "Grainthorpe", "country": "GB", "coord": {"lon": 0.0797, "lat": 53.45295}}, {"id": 6427250, "name": "Grainville-Langannerie", "country": "FR", "coord": {"lon": -0.26667, "lat": 49.01667}}, {"id": 3015399, "name": "Grainville-Langannerie", "country": "FR", "coord": {"lon": -0.27408, "lat": 49.011261}}, {"id": 3015398, "name": "Grainville-la-Teinturiere", "country": "FR", "coord": {"lon": 0.64048, "lat": 49.74773}}, {"id": 3015397, "name": "Grainville-sur-Odon", "country": "FR", "coord": {"lon": -0.53046, "lat": 49.139359}}, {"id": 2918194, "name": "Graitschen", "country": "DE", "coord": {"lon": 11.71667, "lat": 50.950001}}, {"id": 2918193, "name": "Graitschen", "country": "DE", "coord": {"lon": 11.78333, "lat": 51.049999}}, {"id": 6357444, "name": "Graja de Campalbo", "country": "ES", "coord": {"lon": -1.2661, "lat": 39.895851}}, {"id": 2517124, "name": "Graja de Campalbo", "country": "ES", "coord": {"lon": -1.26667, "lat": 39.900002}}, {"id": 6357445, "name": "Graja de Iniesta", "country": "ES", "coord": {"lon": -1.6739, "lat": 39.515869}}, {"id": 2517123, "name": "Graja de Iniesta", "country": "ES", "coord": {"lon": -1.66667, "lat": 39.51667}}, {"id": 6358624, "name": "Grajal de Campos", "country": "ES", "coord": {"lon": -5.01695, "lat": 42.319241}}, {"id": 3121233, "name": "Grajal de Campos", "country": "ES", "coord": {"lon": -5.01938, "lat": 42.320728}}, {"id": 3398856, "name": "Grajau", "country": "BR", "coord": {"lon": -46.138611, "lat": -5.81944}}, {"id": 676798, "name": "Grajduri", "country": "RO", "coord": {"lon": 27.51667, "lat": 46.966671}}, {"id": 6360831, "name": "Grajera", "country": "ES", "coord": {"lon": -3.61024, "lat": 41.37336}}, {"id": 3121230, "name": "Grajera", "country": "ES", "coord": {"lon": -3.61304, "lat": 41.373192}}, {"id": 7532934, "name": "Grajewo", "country": "PL", "coord": {"lon": 22.450899, "lat": 53.640099}}, {"id": 771506, "name": "Grajewo", "country": "PL", "coord": {"lon": 22.45537, "lat": 53.647282}}, {"id": 559073, "name": "Grakhovo", "country": "RU", "coord": {"lon": 51.967579, "lat": 56.050171}}, {"id": 2621279, "name": "Gram", "country": "DK", "coord": {"lon": 9.04913, "lat": 55.289478}}, {"id": 731056, "name": "Gramada", "country": "BG", "coord": {"lon": 22.658609, "lat": 43.834438}}, {"id": 3462284, "name": "Gramado", "country": "BR", "coord": {"lon": -50.87389, "lat": -29.378611}}, {"id": 7872615, "name": "Gramais", "country": "AT", "coord": {"lon": 10.52894, "lat": 47.26395}}, {"id": 2778135, "name": "Gramais", "country": "AT", "coord": {"lon": 10.53333, "lat": 47.26667}}, {"id": 3681966, "name": "Gramalote", "country": "CO", "coord": {"lon": -72.797493, "lat": 7.88752}}, {"id": 2164739, "name": "Graman", "country": "AU", "coord": {"lon": 150.933334, "lat": -29.48333}}, {"id": 7873237, "name": "Gramastetten", "country": "AT", "coord": {"lon": 14.19004, "lat": 48.380482}}, {"id": 2778133, "name": "Gramastetten", "country": "AT", "coord": {"lon": 14.19185, "lat": 48.38028}}, {"id": 3015386, "name": "Gramat", "country": "FR", "coord": {"lon": 1.71957, "lat": 44.78075}}, {"id": 7871947, "name": "Gramatneusiedl", "country": "AT", "coord": {"lon": 16.488159, "lat": 48.026989}}, {"id": 2778131, "name": "Gramatneusiedl", "country": "AT", "coord": {"lon": 16.48333, "lat": 48.01667}}, {"id": 2052080, "name": "Gramatukha", "country": "RU", "coord": {"lon": 103.812782, "lat": 51.949169}}, {"id": 2778130, "name": "Grambach", "country": "AT", "coord": {"lon": 15.5, "lat": 47.01667}}, {"id": 6551437, "name": "Grambek", "country": "DE", "coord": {"lon": 10.6833, "lat": 53.5667}}, {"id": 2918188, "name": "Grambek", "country": "DE", "coord": {"lon": 10.68081, "lat": 53.573872}}, {"id": 6548454, "name": "Grambin", "country": "DE", "coord": {"lon": 14.0167, "lat": 53.766701}}, {"id": 2918183, "name": "Grambin", "country": "DE", "coord": {"lon": 14.01667, "lat": 53.76667}}, {"id": 4326074, "name": "Grambling", "country": "US", "coord": {"lon": -92.714043, "lat": 32.527649}}, {"id": 3015384, "name": "Grambois", "country": "FR", "coord": {"lon": 5.58725, "lat": 43.761871}}, {"id": 7602572, "name": "Grambow", "country": "DE", "coord": {"lon": 14.3351, "lat": 53.414139}}, {"id": 2918181, "name": "Grambow", "country": "DE", "coord": {"lon": 14.3351, "lat": 53.414139}}, {"id": 6548180, "name": "Grambow", "country": "DE", "coord": {"lon": 11.2833, "lat": 53.616699}}, {"id": 2918179, "name": "Grambow", "country": "DE", "coord": {"lon": 11.27498, "lat": 53.621738}}, {"id": 4326081, "name": "Gramercy", "country": "US", "coord": {"lon": -90.689812, "lat": 30.047421}}, {"id": 676793, "name": "Gramesti", "country": "RO", "coord": {"lon": 26.15, "lat": 47.916672}}, {"id": 3854906, "name": "Gramilla", "country": "AR", "coord": {"lon": -64.61338, "lat": -27.297939}}, {"id": 2648230, "name": "Gramisdale", "country": "GB", "coord": {"lon": -7.33333, "lat": 57.48333}}, {"id": 2918169, "name": "Gramke", "country": "DE", "coord": {"lon": 8.13333, "lat": 52.533329}}, {"id": 2918168, "name": "Gramkow", "country": "DE", "coord": {"lon": 11.31667, "lat": 53.916672}}, {"id": 261903, "name": "Grammatiko", "country": "GR", "coord": {"lon": 23.966669, "lat": 38.200001}}, {"id": 261900, "name": "Grammatikou", "country": "GR", "coord": {"lon": 21.5, "lat": 38.533329}}, {"id": 6548116, "name": "Grammendorf", "country": "DE", "coord": {"lon": 12.8833, "lat": 54.033298}}, {"id": 2918160, "name": "Grammendorf", "country": "DE", "coord": {"lon": 12.87409, "lat": 54.035648}}, {"id": 261895, "name": "Grammenitsa", "country": "GR", "coord": {"lon": 20.98056, "lat": 39.18306}}, {"id": 6547827, "name": "Grammentin", "country": "DE", "coord": {"lon": 12.9, "lat": 53.75}}, {"id": 2918159, "name": "Grammentin", "country": "DE", "coord": {"lon": 12.9, "lat": 53.75}}, {"id": 2524583, "name": "Grammichele", "country": "IT", "coord": {"lon": 14.63968, "lat": 37.212341}}, {"id": 6547774, "name": "Grammow", "country": "DE", "coord": {"lon": 12.63016, "lat": 54.047192}}, {"id": 2918149, "name": "Grammow", "country": "DE", "coord": {"lon": 12.62956, "lat": 54.047298}}, {"id": 1506192, "name": "Gramoteino", "country": "RU", "coord": {"lon": 86.383904, "lat": 54.5368}}, {"id": 2918144, "name": "Grampersdorf", "country": "DE", "coord": {"lon": 11.48333, "lat": 48.966671}}, {"id": 2648227, "name": "Grampound", "country": "GB", "coord": {"lon": -4.90275, "lat": 50.29921}}, {"id": 7294623, "name": "Grampound with Creed", "country": "GB", "coord": {"lon": -4.88108, "lat": 50.298161}}, {"id": 2918143, "name": "Gramschatz", "country": "DE", "coord": {"lon": 9.97139, "lat": 49.928059}}, {"id": 783059, "name": "Gramsh", "country": "AL", "coord": {"lon": 20.184441, "lat": 40.86972}}, {"id": 2918135, "name": "Gramzow", "country": "DE", "coord": {"lon": 13.16667, "lat": 53.116669}}, {"id": 6547737, "name": "Gramzow", "country": "DE", "coord": {"lon": 14, "lat": 53.216702}}, {"id": 2918133, "name": "Gramzow", "country": "DE", "coord": {"lon": 14.00748, "lat": 53.21246}}, {"id": 6697298, "name": "Gran Alacant", "country": "ES", "coord": {"lon": -0.51919, "lat": 38.22456}}, {"id": 3505392, "name": "Gran Calle", "country": "DO", "coord": {"lon": -68.922073, "lat": 18.462021}}, {"id": 3574497, "name": "Gran Couva", "country": "TT", "coord": {"lon": -61.366669, "lat": 10.4}}, {"id": 2918127, "name": "Grana", "country": "DE", "coord": {"lon": 12.11667, "lat": 51.049999}}, {"id": 6535508, "name": "Grana", "country": "IT", "coord": {"lon": 8.29944, "lat": 44.998348}}, {"id": 2963903, "name": "Granabeg", "country": "IE", "coord": {"lon": -6.50139, "lat": 53.0625}}, {"id": 6357709, "name": "Granada", "country": "ES", "coord": {"lon": -3.59078, "lat": 37.188629}}, {"id": 7033305, "name": "Granada", "country": "CO", "coord": {"lon": -74.058372, "lat": 4.64882}}, {"id": 3619136, "name": "Granada", "country": "NI", "coord": {"lon": -85.956017, "lat": 11.92988}}, {"id": 3681957, "name": "Granada", "country": "CO", "coord": {"lon": -73.700562, "lat": 3.53861}}, {"id": 2517117, "name": "Granada", "country": "ES", "coord": {"lon": -3.60667, "lat": 37.188171}}, {"id": 3681952, "name": "Granada", "country": "CO", "coord": {"lon": -75.185318, "lat": 6.14353}}, {"id": 3681953, "name": "Granada", "country": "CO", "coord": {"lon": -74.566673, "lat": 5.06667}}, {"id": 1712691, "name": "Granada", "country": "PH", "coord": {"lon": 123.349998, "lat": 11.63333}}, {"id": 3854895, "name": "Granadero Baigorria", "country": "AR", "coord": {"lon": -60.717541, "lat": -32.856831}}, {"id": 3623643, "name": "Granadilla", "country": "CR", "coord": {"lon": -84.016876, "lat": 9.93491}}, {"id": 6360627, "name": "Granadilla de Abona", "country": "ES", "coord": {"lon": -16.55765, "lat": 28.10211}}, {"id": 2517111, "name": "Granadilla de Abona", "country": "ES", "coord": {"lon": -16.575991, "lat": 28.11882}}, {"id": 2963902, "name": "Granard", "country": "IE", "coord": {"lon": -7.5, "lat": 53.76667}}, {"id": 3163830, "name": "Granarolo del lEmilia", "country": "IT", "coord": {"lon": 11.44291, "lat": 44.553268}}, {"id": 6542210, "name": "Granarolo dell'Emilia", "country": "IT", "coord": {"lon": 11.44291, "lat": 44.553268}}, {"id": 4694459, "name": "Granbury", "country": "US", "coord": {"lon": -97.794197, "lat": 32.442081}}, {"id": 5964214, "name": "Granby", "country": "CA", "coord": {"lon": -72.73243, "lat": 45.383381}}, {"id": 5964215, "name": "Granby", "country": "CA", "coord": {"lon": -72.73243, "lat": 45.400082}}, {"id": 5577516, "name": "Granby", "country": "US", "coord": {"lon": -105.939461, "lat": 40.086102}}, {"id": 4388409, "name": "Granby", "country": "US", "coord": {"lon": -94.255219, "lat": 36.919231}}, {"id": 4938064, "name": "Granby", "country": "US", "coord": {"lon": -72.516197, "lat": 42.256481}}, {"id": 6534656, "name": "Grancona", "country": "IT", "coord": {"lon": 11.4516, "lat": 45.42189}}, {"id": 2660540, "name": "Grancy", "country": "CH", "coord": {"lon": 6.46391, "lat": 46.59214}}, {"id": 7285957, "name": "Grancy", "country": "CH", "coord": {"lon": 6.46093, "lat": 46.593609}}, {"id": 934482, "name": "Grand Baie", "country": "MU", "coord": {"lon": 57.580151, "lat": -20.01816}}, {"id": 5964230, "name": "Grand Bank", "country": "CA", "coord": {"lon": -55.765041, "lat": 47.099949}}, {"id": 2276630, "name": "Grand Bassa County", "country": "LR", "coord": {"lon": -9.75, "lat": 6.25}}, {"id": 4064840, "name": "Grand Bay", "country": "US", "coord": {"lon": -88.342232, "lat": 30.476311}}, {"id": 5964244, "name": "Grand Beach", "country": "CA", "coord": {"lon": -55.515011, "lat": 47.13324}}, {"id": 934749, "name": "Grand Bel Air", "country": "MU", "coord": {"lon": 57.673611, "lat": -20.406389}}, {"id": 5964250, "name": "Grand Bend", "country": "CA", "coord": {"lon": -81.749779, "lat": 43.31678}}, {"id": 4994320, "name": "Grand Blanc", "country": "US", "coord": {"lon": -83.629951, "lat": 42.927528}}, {"id": 934485, "name": "Grand Bois", "country": "MU", "coord": {"lon": 57.54417, "lat": -20.41889}}, {"id": 3433708, "name": "Grand Bourg", "country": "AR", "coord": {"lon": -58.72913, "lat": -34.482361}}, {"id": 5296391, "name": "Grand Canyon", "country": "US", "coord": {"lon": -112.139343, "lat": 36.054428}}, {"id": 5296409, "name": "Grand Canyon Village", "country": "US", "coord": {"lon": -112.15406, "lat": 36.046371}}, {"id": 5964269, "name": "Grand Coulee", "country": "CA", "coord": {"lon": -104.81781, "lat": 50.43338}}, {"id": 5577529, "name": "Grand County", "country": "US", "coord": {"lon": -106.083908, "lat": 40.06665}}, {"id": 5539784, "name": "Grand County", "country": "US", "coord": {"lon": -109.501228, "lat": 38.87553}}, {"id": 2251339, "name": "Grand Dakar", "country": "SN", "coord": {"lon": -17.45528, "lat": 14.70889}}, {"id": 2960313, "name": "Grand Duchy of Luxembourg", "country": "LU", "coord": {"lon": 6.16667, "lat": 49.75}}, {"id": 6621033, "name": "Grand Falls", "country": "CA", "coord": {"lon": -67.741791, "lat": 47.046089}}, {"id": 5964378, "name": "Grand Falls-Windsor", "country": "CA", "coord": {"lon": -55.664921, "lat": 48.933239}}, {"id": 5964401, "name": "Grand Forks", "country": "CA", "coord": {"lon": -118.4356, "lat": 49.033089}}, {"id": 5059429, "name": "Grand Forks", "country": "US", "coord": {"lon": -97.032852, "lat": 47.925259}}, {"id": 7259283, "name": "Grand Forks Air Force Base", "country": "US", "coord": {"lon": -97.386642, "lat": 47.954929}}, {"id": 5059430, "name": "Grand Forks County", "country": "US", "coord": {"lon": -97.433701, "lat": 47.94165}}, {"id": 934479, "name": "Grand Gaube", "country": "MU", "coord": {"lon": 57.660831, "lat": -20.00639}}, {"id": 2276622, "name": "Grand Gedeh County", "country": "LR", "coord": {"lon": -8.08333, "lat": 5.91667}}, {"id": 3724337, "name": "Grand Goave", "country": "HT", "coord": {"lon": -72.770561, "lat": 18.42889}}, {"id": 4994325, "name": "Grand Haven", "country": "US", "coord": {"lon": -86.228394, "lat": 43.063068}}, {"id": 5069297, "name": "Grand Island", "country": "US", "coord": {"lon": -98.34201, "lat": 40.925011}}, {"id": 4326198, "name": "Grand Isle", "country": "US", "coord": {"lon": -89.987289, "lat": 29.23662}}, {"id": 5423573, "name": "Grand Junction", "country": "US", "coord": {"lon": -108.550652, "lat": 39.063869}}, {"id": 4994344, "name": "Grand Ledge", "country": "US", "coord": {"lon": -84.746384, "lat": 42.753368}}, {"id": 5028500, "name": "Grand Marais", "country": "US", "coord": {"lon": -90.334267, "lat": 47.75045}}, {"id": 4994347, "name": "Grand Marais", "country": "US", "coord": {"lon": -85.985168, "lat": 46.670811}}, {"id": 5028509, "name": "Grand Meadow", "country": "US", "coord": {"lon": -92.572121, "lat": 43.705799}}, {"id": 5795933, "name": "Grand Mound", "country": "US", "coord": {"lon": -123.011253, "lat": 46.78788}}, {"id": 5964633, "name": "Grand Narrows", "country": "CA", "coord": {"lon": -60.781792, "lat": 45.950142}}, {"id": 3015031, "name": "Grand Peugny", "country": "FR", "coord": {"lon": 3.25786, "lat": 48.429161}}, {"id": 4326211, "name": "Grand Point", "country": "US", "coord": {"lon": -90.753433, "lat": 30.06131}}, {"id": 934466, "name": "Grand Port District", "country": "MU", "coord": {"lon": 57.633331, "lat": -20.41667}}, {"id": 4694482, "name": "Grand Prairie", "country": "US", "coord": {"lon": -96.99778, "lat": 32.74596}}, {"id": 4994358, "name": "Grand Rapids", "country": "US", "coord": {"lon": -85.668091, "lat": 42.96336}}, {"id": 5028537, "name": "Grand Rapids", "country": "US", "coord": {"lon": -93.530212, "lat": 47.237171}}, {"id": 5964683, "name": "Grand River", "country": "CA", "coord": {"lon": -60.665192, "lat": 45.65015}}, {"id": 5728972, "name": "Grand Ronde", "country": "US", "coord": {"lon": -123.609283, "lat": 45.060108}}, {"id": 934459, "name": "Grand Sable", "country": "MU", "coord": {"lon": 57.764439, "lat": -20.314171}}, {"id": 4694488, "name": "Grand Saline", "country": "US", "coord": {"lon": -95.709412, "lat": 32.673458}}, {"id": 5353484, "name": "Grand Terrace", "country": "US", "coord": {"lon": -117.313652, "lat": 34.033901}}, {"id": 4994374, "name": "Grand Traverse County", "country": "US", "coord": {"lon": -85.466728, "lat": 44.683338}}, {"id": 5964707, "name": "Grand Valley", "country": "CA", "coord": {"lon": -80.316383, "lat": 43.900101}}, {"id": 3014938, "name": "Grand Veau", "country": "FR", "coord": {"lon": 2.87781, "lat": 46.727718}}, {"id": 6690662, "name": "Grand'Rivi\u00e8re", "country": "MQ", "coord": {"lon": -61.1814, "lat": 14.8733}}, {"id": 3570591, "name": "Grand'Rivi\u00e8re", "country": "MQ", "coord": {"lon": -61.179459, "lat": 14.87354}}, {"id": 2288115, "name": "Grand-Bassam", "country": "CI", "coord": {"lon": -3.73884, "lat": 5.2118}}, {"id": 3579250, "name": "Grand-Bourg", "country": "GP", "coord": {"lon": -61.314838, "lat": 15.88346}}, {"id": 6615002, "name": "Grand-Brassac", "country": "FR", "coord": {"lon": 0.4796, "lat": 45.2943}}, {"id": 3015326, "name": "Grand-Brassac", "country": "FR", "coord": {"lon": 0.48333, "lat": 45.283329}}, {"id": 3015305, "name": "Grand-Champ", "country": "FR", "coord": {"lon": -2.84636, "lat": 47.758041}}, {"id": 3015292, "name": "Grand-Charmont", "country": "FR", "coord": {"lon": 6.82604, "lat": 47.526741}}, {"id": 3015267, "name": "Grand-Couronne", "country": "FR", "coord": {"lon": 1.00647, "lat": 49.355629}}, {"id": 6438267, "name": "Grand-Fort-Philippe", "country": "FR", "coord": {"lon": 2.1, "lat": 51}}, {"id": 3015126, "name": "Grand-Fort-Philippe", "country": "FR", "coord": {"lon": 2.10784, "lat": 50.999611}}, {"id": 3015125, "name": "Grand-Fougeray", "country": "FR", "coord": {"lon": -1.7321, "lat": 47.7239}}, {"id": 2288105, "name": "Grand-Lahou", "country": "CI", "coord": {"lon": -5.02417, "lat": 5.13667}}, {"id": 2797233, "name": "Grand-Manil", "country": "BE", "coord": {"lon": 4.67528, "lat": 50.556961}}, {"id": 2393947, "name": "Grand-Popo", "country": "BJ", "coord": {"lon": 1.82251, "lat": 6.28036}}, {"id": 5964693, "name": "Grand-Saint-Esprit", "country": "CA", "coord": {"lon": -72.499107, "lat": 46.183361}}, {"id": 3381538, "name": "Grand-Santi", "country": "GF", "coord": {"lon": -54.383331, "lat": 4.25}}, {"id": 6942801, "name": "Grand-Sault", "country": "CA", "coord": {"lon": -67.728477, "lat": 47.033401}}, {"id": 2660531, "name": "Grand-Savagnier", "country": "CH", "coord": {"lon": 6.95534, "lat": 47.051769}}, {"id": 6359932, "name": "Grandas de Salime", "country": "ES", "coord": {"lon": -6.89817, "lat": 43.205761}}, {"id": 3121197, "name": "Grandas de Salime", "country": "ES", "coord": {"lon": -6.8757, "lat": 43.215542}}, {"id": 3175936, "name": "Grandate", "country": "IT", "coord": {"lon": 9.05784, "lat": 45.775181}}, {"id": 6541413, "name": "Grandate", "country": "IT", "coord": {"lon": 9.05784, "lat": 45.775181}}, {"id": 3015317, "name": "Grandcamp-Maisy", "country": "FR", "coord": {"lon": -1.03333, "lat": 49.383331}}, {"id": 6614854, "name": "Grandchamp-le-Ch\u00e2teau", "country": "FR", "coord": {"lon": 0.06667, "lat": 49.083328}}, {"id": 3015297, "name": "Grandchamp-le-Ch\u00e2teau", "country": "FR", "coord": {"lon": 0.06667, "lat": 49.083328}}, {"id": 2164730, "name": "Grandchester", "country": "AU", "coord": {"lon": 152.466675, "lat": -27.66667}}, {"id": 6552268, "name": "Grande", "country": "DE", "coord": {"lon": 10.3833, "lat": 53.583302}}, {"id": 2918121, "name": "Grande", "country": "DE", "coord": {"lon": 10.38333, "lat": 53.583328}}, {"id": 3579232, "name": "Grande Anse", "country": "GP", "coord": {"lon": -61.074059, "lat": 16.303511}}, {"id": 5964304, "name": "Grande Cache", "country": "CA", "coord": {"lon": -119.135849, "lat": 53.88335}}, {"id": 2797283, "name": "Grande Fonderie", "country": "BE", "coord": {"lon": 5.66667, "lat": 50.299999}}, {"id": 1106614, "name": "Grande Pointe aux Piments", "country": "MU", "coord": {"lon": 57.513062, "lat": -20.06278}}, {"id": 5964347, "name": "Grande Prairie", "country": "CA", "coord": {"lon": -118.802711, "lat": 55.166672}}, {"id": 934089, "name": "Grande Riviere Noire", "country": "MU", "coord": {"lon": 57.366112, "lat": -20.360279}}, {"id": 934475, "name": "Grande Riviere Sud Est", "country": "MU", "coord": {"lon": 57.775829, "lat": -20.28611}}, {"id": 3724439, "name": "Grande Riviere du Nord", "country": "HT", "coord": {"lon": -72.183327, "lat": 19.58333}}, {"id": 3724433, "name": "Grande Saline", "country": "HT", "coord": {"lon": -72.476112, "lat": 18.543329}}, {"id": 3724432, "name": "Grande Saline", "country": "HT", "coord": {"lon": -72.768967, "lat": 19.265129}}, {"id": 6943830, "name": "Grande-Anse", "country": "CA", "coord": {"lon": -65.194504, "lat": 47.807789}}, {"id": 5964337, "name": "Grande-Ligne", "country": "CA", "coord": {"lon": -73.301064, "lat": 45.22068}}, {"id": 6438266, "name": "Grande-Synthe", "country": "FR", "coord": {"lon": 2.28333, "lat": 51.012501}}, {"id": 3015160, "name": "Grande-Synthe", "country": "FR", "coord": {"lon": 2.29975, "lat": 51.0154}}, {"id": 5964370, "name": "Grande-Vall\u00e9e", "country": "CA", "coord": {"lon": -65.132011, "lat": 49.216801}}, {"id": 3462112, "name": "Grandes Rios", "country": "BR", "coord": {"lon": -51.50639, "lat": -24.146391}}, {"id": 3042368, "name": "Grandes Rocques", "country": "GG", "coord": {"lon": -2.58333, "lat": 49.483891}}, {"id": 5964356, "name": "Grandes-Piles", "country": "CA", "coord": {"lon": -72.732422, "lat": 46.683361}}, {"id": 4537884, "name": "Grandfield", "country": "US", "coord": {"lon": -98.684509, "lat": 34.22842}}, {"id": 7285960, "name": "Grandfontaine", "country": "CH", "coord": {"lon": 6.93355, "lat": 47.39193}}, {"id": 2660534, "name": "Grandfontaine", "country": "CH", "coord": {"lon": 6.93952, "lat": 47.391701}}, {"id": 3015132, "name": "Grandfontaine", "country": "FR", "coord": {"lon": 5.90079, "lat": 47.197632}}, {"id": 3015123, "name": "Grandfresnoy", "country": "FR", "coord": {"lon": 2.65216, "lat": 49.372181}}, {"id": 2267538, "name": "Grandola", "country": "PT", "coord": {"lon": -8.56675, "lat": 38.177181}}, {"id": 6534475, "name": "Grandola ed Uniti", "country": "IT", "coord": {"lon": 9.21274, "lat": 46.024879}}, {"id": 6440049, "name": "Grandrif", "country": "FR", "coord": {"lon": 3.81667, "lat": 45.5}}, {"id": 3015003, "name": "Grandrif", "country": "FR", "coord": {"lon": 3.81697, "lat": 45.50489}}, {"id": 3015000, "name": "Grandris", "country": "FR", "coord": {"lon": 4.47486, "lat": 46.038712}}, {"id": 935806, "name": "Grands Bois", "country": "RE", "coord": {"lon": 55.52557, "lat": -21.35928}}, {"id": 3014969, "name": "Grands Champs", "country": "FR", "coord": {"lon": 0.41566, "lat": 44.99791}}, {"id": 6957825, "name": "Grands Pr\u00e9s", "country": "BE", "coord": {"lon": 3.91667, "lat": 50.450001}}, {"id": 2660530, "name": "Grandsivaz", "country": "CH", "coord": {"lon": 6.98085, "lat": 46.785019}}, {"id": 7285961, "name": "Grandson", "country": "CH", "coord": {"lon": 6.64449, "lat": 46.81461}}, {"id": 2660529, "name": "Grandson", "country": "CH", "coord": {"lon": 6.646, "lat": 46.80946}}, {"id": 7285962, "name": "Grandval", "country": "CH", "coord": {"lon": 7.42801, "lat": 47.283588}}, {"id": 2660528, "name": "Grandval", "country": "CH", "coord": {"lon": 7.42504, "lat": 47.28278}}, {"id": 5964716, "name": "Grandview", "country": "CA", "coord": {"lon": -100.698669, "lat": 51.174198}}, {"id": 4388460, "name": "Grandview", "country": "US", "coord": {"lon": -94.533012, "lat": 38.885841}}, {"id": 4239702, "name": "Grandview", "country": "US", "coord": {"lon": -89.618713, "lat": 39.816441}}, {"id": 4513047, "name": "Grandview", "country": "US", "coord": {"lon": -84.724388, "lat": 39.194221}}, {"id": 4694503, "name": "Grandview", "country": "US", "coord": {"lon": -97.179176, "lat": 32.27042}}, {"id": 5795969, "name": "Grandview", "country": "US", "coord": {"lon": -119.901703, "lat": 46.250969}}, {"id": 4513057, "name": "Grandview Heights", "country": "US", "coord": {"lon": -83.040741, "lat": 39.97979}}, {"id": 4272273, "name": "Grandview Plaza", "country": "US", "coord": {"lon": -96.789169, "lat": 39.02916}}, {"id": 3014928, "name": "Grandvillars", "country": "FR", "coord": {"lon": 6.96424, "lat": 47.539211}}, {"id": 4994391, "name": "Grandville", "country": "US", "coord": {"lon": -85.763092, "lat": 42.909752}}, {"id": 3014918, "name": "Grandvilliers", "country": "FR", "coord": {"lon": 1.94088, "lat": 49.66547}}, {"id": 4894360, "name": "Grandwood Park", "country": "US", "coord": {"lon": -87.98674, "lat": 42.393082}}, {"id": 5119034, "name": "Grandyle Village", "country": "US", "coord": {"lon": -78.95504, "lat": 42.996449}}, {"id": 3121163, "name": "Grand\u00edval", "country": "ES", "coord": {"lon": -2.78245, "lat": 42.714359}}, {"id": 3014915, "name": "Grane", "country": "FR", "coord": {"lon": 4.91667, "lat": 44.73333}}, {"id": 3121161, "name": "Granen", "country": "ES", "coord": {"lon": -0.36941, "lat": 41.94104}}, {"id": 6356125, "name": "Granera", "country": "ES", "coord": {"lon": 2.06766, "lat": 41.727039}}, {"id": 3121158, "name": "Granera", "country": "ES", "coord": {"lon": 2.05924, "lat": 41.727409}}, {"id": 3888749, "name": "Graneros", "country": "CL", "coord": {"lon": -70.73333, "lat": -34.066669}}, {"id": 3854724, "name": "Graneros", "country": "AR", "coord": {"lon": -65.438301, "lat": -27.64934}}, {"id": 2963899, "name": "Graney", "country": "IE", "coord": {"lon": -6.79056, "lat": 52.897781}}, {"id": 2070515, "name": "Grange", "country": "AU", "coord": {"lon": 138.483337, "lat": -34.900002}}, {"id": 6690801, "name": "Grange Hill", "country": "GB", "coord": {"lon": 0.08612, "lat": 51.611851}}, {"id": 3313948, "name": "Grange and Kiltober", "country": "IE", "coord": {"lon": -7.44444, "lat": 53.350559}}, {"id": 6931071, "name": "Grange-over-Sands", "country": "GB", "coord": {"lon": -2.90433, "lat": 54.196468}}, {"id": 2963888, "name": "Grangebellew", "country": "IE", "coord": {"lon": -6.33472, "lat": 53.82056}}, {"id": 2963885, "name": "Grangegeeth", "country": "IE", "coord": {"lon": -6.54667, "lat": 53.762779}}, {"id": 2963880, "name": "Grangemockler", "country": "IE", "coord": {"lon": -7.49417, "lat": 52.45639}}, {"id": 2648215, "name": "Grangemouth", "country": "GB", "coord": {"lon": -3.72183, "lat": 56.01141}}, {"id": 4694521, "name": "Granger", "country": "US", "coord": {"lon": -97.44278, "lat": 30.71769}}, {"id": 4920869, "name": "Granger", "country": "US", "coord": {"lon": -86.125687, "lat": 41.748131}}, {"id": 4858952, "name": "Granger", "country": "US", "coord": {"lon": -93.824387, "lat": 41.761101}}, {"id": 5795972, "name": "Granger", "country": "US", "coord": {"lon": -120.187271, "lat": 46.342072}}, {"id": 6429396, "name": "Granges-d'Ans", "country": "FR", "coord": {"lon": 1.11667, "lat": 45.216671}}, {"id": 3014891, "name": "Granges-d'Ans", "country": "FR", "coord": {"lon": 1.11909, "lat": 45.212299}}, {"id": 6434959, "name": "Granges-sur-Lot", "country": "FR", "coord": {"lon": 0.46667, "lat": 44.383331}}, {"id": 3014879, "name": "Granges-sur-Lot", "country": "FR", "coord": {"lon": 0.46508, "lat": 44.37635}}, {"id": 3014878, "name": "Granges-sur-Vologne", "country": "FR", "coord": {"lon": 6.79095, "lat": 48.145168}}, {"id": 2711256, "name": "Grangesberg", "country": "SE", "coord": {"lon": 14.98333, "lat": 60.083328}}, {"id": 5594474, "name": "Grangeville", "country": "US", "coord": {"lon": -116.122368, "lat": 45.926552}}, {"id": 6427252, "name": "Grangues", "country": "FR", "coord": {"lon": -0.05, "lat": 49.26667}}, {"id": 3014875, "name": "Grangues", "country": "FR", "coord": {"lon": -0.053, "lat": 49.2691}}, {"id": 6461227, "name": "Granica", "country": "BG", "coord": {"lon": 22.74194, "lat": 42.253059}}, {"id": 771497, "name": "Granica", "country": "PL", "coord": {"lon": 20.803129, "lat": 52.133591}}, {"id": 676791, "name": "Graniceri", "country": "RO", "coord": {"lon": 21.299999, "lat": 46.51667}}, {"id": 676787, "name": "Granicesti", "country": "RO", "coord": {"lon": 26.066669, "lat": 47.816669}}, {"id": 4537904, "name": "Granite", "country": "US", "coord": {"lon": -99.380638, "lat": 34.96228}}, {"id": 5775320, "name": "Granite", "country": "US", "coord": {"lon": -111.806038, "lat": 40.573002}}, {"id": 5964764, "name": "Granite Bay", "country": "CA", "coord": {"lon": -125.302902, "lat": 50.232948}}, {"id": 5353530, "name": "Granite Bay", "country": "US", "coord": {"lon": -121.163841, "lat": 38.763229}}, {"id": 4994408, "name": "Granite Bluff", "country": "US", "coord": {"lon": -88.053741, "lat": 45.9394}}, {"id": 4239714, "name": "Granite City", "country": "US", "coord": {"lon": -90.14872, "lat": 38.701439}}, {"id": 5654985, "name": "Granite County", "country": "US", "coord": {"lon": -113.467583, "lat": 46.399921}}, {"id": 5296477, "name": "Granite Dells", "country": "US", "coord": {"lon": -112.412392, "lat": 34.605862}}, {"id": 4468590, "name": "Granite Falls", "country": "US", "coord": {"lon": -81.430649, "lat": 35.79652}}, {"id": 5028572, "name": "Granite Falls", "country": "US", "coord": {"lon": -95.545578, "lat": 44.809959}}, {"id": 5795988, "name": "Granite Falls", "country": "US", "coord": {"lon": -120.213692, "lat": 47.890129}}, {"id": 5795991, "name": "Granite Falls", "country": "US", "coord": {"lon": -121.968742, "lat": 48.083988}}, {"id": 5353559, "name": "Granite Hills", "country": "US", "coord": {"lon": -116.904747, "lat": 32.803108}}, {"id": 4468595, "name": "Granite Quarry", "country": "US", "coord": {"lon": -80.446732, "lat": 35.612358}}, {"id": 4694535, "name": "Granite Shoals", "country": "US", "coord": {"lon": -98.383919, "lat": 30.589081}}, {"id": 5964848, "name": "Granite Village", "country": "CA", "coord": {"lon": -64.9655, "lat": 43.866859}}, {"id": 4580265, "name": "Graniteville", "country": "US", "coord": {"lon": -81.807892, "lat": 33.563751}}, {"id": 6535665, "name": "Graniti", "country": "IT", "coord": {"lon": 15.22459, "lat": 37.889858}}, {"id": 1524182, "name": "Granitogorsk", "country": "KZ", "coord": {"lon": 73.469063, "lat": 42.74337}}, {"id": 731038, "name": "Granitsa", "country": "BG", "coord": {"lon": 22.74194, "lat": 42.253059}}, {"id": 2738845, "name": "Granja", "country": "PT", "coord": {"lon": -8.56667, "lat": 41.150002}}, {"id": 2738842, "name": "Granja", "country": "PT", "coord": {"lon": -7.47907, "lat": 41.26432}}, {"id": 8012277, "name": "Granja", "country": "PT", "coord": {"lon": -7.20428, "lat": 40.75201}}, {"id": 2738853, "name": "Granja", "country": "PT", "coord": {"lon": -7.20372, "lat": 40.748051}}, {"id": 3398706, "name": "Granja", "country": "BR", "coord": {"lon": -40.826111, "lat": -3.12028}}, {"id": 3809700, "name": "Granja La Trinidad", "country": "VE", "coord": {"lon": -63.543331, "lat": 8.064444}}, {"id": 2738821, "name": "Granja Nova", "country": "PT", "coord": {"lon": -7.7806, "lat": 41.53297}}, {"id": 2738830, "name": "Granja de Baixo", "country": "PT", "coord": {"lon": -8.5817, "lat": 40.59959}}, {"id": 6362529, "name": "Granja de Moreruela", "country": "ES", "coord": {"lon": -5.75077, "lat": 41.820492}}, {"id": 3121149, "name": "Granja de Moreruela", "country": "ES", "coord": {"lon": -5.73893, "lat": 41.810261}}, {"id": 6355450, "name": "Granja de Rocamora", "country": "ES", "coord": {"lon": -0.89534, "lat": 38.154911}}, {"id": 2517060, "name": "Granja de Rocamora", "country": "ES", "coord": {"lon": -0.8917, "lat": 38.151569}}, {"id": 6355924, "name": "Granja de Torrehermosa", "country": "ES", "coord": {"lon": -5.56741, "lat": 38.31665}}, {"id": 2517059, "name": "Granja de Torrehermosa", "country": "ES", "coord": {"lon": -5.58333, "lat": 38.316669}}, {"id": 8014277, "name": "Granja do Ulmeiro", "country": "PT", "coord": {"lon": -8.6392, "lat": 40.160118}}, {"id": 2738824, "name": "Granja do Ulmeiro", "country": "PT", "coord": {"lon": -8.63295, "lat": 40.163582}}, {"id": 8013936, "name": "Granjal", "country": "PT", "coord": {"lon": -7.53694, "lat": 40.89011}}, {"id": 2738823, "name": "Granjal", "country": "PT", "coord": {"lon": -7.53077, "lat": 40.887539}}, {"id": 3121145, "name": "Granollers", "country": "ES", "coord": {"lon": 2.28773, "lat": 41.607971}}, {"id": 3121143, "name": "Granon", "country": "ES", "coord": {"lon": -3.02767, "lat": 42.449921}}, {"id": 3098394, "name": "Granowo", "country": "PL", "coord": {"lon": 16.528589, "lat": 52.222439}}, {"id": 3175890, "name": "Granozzo con Monticello", "country": "IT", "coord": {"lon": 8.57334, "lat": 45.360161}}, {"id": 3014868, "name": "Grans", "country": "FR", "coord": {"lon": 5.06881, "lat": 43.603569}}, {"id": 2918092, "name": "Granschutz", "country": "DE", "coord": {"lon": 12.05, "lat": 51.183331}}, {"id": 6554544, "name": "Gransdorf", "country": "DE", "coord": {"lon": 6.68333, "lat": 50.016701}}, {"id": 2918091, "name": "Gransdorf", "country": "DE", "coord": {"lon": 6.68333, "lat": 50.01667}}, {"id": 6548117, "name": "Gransebieth", "country": "DE", "coord": {"lon": 12.8833, "lat": 54.0667}}, {"id": 2918090, "name": "Gransebieth", "country": "DE", "coord": {"lon": 12.88267, "lat": 54.064781}}, {"id": 2918088, "name": "Gransee", "country": "DE", "coord": {"lon": 13.1575, "lat": 53.007038}}, {"id": 7839424, "name": "Grant", "country": "AU", "coord": {"lon": 140.633163, "lat": -37.836418}}, {"id": 5028612, "name": "Grant", "country": "US", "coord": {"lon": -92.910492, "lat": 45.084412}}, {"id": 5695792, "name": "Grant", "country": "US", "coord": {"lon": -101.725166, "lat": 40.841942}}, {"id": 5055199, "name": "Grant City", "country": "US", "coord": {"lon": -94.411072, "lat": 40.487492}}, {"id": 5469835, "name": "Grant County", "country": "US", "coord": {"lon": -108.383942, "lat": 32.783409}}, {"id": 4293148, "name": "Grant County", "country": "US", "coord": {"lon": -84.64994, "lat": 38.65007}}, {"id": 5796034, "name": "Grant County", "country": "US", "coord": {"lon": -119.484482, "lat": 47.14986}}, {"id": 4920875, "name": "Grant County", "country": "US", "coord": {"lon": -85.659142, "lat": 40.558369}}, {"id": 4894387, "name": "Grant Park", "country": "US", "coord": {"lon": -87.646149, "lat": 41.241138}}, {"id": 6331910, "name": "Grant-Valkaria", "country": "US", "coord": {"lon": -80.571037, "lat": 27.9398}}, {"id": 2164702, "name": "Grantham", "country": "AU", "coord": {"lon": 152.199997, "lat": -27.58333}}, {"id": 2648208, "name": "Grantham", "country": "GB", "coord": {"lon": -0.64184, "lat": 52.911491}}, {"id": 5086792, "name": "Grantham", "country": "US", "coord": {"lon": -72.137589, "lat": 43.489521}}, {"id": 4558315, "name": "Grantley", "country": "US", "coord": {"lon": -76.729134, "lat": 39.94038}}, {"id": 6535106, "name": "Grantola", "country": "IT", "coord": {"lon": 8.77433, "lat": 45.949181}}, {"id": 5964960, "name": "Granton", "country": "CA", "coord": {"lon": -81.299751, "lat": 43.216789}}, {"id": 2164700, "name": "Granton", "country": "AU", "coord": {"lon": 147.227951, "lat": -42.751492}}, {"id": 3175885, "name": "Grantorto", "country": "IT", "coord": {"lon": 11.7316, "lat": 45.600899}}, {"id": 2648205, "name": "Grantown on Spey", "country": "GB", "coord": {"lon": -3.61667, "lat": 57.316669}}, {"id": 5469841, "name": "Grants", "country": "US", "coord": {"lon": -107.851448, "lat": 35.147259}}, {"id": 5729080, "name": "Grants Pass", "country": "US", "coord": {"lon": -123.328392, "lat": 42.439011}}, {"id": 5254880, "name": "Grantsburg", "country": "US", "coord": {"lon": -92.682701, "lat": 45.77634}}, {"id": 5655069, "name": "Grantsdale", "country": "US", "coord": {"lon": -114.141762, "lat": 46.203529}}, {"id": 4807389, "name": "Grantsville", "country": "US", "coord": {"lon": -81.095947, "lat": 38.92342}}, {"id": 5775346, "name": "Grantsville", "country": "US", "coord": {"lon": -112.464401, "lat": 40.599941}}, {"id": 4197884, "name": "Grantville", "country": "US", "coord": {"lon": -84.83577, "lat": 33.23484}}, {"id": 6362530, "name": "Granucillo", "country": "ES", "coord": {"lon": -5.91599, "lat": 42.048431}}, {"id": 3121142, "name": "Granucillo", "country": "ES", "coord": {"lon": -5.92777, "lat": 42.05209}}, {"id": 2164691, "name": "Granville", "country": "AU", "coord": {"lon": 151.016663, "lat": -33.833328}}, {"id": 3014867, "name": "Granville", "country": "FR", "coord": {"lon": -1.59714, "lat": 48.837921}}, {"id": 4894410, "name": "Granville", "country": "US", "coord": {"lon": -89.227592, "lat": 41.26115}}, {"id": 4938092, "name": "Granville", "country": "US", "coord": {"lon": -72.861488, "lat": 42.066761}}, {"id": 5119076, "name": "Granville", "country": "US", "coord": {"lon": -73.259552, "lat": 43.407848}}, {"id": 5156270, "name": "Granville", "country": "US", "coord": {"lon": -82.5196, "lat": 40.068119}}, {"id": 7259287, "name": "Granville South", "country": "US", "coord": {"lon": -82.541656, "lat": 40.052071}}, {"id": 3155247, "name": "Granvin", "country": "NO", "coord": {"lon": 6.7194, "lat": 60.524078}}, {"id": 2164688, "name": "Granya", "country": "AU", "coord": {"lon": 147.316666, "lat": -36.116669}}, {"id": 3175884, "name": "Granze", "country": "IT", "coord": {"lon": 11.71471, "lat": 45.15649}}, {"id": 2918076, "name": "Granzin", "country": "DE", "coord": {"lon": 11.72379, "lat": 53.344509}}, {"id": 6548354, "name": "Granzin", "country": "DE", "coord": {"lon": 11.95, "lat": 53.5}}, {"id": 2918072, "name": "Granzin", "country": "DE", "coord": {"lon": 11.94317, "lat": 53.503059}}, {"id": 5522392, "name": "Grape Creek", "country": "US", "coord": {"lon": -100.5476, "lat": 31.579321}}, {"id": 4694562, "name": "Grapeland", "country": "US", "coord": {"lon": -95.478561, "lat": 31.49184}}, {"id": 4694568, "name": "Grapevine", "country": "US", "coord": {"lon": -97.078072, "lat": 32.934292}}, {"id": 6693989, "name": "Grappenhall", "country": "GB", "coord": {"lon": -2.54675, "lat": 53.37204}}, {"id": 6547828, "name": "Grapzow", "country": "DE", "coord": {"lon": 13.3, "lat": 53.700001}}, {"id": 2918057, "name": "Grapzow", "country": "DE", "coord": {"lon": 13.3, "lat": 53.700001}}, {"id": 2495846, "name": "Grarem", "country": "DZ", "coord": {"lon": 6.32722, "lat": 36.516109}}, {"id": 6552704, "name": "Grasberg", "country": "DE", "coord": {"lon": 9.0162, "lat": 53.185398}}, {"id": 2918041, "name": "Grasberg", "country": "DE", "coord": {"lon": 8.98333, "lat": 53.183331}}, {"id": 6556312, "name": "Grasbrunn", "country": "DE", "coord": {"lon": 11.75, "lat": 48.083302}}, {"id": 2918037, "name": "Grasbrunn", "country": "DE", "coord": {"lon": 11.74361, "lat": 48.079048}}, {"id": 2918033, "name": "Grasdorf", "country": "DE", "coord": {"lon": 10.16313, "lat": 52.107819}}, {"id": 6461138, "name": "Grashevo", "country": "BG", "coord": {"lon": 23.933331, "lat": 41.966671}}, {"id": 731036, "name": "Grashevo", "country": "BG", "coord": {"lon": 23.933331, "lat": 41.966671}}, {"id": 6552363, "name": "Grasleben", "country": "DE", "coord": {"lon": 11.01585, "lat": 52.306541}}, {"id": 2917991, "name": "Grasleben", "country": "DE", "coord": {"lon": 11.01465, "lat": 52.306381}}, {"id": 2070478, "name": "Grasmere", "country": "AU", "coord": {"lon": 117.755562, "lat": -35.018059}}, {"id": 4356634, "name": "Grasonville", "country": "US", "coord": {"lon": -76.210228, "lat": 38.958172}}, {"id": 4994483, "name": "Grass Lake", "country": "US", "coord": {"lon": -84.213013, "lat": 42.25087}}, {"id": 2070470, "name": "Grass Patch", "country": "AU", "coord": {"lon": 121.716667, "lat": -33.23333}}, {"id": 2070468, "name": "Grass Valley", "country": "AU", "coord": {"lon": 116.800003, "lat": -31.65}}, {"id": 5353775, "name": "Grass Valley", "country": "US", "coord": {"lon": -121.061058, "lat": 39.219059}}, {"id": 3175880, "name": "Grassano", "country": "IT", "coord": {"lon": 16.27792, "lat": 40.634571}}, {"id": 2917978, "name": "Grassau", "country": "DE", "coord": {"lon": 12.45, "lat": 47.783329}}, {"id": 6454920, "name": "Grasse", "country": "FR", "coord": {"lon": 6.91667, "lat": 43.666672}}, {"id": 3014856, "name": "Grasse", "country": "FR", "coord": {"lon": 6.91667, "lat": 43.666672}}, {"id": 2917970, "name": "Grassel", "country": "DE", "coord": {"lon": 10.58333, "lat": 52.349998}}, {"id": 5965136, "name": "Grassland", "country": "CA", "coord": {"lon": -112.685287, "lat": 54.816891}}, {"id": 2164684, "name": "Grassmere", "country": "AU", "coord": {"lon": 142.533325, "lat": -38.283329}}, {"id": 6535170, "name": "Grassobbio", "country": "IT", "coord": {"lon": 9.72566, "lat": 45.656879}}, {"id": 2164669, "name": "Grassy", "country": "AU", "coord": {"lon": 144.050003, "lat": -40.049999}}, {"id": 5689390, "name": "Grassy Butte", "country": "US", "coord": {"lon": -103.247971, "lat": 47.392509}}, {"id": 5965321, "name": "Grassy Lake", "country": "CA", "coord": {"lon": -111.71846, "lat": 49.816761}}, {"id": 3367458, "name": "Grassy Park", "country": "ZA", "coord": {"lon": 18.498631, "lat": -34.047199}}, {"id": 2621258, "name": "Grasten", "country": "DK", "coord": {"lon": 9.59523, "lat": 54.919182}}, {"id": 6615084, "name": "Grateloup-Saint-Gayrand", "country": "FR", "coord": {"lon": 0.38333, "lat": 44.416672}}, {"id": 3014850, "name": "Grateloup-Saint-Gayrand", "country": "FR", "coord": {"lon": 0.38333, "lat": 44.416672}}, {"id": 3014848, "name": "Gratentour", "country": "FR", "coord": {"lon": 1.43234, "lat": 43.723598}}, {"id": 7375689, "name": "Grati Satu", "country": "ID", "coord": {"lon": 113.217598, "lat": -8.1531}}, {"id": 676783, "name": "Gratia", "country": "RO", "coord": {"lon": 25.450001, "lat": 44.433331}}, {"id": 4994537, "name": "Gratiot County", "country": "US", "coord": {"lon": -84.599998, "lat": 43.28336}}, {"id": 7872330, "name": "Gratkorn", "country": "AT", "coord": {"lon": 15.36552, "lat": 47.149658}}, {"id": 2778085, "name": "Gratkorn", "country": "AT", "coord": {"lon": 15.35, "lat": 47.133331}}, {"id": 5353815, "name": "Graton", "country": "US", "coord": {"lon": -122.86972, "lat": 38.436298}}, {"id": 6435428, "name": "Gratot", "country": "FR", "coord": {"lon": -1.48333, "lat": 49.066669}}, {"id": 3014846, "name": "Gratot", "country": "FR", "coord": {"lon": -1.48104, "lat": 49.068802}}, {"id": 2164658, "name": "Grattai", "country": "AU", "coord": {"lon": 149.483337, "lat": -32.683331}}, {"id": 7670186, "name": "Grattavache", "country": "CH", "coord": {"lon": 6.91345, "lat": 46.595982}}, {"id": 2524572, "name": "Gratteri", "country": "IT", "coord": {"lon": 13.97226, "lat": 37.965549}}, {"id": 6556458, "name": "Grattersdorf", "country": "DE", "coord": {"lon": 13.15, "lat": 48.799999}}, {"id": 2917951, "name": "Grattersdorf", "country": "DE", "coord": {"lon": 13.15372, "lat": 48.803638}}, {"id": 7872331, "name": "Gratwein", "country": "AT", "coord": {"lon": 15.31931, "lat": 47.128601}}, {"id": 2778079, "name": "Gratwein", "country": "AT", "coord": {"lon": 15.31667, "lat": 47.116669}}, {"id": 6551843, "name": "Grauel", "country": "DE", "coord": {"lon": 9.66667, "lat": 54.0667}}, {"id": 2917936, "name": "Grauel", "country": "DE", "coord": {"lon": 9.66667, "lat": 54.066669}}, {"id": 2917934, "name": "Grauen", "country": "DE", "coord": {"lon": 9.66667, "lat": 53.099998}}, {"id": 2917931, "name": "Grauenhagen", "country": "DE", "coord": {"lon": 13.55, "lat": 53.400002}}, {"id": 2917909, "name": "Grauhof", "country": "DE", "coord": {"lon": 10.44877, "lat": 51.93792}}, {"id": 2917901, "name": "Grauingen", "country": "DE", "coord": {"lon": 11.21429, "lat": 52.376228}}, {"id": 3014828, "name": "Graulhet", "country": "FR", "coord": {"lon": 1.98938, "lat": 43.76688}}, {"id": 2960525, "name": "Graulinster", "country": "LU", "coord": {"lon": 6.28722, "lat": 49.734718}}, {"id": 3175873, "name": "Grauno", "country": "IT", "coord": {"lon": 11.29778, "lat": 46.230309}}, {"id": 6358349, "name": "Graus", "country": "ES", "coord": {"lon": 0.3746, "lat": 42.19825}}, {"id": 3121135, "name": "Graus", "country": "ES", "coord": {"lon": 0.33749, "lat": 42.18885}}, {"id": 2917881, "name": "Grauwinkel", "country": "DE", "coord": {"lon": 13.23333, "lat": 51.799999}}, {"id": 3175871, "name": "Gravagliana", "country": "IT", "coord": {"lon": 8.20182, "lat": 45.84827}}, {"id": 3121134, "name": "Gravalos", "country": "ES", "coord": {"lon": -1.99874, "lat": 42.10836}}, {"id": 3398691, "name": "Gravata", "country": "BR", "coord": {"lon": -35.56472, "lat": -8.20111}}, {"id": 3462089, "name": "Gravatai", "country": "BR", "coord": {"lon": -50.99194, "lat": -29.944441}}, {"id": 3462087, "name": "Gravatal", "country": "BR", "coord": {"lon": -49.035278, "lat": -28.33111}}, {"id": 6323462, "name": "Gravata\u00ed", "country": "BR", "coord": {"lon": -50.953011, "lat": -29.909149}}, {"id": 2738815, "name": "Gravateira", "country": "PT", "coord": {"lon": -8.5987, "lat": 41.41412}}, {"id": 3398688, "name": "Gravat\u00e1", "country": "BR", "coord": {"lon": -36.366669, "lat": -8.55}}, {"id": 3155152, "name": "Gravdal", "country": "NO", "coord": {"lon": 13.50306, "lat": 68.121391}}, {"id": 2755358, "name": "Grave", "country": "NL", "coord": {"lon": 5.73882, "lat": 51.759022}}, {"id": 2917879, "name": "Grave", "country": "DE", "coord": {"lon": 9.45477, "lat": 51.915791}}, {"id": 3175869, "name": "Gravedona", "country": "IT", "coord": {"lon": 9.30094, "lat": 46.146389}}, {"id": 4112871, "name": "Gravel Ridge", "country": "US", "coord": {"lon": -92.190697, "lat": 34.86842}}, {"id": 5965462, "name": "Gravelbourg", "country": "CA", "coord": {"lon": -106.551224, "lat": 49.883362}}, {"id": 3014816, "name": "Gravelines", "country": "FR", "coord": {"lon": 2.12807, "lat": 50.986511}}, {"id": 3175865, "name": "Gravellona Lomellina", "country": "IT", "coord": {"lon": 8.76414, "lat": 45.32766}}, {"id": 3175864, "name": "Gravellona Toce", "country": "IT", "coord": {"lon": 8.43209, "lat": 45.928589}}, {"id": 2164652, "name": "Gravelly Beach", "country": "AU", "coord": {"lon": 146.983337, "lat": -41.299999}}, {"id": 2738814, "name": "Gravelos", "country": "PT", "coord": {"lon": -8.60547, "lat": 41.122299}}, {"id": 2917877, "name": "Gravelund", "country": "DE", "coord": {"lon": 9.3, "lat": 54.633331}}, {"id": 2917876, "name": "Gravenbruch", "country": "DE", "coord": {"lon": 8.75, "lat": 50.066669}}, {"id": 5965546, "name": "Gravenhurst", "country": "CA", "coord": {"lon": -79.366333, "lat": 44.916809}}, {"id": 2648190, "name": "Gravenhurst", "country": "GB", "coord": {"lon": -0.36982, "lat": 52.008541}}, {"id": 2917868, "name": "Gravenwiesbach", "country": "DE", "coord": {"lon": 8.4569, "lat": 50.39024}}, {"id": 6535396, "name": "Gravere", "country": "IT", "coord": {"lon": 7.01751, "lat": 45.12534}}, {"id": 7285970, "name": "Gravesano", "country": "CH", "coord": {"lon": 8.91899, "lat": 46.04203}}, {"id": 2660519, "name": "Gravesano", "country": "CH", "coord": {"lon": 8.91832, "lat": 46.04208}}, {"id": 2164648, "name": "Gravesend", "country": "AU", "coord": {"lon": 150.316666, "lat": -29.58333}}, {"id": 2648187, "name": "Gravesend", "country": "GB", "coord": {"lon": 0.37371, "lat": 51.44138}}, {"id": 3014803, "name": "Graveson", "country": "FR", "coord": {"lon": 4.77189, "lat": 43.851341}}, {"id": 4112898, "name": "Gravette", "country": "US", "coord": {"lon": -94.453552, "lat": 36.42202}}, {"id": 3014795, "name": "Gravigny", "country": "FR", "coord": {"lon": 1.16962, "lat": 49.053101}}, {"id": 6542346, "name": "Gravina di Catania", "country": "IT", "coord": {"lon": 15.06299, "lat": 37.55555}}, {"id": 6534275, "name": "Gravina di Catania", "country": "IT", "coord": {"lon": 15.06299, "lat": 37.55555}}, {"id": 6538943, "name": "Gravina in Puglia", "country": "IT", "coord": {"lon": 16.422779, "lat": 40.819721}}, {"id": 3175860, "name": "Gravina in Puglia", "country": "IT", "coord": {"lon": 16.422779, "lat": 40.819721}}, {"id": 3014790, "name": "Gravoins", "country": "FR", "coord": {"lon": 3.56667, "lat": 46.116669}}, {"id": 1643791, "name": "Grawan", "country": "ID", "coord": {"lon": 111.290901, "lat": -6.7672}}, {"id": 5965620, "name": "Gray", "country": "CA", "coord": {"lon": -104.434402, "lat": 50.166771}}, {"id": 3014784, "name": "Gray", "country": "FR", "coord": {"lon": 5.59215, "lat": 47.445751}}, {"id": 4197938, "name": "Gray", "country": "US", "coord": {"lon": -83.533783, "lat": 33.009579}}, {"id": 4326320, "name": "Gray", "country": "US", "coord": {"lon": -90.786484, "lat": 29.69771}}, {"id": 4625945, "name": "Gray", "country": "US", "coord": {"lon": -82.47654, "lat": 36.41983}}, {"id": 5522430, "name": "Gray County", "country": "US", "coord": {"lon": -100.802002, "lat": 35.416698}}, {"id": 4388632, "name": "Gray Summit", "country": "US", "coord": {"lon": -90.816803, "lat": 38.48978}}, {"id": 3014779, "name": "Gray-la-Ville", "country": "FR", "coord": {"lon": 5.57252, "lat": 47.43932}}, {"id": 6432245, "name": "Grayan-et-l'H\u00f4pital", "country": "FR", "coord": {"lon": -1.08333, "lat": 45.450001}}, {"id": 3014782, "name": "Grayan-et-l'H\u00f4pital", "country": "FR", "coord": {"lon": -1.09492, "lat": 45.440208}}, {"id": 6427253, "name": "Graye-sur-Mer", "country": "FR", "coord": {"lon": -0.46667, "lat": 49.333328}}, {"id": 3014780, "name": "Graye-sur-Mer", "country": "FR", "coord": {"lon": -0.47356, "lat": 49.32832}}, {"id": 4994578, "name": "Grayling", "country": "US", "coord": {"lon": -84.714752, "lat": 44.6614}}, {"id": 4293284, "name": "Graymoor-Devondale", "country": "US", "coord": {"lon": -85.623016, "lat": 38.273129}}, {"id": 2648182, "name": "Grays", "country": "GB", "coord": {"lon": 0.32521, "lat": 51.475658}}, {"id": 5796126, "name": "Grays Harbor County", "country": "US", "coord": {"lon": -123.83461, "lat": 47.083149}}, {"id": 2205989, "name": "Grays Point", "country": "AU", "coord": {"lon": 151.083328, "lat": -34.049999}}, {"id": 4894465, "name": "Grayslake", "country": "US", "coord": {"lon": -88.041748, "lat": 42.344471}}, {"id": 4197968, "name": "Grayson", "country": "US", "coord": {"lon": -83.955742, "lat": 33.894272}}, {"id": 4293311, "name": "Grayson", "country": "US", "coord": {"lon": -82.948502, "lat": 38.332581}}, {"id": 4694710, "name": "Grayson County", "country": "US", "coord": {"lon": -96.683601, "lat": 33.616772}}, {"id": 4065029, "name": "Grayson Valley", "country": "US", "coord": {"lon": -86.639427, "lat": 33.648159}}, {"id": 3307000, "name": "Graystown", "country": "IE", "coord": {"lon": -7.70694, "lat": 52.561111}}, {"id": 4065034, "name": "Graysville", "country": "US", "coord": {"lon": -86.971382, "lat": 33.620659}}, {"id": 4626029, "name": "Graysville", "country": "US", "coord": {"lon": -85.084396, "lat": 35.44701}}, {"id": 2164633, "name": "Graytown", "country": "AU", "coord": {"lon": 144.949997, "lat": -36.816669}}, {"id": 4239773, "name": "Grayville", "country": "US", "coord": {"lon": -87.993637, "lat": 38.257549}}, {"id": 559034, "name": "Grayvoron", "country": "RU", "coord": {"lon": 35.677299, "lat": 50.4767}}, {"id": 2778067, "name": "Graz", "country": "AT", "coord": {"lon": 15.45, "lat": 47.066669}}, {"id": 3014774, "name": "Grazac", "country": "FR", "coord": {"lon": 3.79256, "lat": 45.063759}}, {"id": 6356934, "name": "Grazalema", "country": "ES", "coord": {"lon": -5.39333, "lat": 36.768688}}, {"id": 2517049, "name": "Grazalema", "country": "ES", "coord": {"lon": -5.36839, "lat": 36.760181}}, {"id": 6269121, "name": "Grazhdanka", "country": "RU", "coord": {"lon": 133.284439, "lat": 44.187778}}, {"id": 559020, "name": "Grazhdanskoye", "country": "RU", "coord": {"lon": 42.769798, "lat": 44.23}}, {"id": 3175856, "name": "Grazzanise", "country": "IT", "coord": {"lon": 14.10032, "lat": 41.089409}}, {"id": 3175855, "name": "Grazzano Badoglio", "country": "IT", "coord": {"lon": 8.31064, "lat": 45.040352}}, {"id": 8012393, "name": "Gra\u00e7a", "country": "PT", "coord": {"lon": -8.22326, "lat": 39.893139}}, {"id": 6955599, "name": "Gra\u00e7as", "country": "BR", "coord": {"lon": -34.899361, "lat": -8.04436}}, {"id": 6358348, "name": "Gra\u00f1\u00e9n", "country": "ES", "coord": {"lon": -0.3405, "lat": 41.931599}}, {"id": 6359059, "name": "Gra\u00f1\u00f3n", "country": "ES", "coord": {"lon": -3.02002, "lat": 42.43845}}, {"id": 790183, "name": "Grchec", "country": "MK", "coord": {"lon": 21.33028, "lat": 41.98806}}, {"id": 676778, "name": "Greabanu", "country": "RO", "coord": {"lon": 26.966669, "lat": 45.383331}}, {"id": 676774, "name": "Greaca", "country": "RO", "coord": {"lon": 26.339439, "lat": 44.10944}}, {"id": 3310833, "name": "Greagh", "country": "IE", "coord": {"lon": -8.09444, "lat": 54.089439}}, {"id": 3014767, "name": "Greasque", "country": "FR", "coord": {"lon": 5.54449, "lat": 43.433102}}, {"id": 2648174, "name": "Great Asby", "country": "GB", "coord": {"lon": -2.49098, "lat": 54.514511}}, {"id": 7293126, "name": "Great Aycliffe", "country": "GB", "coord": {"lon": -1.56598, "lat": 54.613289}}, {"id": 2648172, "name": "Great Ayton", "country": "GB", "coord": {"lon": -1.13623, "lat": 54.491482}}, {"id": 2648168, "name": "Great Barford", "country": "GB", "coord": {"lon": -0.35235, "lat": 52.157909}}, {"id": 4938157, "name": "Great Barrington", "country": "US", "coord": {"lon": -73.362061, "lat": 42.195919}}, {"id": 2648164, "name": "Great Barton", "country": "GB", "coord": {"lon": 0.76679, "lat": 52.272572}}, {"id": 7299344, "name": "Great Bedwyn", "country": "GB", "coord": {"lon": -1.61315, "lat": 51.372341}}, {"id": 2648163, "name": "Great Bedwyn", "country": "GB", "coord": {"lon": -1.60151, "lat": 51.379501}}, {"id": 4272340, "name": "Great Bend", "country": "US", "coord": {"lon": -98.764809, "lat": 38.36446}}, {"id": 2648162, "name": "Great Bentley", "country": "GB", "coord": {"lon": 1.06379, "lat": 51.853329}}, {"id": 7294598, "name": "Great Boughton", "country": "GB", "coord": {"lon": -2.85604, "lat": 53.189949}}, {"id": 2648152, "name": "Great Braxted", "country": "GB", "coord": {"lon": 0.69901, "lat": 51.795292}}, {"id": 2648151, "name": "Great Bricett", "country": "GB", "coord": {"lon": 0.97817, "lat": 52.115841}}, {"id": 2648150, "name": "Great Brickhill", "country": "GB", "coord": {"lon": -0.68753, "lat": 51.966221}}, {"id": 2648149, "name": "Great Bridgeford", "country": "GB", "coord": {"lon": -2.17321, "lat": 52.840561}}, {"id": 7298234, "name": "Great Coates", "country": "GB", "coord": {"lon": -0.11261, "lat": 53.581181}}, {"id": 2648133, "name": "Great Coates", "country": "GB", "coord": {"lon": -0.13905, "lat": 53.570702}}, {"id": 2648117, "name": "Great Dunmow", "country": "GB", "coord": {"lon": 0.36255, "lat": 51.872299}}, {"id": 2648113, "name": "Great Eccleston", "country": "GB", "coord": {"lon": -2.87026, "lat": 53.853149}}, {"id": 5655240, "name": "Great Falls", "country": "US", "coord": {"lon": -111.300812, "lat": 47.50024}}, {"id": 5965816, "name": "Great Falls", "country": "CA", "coord": {"lon": -96.012756, "lat": 50.459412}}, {"id": 4761951, "name": "Great Falls", "country": "US", "coord": {"lon": -77.288322, "lat": 38.998169}}, {"id": 4580354, "name": "Great Falls", "country": "US", "coord": {"lon": -80.902023, "lat": 34.575142}}, {"id": 2648097, "name": "Great Glen", "country": "GB", "coord": {"lon": -1.0349, "lat": 52.575481}}, {"id": 2648096, "name": "Great Gonerby", "country": "GB", "coord": {"lon": -0.66685, "lat": 52.93507}}, {"id": 2648087, "name": "Great Hanwood", "country": "GB", "coord": {"lon": -2.81667, "lat": 52.683331}}, {"id": 2648084, "name": "Great Harwood", "country": "GB", "coord": {"lon": -2.40865, "lat": 53.785118}}, {"id": 2648079, "name": "Great Horkesley", "country": "GB", "coord": {"lon": 0.87551, "lat": 51.93821}}, {"id": 2648074, "name": "Great Houghton", "country": "GB", "coord": {"lon": -1.34952, "lat": 53.55352}}, {"id": 5965842, "name": "Great Jervais", "country": "CA", "coord": {"lon": -55.148281, "lat": 47.466629}}, {"id": 7839722, "name": "Great Lakes", "country": "AU", "coord": {"lon": 152.110352, "lat": -32.38784}}, {"id": 2648070, "name": "Great Langton", "country": "GB", "coord": {"lon": -1.54789, "lat": 54.362469}}, {"id": 2648063, "name": "Great Malvern", "country": "GB", "coord": {"lon": -2.32515, "lat": 52.11161}}, {"id": 6694342, "name": "Great Marton", "country": "GB", "coord": {"lon": -3.02261, "lat": 53.811852}}, {"id": 2648057, "name": "Great Missenden", "country": "GB", "coord": {"lon": -0.70797, "lat": 51.704189}}, {"id": 5119218, "name": "Great Neck", "country": "US", "coord": {"lon": -73.728462, "lat": 40.800659}}, {"id": 5119235, "name": "Great Neck Estates", "country": "US", "coord": {"lon": -73.736801, "lat": 40.787048}}, {"id": 5119223, "name": "Great Neck Gardens", "country": "US", "coord": {"lon": -73.723892, "lat": 40.797218}}, {"id": 5119226, "name": "Great Neck Plaza", "country": "US", "coord": {"lon": -73.726517, "lat": 40.78677}}, {"id": 2648051, "name": "Great Ness", "country": "GB", "coord": {"lon": -2.9, "lat": 52.76667}}, {"id": 5119232, "name": "Great River", "country": "US", "coord": {"lon": -73.157608, "lat": 40.72121}}, {"id": 2648033, "name": "Great Rollright", "country": "GB", "coord": {"lon": -1.52864, "lat": 51.975948}}, {"id": 2648028, "name": "Great Salkeld", "country": "GB", "coord": {"lon": -2.70169, "lat": 54.721699}}, {"id": 7292669, "name": "Great Sankey", "country": "GB", "coord": {"lon": -2.64646, "lat": 53.395321}}, {"id": 2648026, "name": "Great Sankey", "country": "GB", "coord": {"lon": -2.63994, "lat": 53.392342}}, {"id": 7297654, "name": "Great Somerford", "country": "GB", "coord": {"lon": -2.06508, "lat": 51.5424}}, {"id": 2648017, "name": "Great Somerford", "country": "GB", "coord": {"lon": -2.05209, "lat": 51.543541}}, {"id": 2648010, "name": "Great Stukeley", "country": "GB", "coord": {"lon": -0.21071, "lat": 52.356571}}, {"id": 2648004, "name": "Great Torrington", "country": "GB", "coord": {"lon": -4.14401, "lat": 50.953091}}, {"id": 2648003, "name": "Great Totham", "country": "GB", "coord": {"lon": 0.68932, "lat": 51.77354}}, {"id": 5965889, "name": "Great Village", "country": "CA", "coord": {"lon": -63.598701, "lat": 45.416851}}, {"id": 2164608, "name": "Great Western", "country": "AU", "coord": {"lon": 142.850006, "lat": -37.150002}}, {"id": 7300345, "name": "Great Wishford", "country": "GB", "coord": {"lon": -1.90985, "lat": 51.113201}}, {"id": 2647991, "name": "Great Wishford", "country": "GB", "coord": {"lon": -1.88842, "lat": 51.11898}}, {"id": 2647985, "name": "Great Wyrley", "country": "GB", "coord": {"lon": -2.01111, "lat": 52.662769}}, {"id": 2647984, "name": "Great Yarmouth", "country": "GB", "coord": {"lon": 1.73052, "lat": 52.608311}}, {"id": 7290595, "name": "Great Yarmouth District", "country": "GB", "coord": {"lon": 1.6469, "lat": 52.633961}}, {"id": 2647983, "name": "Great Yeldham", "country": "GB", "coord": {"lon": 0.5654, "lat": 52.01347}}, {"id": 7839547, "name": "Greater Bendigo", "country": "AU", "coord": {"lon": 144.439743, "lat": -36.722778}}, {"id": 7839548, "name": "Greater Dandenong", "country": "AU", "coord": {"lon": 145.190735, "lat": -38.001122}}, {"id": 7839549, "name": "Greater Geelong", "country": "AU", "coord": {"lon": 144.461365, "lat": -38.051819}}, {"id": 7839366, "name": "Greater Hume Shire", "country": "AU", "coord": {"lon": 147.197311, "lat": -35.758369}}, {"id": 2648110, "name": "Greater London", "country": "GB", "coord": {"lon": -0.16667, "lat": 51.5}}, {"id": 5965812, "name": "Greater Napanee", "country": "CA", "coord": {"lon": -76.94944, "lat": 44.250118}}, {"id": 6954929, "name": "Greater Noida", "country": "IN", "coord": {"lon": 77.536011, "lat": 28.496149}}, {"id": 7259823, "name": "Greater Northdale", "country": "US", "coord": {"lon": -82.52594, "lat": 28.10545}}, {"id": 7839550, "name": "Greater Shepparton", "country": "AU", "coord": {"lon": 145.415192, "lat": -36.427422}}, {"id": 5964700, "name": "Greater Sudbury", "country": "CA", "coord": {"lon": -80.990013, "lat": 46.490002}}, {"id": 7839365, "name": "Greater Taree", "country": "AU", "coord": {"lon": 152.279556, "lat": -31.804911}}, {"id": 2648089, "name": "Greatham", "country": "GB", "coord": {"lon": -1.23806, "lat": 54.64183}}, {"id": 3748736, "name": "Greathead", "country": "VC", "coord": {"lon": -61.220829, "lat": 13.14417}}, {"id": 4694896, "name": "Greatwood", "country": "US", "coord": {"lon": -95.675781, "lat": 29.554131}}, {"id": 2710797, "name": "Grebbestad", "country": "SE", "coord": {"lon": 11.25738, "lat": 58.70248}}, {"id": 6548355, "name": "Grebbin", "country": "DE", "coord": {"lon": 11.8667, "lat": 53.516701}}, {"id": 2917860, "name": "Grebbin", "country": "DE", "coord": {"lon": 11.86335, "lat": 53.514999}}, {"id": 2917858, "name": "Grebenau", "country": "DE", "coord": {"lon": 9.46667, "lat": 50.75}}, {"id": 559012, "name": "Grebenets", "country": "RU", "coord": {"lon": 44.086666, "lat": 58.058613}}, {"id": 6553238, "name": "Grebenhain", "country": "DE", "coord": {"lon": 9.3358, "lat": 50.488899}}, {"id": 2917850, "name": "Grebenhain", "country": "DE", "coord": {"lon": 9.33855, "lat": 50.489239}}, {"id": 676769, "name": "Grebenisu de Campie", "country": "RO", "coord": {"lon": 24.299999, "lat": 46.599998}}, {"id": 2917849, "name": "Grebenroth", "country": "DE", "coord": {"lon": 7.93427, "lat": 50.198521}}, {"id": 558998, "name": "Grebenskaya", "country": "RU", "coord": {"lon": 46.373329, "lat": 43.53167}}, {"id": 2917848, "name": "Grebenstein", "country": "DE", "coord": {"lon": 9.41667, "lat": 51.450001}}, {"id": 6557814, "name": "Grebenstein, Stadt", "country": "DE", "coord": {"lon": 9.41667, "lat": 51.450001}}, {"id": 6551728, "name": "Grebin", "country": "DE", "coord": {"lon": 10.5, "lat": 54.200001}}, {"id": 2917846, "name": "Grebin", "country": "DE", "coord": {"lon": 10.5, "lat": 54.200001}}, {"id": 771481, "name": "Grebkow", "country": "PL", "coord": {"lon": 21.90974, "lat": 52.26931}}, {"id": 518858, "name": "Grebnevo", "country": "RU", "coord": {"lon": 38.072777, "lat": 55.961945}}, {"id": 3098380, "name": "Grebocice", "country": "PL", "coord": {"lon": 16.16741, "lat": 51.599091}}, {"id": 771478, "name": "Greboszow", "country": "PL", "coord": {"lon": 20.77669, "lat": 50.24501}}, {"id": 771477, "name": "Grebow", "country": "PL", "coord": {"lon": 21.874041, "lat": 50.565361}}, {"id": 708179, "name": "Greb\u00ebnki", "country": "UA", "coord": {"lon": 30.193211, "lat": 49.95536}}, {"id": 6534696, "name": "Greccio", "country": "IT", "coord": {"lon": 12.75248, "lat": 42.44413}}, {"id": 676762, "name": "Grecesti", "country": "RO", "coord": {"lon": 23.283331, "lat": 44.450001}}, {"id": 558969, "name": "Grecheskoye", "country": "RU", "coord": {"lon": 43.008301, "lat": 44.430531}}, {"id": 3175848, "name": "Greci", "country": "IT", "coord": {"lon": 14.13333, "lat": 41.333328}}, {"id": 676755, "name": "Greci", "country": "RO", "coord": {"lon": 28.23333, "lat": 45.183331}}, {"id": 3175849, "name": "Greci", "country": "IT", "coord": {"lon": 15.16914, "lat": 41.25182}}, {"id": 676758, "name": "Greci", "country": "RO", "coord": {"lon": 23.116671, "lat": 44.549999}}, {"id": 6693847, "name": "Greco", "country": "IT", "coord": {"lon": 9.21083, "lat": 45.50238}}, {"id": 3282009, "name": "Greda", "country": "HR", "coord": {"lon": 16.693609, "lat": 43.61528}}, {"id": 2917833, "name": "Greding", "country": "DE", "coord": {"lon": 11.36139, "lat": 49.048328}}, {"id": 2621236, "name": "Gredstedbro", "country": "DK", "coord": {"lon": 8.73914, "lat": 55.398281}}, {"id": 5119251, "name": "Greece", "country": "US", "coord": {"lon": -77.693062, "lat": 43.209782}}, {"id": 5069395, "name": "Greeley", "country": "US", "coord": {"lon": -98.531181, "lat": 41.548618}}, {"id": 5577592, "name": "Greeley", "country": "US", "coord": {"lon": -104.709129, "lat": 40.423309}}, {"id": 5069397, "name": "Greeley County", "country": "US", "coord": {"lon": -98.533691, "lat": 41.566681}}, {"id": 5156371, "name": "Green", "country": "US", "coord": {"lon": -81.48317, "lat": 40.945889}}, {"id": 5729293, "name": "Green", "country": "US", "coord": {"lon": -123.367851, "lat": 43.160389}}, {"id": 4198021, "name": "Green Acre", "country": "US", "coord": {"lon": -85.148842, "lat": 34.338421}}, {"id": 5354008, "name": "Green Acres", "country": "US", "coord": {"lon": -117.076424, "lat": 33.738079}}, {"id": 8115326, "name": "Green Acres Mobile Home Park", "country": "US", "coord": {"lon": -84.359169, "lat": 41.341671}}, {"id": 4580391, "name": "Green Bay", "country": "US", "coord": {"lon": -79.755363, "lat": 33.014889}}, {"id": 6232196, "name": "Green Bay", "country": "NZ", "coord": {"lon": 174.670197, "lat": -36.9282}}, {"id": 5254962, "name": "Green Bay", "country": "US", "coord": {"lon": -88.019829, "lat": 44.519161}}, {"id": 4157427, "name": "Green Cove Springs", "country": "US", "coord": {"lon": -81.678146, "lat": 29.991911}}, {"id": 4113015, "name": "Green Forest", "country": "US", "coord": {"lon": -93.43602, "lat": 36.33535}}, {"id": 7257572, "name": "Green Harbor-Cedar Crest", "country": "US", "coord": {"lon": -70.658432, "lat": 42.074951}}, {"id": 4356783, "name": "Green Haven", "country": "US", "coord": {"lon": -76.547737, "lat": 39.139549}}, {"id": 2079192, "name": "Green Head", "country": "AU", "coord": {"lon": 114.967216, "lat": -30.071671}}, {"id": 4293382, "name": "Green Hill", "country": "US", "coord": {"lon": -83.965477, "lat": 37.296478}}, {"id": 4626181, "name": "Green Hill", "country": "US", "coord": {"lon": -86.549438, "lat": 36.222832}}, {"id": 3574466, "name": "Green Hill", "country": "TT", "coord": {"lon": -61.566669, "lat": 10.73333}}, {"id": 5119290, "name": "Green Island", "country": "US", "coord": {"lon": -73.691513, "lat": 42.74424}}, {"id": 5098617, "name": "Green Knoll", "country": "US", "coord": {"lon": -74.612099, "lat": 40.600101}}, {"id": 5966373, "name": "Green Lake", "country": "CA", "coord": {"lon": -107.78466, "lat": 54.28347}}, {"id": 5255004, "name": "Green Lake", "country": "US", "coord": {"lon": -88.960114, "lat": 43.844151}}, {"id": 5255015, "name": "Green Lake County", "country": "US", "coord": {"lon": -89.033447, "lat": 43.79998}}, {"id": 4468989, "name": "Green Level", "country": "US", "coord": {"lon": -79.344193, "lat": 36.120972}}, {"id": 4468990, "name": "Green Level", "country": "US", "coord": {"lon": -78.9039, "lat": 35.782089}}, {"id": 4513216, "name": "Green Meadows", "country": "US", "coord": {"lon": -83.944382, "lat": 39.86895}}, {"id": 4894614, "name": "Green Oaks", "country": "US", "coord": {"lon": -87.903412, "lat": 42.29002}}, {"id": 4388732, "name": "Green Park", "country": "US", "coord": {"lon": -90.338448, "lat": 38.523659}}, {"id": 5826559, "name": "Green River", "country": "US", "coord": {"lon": -109.466248, "lat": 41.52858}}, {"id": 4894625, "name": "Green Rock", "country": "US", "coord": {"lon": -90.357628, "lat": 41.473091}}, {"id": 5156409, "name": "Green Springs", "country": "US", "coord": {"lon": -83.051582, "lat": 41.256161}}, {"id": 5191925, "name": "Green Tree", "country": "US", "coord": {"lon": -80.045609, "lat": 40.411739}}, {"id": 5296802, "name": "Green Valley", "country": "US", "coord": {"lon": -110.993698, "lat": 31.85425}}, {"id": 4356836, "name": "Green Valley", "country": "US", "coord": {"lon": -77.297211, "lat": 39.309269}}, {"id": 5354104, "name": "Green Valley", "country": "US", "coord": {"lon": -118.413971, "lat": 34.621651}}, {"id": 5354114, "name": "Green Valley", "country": "US", "coord": {"lon": -122.162193, "lat": 38.252972}}, {"id": 4694990, "name": "Green Valley Farms", "country": "US", "coord": {"lon": -97.560539, "lat": 26.122021}}, {"id": 5354157, "name": "Greenacres", "country": "US", "coord": {"lon": -119.109833, "lat": 35.383289}}, {"id": 4157467, "name": "Greenacres City", "country": "US", "coord": {"lon": -80.12532, "lat": 26.62368}}, {"id": 4326477, "name": "Greenacres Place", "country": "US", "coord": {"lon": -93.716011, "lat": 32.569592}}, {"id": 3316376, "name": "Greenanstown", "country": "IE", "coord": {"lon": -6.31833, "lat": 53.621941}}, {"id": 4626275, "name": "Greenback", "country": "US", "coord": {"lon": -84.172142, "lat": 35.66119}}, {"id": 2164601, "name": "Greenbank", "country": "AU", "coord": {"lon": 152.983337, "lat": -27.716669}}, {"id": 4356847, "name": "Greenbelt", "country": "US", "coord": {"lon": -76.875526, "lat": 39.004551}}, {"id": 4580494, "name": "Greenbriar", "country": "US", "coord": {"lon": -82.693192, "lat": 34.491772}}, {"id": 4762155, "name": "Greenbriar", "country": "US", "coord": {"lon": -77.400818, "lat": 38.873451}}, {"id": 4626286, "name": "Greenbrier", "country": "US", "coord": {"lon": -86.804718, "lat": 36.427551}}, {"id": 4113067, "name": "Greenbrier", "country": "US", "coord": {"lon": -92.387657, "lat": 35.233971}}, {"id": 5119347, "name": "Greenburgh", "country": "US", "coord": {"lon": -73.842911, "lat": 41.032879}}, {"id": 4965923, "name": "Greenbush", "country": "US", "coord": {"lon": -68.650864, "lat": 45.080341}}, {"id": 2070443, "name": "Greenbushes", "country": "AU", "coord": {"lon": 116.050003, "lat": -33.849998}}, {"id": 4258273, "name": "Greencastle", "country": "US", "coord": {"lon": -86.864731, "lat": 39.644489}}, {"id": 4558369, "name": "Greencastle", "country": "US", "coord": {"lon": -77.727768, "lat": 39.790371}}, {"id": 2164590, "name": "Greendale", "country": "AU", "coord": {"lon": 144.316666, "lat": -37.566669}}, {"id": 4258277, "name": "Greendale", "country": "US", "coord": {"lon": -84.86412, "lat": 39.11256}}, {"id": 5255057, "name": "Greendale", "country": "US", "coord": {"lon": -87.995918, "lat": 42.940571}}, {"id": 4859211, "name": "Greene", "country": "US", "coord": {"lon": -92.802422, "lat": 42.895809}}, {"id": 4965929, "name": "Greene", "country": "US", "coord": {"lon": -70.140327, "lat": 44.189789}}, {"id": 5119353, "name": "Greene", "country": "US", "coord": {"lon": -75.769913, "lat": 42.329239}}, {"id": 4626324, "name": "Greene County", "country": "US", "coord": {"lon": -82.849869, "lat": 36.150101}}, {"id": 4428420, "name": "Greene County", "country": "US", "coord": {"lon": -88.66169, "lat": 31.1999}}, {"id": 4113088, "name": "Greene County", "country": "US", "coord": {"lon": -90.55011, "lat": 36.11673}}, {"id": 4388781, "name": "Greene County", "country": "US", "coord": {"lon": -93.350189, "lat": 37.266708}}, {"id": 4239836, "name": "Greene County", "country": "US", "coord": {"lon": -90.400124, "lat": 39.350052}}, {"id": 4859214, "name": "Greene County", "country": "US", "coord": {"lon": -94.400253, "lat": 42.033321}}, {"id": 4513280, "name": "Greene County", "country": "US", "coord": {"lon": -83.899933, "lat": 39.683392}}, {"id": 2164589, "name": "Greenethorpe", "country": "AU", "coord": {"lon": 148.399994, "lat": -34}}, {"id": 4626334, "name": "Greeneville", "country": "US", "coord": {"lon": -82.830994, "lat": 36.163158}}, {"id": 5354172, "name": "Greenfield", "country": "US", "coord": {"lon": -121.243813, "lat": 36.320801}}, {"id": 4258285, "name": "Greenfield", "country": "US", "coord": {"lon": -85.769417, "lat": 39.785042}}, {"id": 4938378, "name": "Greenfield", "country": "US", "coord": {"lon": -72.599533, "lat": 42.587589}}, {"id": 5255068, "name": "Greenfield", "country": "US", "coord": {"lon": -88.012589, "lat": 42.961399}}, {"id": 2647975, "name": "Greenfield", "country": "GB", "coord": {"lon": -3.21667, "lat": 53.283329}}, {"id": 4239840, "name": "Greenfield", "country": "US", "coord": {"lon": -90.212608, "lat": 39.343658}}, {"id": 4388790, "name": "Greenfield", "country": "US", "coord": {"lon": -93.841042, "lat": 37.415321}}, {"id": 4513294, "name": "Greenfield", "country": "US", "coord": {"lon": -83.38269, "lat": 39.352009}}, {"id": 4626344, "name": "Greenfield", "country": "US", "coord": {"lon": -88.800621, "lat": 36.1534}}, {"id": 4859234, "name": "Greenfield", "country": "US", "coord": {"lon": -94.461349, "lat": 41.305271}}, {"id": 5028795, "name": "Greenfield", "country": "US", "coord": {"lon": -93.691353, "lat": 45.103298}}, {"id": 5086911, "name": "Greenfield", "country": "US", "coord": {"lon": -71.872299, "lat": 42.950642}}, {"id": 5354171, "name": "Greenfield", "country": "US", "coord": {"lon": -119.002876, "lat": 35.268848}}, {"id": 1000116, "name": "Greenfields", "country": "ZA", "coord": {"lon": 27.86216, "lat": -33.033298}}, {"id": 2647972, "name": "Greenford", "country": "GB", "coord": {"lon": -0.35508, "lat": 51.52866}}, {"id": 2164585, "name": "Greengrove", "country": "AU", "coord": {"lon": 151.149994, "lat": -33.383331}}, {"id": 2647967, "name": "Greenhead", "country": "GB", "coord": {"lon": -2.51667, "lat": 54.966671}}, {"id": 3209928, "name": "Greenhill", "country": "GB", "coord": {"lon": 1.10833, "lat": 51.359718}}, {"id": 2164572, "name": "Greenhill", "country": "AU", "coord": {"lon": 152.800003, "lat": -31.066669}}, {"id": 6693776, "name": "Greenhill", "country": "GB", "coord": {"lon": -0.3386, "lat": 51.58342}}, {"id": 7290494, "name": "Greenhills", "country": "ZA", "coord": {"lon": 27.693529, "lat": -26.1611}}, {"id": 4513309, "name": "Greenhills", "country": "US", "coord": {"lon": -84.523003, "lat": 39.268108}}, {"id": 2647962, "name": "Greenhithe", "country": "GB", "coord": {"lon": 0.28539, "lat": 51.45026}}, {"id": 2647957, "name": "Greenisland", "country": "GB", "coord": {"lon": -5.86667, "lat": 54.700001}}, {"id": 3425505, "name": "Greenland", "country": "GL", "coord": {"lon": -40, "lat": 72}}, {"id": 4113113, "name": "Greenland", "country": "US", "coord": {"lon": -94.175201, "lat": 35.994251}}, {"id": 5086915, "name": "Greenland", "country": "US", "coord": {"lon": -70.832832, "lat": 43.036201}}, {"id": 2647954, "name": "Greenlaw", "country": "GB", "coord": {"lon": -2.46241, "lat": 55.706799}}, {"id": 5119377, "name": "Greenlawn", "country": "US", "coord": {"lon": -73.36512, "lat": 40.868992}}, {"id": 2164536, "name": "Greenmount", "country": "AU", "coord": {"lon": 151.899994, "lat": -27.799999}}, {"id": 2070423, "name": "Greenmount", "country": "AU", "coord": {"lon": 116.050003, "lat": -31.9}}, {"id": 2647948, "name": "Greenock", "country": "GB", "coord": {"lon": -4.76121, "lat": 55.94838}}, {"id": 2070422, "name": "Greenock", "country": "AU", "coord": {"lon": 138.916672, "lat": -34.466671}}, {"id": 5192000, "name": "Greenock", "country": "US", "coord": {"lon": -79.806709, "lat": 40.31229}}, {"id": 2963857, "name": "Greenore", "country": "IE", "coord": {"lon": -6.13333, "lat": 54.033329}}, {"id": 2070421, "name": "Greenough", "country": "AU", "coord": {"lon": 114.73333, "lat": -28.950001}}, {"id": 5119385, "name": "Greenport", "country": "US", "coord": {"lon": -72.359253, "lat": 41.103432}}, {"id": 7258676, "name": "Greenport West", "country": "US", "coord": {"lon": -72.371948, "lat": 41.10178}}, {"id": 2164514, "name": "Greens Creek", "country": "AU", "coord": {"lon": 142.949997, "lat": -36.933331}}, {"id": 4469146, "name": "Greensboro", "country": "US", "coord": {"lon": -79.791977, "lat": 36.072639}}, {"id": 4065282, "name": "Greensboro", "country": "US", "coord": {"lon": -87.59584, "lat": 32.704578}}, {"id": 4198204, "name": "Greensboro", "country": "US", "coord": {"lon": -83.182381, "lat": 33.57568}}, {"id": 4356953, "name": "Greensboro", "country": "US", "coord": {"lon": -75.804932, "lat": 38.973721}}, {"id": 2164515, "name": "Greensborough", "country": "AU", "coord": {"lon": 145.103027, "lat": -37.70462}}, {"id": 4258302, "name": "Greensburg", "country": "US", "coord": {"lon": -85.483582, "lat": 39.337269}}, {"id": 4272411, "name": "Greensburg", "country": "US", "coord": {"lon": -99.29261, "lat": 37.602798}}, {"id": 4293470, "name": "Greensburg", "country": "US", "coord": {"lon": -85.498848, "lat": 37.260891}}, {"id": 4326511, "name": "Greensburg", "country": "US", "coord": {"lon": -90.671761, "lat": 30.83074}}, {"id": 5156478, "name": "Greensburg", "country": "US", "coord": {"lon": -81.464844, "lat": 40.931721}}, {"id": 5192029, "name": "Greensburg", "country": "US", "coord": {"lon": -79.538933, "lat": 40.30146}}, {"id": 4920961, "name": "Greentown", "country": "US", "coord": {"lon": -85.966652, "lat": 40.478088}}, {"id": 5156485, "name": "Greentown", "country": "US", "coord": {"lon": -81.402611, "lat": 40.927559}}, {"id": 4502049, "name": "Greentree", "country": "US", "coord": {"lon": -74.955719, "lat": 39.89706}}, {"id": 4239858, "name": "Greenup", "country": "US", "coord": {"lon": -88.163368, "lat": 39.247822}}, {"id": 4293473, "name": "Greenup", "country": "US", "coord": {"lon": -82.83017, "lat": 38.573132}}, {"id": 2164495, "name": "Greenvale", "country": "AU", "coord": {"lon": 144.866669, "lat": -37.633331}}, {"id": 5119398, "name": "Greenvale", "country": "US", "coord": {"lon": -73.628464, "lat": 40.810661}}, {"id": 2276600, "name": "Greenville", "country": "LR", "coord": {"lon": -9.03889, "lat": 5.01111}}, {"id": 4428475, "name": "Greenville", "country": "US", "coord": {"lon": -91.061768, "lat": 33.410118}}, {"id": 4469160, "name": "Greenville", "country": "US", "coord": {"lon": -77.366348, "lat": 35.612659}}, {"id": 5255099, "name": "Greenville", "country": "US", "coord": {"lon": -88.536499, "lat": 44.300259}}, {"id": 4239867, "name": "Greenville", "country": "US", "coord": {"lon": -89.413139, "lat": 38.892269}}, {"id": 5775438, "name": "Greenville", "country": "US", "coord": {"lon": -111.848282, "lat": 41.766319}}, {"id": 4580543, "name": "Greenville", "country": "US", "coord": {"lon": -82.394012, "lat": 34.852619}}, {"id": 4695066, "name": "Greenville", "country": "US", "coord": {"lon": -96.110809, "lat": 33.138451}}, {"id": 4065302, "name": "Greenville", "country": "US", "coord": {"lon": -86.617752, "lat": 31.829599}}, {"id": 4142766, "name": "Greenville", "country": "US", "coord": {"lon": -75.598259, "lat": 39.778999}},