[{"id": 3396496, "name": "Lajedo", "country": "BR", "coord": {"lon": -36.32, "lat": -8.66361}}, {"id": 3396497, "name": "Lajedo", "country": "BR", "coord": {"lon": -36.549999, "lat": -8.38333}}, {"id": 3396470, "name": "Lajes", "country": "BR", "coord": {"lon": -37.289719, "lat": -5.28389}}, {"id": 8013484, "name": "Lajes", "country": "PT", "coord": {"lon": -27.09903, "lat": 38.766819}}, {"id": 3372952, "name": "Lajes", "country": "PT", "coord": {"lon": -27.1, "lat": 38.76667}}, {"id": 3372949, "name": "Lajido do Meio", "country": "PT", "coord": {"lon": -28.433331, "lat": 38.549999}}, {"id": 3458903, "name": "Lajinha", "country": "BR", "coord": {"lon": -41.416672, "lat": -19.716669}}, {"id": 3458902, "name": "Lajinha", "country": "BR", "coord": {"lon": -41.62278, "lat": -20.15139}}, {"id": 788812, "name": "Lajkovac", "country": "RS", "coord": {"lon": 20.165279, "lat": 44.369438}}, {"id": 1707966, "name": "Lajong", "country": "PH", "coord": {"lon": 123.966667, "lat": 12.83333}}, {"id": 3049013, "name": "Lajoskomarom", "country": "HU", "coord": {"lon": 18.337629, "lat": 46.841999}}, {"id": 3049002, "name": "Lajosmizse", "country": "HU", "coord": {"lon": 19.56171, "lat": 47.021332}}, {"id": 2660052, "name": "Lajoux", "country": "CH", "coord": {"lon": 7.13726, "lat": 47.278931}}, {"id": 7286250, "name": "Lajoux (JU)", "country": "CH", "coord": {"lon": 7.13384, "lat": 47.279148}}, {"id": 724325, "name": "Lajo\u0161h\u00e1za", "country": "SK", "coord": {"lon": 21.216669, "lat": 48.650002}}, {"id": 8075223, "name": "Laju Kidul", "country": "ID", "coord": {"lon": 111.747704, "lat": -6.9708}}, {"id": 7026833, "name": "Lak Si", "country": "TH", "coord": {"lon": 100.579201, "lat": 13.88724}}, {"id": 3093969, "name": "Laka Prudnicka", "country": "PL", "coord": {"lon": 17.52809, "lat": 50.310612}}, {"id": 537152, "name": "Lakash", "country": "RU", "coord": {"lon": 40.883331, "lat": 54.666668}}, {"id": 6461679, "name": "Lakatnik", "country": "BG", "coord": {"lon": 23.4, "lat": 43.049999}}, {"id": 729722, "name": "Lakatnik", "country": "BG", "coord": {"lon": 23.4, "lat": 43.049999}}, {"id": 2136697, "name": "Lakatoro", "country": "VU", "coord": {"lon": 167.416367, "lat": -16.09992}}, {"id": 1315047, "name": "Lakawdo", "country": "MM", "coord": {"lon": 97.576942, "lat": 18.119169}}, {"id": 5829855, "name": "Lake", "country": "US", "coord": {"lon": -110.396591, "lat": 44.55827}}, {"id": 2881801, "name": "Lake", "country": "DE", "coord": {"lon": 9.13333, "lat": 52.916672}}, {"id": 2160774, "name": "Lake Albert", "country": "AU", "coord": {"lon": 147.383331, "lat": -35.166672}}, {"id": 4161150, "name": "Lake Alfred", "country": "US", "coord": {"lon": -81.723412, "lat": 28.091961}}, {"id": 6048249, "name": "Lake Alma", "country": "CA", "coord": {"lon": -104.201019, "lat": 49.150059}}, {"id": 5229103, "name": "Lake Andes", "country": "US", "coord": {"lon": -98.541473, "lat": 43.15638}}, {"id": 4360138, "name": "Lake Arbor", "country": "US", "coord": {"lon": -76.829689, "lat": 38.90789}}, {"id": 4969066, "name": "Lake Arrowhead", "country": "US", "coord": {"lon": -70.734779, "lat": 43.663689}}, {"id": 5364414, "name": "Lake Arrowhead", "country": "US", "coord": {"lon": -117.189209, "lat": 34.248341}}, {"id": 4330209, "name": "Lake Arthur", "country": "US", "coord": {"lon": -92.671532, "lat": 30.080759}}, {"id": 4768185, "name": "Lake Barcroft", "country": "US", "coord": {"lon": -77.155807, "lat": 38.847889}}, {"id": 4898969, "name": "Lake Barrington", "country": "US", "coord": {"lon": -88.15258, "lat": 42.212521}}, {"id": 2160773, "name": "Lake Bathurst", "country": "AU", "coord": {"lon": 149.649994, "lat": -35.01667}}, {"id": 4161161, "name": "Lake Belvedere Estates", "country": "US", "coord": {"lon": -80.133377, "lat": 26.68923}}, {"id": 4898974, "name": "Lake Bluff", "country": "US", "coord": {"lon": -87.834244, "lat": 42.278912}}, {"id": 2160772, "name": "Lake Boga", "country": "AU", "coord": {"lon": 143.649994, "lat": -35.466671}}, {"id": 2160771, "name": "Lake Bolac", "country": "AU", "coord": {"lon": 142.850006, "lat": -37.700001}}, {"id": 4704395, "name": "Lake Brownwood", "country": "US", "coord": {"lon": -99.007828, "lat": 31.835699}}, {"id": 4161178, "name": "Lake Butler", "country": "US", "coord": {"lon": -81.540909, "lat": 28.501671}}, {"id": 4161171, "name": "Lake Butler", "country": "US", "coord": {"lon": -82.339561, "lat": 30.022739}}, {"id": 2068015, "name": "Lake Camm", "country": "AU", "coord": {"lon": 119.583328, "lat": -32.98333}}, {"id": 2160769, "name": "Lake Cargelligo", "country": "AU", "coord": {"lon": 146.383331, "lat": -33.299999}}, {"id": 5123777, "name": "Lake Carmel", "country": "US", "coord": {"lon": -73.670959, "lat": 41.461479}}, {"id": 4898990, "name": "Lake Catherine", "country": "US", "coord": {"lon": -88.133423, "lat": 42.479191}}, {"id": 4330236, "name": "Lake Charles", "country": "US", "coord": {"lon": -93.204399, "lat": 30.213091}}, {"id": 2160768, "name": "Lake Charm", "country": "AU", "coord": {"lon": 143.783325, "lat": -35.650002}}, {"id": 4204349, "name": "Lake Cindy Estates", "country": "US", "coord": {"lon": -84.297699, "lat": 33.414001}}, {"id": 4117869, "name": "Lake City", "country": "US", "coord": {"lon": -90.434273, "lat": 35.816189}}, {"id": 4161187, "name": "Lake City", "country": "US", "coord": {"lon": -82.63929, "lat": 30.18968}}, {"id": 4204350, "name": "Lake City", "country": "US", "coord": {"lon": -84.335197, "lat": 33.606499}}, {"id": 4584322, "name": "Lake City", "country": "US", "coord": {"lon": -79.755348, "lat": 33.870998}}, {"id": 4635130, "name": "Lake City", "country": "US", "coord": {"lon": -84.154648, "lat": 36.217861}}, {"id": 4863906, "name": "Lake City", "country": "US", "coord": {"lon": -94.733871, "lat": 42.267479}}, {"id": 4998533, "name": "Lake City", "country": "US", "coord": {"lon": -85.21505, "lat": 44.335289}}, {"id": 5033727, "name": "Lake City", "country": "US", "coord": {"lon": -92.266838, "lat": 44.449409}}, {"id": 5196767, "name": "Lake City", "country": "US", "coord": {"lon": -80.345337, "lat": 42.014221}}, {"id": 5427796, "name": "Lake City", "country": "US", "coord": {"lon": -107.315331, "lat": 38.029999}}, {"id": 4161195, "name": "Lake Clarke Shores", "country": "US", "coord": {"lon": -80.075882, "lat": 26.64534}}, {"id": 2188540, "name": "Lake Coleridge", "country": "NZ", "coord": {"lon": 171.533325, "lat": -43.366669}}, {"id": 5100144, "name": "Lake Como", "country": "US", "coord": {"lon": -74.028191, "lat": 40.15984}}, {"id": 5033738, "name": "Lake County", "country": "US", "coord": {"lon": -91.416817, "lat": 47.63324}}, {"id": 4898998, "name": "Lake County", "country": "US", "coord": {"lon": -88.000633, "lat": 42.333359}}, {"id": 5160090, "name": "Lake County", "country": "US", "coord": {"lon": -81.383171, "lat": 41.633381}}, {"id": 5229128, "name": "Lake County", "country": "US", "coord": {"lon": -97.125343, "lat": 44.036079}}, {"id": 4922493, "name": "Lake County", "country": "US", "coord": {"lon": -87.365311, "lat": 41.416981}}, {"id": 5364466, "name": "Lake County", "country": "US", "coord": {"lon": -122.784439, "lat": 39.099892}}, {"id": 5735647, "name": "Lake County", "country": "US", "coord": {"lon": -120.501358, "lat": 42.83321}}, {"id": 4161204, "name": "Lake County", "country": "US", "coord": {"lon": -81.791473, "lat": 28.791941}}, {"id": 5427799, "name": "Lake County", "country": "US", "coord": {"lon": -106.333908, "lat": 39.21666}}, {"id": 6048316, "name": "Lake Cowichan", "country": "CA", "coord": {"lon": -124.054611, "lat": 48.824951}}, {"id": 5033740, "name": "Lake Crystal", "country": "US", "coord": {"lon": -94.218849, "lat": 44.105801}}, {"id": 4922501, "name": "Lake Dalecarlia", "country": "US", "coord": {"lon": -87.39476, "lat": 41.330872}}, {"id": 4704482, "name": "Lake Dallas", "country": "US", "coord": {"lon": -97.025558, "lat": 33.119289}}, {"id": 4516127, "name": "Lake Darby", "country": "US", "coord": {"lon": -83.228798, "lat": 39.957279}}, {"id": 5259140, "name": "Lake Delton", "country": "US", "coord": {"lon": -89.793739, "lat": 43.601089}}, {"id": 4704829, "name": "Lake Dunlap", "country": "US", "coord": {"lon": -98.072227, "lat": 29.675779}}, {"id": 5033762, "name": "Lake Elmo", "country": "US", "coord": {"lon": -92.879379, "lat": 44.9958}}, {"id": 5364499, "name": "Lake Elsinore", "country": "US", "coord": {"lon": -117.327263, "lat": 33.668079}}, {"id": 5123788, "name": "Lake Erie Beach", "country": "US", "coord": {"lon": -79.066978, "lat": 42.624229}}, {"id": 4998543, "name": "Lake Fenton", "country": "US", "coord": {"lon": -83.707733, "lat": 42.846142}}, {"id": 4899012, "name": "Lake Forest", "country": "US", "coord": {"lon": -87.840622, "lat": 42.258629}}, {"id": 5364514, "name": "Lake Forest", "country": "US", "coord": {"lon": -117.689217, "lat": 33.646969}}, {"id": 4161228, "name": "Lake Forest", "country": "US", "coord": {"lon": -80.183098, "lat": 25.977591}}, {"id": 5800227, "name": "Lake Forest Park", "country": "US", "coord": {"lon": -122.28096, "lat": 47.75676}}, {"id": 5259169, "name": "Lake Geneva", "country": "US", "coord": {"lon": -88.433434, "lat": 42.591679}}, {"id": 2160755, "name": "Lake Goldsmith", "country": "AU", "coord": {"lon": 143.399994, "lat": -37.549999}}, {"id": 5800235, "name": "Lake Goodwin", "country": "US", "coord": {"lon": -122.279587, "lat": 48.138988}}, {"id": 7839598, "name": "Lake Grace", "country": "AU", "coord": {"lon": 119.42041, "lat": -33.129101}}, {"id": 5123796, "name": "Lake Grove", "country": "US", "coord": {"lon": -73.115112, "lat": 40.852879}}, {"id": 5259182, "name": "Lake Hallie", "country": "US", "coord": {"lon": -91.440712, "lat": 44.87579}}, {"id": 4117942, "name": "Lake Hamilton", "country": "US", "coord": {"lon": -93.095177, "lat": 34.42453}}, {"id": 4161250, "name": "Lake Hamilton", "country": "US", "coord": {"lon": -81.627853, "lat": 28.04446}}, {"id": 5301388, "name": "Lake Havasu City", "country": "US", "coord": {"lon": -114.322449, "lat": 34.483898}}, {"id": 7193472, "name": "Lake Haven Mobile Home Park", "country": "US", "coord": {"lon": -81.754501, "lat": 28.0674}}, {"id": 2206082, "name": "Lake Heights", "country": "AU", "coord": {"lon": 150.875, "lat": -34.486671}}, {"id": 4161254, "name": "Lake Helen", "country": "US", "coord": {"lon": -81.233391, "lat": 28.98082}}, {"id": 4559042, "name": "Lake Heritage", "country": "US", "coord": {"lon": -77.183868, "lat": 39.80954}}, {"id": 2160751, "name": "Lake Illawarra", "country": "AU", "coord": {"lon": 150.856445, "lat": -34.546581}}, {"id": 5013285, "name": "Lake Isabella", "country": "US", "coord": {"lon": -84.997253, "lat": 43.643639}}, {"id": 5364554, "name": "Lake Isabella", "country": "US", "coord": {"lon": -118.473137, "lat": 35.618011}}, {"id": 4704628, "name": "Lake Jackson", "country": "US", "coord": {"lon": -95.434387, "lat": 29.033859}}, {"id": 4474773, "name": "Lake Junaluska", "country": "US", "coord": {"lon": -82.959579, "lat": 35.527882}}, {"id": 6048445, "name": "Lake Kathlyn", "country": "CA", "coord": {"lon": -127.220192, "lat": 54.81646}}, {"id": 5123809, "name": "Lake Katrine", "country": "US", "coord": {"lon": -73.98819, "lat": 41.985649}}, {"id": 2068009, "name": "Lake King", "country": "AU", "coord": {"lon": 119.666672, "lat": -33.083328}}, {"id": 4704655, "name": "Lake Kiowa", "country": "US", "coord": {"lon": -97.013062, "lat": 33.577049}}, {"id": 5259196, "name": "Lake Koshkonong", "country": "US", "coord": {"lon": -88.919548, "lat": 42.909729}}, {"id": 6048472, "name": "Lake Lenore", "country": "CA", "coord": {"lon": -104.984367, "lat": 52.40004}}, {"id": 4998569, "name": "Lake Linden", "country": "US", "coord": {"lon": -88.407341, "lat": 47.194092}}, {"id": 4161296, "name": "Lake Lorraine", "country": "US", "coord": {"lon": -86.565231, "lat": 30.441589}}, {"id": 5364571, "name": "Lake Los Angeles", "country": "US", "coord": {"lon": -117.828117, "lat": 34.612492}}, {"id": 4394237, "name": "Lake Lotawana", "country": "US", "coord": {"lon": -94.24411, "lat": 38.923061}}, {"id": 6048483, "name": "Lake Louise", "country": "CA", "coord": {"lon": -116.185478, "lat": 51.433289}}, {"id": 7303198, "name": "Lake Louise", "country": "CA", "coord": {"lon": -116.28479, "lat": 51.40435}}, {"id": 4161298, "name": "Lake Lucerne", "country": "US", "coord": {"lon": -80.24144, "lat": 25.96509}}, {"id": 4474803, "name": "Lake Lure", "country": "US", "coord": {"lon": -82.204826, "lat": 35.427898}}, {"id": 7260355, "name": "Lake Mack-Forest Hills", "country": "US", "coord": {"lon": -81.423973, "lat": 29.00074}}, {"id": 2160746, "name": "Lake Macquarie Shire", "country": "AU", "coord": {"lon": 151.534698, "lat": -33.03756}}, {"id": 4161313, "name": "Lake Magdalene", "country": "US", "coord": {"lon": -82.471764, "lat": 28.074181}}, {"id": 7261592, "name": "Lake Marcel-Stillwater", "country": "US", "coord": {"lon": -121.915131, "lat": 47.692631}}, {"id": 4161373, "name": "Lake Mary", "country": "US", "coord": {"lon": -81.317841, "lat": 28.758881}}, {"id": 4559053, "name": "Lake Meade", "country": "US", "coord": {"lon": -77.037201, "lat": 39.9851}}, {"id": 4998574, "name": "Lake Michigan Beach", "country": "US", "coord": {"lon": -86.369469, "lat": 42.220871}}, {"id": 4863966, "name": "Lake Mills", "country": "US", "coord": {"lon": -93.533272, "lat": 43.419399}}, {"id": 5259218, "name": "Lake Mills", "country": "US", "coord": {"lon": -88.911774, "lat": 43.08139}}, {"id": 5867107, "name": "Lake Minchumina", "country": "US", "coord": {"lon": -152.312225, "lat": 63.882778}}, {"id": 5100190, "name": "Lake Mohawk", "country": "US", "coord": {"lon": -74.660156, "lat": 41.018429}}, {"id": 5160171, "name": "Lake Mohawk", "country": "US", "coord": {"lon": -81.199272, "lat": 40.666729}}, {"id": 5123823, "name": "Lake Mohegan", "country": "US", "coord": {"lon": -73.846252, "lat": 41.317871}}, {"id": 5301407, "name": "Lake Montezuma", "country": "US", "coord": {"lon": -111.777931, "lat": 34.63224}}, {"id": 4768313, "name": "Lake Monticello", "country": "US", "coord": {"lon": -78.334732, "lat": 37.923199}}, {"id": 7261595, "name": "Lake Morton-Berrydale", "country": "US", "coord": {"lon": -122.102859, "lat": 47.332512}}, {"id": 7260357, "name": "Lake Murray of Richland", "country": "US", "coord": {"lon": -81.264503, "lat": 34.12048}}, {"id": 5364615, "name": "Lake Nacimiento", "country": "US", "coord": {"lon": -120.879631, "lat": 35.728298}}, {"id": 5259229, "name": "Lake Nebagamon", "country": "US", "coord": {"lon": -91.699913, "lat": 46.514938}}, {"id": 4474841, "name": "Lake Norman of Catawba", "country": "US", "coord": {"lon": -80.959518, "lat": 35.5868}}, {"id": 7260358, "name": "Lake Norman of Catawba", "country": "US", "coord": {"lon": -81.016541, "lat": 35.580429}}, {"id": 4998583, "name": "Lake Odessa", "country": "US", "coord": {"lon": -85.138344, "lat": 42.78476}}, {"id": 4998587, "name": "Lake Orion", "country": "US", "coord": {"lon": -83.239662, "lat": 42.784481}}, {"id": 5735724, "name": "Lake Oswego", "country": "US", "coord": {"lon": -122.670647, "lat": 45.42067}}, {"id": 4394281, "name": "Lake Ozark", "country": "US", "coord": {"lon": -92.638802, "lat": 38.198639}}, {"id": 4161327, "name": "Lake Panasoffkee", "country": "US", "coord": {"lon": -82.09481, "lat": 28.755819}}, {"id": 4161334, "name": "Lake Park", "country": "US", "coord": {"lon": -80.066429, "lat": 26.800341}}, {"id": 4474845, "name": "Lake Park", "country": "US", "coord": {"lon": -80.635071, "lat": 35.086262}}, {"id": 4863989, "name": "Lake Park", "country": "US", "coord": {"lon": -95.320831, "lat": 43.455521}}, {"id": 4161344, "name": "Lake Placid", "country": "US", "coord": {"lon": -81.362846, "lat": 27.2931}}, {"id": 5123831, "name": "Lake Placid", "country": "US", "coord": {"lon": -73.979874, "lat": 44.279491}}, {"id": 5123834, "name": "Lake Pleasant", "country": "US", "coord": {"lon": -74.412651, "lat": 43.470901}}, {"id": 4837466, "name": "Lake Pocotopaug", "country": "US", "coord": {"lon": -72.510368, "lat": 41.598431}}, {"id": 4330331, "name": "Lake Providence", "country": "US", "coord": {"lon": -91.170113, "lat": 32.804298}}, {"id": 4071488, "name": "Lake Purdy", "country": "US", "coord": {"lon": -86.680542, "lat": 33.430111}}, {"id": 4768351, "name": "Lake Ridge", "country": "US", "coord": {"lon": -77.29776, "lat": 38.687889}}, {"id": 5259260, "name": "Lake Ripley", "country": "US", "coord": {"lon": -88.986221, "lat": 43.005829}}, {"id": 5123840, "name": "Lake Ronkonkoma", "country": "US", "coord": {"lon": -73.131218, "lat": 40.835098}}, {"id": 2160739, "name": "Lake Rowan", "country": "AU", "coord": {"lon": 145.966675, "lat": -36.26667}}, {"id": 5033910, "name": "Lake Saint Croix Beach", "country": "US", "coord": {"lon": -92.766869, "lat": 44.920799}}, {"id": 4394302, "name": "Lake Saint Louis", "country": "US", "coord": {"lon": -90.785683, "lat": 38.79755}}, {"id": 5364663, "name": "Lake San Marcos", "country": "US", "coord": {"lon": -117.208366, "lat": 33.126148}}, {"id": 5033911, "name": "Lake Sarah", "country": "US", "coord": {"lon": -93.690239, "lat": 45.071911}}, {"id": 4161352, "name": "Lake Sarasota", "country": "US", "coord": {"lon": -82.437599, "lat": 27.292549}}, {"id": 4584434, "name": "Lake Secession", "country": "US", "coord": {"lon": -82.594566, "lat": 34.28455}}, {"id": 4360201, "name": "Lake Shore", "country": "US", "coord": {"lon": -76.484962, "lat": 39.107052}}, {"id": 5033918, "name": "Lake Shore", "country": "US", "coord": {"lon": -94.360558, "lat": 46.485519}}, {"id": 5800314, "name": "Lake Shore", "country": "US", "coord": {"lon": -122.690933, "lat": 45.69067}}, {"id": 5033921, "name": "Lake Shore Terrace Mobile Home Park", "country": "US", "coord": {"lon": -92.839172, "lat": 45.40889}}, {"id": 4922541, "name": "Lake Station", "country": "US", "coord": {"lon": -87.238922, "lat": 41.575039}}, {"id": 5800317, "name": "Lake Stevens", "country": "US", "coord": {"lon": -122.063744, "lat": 48.015099}}, {"id": 5123853, "name": "Lake Success", "country": "US", "coord": {"lon": -73.717628, "lat": 40.77066}}, {"id": 4899135, "name": "Lake Summerset", "country": "US", "coord": {"lon": -89.389557, "lat": 42.45446}}, {"id": 4635233, "name": "Lake Tansi", "country": "US", "coord": {"lon": -85.054398, "lat": 35.872849}}, {"id": 5100246, "name": "Lake Telemark", "country": "US", "coord": {"lon": -74.497932, "lat": 40.956772}}, {"id": 2160725, "name": "Lake Tyers", "country": "AU", "coord": {"lon": 148.066666, "lat": -37.849998}}, {"id": 6048758, "name": "Lake Valley", "country": "CA", "coord": {"lon": -106.017891, "lat": 50.633369}}, {"id": 2160719, "name": "Lake View", "country": "AU", "coord": {"lon": 151.583328, "lat": -33.066669}}, {"id": 4071540, "name": "Lake View", "country": "US", "coord": {"lon": -87.137497, "lat": 33.28067}}, {"id": 4864012, "name": "Lake View", "country": "US", "coord": {"lon": -95.053322, "lat": 42.311649}}, {"id": 189773, "name": "Lake View Estate", "country": "KE", "coord": {"lon": 36.083328, "lat": -0.3}}, {"id": 4899154, "name": "Lake Villa", "country": "US", "coord": {"lon": -88.073967, "lat": 42.416969}}, {"id": 4118121, "name": "Lake Village", "country": "US", "coord": {"lon": -91.281776, "lat": 33.328732}}, {"id": 4474919, "name": "Lake Waccamaw", "country": "US", "coord": {"lon": -78.500008, "lat": 34.319061}}, {"id": 4161400, "name": "Lake Wales", "country": "US", "coord": {"lon": -81.585907, "lat": 27.901409}}, {"id": 5259304, "name": "Lake Wazeecha", "country": "US", "coord": {"lon": -89.756508, "lat": 44.371078}}, {"id": 5364729, "name": "Lake Wildwood", "country": "US", "coord": {"lon": -121.200508, "lat": 39.232948}}, {"id": 4394405, "name": "Lake Winnebago", "country": "US", "coord": {"lon": -94.358559, "lat": 38.831402}}, {"id": 5259313, "name": "Lake Wisconsin", "country": "US", "coord": {"lon": -89.575684, "lat": 43.3736}}, {"id": 5259317, "name": "Lake Wissota", "country": "US", "coord": {"lon": -91.300987, "lat": 44.92635}}, {"id": 4161422, "name": "Lake Worth", "country": "US", "coord": {"lon": -80.056992, "lat": 26.6159}}, {"id": 4704931, "name": "Lake Worth", "country": "US", "coord": {"lon": -97.445023, "lat": 32.804852}}, {"id": 4161424, "name": "Lake Worth Corridor", "country": "US", "coord": {"lon": -80.101021, "lat": 26.616489}}, {"id": 4584474, "name": "Lake Wylie", "country": "US", "coord": {"lon": -81.042847, "lat": 35.108479}}, {"id": 5196977, "name": "Lake Wynonah", "country": "US", "coord": {"lon": -76.163834, "lat": 40.599258}}, {"id": 4899170, "name": "Lake Zurich", "country": "US", "coord": {"lon": -88.093407, "lat": 42.196972}}, {"id": 5867113, "name": "Lake and Peninsula Borough", "country": "US", "coord": {"lon": -158.000565, "lat": 57.000561}}, {"id": 4899184, "name": "Lake in the Hills", "country": "US", "coord": {"lon": -88.33036, "lat": 42.18169}}, {"id": 5364741, "name": "Lake of the Pines", "country": "US", "coord": {"lon": -121.05661, "lat": 39.039619}}, {"id": 5301442, "name": "Lake of the Woods", "country": "US", "coord": {"lon": -109.989548, "lat": 34.163929}}, {"id": 4899197, "name": "Lake of the Woods", "country": "US", "coord": {"lon": -88.368668, "lat": 40.206421}}, {"id": 6048292, "name": "Lakeburn", "country": "CA", "coord": {"lon": -64.682053, "lat": 46.10014}}, {"id": 6048370, "name": "Lakefield", "country": "CA", "coord": {"lon": -78.266228, "lat": 44.433418}}, {"id": 5033962, "name": "Lakefield", "country": "US", "coord": {"lon": -95.171661, "lat": 43.67746}}, {"id": 4704940, "name": "Lakehills", "country": "US", "coord": {"lon": -98.943092, "lat": 29.60467}}, {"id": 5100269, "name": "Lakehurst", "country": "US", "coord": {"lon": -74.311256, "lat": 40.014561}}, {"id": 5123873, "name": "Lakeland", "country": "US", "coord": {"lon": -73.12011, "lat": 40.80788}}, {"id": 4161438, "name": "Lakeland", "country": "US", "coord": {"lon": -81.949799, "lat": 28.039471}}, {"id": 4204775, "name": "Lakeland", "country": "US", "coord": {"lon": -83.07515, "lat": 31.04104}}, {"id": 4635268, "name": "Lakeland", "country": "US", "coord": {"lon": -89.740356, "lat": 35.23064}}, {"id": 5033970, "name": "Lakeland", "country": "US", "coord": {"lon": -92.765762, "lat": 44.95636}}, {"id": 5123872, "name": "Lakeland", "country": "US", "coord": {"lon": -76.240479, "lat": 43.09034}}, {"id": 4161444, "name": "Lakeland Highlands", "country": "US", "coord": {"lon": -81.950081, "lat": 27.959749}}, {"id": 7261608, "name": "Lakeland North", "country": "US", "coord": {"lon": -122.276947, "lat": 47.333431}}, {"id": 7261609, "name": "Lakeland South", "country": "US", "coord": {"lon": -122.283257, "lat": 47.278431}}, {"id": 5364750, "name": "Lakeland Village", "country": "US", "coord": {"lon": -117.343933, "lat": 33.63863}}, {"id": 2160744, "name": "Lakemba", "country": "AU", "coord": {"lon": 151.083328, "lat": -33.916672}}, {"id": 5196994, "name": "Lakemont", "country": "US", "coord": {"lon": -78.388351, "lat": 40.472851}}, {"id": 4899213, "name": "Lakemoor", "country": "US", "coord": {"lon": -88.198967, "lat": 42.328629}}, {"id": 5160260, "name": "Lakemore", "country": "US", "coord": {"lon": -81.435951, "lat": 41.020889}}, {"id": 2645020, "name": "Lakenheath", "country": "GB", "coord": {"lon": 0.52211, "lat": 52.417549}}, {"id": 5364753, "name": "Lakeport", "country": "US", "coord": {"lon": -122.915833, "lat": 39.04295}}, {"id": 6929985, "name": "Lakerlopen", "country": "NL", "coord": {"lon": 5.50106, "lat": 51.437908}}, {"id": 7262905, "name": "Lakes", "country": "US", "coord": {"lon": -149.308609, "lat": 61.607121}}, {"id": 2160735, "name": "Lakes Entrance", "country": "AU", "coord": {"lon": 147.981033, "lat": -37.881149}}, {"id": 408647, "name": "Lakes State", "country": "SS", "coord": {"lon": 30, "lat": 6.75}}, {"id": 4161460, "name": "Lakes by the Bay", "country": "US", "coord": {"lon": -80.325333, "lat": 25.57233}}, {"id": 4922562, "name": "Lakes of the Four Seasons", "country": "US", "coord": {"lon": -87.213089, "lat": 41.41032}}, {"id": 4394440, "name": "Lakeshire", "country": "US", "coord": {"lon": -90.335121, "lat": 38.538658}}, {"id": 8062980, "name": "Lakeshore", "country": "US", "coord": {"lon": -81.406631, "lat": 41.695412}}, {"id": 4330389, "name": "Lakeshore", "country": "US", "coord": {"lon": -92.029579, "lat": 32.535141}}, {"id": 5776997, "name": "Lakeside", "country": "US", "coord": {"lon": -112.865532, "lat": 41.222431}}, {"id": 2160732, "name": "Lakeside", "country": "AU", "coord": {"lon": 152.133331, "lat": -25.58333}}, {"id": 4161461, "name": "Lakeside", "country": "US", "coord": {"lon": -81.76815, "lat": 30.129959}}, {"id": 5364782, "name": "Lakeside", "country": "US", "coord": {"lon": -116.922249, "lat": 32.857269}}, {"id": 4704970, "name": "Lakeside", "country": "US", "coord": {"lon": -97.493347, "lat": 32.82235}}, {"id": 4768423, "name": "Lakeside", "country": "US", "coord": {"lon": -77.476929, "lat": 37.607651}}, {"id": 5661473, "name": "Lakeside", "country": "US", "coord": {"lon": -114.224571, "lat": 48.01939}}, {"id": 5735782, "name": "Lakeside", "country": "US", "coord": {"lon": -124.17511, "lat": 43.575668}}, {"id": 4161474, "name": "Lakeside Green", "country": "US", "coord": {"lon": -80.114487, "lat": 26.739229}}, {"id": 4297318, "name": "Lakeside Park", "country": "US", "coord": {"lon": -84.569107, "lat": 39.035622}}, {"id": 7729130, "name": "Lakeside Village", "country": "US", "coord": {"lon": -84.184998, "lat": 40.293892}}, {"id": 4635304, "name": "Lakesite", "country": "US", "coord": {"lon": -85.1269, "lat": 35.208679}}, {"id": 2160730, "name": "Lakesland", "country": "AU", "coord": {"lon": 150.533325, "lat": -34.166672}}, {"id": 5524819, "name": "Lakeview", "country": "US", "coord": {"lon": -102.050453, "lat": 33.326481}}, {"id": 4705000, "name": "Lakeview", "country": "US", "coord": {"lon": -93.898499, "lat": 29.913549}}, {"id": 4204818, "name": "Lakeview", "country": "US", "coord": {"lon": -85.258842, "lat": 34.97924}}, {"id": 4998703, "name": "Lakeview", "country": "US", "coord": {"lon": -85.211098, "lat": 42.298382}}, {"id": 4998705, "name": "Lakeview", "country": "US", "coord": {"lon": -85.2742, "lat": 43.446419}}, {"id": 5123907, "name": "Lakeview", "country": "US", "coord": {"lon": -75.865471, "lat": 42.432018}}, {"id": 5123908, "name": "Lakeview", "country": "US", "coord": {"lon": -73.652634, "lat": 40.685379}}, {"id": 5160288, "name": "Lakeview", "country": "US", "coord": {"lon": -83.922997, "lat": 40.484772}}, {"id": 5364826, "name": "Lakeview", "country": "US", "coord": {"lon": -117.118088, "lat": 33.838631}}, {"id": 5735792, "name": "Lakeview", "country": "US", "coord": {"lon": -120.345787, "lat": 42.18877}}, {"id": 4204838, "name": "Lakeview Estates", "country": "US", "coord": {"lon": -84.031578, "lat": 33.706779}}, {"id": 5034059, "name": "Lakeville", "country": "US", "coord": {"lon": -93.242722, "lat": 44.649689}}, {"id": 4705041, "name": "Lakeway", "country": "US", "coord": {"lon": -97.979591, "lat": 30.36377}}, {"id": 2067994, "name": "Lakewood", "country": "AU", "coord": {"lon": 121.533333, "lat": -30.799999}}, {"id": 5197025, "name": "Lakewood", "country": "US", "coord": {"lon": -80.173668, "lat": 42.091999}}, {"id": 5100280, "name": "Lakewood", "country": "US", "coord": {"lon": -74.217644, "lat": 40.097889}}, {"id": 5160315, "name": "Lakewood", "country": "US", "coord": {"lon": -81.798187, "lat": 41.481991}}, {"id": 5364855, "name": "Lakewood", "country": "US", "coord": {"lon": -118.133957, "lat": 33.85363}}, {"id": 5427946, "name": "Lakewood", "country": "US", "coord": {"lon": -105.081367, "lat": 39.704708}}, {"id": 5800420, "name": "Lakewood", "country": "US", "coord": {"lon": -122.518463, "lat": 47.171761}}, {"id": 4584524, "name": "Lakewood", "country": "US", "coord": {"lon": -80.350082, "lat": 33.846828}}, {"id": 4635340, "name": "Lakewood", "country": "US", "coord": {"lon": -86.635551, "lat": 36.243111}}, {"id": 4899249, "name": "Lakewood", "country": "US", "coord": {"lon": -88.355087, "lat": 42.229191}}, {"id": 5123929, "name": "Lakewood", "country": "US", "coord": {"lon": -79.333099, "lat": 42.104221}}, {"id": 4998745, "name": "Lakewood Club", "country": "US", "coord": {"lon": -86.260338, "lat": 43.37112}}, {"id": 4161511, "name": "Lakewood Park", "country": "US", "coord": {"lon": -80.374222, "lat": 27.48143}}, {"id": 4161510, "name": "Lakewood Park", "country": "US", "coord": {"lon": -80.402267, "lat": 27.543091}}, {"id": 4899258, "name": "Lakewood Shores", "country": "US", "coord": {"lon": -88.144783, "lat": 41.2817}}, {"id": 523655, "name": "Lakha Nevre", "country": "RU", "coord": {"lon": 45.339691, "lat": 43.622711}}, {"id": 2491134, "name": "Lakhdaria", "country": "DZ", "coord": {"lon": 3.5933, "lat": 36.564629}}, {"id": 537147, "name": "Lakhdenpokhya", "country": "RU", "coord": {"lon": 30.199169, "lat": 61.51981}}, {"id": 1265246, "name": "Lakheri", "country": "IN", "coord": {"lon": 76.166672, "lat": 25.66667}}, {"id": 1172389, "name": "Lakhi", "country": "PK", "coord": {"lon": 68.699364, "lat": 27.849581}}, {"id": 1265242, "name": "Lakhimpur", "country": "IN", "coord": {"lon": 80.76667, "lat": 27.950001}}, {"id": 1265239, "name": "Lakhipur", "country": "IN", "coord": {"lon": 90.3041, "lat": 26.029869}}, {"id": 1265240, "name": "Lakhipur", "country": "IN", "coord": {"lon": 93.01667, "lat": 24.799999}}, {"id": 294434, "name": "Lakhish", "country": "IL", "coord": {"lon": 34.843128, "lat": 31.561291}}, {"id": 1265234, "name": "Lakhna", "country": "IN", "coord": {"lon": 79.150002, "lat": 26.65}}, {"id": 1265233, "name": "Lakhnadon", "country": "IN", "coord": {"lon": 79.599998, "lat": 22.6}}, {"id": 1265225, "name": "Lakhtar", "country": "IN", "coord": {"lon": 71.783333, "lat": 22.85}}, {"id": 537127, "name": "Lakhtinskiy", "country": "RU", "coord": {"lon": 30.159721, "lat": 59.991112}}, {"id": 1265220, "name": "Lakhyabad", "country": "IN", "coord": {"lon": 86.666672, "lat": 23.66667}}, {"id": 788807, "name": "Laki", "country": "MK", "coord": {"lon": 22.669439, "lat": 41.79694}}, {"id": 5445780, "name": "Lakin", "country": "US", "coord": {"lon": -101.25489, "lat": 37.940578}}, {"id": 537107, "name": "Lakinsk", "country": "RU", "coord": {"lon": 39.948479, "lat": 56.01931}}, {"id": 3048984, "name": "Lakitelek", "country": "HU", "coord": {"lon": 19.995041, "lat": 46.876011}}, {"id": 474902, "name": "Lakkha Nevre", "country": "RU", "coord": {"lon": 45.245419, "lat": 43.610329}}, {"id": 1172339, "name": "Lakki Marwat", "country": "PK", "coord": {"lon": 70.911423, "lat": 32.607948}}, {"id": 258672, "name": "Lakkion", "country": "GR", "coord": {"lon": 26.85, "lat": 37.133331}}, {"id": 735490, "name": "Lakkoma", "country": "GR", "coord": {"lon": 23.049999, "lat": 40.383331}}, {"id": 2285449, "name": "Lakota", "country": "CI", "coord": {"lon": -5.68833, "lat": 5.85278}}, {"id": 4864088, "name": "Lakota", "country": "US", "coord": {"lon": -94.093849, "lat": 43.377178}}, {"id": 5060055, "name": "Lakota", "country": "US", "coord": {"lon": -98.336212, "lat": 48.042782}}, {"id": 6982925, "name": "Lakou", "country": "CN", "coord": {"lon": 119.955452, "lat": 28.338579}}, {"id": 7512456, "name": "Lakou", "country": "CN", "coord": {"lon": 115.080223, "lat": 23.95038}}, {"id": 1265208, "name": "Laksar", "country": "IN", "coord": {"lon": 78.050003, "lat": 29.76667}}, {"id": 779082, "name": "Lakselv", "country": "NO", "coord": {"lon": 24.971821, "lat": 70.051331}}, {"id": 537101, "name": "Laksha", "country": "RU", "coord": {"lon": 43.62434, "lat": 56.03957}}, {"id": 1185183, "name": "Laksham", "country": "BD", "coord": {"lon": 91.142502, "lat": 23.247219}}, {"id": 1265205, "name": "Lakshettipet", "country": "IN", "coord": {"lon": 79.216667, "lat": 18.866671}}, {"id": 1265201, "name": "Lakshmeshwar", "country": "IN", "coord": {"lon": 75.466667, "lat": 15.13333}}, {"id": 1196292, "name": "Lakshmipur", "country": "BD", "coord": {"lon": 90.833328, "lat": 22.950001}}, {"id": 537100, "name": "Lakshukay", "country": "RU", "coord": {"lon": 39.133057, "lat": 44.950001}}, {"id": 3196792, "name": "Laktasi", "country": "BA", "coord": {"lon": 17.300831, "lat": 44.908058}}, {"id": 6359686, "name": "Lakuntza", "country": "ES", "coord": {"lon": -2.01361, "lat": 42.932678}}, {"id": 3119809, "name": "Lakuntza", "country": "ES", "coord": {"lon": -2.02337, "lat": 42.922489}}, {"id": 1134887, "name": "Lal", "country": "AF", "coord": {"lon": 66.279961, "lat": 34.501411}}, {"id": 7302826, "name": "Lal Bahadur Nagar", "country": "IN", "coord": {"lon": 78.557571, "lat": 17.347691}}, {"id": 1707944, "name": "Lala", "country": "PH", "coord": {"lon": 123.745796, "lat": 7.9745}}, {"id": 1265190, "name": "Lala", "country": "IN", "coord": {"lon": 92.599998, "lat": 24.549999}}, {"id": 1707943, "name": "Lala", "country": "PH", "coord": {"lon": 123.747223, "lat": 7.97306}}, {"id": 1172318, "name": "Lala Musa", "country": "PK", "coord": {"lon": 73.959999, "lat": 32.702351}}, {"id": 1707939, "name": "Lalab", "country": "PH", "coord": {"lon": 122.428398, "lat": 11.5749}}, {"id": 6612694, "name": "Lalacelle", "country": "FR", "coord": {"lon": -0.14353, "lat": 48.475601}}, {"id": 3008564, "name": "Lalacelle", "country": "FR", "coord": {"lon": -0.14353, "lat": 48.475601}}, {"id": 156080, "name": "Lalago", "country": "TZ", "coord": {"lon": 33.950001, "lat": -3.45}}, {"id": 1707930, "name": "Lalagsan", "country": "PH", "coord": {"lon": 123.013, "lat": 10.2824}}, {"id": 6616553, "name": "Lalande-de-Pomerol", "country": "FR", "coord": {"lon": -0.2089, "lat": 44.955898}}, {"id": 3008537, "name": "Lalande-de-Pomerol", "country": "FR", "coord": {"lon": -0.2, "lat": 44.950001}}, {"id": 6434977, "name": "Lalandusse", "country": "FR", "coord": {"lon": 0.53333, "lat": 44.650002}}, {"id": 3008523, "name": "Lalandusse", "country": "FR", "coord": {"lon": 0.53064, "lat": 44.65683}}, {"id": 888667, "name": "Lalapanzi", "country": "ZW", "coord": {"lon": 30.177679, "lat": -19.332251}}, {"id": 741884, "name": "Lalapasa", "country": "TR", "coord": {"lon": 26.735609, "lat": 41.839512}}, {"id": 258655, "name": "Lalas", "country": "GR", "coord": {"lon": 21.716669, "lat": 37.716671}}, {"id": 1707911, "name": "Lalauigan", "country": "PH", "coord": {"lon": 125.469719, "lat": 11.58917}}, {"id": 3008502, "name": "Lalbenque", "country": "FR", "coord": {"lon": 1.54501, "lat": 44.339291}}, {"id": 2160716, "name": "Lalbert", "country": "AU", "coord": {"lon": 143.366669, "lat": -35.683331}}, {"id": 7286251, "name": "Lalden", "country": "CH", "coord": {"lon": 7.89795, "lat": 46.30032}}, {"id": 2660051, "name": "Lalden", "country": "CH", "coord": {"lon": 7.90235, "lat": 46.299511}}, {"id": 2645016, "name": "Laleham", "country": "GB", "coord": {"lon": -0.48936, "lat": 51.409592}}, {"id": 6547893, "name": "Lalendorf", "country": "DE", "coord": {"lon": 12.3833, "lat": 53.75}}, {"id": 2881789, "name": "Lalendorf", "country": "DE", "coord": {"lon": 12.38983, "lat": 53.75774}}, {"id": 7334929, "name": "Laleng", "country": "ID", "coord": {"lon": 115.0467, "lat": -8.4483}}, {"id": 1265169, "name": "Lalganj", "country": "IN", "coord": {"lon": 81.699997, "lat": 25.933331}}, {"id": 1265170, "name": "Lalganj", "country": "IN", "coord": {"lon": 85.183327, "lat": 25.866671}}, {"id": 1265166, "name": "Lalgola", "country": "IN", "coord": {"lon": 88.25, "lat": 24.41667}}, {"id": 1265163, "name": "Lalgudi", "country": "IN", "coord": {"lon": 78.833328, "lat": 10.86667}}, {"id": 1172295, "name": "Lalian", "country": "PK", "coord": {"lon": 72.799713, "lat": 31.824141}}, {"id": 332288, "name": "Lalibela", "country": "ET", "coord": {"lon": 39.033329, "lat": 12.03333}}, {"id": 1707887, "name": "Lalig", "country": "PH", "coord": {"lon": 121.327499, "lat": 13.97639}}, {"id": 3093943, "name": "Laliki", "country": "PL", "coord": {"lon": 19.005489, "lat": 49.534458}}, {"id": 3119536, "name": "Lalin", "country": "ES", "coord": {"lon": -8.11285, "lat": 42.660851}}, {"id": 788804, "name": "Lalinac", "country": "RS", "coord": {"lon": 21.78528, "lat": 43.341942}}, {"id": 3008469, "name": "Lalinde", "country": "FR", "coord": {"lon": 0.73075, "lat": 44.836208}}, {"id": 1283154, "name": "Lalitpur", "country": "NP", "coord": {"lon": 85.333328, "lat": 27.58333}}, {"id": 1265157, "name": "Lalitpur", "country": "IN", "coord": {"lon": 78.416672, "lat": 24.683331}}, {"id": 7799973, "name": "LalitpurN.P.", "country": "NP", "coord": {"lon": 85.319901, "lat": 27.6691}}, {"id": 6425370, "name": "Lalizolle", "country": "FR", "coord": {"lon": 3, "lat": 46.150002}}, {"id": 3008465, "name": "Lalizolle", "country": "FR", "coord": {"lon": 3.00204, "lat": 46.156559}}, {"id": 2543667, "name": "Lalla Mimouna", "country": "MA", "coord": {"lon": -6.06645, "lat": 34.846062}}, {"id": 3008463, "name": "Lallaing", "country": "FR", "coord": {"lon": 3.16949, "lat": 50.390121}}, {"id": 1707885, "name": "Lallayug", "country": "PH", "coord": {"lon": 121.439751, "lat": 17.70521}}, {"id": 6556462, "name": "Lalling", "country": "DE", "coord": {"lon": 13.1333, "lat": 48.849998}}, {"id": 2881787, "name": "Lalling", "country": "DE", "coord": {"lon": 13.14008, "lat": 48.845249}}, {"id": 3175230, "name": "Lallio", "country": "IT", "coord": {"lon": 9.63005, "lat": 45.666382}}, {"id": 1185181, "name": "Lalmanirhat", "country": "BD", "coord": {"lon": 89.447289, "lat": 25.912439}}, {"id": 934390, "name": "Lalmatie", "country": "MU", "coord": {"lon": 57.66111, "lat": -20.18972}}, {"id": 1185251, "name": "Lalmohan", "country": "BD", "coord": {"lon": 90.741898, "lat": 22.3384}}, {"id": 6440448, "name": "Lalongue", "country": "FR", "coord": {"lon": -0.18333, "lat": 43.48333}}, {"id": 3008427, "name": "Lalongue", "country": "FR", "coord": {"lon": -0.18333, "lat": 43.48333}}, {"id": 6440449, "name": "Lalonquette", "country": "FR", "coord": {"lon": -0.31667, "lat": 43.48333}}, {"id": 3008425, "name": "Lalonquette", "country": "FR", "coord": {"lon": -0.31667, "lat": 43.48333}}, {"id": 2160706, "name": "Lalor", "country": "AU", "coord": {"lon": 145.016663, "lat": -37.666672}}, {"id": 675071, "name": "Lalosu", "country": "RO", "coord": {"lon": 24.01667, "lat": 44.549999}}, {"id": 3008423, "name": "Laloubere", "country": "FR", "coord": {"lon": 0.07296, "lat": 43.2043}}, {"id": 617923, "name": "Lalova", "country": "MD", "coord": {"lon": 29.019171, "lat": 47.563889}}, {"id": 1265150, "name": "Lalpur", "country": "IN", "coord": {"lon": 69.966667, "lat": 22.200001}}, {"id": 537094, "name": "Lalsk", "country": "RU", "coord": {"lon": 47.58617, "lat": 60.741459}}, {"id": 1265143, "name": "Lalsot", "country": "IN", "coord": {"lon": 76.333328, "lat": 26.566669}}, {"id": 6358360, "name": "Laluenga", "country": "ES", "coord": {"lon": -0.01982, "lat": 42.012421}}, {"id": 3119513, "name": "Laluenga", "country": "ES", "coord": {"lon": -0.04715, "lat": 42.00703}}, {"id": 6358361, "name": "Lalueza", "country": "ES", "coord": {"lon": -0.25488, "lat": 41.871841}}, {"id": 3119512, "name": "Lalueza", "country": "ES", "coord": {"lon": -0.25493, "lat": 41.83968}}, {"id": 2332357, "name": "Lalupon", "country": "NG", "coord": {"lon": 4.06667, "lat": 7.46667}}, {"id": 6433855, "name": "Laluque", "country": "FR", "coord": {"lon": -1, "lat": 43.849998}}, {"id": 3008397, "name": "Laluque", "country": "FR", "coord": {"lon": -0.99429, "lat": 43.853809}}, {"id": 2881786, "name": "Lam", "country": "DE", "coord": {"lon": 13.05051, "lat": 49.196651}}, {"id": 1609219, "name": "Lam Luk Ka", "country": "TH", "coord": {"lon": 100.749367, "lat": 13.93226}}, {"id": 1609204, "name": "Lam Plai Mat", "country": "TH", "coord": {"lon": 102.838943, "lat": 15.0252}}, {"id": 1601787, "name": "Lam Sonthi", "country": "TH", "coord": {"lon": 101.363647, "lat": 15.30154}}, {"id": 7510927, "name": "Lam Sonthi", "country": "TH", "coord": {"lon": 101.363808, "lat": 15.30144}}, {"id": 7510959, "name": "Lam Thamen Chai", "country": "TH", "coord": {"lon": 102.91803, "lat": 15.3535}}, {"id": 1119287, "name": "Lam Thap", "country": "TH", "coord": {"lon": 99.292252, "lat": 8.07228}}, {"id": 8012883, "name": "Lama", "country": "PT", "coord": {"lon": -8.46218, "lat": 41.36182}}, {"id": 3119509, "name": "Lama", "country": "ES", "coord": {"lon": -8.43333, "lat": 42.400002}}, {"id": 6360226, "name": "Lama (A)", "country": "ES", "coord": {"lon": -8.41513, "lat": 42.41328}}, {"id": 6541538, "name": "Lama Mocogno", "country": "IT", "coord": {"lon": 10.7306, "lat": 44.307259}}, {"id": 3175208, "name": "Lama Mocogno", "country": "IT", "coord": {"lon": 10.7306, "lat": 44.307259}}, {"id": 3175216, "name": "Lama dei Peligni", "country": "IT", "coord": {"lon": 14.18621, "lat": 42.041531}}, {"id": 2960358, "name": "Lamadelaine", "country": "LU", "coord": {"lon": 5.85639, "lat": 49.546391}}, {"id": 1966830, "name": "Lamadong", "country": "ID", "coord": {"lon": 121.4142, "lat": 1.1175}}, {"id": 3119504, "name": "Lamadrid", "country": "ES", "coord": {"lon": -4.3632, "lat": 43.353851}}, {"id": 1152479, "name": "Lamae", "country": "TH", "coord": {"lon": 99.09256, "lat": 9.76789}}, {"id": 3008362, "name": "Lamagistere", "country": "FR", "coord": {"lon": 0.82486, "lat": 44.124882}}, {"id": 3119497, "name": "Lamaigrexa", "country": "ES", "coord": {"lon": -7.36685, "lat": 42.560291}}, {"id": 1707857, "name": "Lamak", "country": "PH", "coord": {"lon": 124.738892, "lat": 10.39972}}, {"id": 3008321, "name": "Lamalou-les-Bains", "country": "FR", "coord": {"lon": 3.08052, "lat": 43.597858}}, {"id": 1659990, "name": "Lamam", "country": "LA", "coord": {"lon": 106.699997, "lat": 15.41667}}, {"id": 3607436, "name": "Lamani", "country": "HN", "coord": {"lon": -87.616669, "lat": 14.2}}, {"id": 6447136, "name": "Lamanon", "country": "FR", "coord": {"lon": 5.08333, "lat": 43.700001}}, {"id": 3008308, "name": "Lamanon", "country": "FR", "coord": {"lon": 5.08857, "lat": 43.7006}}, {"id": 4118223, "name": "Lamar", "country": "US", "coord": {"lon": -93.387962, "lat": 35.440639}}, {"id": 4394487, "name": "Lamar", "country": "US", "coord": {"lon": -94.276611, "lat": 37.495049}}, {"id": 5427957, "name": "Lamar", "country": "US", "coord": {"lon": -102.62075, "lat": 38.087231}}, {"id": 4705086, "name": "Lamar County", "country": "US", "coord": {"lon": -95.583572, "lat": 33.666771}}, {"id": 4071676, "name": "Lamar County", "country": "US", "coord": {"lon": -88.116699, "lat": 33.751781}}, {"id": 3008303, "name": "Lamarche", "country": "FR", "coord": {"lon": 5.78141, "lat": 48.069672}}, {"id": 3008300, "name": "Lamarche-sur-Saone", "country": "FR", "coord": {"lon": 5.38589, "lat": 47.269459}}, {"id": 8011800, "name": "Lamarosa", "country": "PT", "coord": {"lon": -8.56933, "lat": 40.253899}}, {"id": 2738484, "name": "Lamarosa", "country": "PT", "coord": {"lon": -8.57136, "lat": 40.227638}}, {"id": 3850005, "name": "Lamarque", "country": "AR", "coord": {"lon": -65.70208, "lat": -39.423038}}, {"id": 3008274, "name": "Lamarque", "country": "FR", "coord": {"lon": -0.71892, "lat": 45.09536}}, {"id": 2738481, "name": "Lamas", "country": "PT", "coord": {"lon": -7.91321, "lat": 40.83189}}, {"id": 8012449, "name": "Lamas", "country": "PT", "coord": {"lon": -9.06151, "lat": 39.21114}}, {"id": 3695757, "name": "Lamas", "country": "PE", "coord": {"lon": -76.533333, "lat": -6.41667}}, {"id": 2738479, "name": "Lamas", "country": "PT", "coord": {"lon": -8.56923, "lat": 40.98597}}, {"id": 3119461, "name": "Lamasap\u00edn", "country": "ES", "coord": {"lon": -8.95071, "lat": 42.925072}}, {"id": 1969335, "name": "Lamasi", "country": "ID", "coord": {"lon": 120.1763, "lat": -2.8166}}, {"id": 3008249, "name": "Lamastre", "country": "FR", "coord": {"lon": 4.57975, "lat": 44.986721}}, {"id": 6360681, "name": "Lamas\u00f3n", "country": "ES", "coord": {"lon": -4.4868, "lat": 43.233608}}, {"id": 6440450, "name": "Lamayou", "country": "FR", "coord": {"lon": -0.03333, "lat": 43.383331}}, {"id": 3008235, "name": "Lamayou", "country": "FR", "coord": {"lon": -0.03333, "lat": 43.383331}}, {"id": 7414387, "name": "Lamba", "country": "ID", "coord": {"lon": 120.434502, "lat": -8.8058}}, {"id": 7872188, "name": "Lambach", "country": "AT", "coord": {"lon": 13.86954, "lat": 48.092529}}, {"id": 2773110, "name": "Lambach", "country": "AT", "coord": {"lon": 13.87453, "lat": 48.092758}}, {"id": 1707826, "name": "Lambakin", "country": "PH", "coord": {"lon": 120.836403, "lat": 15.3899}}, {"id": 1707827, "name": "Lambakin", "country": "PH", "coord": {"lon": 120.866669, "lat": 14.75}}, {"id": 3008225, "name": "Lamballe", "country": "FR", "coord": {"lon": -2.51436, "lat": 48.467621}}, {"id": 8058434, "name": "Lambangan", "country": "ID", "coord": {"lon": 111.067902, "lat": -6.7479}}, {"id": 8061047, "name": "Lambangan Kulon", "country": "ID", "coord": {"lon": 111.358498, "lat": -6.8352}}, {"id": 8061048, "name": "Lambangan Wetan", "country": "ID", "coord": {"lon": 111.3666, "lat": -6.8288}}, {"id": 3437863, "name": "Lambare", "country": "PY", "coord": {"lon": -57.606468, "lat": -25.346821}}, {"id": 2399888, "name": "Lambarene", "country": "GA", "coord": {"lon": 10.24055, "lat": -0.7001}}, {"id": 3458881, "name": "Lambari", "country": "BR", "coord": {"lon": -45.350281, "lat": -21.975559}}, {"id": 2204582, "name": "Lambasa", "country": "FJ", "coord": {"lon": 179.383331, "lat": -16.41667}}, {"id": 3695754, "name": "Lambayeque", "country": "PE", "coord": {"lon": -79.906113, "lat": -6.70111}}, {"id": 1707812, "name": "Lambayong", "country": "PH", "coord": {"lon": 125.044441, "lat": 6.51944}}, {"id": 6438313, "name": "Lambersart", "country": "FR", "coord": {"lon": 3.03333, "lat": 50.650002}}, {"id": 3008218, "name": "Lambersart", "country": "FR", "coord": {"lon": 3.03333, "lat": 50.650002}}, {"id": 4432931, "name": "Lambert", "country": "US", "coord": {"lon": -90.283432, "lat": 34.201778}}, {"id": 3580619, "name": "Lambert House", "country": "KY", "coord": {"lon": -81.400002, "lat": 19.26667}}, {"id": 6554560, "name": "Lambertsberg", "country": "DE", "coord": {"lon": 6.38333, "lat": 50.083302}}, {"id": 2881776, "name": "Lambertsberg", "country": "DE", "coord": {"lon": 6.38333, "lat": 50.083328}}, {"id": 4998769, "name": "Lambertville", "country": "US", "coord": {"lon": -83.627991, "lat": 41.765881}}, {"id": 5100297, "name": "Lambertville", "country": "US", "coord": {"lon": -74.94294, "lat": 40.36594}}, {"id": 6435461, "name": "Lamberville", "country": "FR", "coord": {"lon": -0.9, "lat": 49.083328}}, {"id": 3008210, "name": "Lamberville", "country": "FR", "coord": {"lon": -0.90843, "lat": 49.085449}}, {"id": 3008208, "name": "Lambesc", "country": "FR", "coord": {"lon": 5.26282, "lat": 43.653111}}, {"id": 3333163, "name": "Lambeth", "country": "GB", "coord": {"lon": -0.13333, "lat": 51.416672}}, {"id": 6545250, "name": "Lambeth", "country": "GB", "coord": {"lon": -0.11152, "lat": 51.496349}}, {"id": 3093941, "name": "Lambinowice", "country": "PL", "coord": {"lon": 17.560961, "lat": 50.538689}}, {"id": 7378350, "name": "Lambitu", "country": "ID", "coord": {"lon": 118.772499, "lat": -8.5969}}, {"id": 1707836, "name": "Lambo", "country": "PH", "coord": {"lon": 124.812218, "lat": 6.35972}}, {"id": 4565904, "name": "Lamboglia", "country": "PR", "coord": {"lon": -65.985718, "lat": 17.981359}}, {"id": 7286252, "name": "Lamboing", "country": "CH", "coord": {"lon": 7.15566, "lat": 47.127151}}, {"id": 2660049, "name": "Lamboing", "country": "CH", "coord": {"lon": 7.13636, "lat": 47.117401}}, {"id": 1979125, "name": "Lambontong", "country": "PH", "coord": {"lon": 124.810562, "lat": 6.30833}}, {"id": 2644993, "name": "Lambourn", "country": "GB", "coord": {"lon": -1.53105, "lat": 51.508049}}, {"id": 7298375, "name": "Lambourn", "country": "GB", "coord": {"lon": -1.53186, "lat": 51.503609}}, {"id": 2881771, "name": "Lambrecht", "country": "DE", "coord": {"lon": 8.06833, "lat": 49.371391}}, {"id": 6547781, "name": "Lambrechtshagen", "country": "DE", "coord": {"lon": 12.0167, "lat": 54.099998}}, {"id": 2881770, "name": "Lambrechtshagen", "country": "DE", "coord": {"lon": 12.01667, "lat": 54.099998}}, {"id": 3008198, "name": "Lambres-lez-Douai", "country": "FR", "coord": {"lon": 3.06667, "lat": 50.349998}}, {"id": 6535126, "name": "Lambrugo", "country": "IT", "coord": {"lon": 9.23954, "lat": 45.758781}}, {"id": 4475047, "name": "Lambs Corner", "country": "US", "coord": {"lon": -76.221878, "lat": 36.379879}}, {"id": 6555066, "name": "Lambsborn", "country": "DE", "coord": {"lon": 7.43333, "lat": 49.366699}}, {"id": 2881768, "name": "Lambsborn", "country": "DE", "coord": {"lon": 7.43333, "lat": 49.366669}}, {"id": 6555247, "name": "Lambsheim", "country": "DE", "coord": {"lon": 8.2874, "lat": 49.516701}}, {"id": 2881767, "name": "Lambsheim", "country": "DE", "coord": {"lon": 8.28778, "lat": 49.513611}}, {"id": 2205628, "name": "Lambton", "country": "AU", "coord": {"lon": 151.699997, "lat": -32.916672}}, {"id": 1707799, "name": "Lambunao", "country": "PH", "coord": {"lon": 122.475899, "lat": 11.05563}}, {"id": 258634, "name": "Lamb\u00edrion", "country": "GR", "coord": {"lon": 21.98333, "lat": 38.316669}}, {"id": 1609223, "name": "Lamduan", "country": "TH", "coord": {"lon": 103.669342, "lat": 14.72205}}, {"id": 2332337, "name": "Lame", "country": "NG", "coord": {"lon": 9.23955, "lat": 10.44154}}, {"id": 5661538, "name": "Lame Deer", "country": "US", "coord": {"lon": -106.666702, "lat": 45.623051}}, {"id": 8010654, "name": "Lamego", "country": "PT", "coord": {"lon": -7.81694, "lat": 41.082539}}, {"id": 2738459, "name": "Lamego", "country": "PT", "coord": {"lon": -7.80991, "lat": 41.097408}}, {"id": 2738443, "name": "Lameiras", "country": "PT", "coord": {"lon": -8.41144, "lat": 41.383251}}, {"id": 2267177, "name": "Lameiro", "country": "PT", "coord": {"lon": -8.90515, "lat": 39.863541}}, {"id": 3119431, "name": "Lamela", "country": "ES", "coord": {"lon": -8.31667, "lat": 42.73333}}, {"id": 2738435, "name": "Lamelas", "country": "PT", "coord": {"lon": -7.83658, "lat": 41.080719}}, {"id": 3579023, "name": "Lamentin", "country": "GP", "coord": {"lon": -61.631241, "lat": 16.271049}}, {"id": 6557218, "name": "Lamerdingen", "country": "DE", "coord": {"lon": 10.7333, "lat": 48.083302}}, {"id": 2881764, "name": "Lamerdingen", "country": "DE", "coord": {"lon": 10.73982, "lat": 48.091949}}, {"id": 2160678, "name": "Lameroo", "country": "AU", "coord": {"lon": 140.516663, "lat": -35.333328}}, {"id": 5524849, "name": "Lamesa", "country": "US", "coord": {"lon": -101.950989, "lat": 32.737598}}, {"id": 7298561, "name": "Lamesley", "country": "GB", "coord": {"lon": -1.6191, "lat": 54.907181}}, {"id": 6269326, "name": "Lamesley", "country": "GB", "coord": {"lon": -1.60945, "lat": 54.915668}}, {"id": 6534232, "name": "Lamezia Terme", "country": "IT", "coord": {"lon": 16.3092, "lat": 38.965889}}, {"id": 6542307, "name": "Lamezia Terme", "country": "IT", "coord": {"lon": 16.3092, "lat": 38.965889}}, {"id": 258620, "name": "Lamia", "country": "GR", "coord": {"lon": 22.433331, "lat": 38.900002}}, {"id": 1707782, "name": "Lamian", "country": "PH", "coord": {"lon": 124.84639, "lat": 6.30917}}, {"id": 2412749, "name": "Lamin", "country": "GM", "coord": {"lon": -16.433889, "lat": 13.35222}}, {"id": 2160676, "name": "Lamington", "country": "AU", "coord": {"lon": 153, "lat": -28.23333}}, {"id": 1707770, "name": "Laminusa", "country": "PH", "coord": {"lon": 120.913597, "lat": 5.5549}}, {"id": 1957313, "name": "Lamisahan", "country": "PH", "coord": {"lon": 122.158333, "lat": 7.07083}}, {"id": 1707761, "name": "Lamitan", "country": "PH", "coord": {"lon": 122.140831, "lat": 6.66083}}, {"id": 1707762, "name": "Lamitan", "country": "PH", "coord": {"lon": 125.702217, "lat": 6.08722}}, {"id": 1283150, "name": "Lamjung", "country": "NP", "coord": {"lon": 84.366669, "lat": 28.200001}}, {"id": 1283151, "name": "Lamjung", "country": "NP", "coord": {"lon": 84.416672, "lat": 28.25}}, {"id": 2644984, "name": "Lamlash", "country": "GB", "coord": {"lon": -5.12956, "lat": 55.533581}}, {"id": 2751998, "name": "Lammerenburg", "country": "NL", "coord": {"lon": 3.55833, "lat": 51.466671}}, {"id": 2881731, "name": "Lammersdorf", "country": "DE", "coord": {"lon": 6.68333, "lat": 50.26667}}, {"id": 6551749, "name": "Lammershagen", "country": "DE", "coord": {"lon": 10.45, "lat": 54.283298}}, {"id": 2881728, "name": "Lammershagen", "country": "DE", "coord": {"lon": 10.45, "lat": 54.283329}}, {"id": 2697766, "name": "Lammhult", "country": "SE", "coord": {"lon": 14.58333, "lat": 57.166672}}, {"id": 649223, "name": "Lammi", "country": "FI", "coord": {"lon": 25.01667, "lat": 61.083328}}, {"id": 6442589, "name": "Lamnay", "country": "FR", "coord": {"lon": 0.71667, "lat": 48.116669}}, {"id": 3008120, "name": "Lamnay", "country": "FR", "coord": {"lon": 0.70676, "lat": 48.117481}}, {"id": 3175190, "name": "Lamole", "country": "IT", "coord": {"lon": 11.35, "lat": 43.549999}}, {"id": 3175189, "name": "Lamon", "country": "IT", "coord": {"lon": 11.75229, "lat": 46.046909}}, {"id": 1638562, "name": "Lamongan", "country": "ID", "coord": {"lon": 112.416672, "lat": -7.11667}}, {"id": 4864105, "name": "Lamoni", "country": "US", "coord": {"lon": -93.93412, "lat": 40.62278}}, {"id": 6049046, "name": "Lamont", "country": "CA", "coord": {"lon": -112.801949, "lat": 53.766861}}, {"id": 5364916, "name": "Lamont", "country": "US", "coord": {"lon": -118.914268, "lat": 35.259682}}, {"id": 6614795, "name": "Lamontjoie", "country": "FR", "coord": {"lon": 0.53333, "lat": 44.066669}}, {"id": 3008082, "name": "Lamontjoie", "country": "FR", "coord": {"lon": 0.52057, "lat": 44.07568}}, {"id": 6429411, "name": "Lamonzie-Saint-Martin", "country": "FR", "coord": {"lon": 0.38333, "lat": 44.849998}}, {"id": 3008080, "name": "Lamonzie-Saint-Martin", "country": "FR", "coord": {"lon": 0.39102, "lat": 44.84713}}, {"id": 3008074, "name": "Lamorlaye", "country": "FR", "coord": {"lon": 2.44687, "lat": 49.16246}}, {"id": 8012791, "name": "Lamoso", "country": "PT", "coord": {"lon": -8.35275, "lat": 41.319149}}, {"id": 2738425, "name": "Lamoso", "country": "PT", "coord": {"lon": -8.35723, "lat": 41.320221}}, {"id": 6616790, "name": "Lamothe", "country": "FR", "coord": {"lon": 3.4253, "lat": 45.313202}}, {"id": 3008057, "name": "Lamothe", "country": "FR", "coord": {"lon": 3.42512, "lat": 45.3134}}, {"id": 6612361, "name": "Lamothe-Montravel", "country": "FR", "coord": {"lon": 0.03333, "lat": 44.849998}}, {"id": 3008041, "name": "Lamothe-Montravel", "country": "FR", "coord": {"lon": 0.03333, "lat": 44.849998}}, {"id": 7645726, "name": "Lamotrek", "country": "FM", "coord": {"lon": 146.304993, "lat": 7.491}}, {"id": 7626947, "name": "Lamotrek Municipality", "country": "FM", "coord": {"lon": 146.302994, "lat": 7.491}}, {"id": 3008020, "name": "Lamotte-Beuvron", "country": "FR", "coord": {"lon": 2.02837, "lat": 47.602001}}, {"id": 3249941, "name": "Lamovita", "country": "BA", "coord": {"lon": 16.907221, "lat": 44.92556}}, {"id": 3885273, "name": "Lampa", "country": "CL", "coord": {"lon": -70.900002, "lat": -33.283329}}, {"id": 3936996, "name": "Lampa", "country": "PE", "coord": {"lon": -70.366669, "lat": -15.35}}, {"id": 1969637, "name": "Lampa", "country": "ID", "coord": {"lon": 119.533401, "lat": -3.6634}}, {"id": 6554758, "name": "Lampaden", "country": "DE", "coord": {"lon": 6.7, "lat": 49.650002}}, {"id": 2881709, "name": "Lampaden", "country": "DE", "coord": {"lon": 6.7, "lat": 49.650002}}, {"id": 1152473, "name": "Lampang", "country": "TH", "coord": {"lon": 99.492767, "lat": 18.29232}}, {"id": 1707735, "name": "Lampari", "country": "PH", "coord": {"lon": 124.88028, "lat": 6.3125}}, {"id": 4705176, "name": "Lampasas", "country": "US", "coord": {"lon": -98.181702, "lat": 31.06378}}, {"id": 4705179, "name": "Lampasas County", "country": "US", "coord": {"lon": -98.233643, "lat": 31.216829}}, {"id": 7974073, "name": "Lampate", "country": "NP", "coord": {"lon": 85.424698, "lat": 27.985451}}, {"id": 3007973, "name": "Lampaul-Guimiliau", "country": "FR", "coord": {"lon": -4.04144, "lat": 48.491562}}, {"id": 3007972, "name": "Lampaul-Plouarzel", "country": "FR", "coord": {"lon": -4.76045, "lat": 48.447269}}, {"id": 4001240, "name": "Lampazos de Naranjo", "country": "MX", "coord": {"lon": -100.51667, "lat": 27.01667}}, {"id": 7378274, "name": "Lampe Satu", "country": "ID", "coord": {"lon": 118.801201, "lat": -8.5118}}, {"id": 2524459, "name": "Lampedusa", "country": "IT", "coord": {"lon": 12.6, "lat": 35.5}}, {"id": 6542197, "name": "Lampedusa e Linosa", "country": "IT", "coord": {"lon": 12.60216, "lat": 35.5019}}, {"id": 7626342, "name": "Lampeland", "country": "NO", "coord": {"lon": 9.57912, "lat": 59.834862}}, {"id": 2881695, "name": "Lampertheim", "country": "DE", "coord": {"lon": 8.47194, "lat": 49.60194}}, {"id": 3007970, "name": "Lampertheim", "country": "FR", "coord": {"lon": 7.69913, "lat": 48.651711}}, {"id": 2881685, "name": "Lampertsm\u00fchle", "country": "DE", "coord": {"lon": 7.71667, "lat": 49.48333}}, {"id": 6548655, "name": "Lampertswalde", "country": "DE", "coord": {"lon": 13.6667, "lat": 51.3167}}, {"id": 2881682, "name": "Lampertswalde", "country": "DE", "coord": {"lon": 13.66667, "lat": 51.316669}}, {"id": 2644981, "name": "Lampeter", "country": "GB", "coord": {"lon": -4.08039, "lat": 52.11285}}, {"id": 4559065, "name": "Lampeter", "country": "US", "coord": {"lon": -76.239677, "lat": 39.990101}}, {"id": 7292305, "name": "Lampeter Velfrey", "country": "GB", "coord": {"lon": -4.67085, "lat": 51.787151}}, {"id": 1152468, "name": "Lamphun", "country": "TH", "coord": {"lon": 99.007446, "lat": 18.58054}}, {"id": 1707724, "name": "Lampitak", "country": "PH", "coord": {"lon": 125.052498, "lat": 6.43222}}, {"id": 2160667, "name": "Lamplough", "country": "AU", "coord": {"lon": 143.516663, "lat": -37.133331}}, {"id": 6049112, "name": "Lampman", "country": "CA", "coord": {"lon": -102.750923, "lat": 49.383362}}, {"id": 2881676, "name": "Lampoding", "country": "DE", "coord": {"lon": 12.80122, "lat": 47.943081}}, {"id": 3175182, "name": "Lamporecchio", "country": "IT", "coord": {"lon": 10.88861, "lat": 43.80875}}, {"id": 3175181, "name": "Lamporo", "country": "IT", "coord": {"lon": 8.10163, "lat": 45.231861}}, {"id": 7872210, "name": "Lamprechtshausen", "country": "AT", "coord": {"lon": 12.95644, "lat": 47.992512}}, {"id": 2773077, "name": "Lamprechtshausen", "country": "AT", "coord": {"lon": 12.95, "lat": 47.98333}}, {"id": 2881664, "name": "Lamscheid", "country": "DE", "coord": {"lon": 7.56667, "lat": 50.150002}}, {"id": 537057, "name": "Lamsha", "country": "RU", "coord": {"lon": 40.883331, "lat": 54.799999}}, {"id": 2881661, "name": "Lamspringe", "country": "DE", "coord": {"lon": 10.01667, "lat": 51.966671}}, {"id": 6552595, "name": "Lamstedt", "country": "DE", "coord": {"lon": 9.09719, "lat": 53.633701}}, {"id": 2881659, "name": "Lamstedt", "country": "DE", "coord": {"lon": 9.1, "lat": 53.633331}}, {"id": 2469571, "name": "Lamtah", "country": "TN", "coord": {"lon": 10.88333, "lat": 35.666672}}, {"id": 189741, "name": "Lamu", "country": "KE", "coord": {"lon": 40.902012, "lat": -2.27169}}, {"id": 6415935, "name": "Lamuni Para", "country": "BD", "coord": {"lon": 91.983772, "lat": 21.418909}}, {"id": 1707710, "name": "Lamut", "country": "PH", "coord": {"lon": 121.224739, "lat": 16.649071}}, {"id": 6943717, "name": "Lam\u00e8que", "country": "CA", "coord": {"lon": -64.647499, "lat": 47.79361}}, {"id": 1152423, "name": "Lan Krabue", "country": "TH", "coord": {"lon": 99.848892, "lat": 16.600031}}, {"id": 7510897, "name": "Lan Krabue", "country": "TH", "coord": {"lon": 99.848892, "lat": 16.600031}}, {"id": 1152421, "name": "Lan Sak", "country": "TH", "coord": {"lon": 99.576057, "lat": 15.45289}}, {"id": 7510893, "name": "Lan Sak", "country": "TH", "coord": {"lon": 99.576057, "lat": 15.45289}}, {"id": 1152420, "name": "Lan Saka", "country": "TH", "coord": {"lon": 99.805641, "lat": 8.37097}}, {"id": 3175177, "name": "Lana", "country": "IT", "coord": {"lon": 11.15587, "lat": 46.612419}}, {"id": 6359687, "name": "Lana", "country": "ES", "coord": {"lon": -2.25458, "lat": 42.71011}}, {"id": 6535904, "name": "Lana - Lana", "country": "IT", "coord": {"lon": 11.15587, "lat": 46.612419}}, {"id": 5850059, "name": "Lanai City", "country": "US", "coord": {"lon": -156.922226, "lat": 20.830561}}, {"id": 6358362, "name": "Lanaja", "country": "ES", "coord": {"lon": -0.35344, "lat": 41.741611}}, {"id": 3119374, "name": "Lanaja", "country": "ES", "coord": {"lon": -0.33096, "lat": 41.77063}}, {"id": 2793447, "name": "Lanaken", "country": "BE", "coord": {"lon": 5.65006, "lat": 50.89426}}, {"id": 2793446, "name": "Lanaken", "country": "BE", "coord": {"lon": 5.6468, "lat": 50.893181}}, {"id": 1707692, "name": "Lanang", "country": "PH", "coord": {"lon": 125.65139, "lat": 7.11778}}, {"id": 1707675, "name": "Lanao", "country": "PH", "coord": {"lon": 124.0373, "lat": 11.2603}}, {"id": 2644976, "name": "Lanark", "country": "GB", "coord": {"lon": -3.7817, "lat": 55.67371}}, {"id": 4899287, "name": "Lanark", "country": "US", "coord": {"lon": -89.83345, "lat": 42.102249}}, {"id": 1707665, "name": "Lanas", "country": "PH", "coord": {"lon": 121.91851, "lat": 12.04946}}, {"id": 1707666, "name": "Lanas", "country": "PH", "coord": {"lon": 123.73333, "lat": 10.26667}}, {"id": 1707659, "name": "Lanat", "country": "PH", "coord": {"lon": 120.599998, "lat": 15.8}}, {"id": 6049141, "name": "Lanaudi\u00e8re", "country": "CA", "coord": {"lon": -73.832481, "lat": 46.766781}}, {"id": 6373993, "name": "Lancar", "country": "ID", "coord": {"lon": 109.146942, "lat": -7.59417}}, {"id": 3119361, "name": "Lancara", "country": "ES", "coord": {"lon": -7.33667, "lat": 42.86425}}, {"id": 2644974, "name": "Lancashire", "country": "GB", "coord": {"lon": -2.5, "lat": 53.833328}}, {"id": 2644973, "name": "Lancaster", "country": "GB", "coord": {"lon": -2.76667, "lat": 54.116669}}, {"id": 4516233, "name": "Lancaster", "country": "US", "coord": {"lon": -82.599327, "lat": 39.71368}}, {"id": 4705191, "name": "Lancaster", "country": "US", "coord": {"lon": -96.756111, "lat": 32.592079}}, {"id": 6049144, "name": "Lancaster", "country": "CA", "coord": {"lon": -74.503464, "lat": 45.141788}}, {"id": 2644972, "name": "Lancaster", "country": "GB", "coord": {"lon": -2.83333, "lat": 54.066669}}, {"id": 5197079, "name": "Lancaster", "country": "US", "coord": {"lon": -76.305511, "lat": 40.03788}}, {"id": 5364940, "name": "Lancaster", "country": "US", "coord": {"lon": -118.136742, "lat": 34.69804}}, {"id": 4297354, "name": "Lancaster", "country": "US", "coord": {"lon": -84.578003, "lat": 37.619518}}, {"id": 4584556, "name": "Lancaster", "country": "US", "coord": {"lon": -80.770897, "lat": 34.720428}}, {"id": 4768513, "name": "Lancaster", "country": "US", "coord": {"lon": -76.466339, "lat": 37.769859}}, {"id": 4941635, "name": "Lancaster", "country": "US", "coord": {"lon": -71.673119, "lat": 42.45565}}, {"id": 5055851, "name": "Lancaster", "country": "US", "coord": {"lon": -92.527969, "lat": 40.520859}}, {"id": 5088529, "name": "Lancaster", "country": "US", "coord": {"lon": -71.569252, "lat": 44.488949}}, {"id": 5123954, "name": "Lancaster", "country": "US", "coord": {"lon": -78.670311, "lat": 42.900612}}, {"id": 5259448, "name": "Lancaster", "country": "US", "coord": {"lon": -90.710678, "lat": 42.847488}}, {"id": 5197085, "name": "Lancaster County", "country": "US", "coord": {"lon": -76.249947, "lat": 40.25037}}, {"id": 5071741, "name": "Lancaster County", "country": "US", "coord": {"lon": -96.683632, "lat": 40.783329}}, {"id": 4584571, "name": "Lancaster Mill", "country": "US", "coord": {"lon": -80.794792, "lat": 34.709309}}, {"id": 6049152, "name": "Lancaster Park", "country": "CA", "coord": {"lon": -113.485321, "lat": 53.66684}}, {"id": 2160659, "name": "Lance Field", "country": "AU", "coord": {"lon": 144.75, "lat": -37.283329}}, {"id": 2793442, "name": "Lanceaumont", "country": "BE", "coord": {"lon": 5.96455, "lat": 50.654629}}, {"id": 2078703, "name": "Lancelin", "country": "AU", "coord": {"lon": 115.33194, "lat": -31.023331}}, {"id": 3007928, "name": "Lancey", "country": "FR", "coord": {"lon": 5.88053, "lat": 45.23164}}, {"id": 2644968, "name": "Lanchester", "country": "GB", "coord": {"lon": -1.74256, "lat": 54.821079}}, {"id": 703410, "name": "Lanchyn", "country": "UA", "coord": {"lon": 24.75622, "lat": 48.557812}}, {"id": 7455976, "name": "Lanci Satu", "country": "ID", "coord": {"lon": 118.317596, "lat": -8.4932}}, {"id": 6541930, "name": "Lanciano", "country": "IT", "coord": {"lon": 14.38822, "lat": 42.21674}}, {"id": 3175173, "name": "Lanciano", "country": "IT", "coord": {"lon": 14.38822, "lat": 42.21674}}, {"id": 3007919, "name": "Lancieux", "country": "FR", "coord": {"lon": -2.1503, "lat": 48.60767}}, {"id": 7297457, "name": "Lancing", "country": "GB", "coord": {"lon": -0.3108, "lat": 50.83308}}, {"id": 2641319, "name": "Lancing", "country": "GB", "coord": {"lon": -0.32247, "lat": 50.828819}}, {"id": 2881656, "name": "Lancken", "country": "DE", "coord": {"lon": 11.93768, "lat": 53.468842}}, {"id": 6548419, "name": "Lancken-Granitz", "country": "DE", "coord": {"lon": 13.6333, "lat": 54.366699}}, {"id": 2881654, "name": "Lancken-Granitz", "country": "DE", "coord": {"lon": 13.63333, "lat": 54.366669}}, {"id": 3093935, "name": "Lanckorona", "country": "PL", "coord": {"lon": 19.71578, "lat": 49.844959}}, {"id": 3885251, "name": "Lanco", "country": "CL", "coord": {"lon": -72.783333, "lat": -39.450001}}, {"id": 3007912, "name": "Lancon-Provence", "country": "FR", "coord": {"lon": 5.13167, "lat": 43.592369}}, {"id": 3007909, "name": "Lancrans", "country": "FR", "coord": {"lon": 5.83277, "lat": 46.127281}}, {"id": 675063, "name": "Lancr\u0103m", "country": "RO", "coord": {"lon": 23.549999, "lat": 45.98333}}, {"id": 766810, "name": "Lancut", "country": "PL", "coord": {"lon": 22.22912, "lat": 50.06871}}, {"id": 2660046, "name": "Lancy", "country": "CH", "coord": {"lon": 6.11578, "lat": 46.18969}}, {"id": 6691640, "name": "Lancy", "country": "CH", "coord": {"lon": 6.11441, "lat": 46.189812}}, {"id": 2950157, "name": "Land Berlin", "country": "DE", "coord": {"lon": 13.41667, "lat": 52.5}}, {"id": 2945356, "name": "Land Brandenburg", "country": "DE", "coord": {"lon": 13.5, "lat": 52.5}}, {"id": 7626836, "name": "Land Cura\u00e7ao", "country": "CW", "coord": {"lon": -69, "lat": 12.16667}}, {"id": 2905330, "name": "Land Hessen", "country": "DE", "coord": {"lon": 9.25, "lat": 50.5}}, {"id": 2872567, "name": "Land Mecklenburg-Vorpommern", "country": "DE", "coord": {"lon": 12.5, "lat": 53.5}}, {"id": 2862926, "name": "Land Niedersachsen", "country": "DE", "coord": {"lon": 10, "lat": 52}}, {"id": 2861876, "name": "Land Nordrhein-Westfalen", "country": "DE", "coord": {"lon": 7, "lat": 51.5}}, {"id": 4161534, "name": "Land O Lakes", "country": "US", "coord": {"lon": -82.457588, "lat": 28.218901}}, {"id": 2842565, "name": "Land Sachsen-Anhalt", "country": "DE", "coord": {"lon": 11.5, "lat": 51.916672}}, {"id": 2838632, "name": "Land Schleswig-Holstein", "country": "DE", "coord": {"lon": 10.5, "lat": 54}}, {"id": 7609695, "name": "Land Sint Maarten", "country": "SX", "coord": {"lon": -63.066669, "lat": 18.04167}}, {"id": 3126854, "name": "Landa", "country": "ES", "coord": {"lon": -2.95, "lat": 43.383331}}, {"id": 7568598, "name": "Landa", "country": "ID", "coord": {"lon": 120.223297, "lat": -9.5923}}, {"id": 8012343, "name": "Landal", "country": "PT", "coord": {"lon": -9.00794, "lat": 39.308231}}, {"id": 1957317, "name": "Landang Laum", "country": "PH", "coord": {"lon": 122.249168, "lat": 6.96889}}, {"id": 2660045, "name": "Landarenca", "country": "CH", "coord": {"lon": 9.11104, "lat": 46.317501}}, {"id": 3007903, "name": "Landas", "country": "FR", "coord": {"lon": 3.30366, "lat": 50.472691}}, {"id": 2881650, "name": "Landau an der Isar", "country": "DE", "coord": {"lon": 12.69316, "lat": 48.672489}}, {"id": 2881646, "name": "Landau in der Pfalz", "country": "DE", "coord": {"lon": 8.11333, "lat": 49.2075}}, {"id": 3007902, "name": "Landaul", "country": "FR", "coord": {"lon": -3.07694, "lat": 47.747849}}, {"id": 3678328, "name": "Landazuri", "country": "CO", "coord": {"lon": -73.811211, "lat": 6.21826}}, {"id": 3007889, "name": "Landean", "country": "FR", "coord": {"lon": -1.15245, "lat": 48.412529}}, {"id": 7872581, "name": "Landeck", "country": "AT", "coord": {"lon": 10.56358, "lat": 47.130089}}, {"id": 2773070, "name": "Landeck", "country": "AT", "coord": {"lon": 10.56593, "lat": 47.139881}}, {"id": 3007885, "name": "Landeda", "country": "FR", "coord": {"lon": -4.571, "lat": 48.58733}}, {"id": 2881630, "name": "Landefeld", "country": "DE", "coord": {"lon": 9.7, "lat": 51.099998}}, {"id": 3007883, "name": "Landehen", "country": "FR", "coord": {"lon": -2.54, "lat": 48.430222}}, {"id": 3007882, "name": "Landeleau", "country": "FR", "coord": {"lon": -3.7285, "lat": 48.227341}}, {"id": 6427276, "name": "Landelles-et-Coupigny", "country": "FR", "coord": {"lon": -1, "lat": 48.883331}}, {"id": 3007880, "name": "Landelles-et-Coupigny", "country": "FR", "coord": {"lon": -0.99822, "lat": 48.887501}}, {"id": 3007878, "name": "Landemont", "country": "FR", "coord": {"lon": -1.23989, "lat": 47.265362}}, {"id": 2793430, "name": "Landen", "country": "BE", "coord": {"lon": 5.07998, "lat": 50.75383}}, {"id": 2793429, "name": "Landen", "country": "BE", "coord": {"lon": 5.082, "lat": 50.752659}}, {"id": 4516248, "name": "Landen", "country": "US", "coord": {"lon": -84.28299, "lat": 39.312}}, {"id": 2881624, "name": "Landenhausen", "country": "DE", "coord": {"lon": 9.48333, "lat": 50.616669}}, {"id": 6557179, "name": "Landensberg", "country": "DE", "coord": {"lon": 10.5333, "lat": 48.4333}}, {"id": 2881622, "name": "Landensberg", "country": "DE", "coord": {"lon": 10.52422, "lat": 48.434441}}, {"id": 5830007, "name": "Lander", "country": "US", "coord": {"lon": -108.730667, "lat": 42.833012}}, {"id": 5506935, "name": "Lander County", "country": "US", "coord": {"lon": -116.876198, "lat": 39.875198}}, {"id": 3119350, "name": "Landeral", "country": "ES", "coord": {"lon": -3.33212, "lat": 43.335838}}, {"id": 6453924, "name": "Landerneau", "country": "FR", "coord": {"lon": -4.25, "lat": 48.450001}}, {"id": 3007874, "name": "Landerneau", "country": "FR", "coord": {"lon": -4.25252, "lat": 48.452518}}, {"id": 3007873, "name": "Landeronde", "country": "FR", "coord": {"lon": -1.56953, "lat": 46.657219}}, {"id": 6612481, "name": "Landerrouat", "country": "FR", "coord": {"lon": 0.18333, "lat": 44.73333}}, {"id": 3007872, "name": "Landerrouat", "country": "FR", "coord": {"lon": 0.15944, "lat": 44.74226}}, {"id": 6616554, "name": "Landerrouet-sur-S\u00e9gur", "country": "FR", "coord": {"lon": -0.0217, "lat": 44.6535}}, {"id": 3007871, "name": "Landerrouet-sur-S\u00e9gur", "country": "FR", "coord": {"lon": -0.01667, "lat": 44.650002}}, {"id": 2773064, "name": "Landersdorf", "country": "AT", "coord": {"lon": 15.63333, "lat": 48.416672}}, {"id": 2160649, "name": "Landervale", "country": "AU", "coord": {"lon": 146.850006, "lat": -34.549999}}, {"id": 6427277, "name": "Landes-sur-Ajon", "country": "FR", "coord": {"lon": -0.58333, "lat": 49.083328}}, {"id": 3007860, "name": "Landes-sur-Ajon", "country": "FR", "coord": {"lon": -0.57881, "lat": 49.076191}}, {"id": 6558436, "name": "Landesbergen", "country": "DE", "coord": {"lon": 9.13333, "lat": 52.5667}}, {"id": 2881599, "name": "Landesbergen", "country": "DE", "coord": {"lon": 9.13333, "lat": 52.566669}}, {"id": 6357464, "name": "Landete", "country": "ES", "coord": {"lon": -1.35435, "lat": 39.904259}}, {"id": 2515709, "name": "Landete", "country": "ES", "coord": {"lon": -1.36667, "lat": 39.900002}}, {"id": 3007858, "name": "Landevant", "country": "FR", "coord": {"lon": -3.12221, "lat": 47.764999}}, {"id": 2644967, "name": "Landewednack", "country": "GB", "coord": {"lon": -5.21035, "lat": 49.96991}}, {"id": 1172208, "name": "Landi Kotal", "country": "PK", "coord": {"lon": 71.146667, "lat": 34.101669}}, {"id": 6439123, "name": "Landigou", "country": "FR", "coord": {"lon": -0.46667, "lat": 48.75}}, {"id": 3007847, "name": "Landigou", "country": "FR", "coord": {"lon": -0.47098, "lat": 48.745781}}, {"id": 8011315, "name": "Landim", "country": "PT", "coord": {"lon": -8.46258, "lat": 41.388988}}, {"id": 2738417, "name": "Landim", "country": "PT", "coord": {"lon": -8.4685, "lat": 41.38335}}, {"id": 2881548, "name": "Landin", "country": "DE", "coord": {"lon": 12.53531, "lat": 52.6642}}, {"id": 3175171, "name": "Landiona", "country": "IT", "coord": {"lon": 8.42233, "lat": 45.49646}}, {"id": 6432265, "name": "Landiras", "country": "FR", "coord": {"lon": -0.41667, "lat": 44.566669}}, {"id": 3007845, "name": "Landiras", "country": "FR", "coord": {"lon": -0.41536, "lat": 44.56702}}, {"id": 6049244, "name": "Landis", "country": "CA", "coord": {"lon": -108.451401, "lat": 52.200111}}, {"id": 4475057, "name": "Landis", "country": "US", "coord": {"lon": -80.610901, "lat": 35.545689}}, {"id": 6439124, "name": "Landisacq", "country": "FR", "coord": {"lon": -0.65, "lat": 48.75}}, {"id": 3007844, "name": "Landisacq", "country": "FR", "coord": {"lon": -0.64924, "lat": 48.7561}}, {"id": 5197120, "name": "Landisville", "country": "US", "coord": {"lon": -76.409958, "lat": 40.095371}}, {"id": 7286255, "name": "Landiswil", "country": "CH", "coord": {"lon": 7.67936, "lat": 46.955349}}, {"id": 2660043, "name": "Landiswil", "country": "CH", "coord": {"lon": 7.68027, "lat": 46.958149}}, {"id": 6453925, "name": "Landivisiau", "country": "FR", "coord": {"lon": -4.06667, "lat": 48.51667}}, {"id": 3007842, "name": "Landivisiau", "country": "FR", "coord": {"lon": -4.06833, "lat": 48.507839}}, {"id": 3007841, "name": "Landivy", "country": "FR", "coord": {"lon": -1.0332, "lat": 48.47868}}, {"id": 6553700, "name": "Landkern", "country": "DE", "coord": {"lon": 7.15, "lat": 50.200001}}, {"id": 2881541, "name": "Landkern", "country": "DE", "coord": {"lon": 7.15, "lat": 50.200001}}, {"id": 3247460, "name": "Landkreis Ahrweiler", "country": "DE", "coord": {"lon": 7.04917, "lat": 50.477219}}, {"id": 2803463, "name": "Landkreis Aichach-Friedberg", "country": "DE", "coord": {"lon": 11.05472, "lat": 48.417221}}, {"id": 2957763, "name": "Landkreis Altenburg", "country": "DE", "coord": {"lon": 12.41667, "lat": 51}}, {"id": 3247456, "name": "Landkreis Altenkirchen", "country": "DE", "coord": {"lon": 7.75, "lat": 50.779171}}, {"id": 3220817, "name": "Landkreis Alt\u00f6tting", "country": "DE", "coord": {"lon": 12.72722, "lat": 48.211391}}, {"id": 2956708, "name": "Landkreis Alzey-Worms", "country": "DE", "coord": {"lon": 8.15, "lat": 49.749439}}, {"id": 3220855, "name": "Landkreis Amberg-Sulzbach", "country": "DE", "coord": {"lon": 11.81472, "lat": 49.494171}}, {"id": 3221058, "name": "Landkreis Ammerland", "country": "DE", "coord": {"lon": 8.02167, "lat": 53.232498}}, {"id": 3220796, "name": "Landkreis Ansbach", "country": "DE", "coord": {"lon": 10.51556, "lat": 49.252781}}, {"id": 2955273, "name": "Landkreis Aschaffenburg", "country": "DE", "coord": {"lon": 9.23167, "lat": 50.02639}}, {"id": 3220871, "name": "Landkreis Augsburg", "country": "DE", "coord": {"lon": 10.71056, "lat": 48.352501}}, {"id": 3221059, "name": "Landkreis Aurich", "country": "DE", "coord": {"lon": 7.31389, "lat": 53.492222}}, {"id": 2953526, "name": "Landkreis Bad Doberan", "country": "DE", "coord": {"lon": 11.80306, "lat": 54.071388}}, {"id": 2953523, "name": "Landkreis Bad D\u00fcrkheim", "country": "DE", "coord": {"lon": 8.1525, "lat": 49.499168}}, {"id": 2953423, "name": "Landkreis Bad Kissingen", "country": "DE", "coord": {"lon": 9.98778, "lat": 50.220001}}, {"id": 2953415, "name": "Landkreis Bad Kreuznach", "country": "DE", "coord": {"lon": 7.69833, "lat": 49.823891}}, {"id": 2953323, "name": "Landkreis Bad T\u00f6lz-Wolfratshausen", "country": "DE", "coord": {"lon": 11.50472, "lat": 47.753059}}, {"id": 3220844, "name": "Landkreis Bamberg", "country": "DE", "coord": {"lon": 10.96833, "lat": 49.908058}}, {"id": 3249079, "name": "Landkreis Barnim", "country": "DE", "coord": {"lon": 13.70917, "lat": 52.84306}}, {"id": 2951880, "name": "Landkreis Bautzen", "country": "DE", "coord": {"lon": 14.46667, "lat": 51.166672}}, {"id": 3220846, "name": "Landkreis Bayreuth", "country": "DE", "coord": {"lon": 11.56583, "lat": 49.881111}}, {"id": 2950257, "name": "Landkreis Bergstra\u00dfe", "country": "DE", "coord": {"lon": 8.66722, "lat": 49.666939}}, {"id": 3247912, "name": "Landkreis Bernkastel-Wittlich", "country": "DE", "coord": {"lon": 6.98083, "lat": 49.943062}}, {"id": 3220790, "name": "Landkreis Biberach", "country": "DE", "coord": {"lon": 9.77056, "lat": 48.103889}}, {"id": 2948589, "name": "Landkreis Birkenfeld", "country": "DE", "coord": {"lon": 7.28139, "lat": 49.71944}}, {"id": 3247913, "name": "Landkreis Bitburg-Pr\u00fcm", "country": "DE", "coord": {"lon": 6.38, "lat": 50.075829}}, {"id": 2944796, "name": "Landkreis Breisgau-Hochschwarzwald", "country": "DE", "coord": {"lon": 7.96611, "lat": 47.96806}}, {"id": 2947443, "name": "Landkreis B\u00f6blingen", "country": "DE", "coord": {"lon": 8.97083, "lat": 48.697498}}, {"id": 2940384, "name": "Landkreis Calw", "country": "DE", "coord": {"lon": 8.64278, "lat": 48.699169}}, {"id": 2940212, "name": "Landkreis Celle", "country": "DE", "coord": {"lon": 10.11611, "lat": 52.747219}}, {"id": 2940202, "name": "Landkreis Cham", "country": "DE", "coord": {"lon": 12.6825, "lat": 49.244999}}, {"id": 3221064, "name": "Landkreis Cloppenburg", "country": "DE", "coord": {"lon": 7.98639, "lat": 52.908611}}, {"id": 2939950, "name": "Landkreis Coburg", "country": "DE", "coord": {"lon": 10.96722, "lat": 50.267502}}, {"id": 3247464, "name": "Landkreis Cochem-Zell", "country": "DE", "coord": {"lon": 7.17917, "lat": 50.146111}}, {"id": 2939657, "name": "Landkreis Cuxhaven", "country": "DE", "coord": {"lon": 8.84944, "lat": 53.602779}}, {"id": 3220818, "name": "Landkreis Dachau", "country": "DE", "coord": {"lon": 11.37111, "lat": 48.334438}}, {"id": 3249080, "name": "Landkreis Dahme-Spreewald", "country": "DE", "coord": {"lon": 13.88444, "lat": 52.013611}}, {"id": 3220966, "name": "Landkreis Darmstadt-Dieburg", "country": "DE", "coord": {"lon": 8.75667, "lat": 49.856392}}, {"id": 3247914, "name": "Landkreis Daun", "country": "DE", "coord": {"lon": 6.74806, "lat": 50.252499}}, {"id": 3220807, "name": "Landkreis Deggendorf", "country": "DE", "coord": {"lon": 13.01194, "lat": 48.785831}}, {"id": 2938283, "name": "Landkreis Demmin", "country": "DE", "coord": {"lon": 13.105, "lat": 53.908058}}, {"id": 3221024, "name": "Landkreis Diepholz", "country": "DE", "coord": {"lon": 8.73417, "lat": 52.749168}}, {"id": 2936975, "name": "Landkreis Dillingen an der Donau", "country": "DE", "coord": {"lon": 10.5325, "lat": 48.604721}}, {"id": 3220808, "name": "Landkreis Dingolfing-Landau", "country": "DE", "coord": {"lon": 12.60944, "lat": 48.65028}}, {"id": 2936260, "name": "Landkreis Donau-Ries", "country": "DE", "coord": {"lon": 10.72194, "lat": 48.816109}}, {"id": 2933937, "name": "Landkreis Ebersberg", "country": "DE", "coord": {"lon": 11.91444, "lat": 48.081108}}, {"id": 3220830, "name": "Landkreis Eichst\u00e4tt", "country": "DE", "coord": {"lon": 11.37528, "lat": 48.909168}}, {"id": 3249081, "name": "Landkreis Elbe-Elster", "country": "DE", "coord": {"lon": 13.44, "lat": 51.633888}}, {"id": 2930522, "name": "Landkreis Emmendingen", "country": "DE", "coord": {"lon": 7.88556, "lat": 48.149719}}, {"id": 3221073, "name": "Landkreis Emsland", "country": "DE", "coord": {"lon": 7.39583, "lat": 52.746109}}, {"id": 2929716, "name": "Landkreis Erding", "country": "DE", "coord": {"lon": 12.00611, "lat": 48.305279}}, {"id": 3220799, "name": "Landkreis Erlangen-H\u00f6chstadt", "country": "DE", "coord": {"lon": 10.94722, "lat": 49.610279}}, {"id": 2928748, "name": "Landkreis Esslingen", "country": "DE", "coord": {"lon": 9.36333, "lat": 48.66917}}, {"id": 3220848, "name": "Landkreis Forchheim", "country": "DE", "coord": {"lon": 11.17111, "lat": 49.738331}}, {"id": 3220832, "name": "Landkreis Freising", "country": "DE", "coord": {"lon": 11.735, "lat": 48.44083}}, {"id": 2924895, "name": "Landkreis Freudenstadt", "country": "DE", "coord": {"lon": 8.45889, "lat": 48.47694}}, {"id": 2918364, "name": "Landkreis Freyung-Grafenau", "country": "DE", "coord": {"lon": 13.52083, "lat": 48.84306}}, {"id": 2924362, "name": "Landkreis Friesland", "country": "DE", "coord": {"lon": 8.00639, "lat": 53.500278}}, {"id": 3220993, "name": "Landkreis Fulda", "country": "DE", "coord": {"lon": 9.76111, "lat": 50.582779}}, {"id": 2923624, "name": "Landkreis F\u00fcrstenfeldbruck", "country": "DE", "coord": {"lon": 11.21472, "lat": 48.18972}}, {"id": 3220801, "name": "Landkreis F\u00fcrth", "country": "DE", "coord": {"lon": 10.82167, "lat": 49.451111}}, {"id": 2922531, "name": "Landkreis Garmisch-Partenkirchen", "country": "DE", "coord": {"lon": 11.09639, "lat": 47.578331}}, {"id": 3247907, "name": "Landkreis Germersheim", "country": "DE", "coord": {"lon": 8.29889, "lat": 49.14333}}, {"id": 3305827, "name": "Landkreis Gie\u00dfen", "country": "DE", "coord": {"lon": 8.81917, "lat": 50.583328}}, {"id": 2920479, "name": "Landkreis Gifhorn", "country": "DE", "coord": {"lon": 10.63056, "lat": 52.59}}, {"id": 3221012, "name": "Landkreis Goslar", "country": "DE", "coord": {"lon": 10.41806, "lat": 51.909721}}, {"id": 2918750, "name": "Landkreis Gotha", "country": "DE", "coord": {"lon": 10.71194, "lat": 50.910561}}, {"id": 3221075, "name": "Landkreis Grafschaft Bentheim", "country": "DE", "coord": {"lon": 7.06778, "lat": 52.519169}}, {"id": 2917735, "name": "Landkreis Greiz", "country": "DE", "coord": {"lon": 12.1125, "lat": 50.71917}}, {"id": 3220969, "name": "Landkreis Gro\u00df-Gerau", "country": "DE", "coord": {"lon": 8.4625, "lat": 49.914719}}, {"id": 2919053, "name": "Landkreis G\u00f6ppingen", "country": "DE", "coord": {"lon": 9.72417, "lat": 48.685829}}, {"id": 3221013, "name": "Landkreis G\u00f6ttingen", "country": "DE", "coord": {"lon": 9.91361, "lat": 51.51083}}, {"id": 3220874, "name": "Landkreis G\u00fcnzburg", "country": "DE", "coord": {"lon": 10.39722, "lat": 48.352779}}, {"id": 2913431, "name": "Landkreis G\u00fcstrow", "country": "DE", "coord": {"lon": 12.2675, "lat": 53.79306}}, {"id": 3221027, "name": "Landkreis Hameln-Pyrmont", "country": "DE", "coord": {"lon": 9.40111, "lat": 52.111111}}, {"id": 3221033, "name": "Landkreis Hannover", "country": "DE", "coord": {"lon": 9.74, "lat": 52.448891}}, {"id": 2910684, "name": "Landkreis Harburg", "country": "DE", "coord": {"lon": 9.96972, "lat": 53.328609}}, {"id": 2911664, "name": "Landkreis Harz", "country": "DE", "coord": {"lon": 10.97361, "lat": 51.946388}}, {"id": 3249082, "name": "Landkreis Havelland", "country": "DE", "coord": {"lon": 12.67222, "lat": 52.642502}}, {"id": 2909461, "name": "Landkreis Ha\u00dfberge", "country": "DE", "coord": {"lon": 10.58333, "lat": 50.083328}}, {"id": 2831482, "name": "Landkreis Heidekreis", "country": "DE", "coord": {"lon": 9.77083, "lat": 52.937778}}, {"id": 3220738, "name": "Landkreis Heidenheim", "country": "DE", "coord": {"lon": 10.17, "lat": 48.68417}}, {"id": 3220743, "name": "Landkreis Heilbronn", "country": "DE", "coord": {"lon": 9.2, "lat": 49.200001}}, {"id": 3221014, "name": "Landkreis Helmstedt", "country": "DE", "coord": {"lon": 10.90833, "lat": 52.278061}}, {"id": 3220994, "name": "Landkreis Hersfeld-Rotenburg", "country": "DE", "coord": {"lon": 9.76583, "lat": 50.919998}}, {"id": 2904803, "name": "Landkreis Hildburghausen", "country": "DE", "coord": {"lon": 10.75528, "lat": 50.467499}}, {"id": 2803461, "name": "Landkreis Hildesheim", "country": "DE", "coord": {"lon": 9.965, "lat": 52.126671}}, {"id": 3220850, "name": "Landkreis Hof", "country": "DE", "coord": {"lon": 11.85611, "lat": 50.283058}}, {"id": 3221036, "name": "Landkreis Holzminden", "country": "DE", "coord": {"lon": 9.58167, "lat": 51.898331}}, {"id": 2894002, "name": "Landkreis Kaiserslautern", "country": "DE", "coord": {"lon": 7.71861, "lat": 49.451939}}, {"id": 2892791, "name": "Landkreis Karlsruhe", "country": "DE", "coord": {"lon": 8.53139, "lat": 49.07972}}, {"id": 2892514, "name": "Landkreis Kassel", "country": "DE", "coord": {"lon": 9.37389, "lat": 51.41111}}, {"id": 3220809, "name": "Landkreis Kelheim", "country": "DE", "coord": {"lon": 11.89806, "lat": 48.840279}}, {"id": 3220892, "name": "Landkreis Kitzingen", "country": "DE", "coord": {"lon": 10.28111, "lat": 49.769718}}, {"id": 2885678, "name": "Landkreis Konstanz", "country": "DE", "coord": {"lon": 8.87694, "lat": 47.806938}}, {"id": 2883782, "name": "Landkreis Kronach", "country": "DE", "coord": {"lon": 11.39861, "lat": 50.318062}}, {"id": 3220851, "name": "Landkreis Kulmbach", "country": "DE", "coord": {"lon": 11.49944, "lat": 50.109169}}, {"id": 3247901, "name": "Landkreis Kusel", "country": "DE", "coord": {"lon": 7.49917, "lat": 49.57111}}, {"id": 3220834, "name": "Landkreis Landsberg am Lech", "country": "DE", "coord": {"lon": 10.97139, "lat": 48.038891}}, {"id": 3220811, "name": "Landkreis Landshut", "country": "DE", "coord": {"lon": 12.18056, "lat": 48.57056}}, {"id": 3221094, "name": "Landkreis Leer", "country": "DE", "coord": {"lon": 7.47111, "lat": 53.246941}}, {"id": 2879138, "name": "Landkreis Leipzig", "country": "DE", "coord": {"lon": 12.33333, "lat": 51.333328}}, {"id": 3220852, "name": "Landkreis Lichtenfels", "country": "DE", "coord": {"lon": 11.1175, "lat": 50.121941}}, {"id": 3220992, "name": "Landkreis Limburg-Weilburg", "country": "DE", "coord": {"lon": 8.20028, "lat": 50.44389}}, {"id": 3220885, "name": "Landkreis Lindau", "country": "DE", "coord": {"lon": 9.88139, "lat": 47.618061}}, {"id": 3220752, "name": "Landkreis Ludwigsburg", "country": "DE", "coord": {"lon": 9.13333, "lat": 48.916672}}, {"id": 2875341, "name": "Landkreis Ludwigslust", "country": "DE", "coord": {"lon": 11.45611, "lat": 53.29361}}, {"id": 3214108, "name": "Landkreis L\u00f6rrach", "country": "DE", "coord": {"lon": 7.76556, "lat": 47.70583}}, {"id": 3221038, "name": "Landkreis L\u00fcchow-Dannenberg", "country": "DE", "coord": {"lon": 11.14611, "lat": 53.032219}}, {"id": 3221040, "name": "Landkreis L\u00fcneburg", "country": "DE", "coord": {"lon": 10.56611, "lat": 53.293892}}, {"id": 3220893, "name": "Landkreis Main-Spessart", "country": "DE", "coord": {"lon": 9.69333, "lat": 50.005562}}, {"id": 3247466, "name": "Landkreis Mainz-Bingen", "country": "DE", "coord": {"lon": 8.11361, "lat": 49.9375}}, {"id": 2873758, "name": "Landkreis Marburg-Biedenkopf", "country": "DE", "coord": {"lon": 8.77778, "lat": 50.840279}}, {"id": 3247461, "name": "Landkreis Mayen-Koblenz", "country": "DE", "coord": {"lon": 7.31722, "lat": 50.333328}}, {"id": 3302144, "name": "Landkreis Mecklenburg-Strelitz", "country": "DE", "coord": {"lon": 13.37806, "lat": 53.442501}}, {"id": 2872153, "name": "Landkreis Mei\u00dfen", "country": "DE", "coord": {"lon": 13.41667, "lat": 51.166672}}, {"id": 2871673, "name": "Landkreis Merzig-Wadern", "country": "DE", "coord": {"lon": 6.67556, "lat": 49.477219}}, {"id": 3220835, "name": "Landkreis Miesbach", "country": "DE", "coord": {"lon": 11.81611, "lat": 47.771671}}, {"id": 3220894, "name": "Landkreis Miltenberg", "country": "DE", "coord": {"lon": 9.22861, "lat": 49.77417}}, {"id": 2925190, "name": "Landkreis Mittelsachsen", "country": "DE", "coord": {"lon": 13.33333, "lat": 50.833328}}, {"id": 3249083, "name": "Landkreis M\u00e4rkisch-Oderland", "country": "DE", "coord": {"lon": 14.17667, "lat": 52.637501}}, {"id": 3220836, "name": "Landkreis M\u00fchldorf am Inn", "country": "DE", "coord": {"lon": 12.41278, "lat": 48.230282}}, {"id": 3220838, "name": "Landkreis M\u00fcnchen", "country": "DE", "coord": {"lon": 11.64222, "lat": 48.051392}}, {"id": 3302148, "name": "Landkreis M\u00fcritz", "country": "DE", "coord": {"lon": 12.62333, "lat": 53.48222}}, {"id": 3220887, "name": "Landkreis Neu-Ulm", "country": "DE", "coord": {"lon": 10.15222, "lat": 48.306389}}, {"id": 2866064, "name": "Landkreis Neuburg-Schrobenhausen", "country": "DE", "coord": {"lon": 11.20056, "lat": 48.666389}}, {"id": 2864548, "name": "Landkreis Neumarkt in der Oberpfalz", "country": "DE", "coord": {"lon": 11.57722, "lat": 49.218891}}, {"id": 3249066, "name": "Landkreis Neunkirchen", "country": "DE", "coord": {"lon": 7.13056, "lat": 49.37944}}, {"id": 3220802, "name": "Landkreis Neustadt an der Aisch-Bad Windsheim", "country": "DE", "coord": {"lon": 10.47722, "lat": 49.569172}}, {"id": 3220856, "name": "Landkreis Neustadt an der Waldnaab", "country": "DE", "coord": {"lon": 12.08722, "lat": 49.71167}}, {"id": 3247458, "name": "Landkreis Neuwied", "country": "DE", "coord": {"lon": 7.47806, "lat": 50.53944}}, {"id": 2862622, "name": "Landkreis Nienburg", "country": "DE", "coord": {"lon": 9.16694, "lat": 52.652779}}, {"id": 2861979, "name": "Landkreis Nordhausen", "country": "DE", "coord": {"lon": 10.75194, "lat": 51.506672}}, {"id": 2821806, "name": "Landkreis Nordsachsen", "country": "DE", "coord": {"lon": 13.04472, "lat": 51.42556}}, {"id": 3302145, "name": "Landkreis Nordvorpommern", "country": "DE", "coord": {"lon": 12.82083, "lat": 54.21806}}, {"id": 3302143, "name": "Landkreis Nordwestmecklenburg", "country": "DE", "coord": {"lon": 11.24806, "lat": 53.807781}}, {"id": 3221015, "name": "Landkreis Northeim", "country": "DE", "coord": {"lon": 9.88083, "lat": 51.753609}}, {"id": 2861443, "name": "Landkreis Oberallg\u00e4u", "country": "DE", "coord": {"lon": 10.26472, "lat": 47.610279}}, {"id": 3249084, "name": "Landkreis Oberhavel", "country": "DE", "coord": {"lon": 13.23278, "lat": 52.951672}}, {"id": 3249085, "name": "Landkreis Oberspreewald-Lausitz", "country": "DE", "coord": {"lon": 13.99944, "lat": 51.64167}}, {"id": 3249086, "name": "Landkreis Oder-Spree", "country": "DE", "coord": {"lon": 14.24028, "lat": 52.249439}}, {"id": 3220978, "name": "Landkreis Offenbach", "country": "DE", "coord": {"lon": 8.825, "lat": 50.022221}}, {"id": 2857455, "name": "Landkreis Oldenburg", "country": "DE", "coord": {"lon": 8.36, "lat": 53.03722}}, {"id": 3221098, "name": "Landkreis Osnabr\u00fcck", "country": "DE", "coord": {"lon": 8.04722, "lat": 52.412498}}, {"id": 3220888, "name": "Landkreis Ostallg\u00e4u", "country": "DE", "coord": {"lon": 10.63639, "lat": 47.828331}}, {"id": 3221042, "name": "Landkreis Osterholz", "country": "DE", "coord": {"lon": 8.82389, "lat": 53.263889}}, {"id": 3221016, "name": "Landkreis Osterode am Harz", "country": "DE", "coord": {"lon": 10.38028, "lat": 51.674438}}, {"id": 3249074, "name": "Landkreis Ostholstein", "country": "DE", "coord": {"lon": 10.76972, "lat": 54.16111}}, {"id": 3249087, "name": "Landkreis Ostprignitz-Ruppin", "country": "DE", "coord": {"lon": 12.67389, "lat": 52.99778}}, {"id": 3302146, "name": "Landkreis Ostvorpommern", "country": "DE", "coord": {"lon": 13.67861, "lat": 53.92028}}, {"id": 2855440, "name": "Landkreis Parchim", "country": "DE", "coord": {"lon": 11.82167, "lat": 53.433891}}, {"id": 3220813, "name": "Landkreis Passau", "country": "DE", "coord": {"lon": 13.29389, "lat": 48.599442}}, {"id": 3221017, "name": "Landkreis Peine", "country": "DE", "coord": {"lon": 10.26111, "lat": 52.317219}}, {"id": 2854385, "name": "Landkreis Pfaffenhofen an der Ilm", "country": "DE", "coord": {"lon": 11.53472, "lat": 48.58139}}, {"id": 3247904, "name": "Landkreis Pirmasens", "country": "DE", "coord": {"lon": 7.67944, "lat": 49.227219}}, {"id": 2852456, "name": "Landkreis Potsdam-Mittelmark", "country": "DE", "coord": {"lon": 12.675, "lat": 52.21944}}, {"id": 3249088, "name": "Landkreis Prignitz", "country": "DE", "coord": {"lon": 11.98944, "lat": 53.11528}}, {"id": 3220725, "name": "Landkreis Rastatt", "country": "DE", "coord": {"lon": 8.29417, "lat": 48.786388}}, {"id": 3220791, "name": "Landkreis Ravensburg", "country": "DE", "coord": {"lon": 9.79528, "lat": 47.82917}}, {"id": 3220814, "name": "Landkreis Regen", "country": "DE", "coord": {"lon": 13.12361, "lat": 49.029999}}, {"id": 3220858, "name": "Landkreis Regensburg", "country": "DE", "coord": {"lon": 12.12361, "lat": 49.047218}}, {"id": 3220792, "name": "Landkreis Reutlingen", "country": "DE", "coord": {"lon": 9.38056, "lat": 48.403332}}, {"id": 2847553, "name": "Landkreis Rh\u00f6n-Grabfeld", "country": "DE", "coord": {"lon": 10.295, "lat": 50.387501}}, {"id": 3220840, "name": "Landkreis Rosenheim", "country": "DE", "coord": {"lon": 12.17, "lat": 47.88028}}, {"id": 3221044, "name": "Landkreis Rotenburg", "country": "DE", "coord": {"lon": 9.32611, "lat": 53.262218}}, {"id": 3220805, "name": "Landkreis Roth", "country": "DE", "coord": {"lon": 11.11806, "lat": 49.228062}}, {"id": 2843774, "name": "Landkreis Rottal-Inn", "country": "DE", "coord": {"lon": 12.84972, "lat": 48.447498}}, {"id": 3214110, "name": "Landkreis Rottweil", "country": "DE", "coord": {"lon": 8.5, "lat": 48.25}}, {"id": 2843324, "name": "Landkreis R\u00fcgen", "country": "DE", "coord": {"lon": 13.39361, "lat": 54.455002}}, {"id": 3249065, "name": "Landkreis Saarlouis", "country": "DE", "coord": {"lon": 6.78944, "lat": 49.338612}}, {"id": 2841464, "name": "Landkreis Sankt Wendel", "country": "DE", "coord": {"lon": 7.11944, "lat": 49.51778}}, {"id": 2840133, "name": "Landkreis Schaumburg", "country": "DE", "coord": {"lon": 9.19972, "lat": 52.315281}}, {"id": 3302169, "name": "Landkreis Schmalkalden-Meiningen", "country": "DE", "coord": {"lon": 10.41528, "lat": 50.620831}}, {"id": 3220859, "name": "Landkreis Schwandorf", "country": "DE", "coord": {"lon": 12.26722, "lat": 49.388062}}, {"id": 3220896, "name": "Landkreis Schweinfurt", "country": "DE", "coord": {"lon": 10.22972, "lat": 50.022781}}, {"id": 3220784, "name": "Landkreis Schw\u00e4bisch-Hall", "country": "DE", "coord": {"lon": 9.9, "lat": 49.16333}}, {"id": 3220793, "name": "Landkreis Sigmaringen", "country": "DE", "coord": {"lon": 9.23278, "lat": 48.03611}}, {"id": 2831245, "name": "Landkreis Sonneberg", "country": "DE", "coord": {"lon": 11.14722, "lat": 50.42944}}, {"id": 3249089, "name": "Landkreis Spree-Nei\u00dfe", "country": "DE", "coord": {"lon": 14.41833, "lat": 51.750561}}, {"id": 3221046, "name": "Landkreis Stade", "country": "DE", "coord": {"lon": 9.40611, "lat": 53.608608}}, {"id": 2829456, "name": "Landkreis Starnberg", "country": "DE", "coord": {"lon": 11.29583, "lat": 48.014999}}, {"id": 2827478, "name": "Landkreis Stendal", "country": "DE", "coord": {"lon": 11.83333, "lat": 52.599998}}, {"id": 3220816, "name": "Landkreis Straubing-Bogen", "country": "DE", "coord": {"lon": 12.63583, "lat": 48.9175}}, {"id": 3305812, "name": "Landkreis S\u00e4chsische Schweiz", "country": "DE", "coord": {"lon": 14.08056, "lat": 50.950562}}, {"id": 2831402, "name": "Landkreis S\u00f6mmerda", "country": "DE", "coord": {"lon": 11.17722, "lat": 51.173328}}, {"id": 2825001, "name": "Landkreis S\u00fcdliche Weinstra\u00dfe", "country": "DE", "coord": {"lon": 8.07472, "lat": 49.217781}}, {"id": 3249090, "name": "Landkreis Teltow-Fl\u00e4ming", "country": "DE", "coord": {"lon": 13.27222, "lat": 52.12278}}, {"id": 2822099, "name": "Landkreis Tirschenreuth", "country": "DE", "coord": {"lon": 12.195, "lat": 49.915562}}, {"id": 3220841, "name": "Landkreis Traunstein", "country": "DE", "coord": {"lon": 12.61472, "lat": 47.922218}}, {"id": 2821160, "name": "Landkreis Trier-Saarburg", "country": "DE", "coord": {"lon": 6.71972, "lat": 49.707218}}, {"id": 3214111, "name": "Landkreis Tuttlingen", "country": "DE", "coord": {"lon": 8.80056, "lat": 48.003891}}, {"id": 2820859, "name": "Landkreis T\u00fcbingen", "country": "DE", "coord": {"lon": 9.00056, "lat": 48.5}}, {"id": 3249091, "name": "Landkreis Uckermark", "country": "DE", "coord": {"lon": 13.84639, "lat": 53.22583}}, {"id": 3302147, "name": "Landkreis Uecker-Randow", "country": "DE", "coord": {"lon": 14.08889, "lat": 53.598331}}, {"id": 3221049, "name": "Landkreis Uelzen", "country": "DE", "coord": {"lon": 10.55222, "lat": 52.999168}}, {"id": 3220889, "name": "Landkreis Unterallg\u00e4u", "country": "DE", "coord": {"lon": 10.40917, "lat": 48.062222}}, {"id": 3221097, "name": "Landkreis Vechta", "country": "DE", "coord": {"lon": 8.2, "lat": 52.6875}}, {"id": 2817598, "name": "Landkreis Verden", "country": "DE", "coord": {"lon": 9.16778, "lat": 52.981392}}, {"id": 3220997, "name": "Landkreis Waldeck-Frankenberg", "country": "DE", "coord": {"lon": 8.93111, "lat": 51.207218}}, {"id": 3214112, "name": "Landkreis Waldshut", "country": "DE", "coord": {"lon": 8.255, "lat": 47.705559}}, {"id": 3220842, "name": "Landkreis Weilheim-Schongau", "country": "DE", "coord": {"lon": 11.05528, "lat": 47.812222}}, {"id": 3220797, "name": "Landkreis Wei\u00dfenburg-Gunzenhausen", "country": "DE", "coord": {"lon": 10.92417, "lat": 49.036388}}, {"id": 3221099, "name": "Landkreis Wesermarsch", "country": "DE", "coord": {"lon": 8.34944, "lat": 53.349998}}, {"id": 2807345, "name": "Landkreis Wittenberg", "country": "DE", "coord": {"lon": 12.80528, "lat": 51.812222}}, {"id": 3221101, "name": "Landkreis Wittmund", "country": "DE", "coord": {"lon": 7.68611, "lat": 53.596111}}, {"id": 3221020, "name": "Landkreis Wolfenb\u00fcttel", "country": "DE", "coord": {"lon": 10.6625, "lat": 52.154999}}, {"id": 3220853, "name": "Landkreis Wunsiedel im Fichtelgebirge", "country": "DE", "coord": {"lon": 12.04833, "lat": 50.097221}}, {"id": 3220898, "name": "Landkreis W\u00fcrzburg", "country": "DE", "coord": {"lon": 9.90333, "lat": 49.77306}}, {"id": 7873499, "name": "Landl", "country": "AT", "coord": {"lon": 14.76059, "lat": 47.639019}}, {"id": 2773056, "name": "Landl", "country": "AT", "coord": {"lon": 14.71667, "lat": 47.650002}}, {"id": 2881531, "name": "Landmannsdorf", "country": "DE", "coord": {"lon": 11.09469, "lat": 48.352711}}, {"id": 2881528, "name": "Landmark", "country": "DE", "coord": {"lon": 8.96667, "lat": 53.75}}, {"id": 4118277, "name": "Landmark", "country": "US", "coord": {"lon": -92.319603, "lat": 34.611198}}, {"id": 7337079, "name": "Lando", "country": "ID", "coord": {"lon": 120.079002, "lat": -8.4967}}, {"id": 6552341, "name": "Landolfshausen", "country": "DE", "coord": {"lon": 10.1, "lat": 51.533298}}, {"id": 2881526, "name": "Landolfshausen", "country": "DE", "coord": {"lon": 10.1, "lat": 51.533329}}, {"id": 2644963, "name": "Landore", "country": "GB", "coord": {"lon": -3.94143, "lat": 51.643959}}, {"id": 2881522, "name": "Landorf", "country": "DE", "coord": {"lon": 12.66667, "lat": 49.066669}}, {"id": 4360287, "name": "Landover", "country": "US", "coord": {"lon": -76.896637, "lat": 38.933998}}, {"id": 4360288, "name": "Landover Hills", "country": "US", "coord": {"lon": -76.892197, "lat": 38.943169}}, {"id": 2660042, "name": "Landquart", "country": "CH", "coord": {"lon": 9.56667, "lat": 46.950001}}, {"id": 6552212, "name": "Landrecht", "country": "DE", "coord": {"lon": 9.36667, "lat": 53.9333}}, {"id": 2881519, "name": "Landrecht", "country": "DE", "coord": {"lon": 9.36667, "lat": 53.933331}}, {"id": 3007830, "name": "Landrecies", "country": "FR", "coord": {"lon": 3.69171, "lat": 50.125}}, {"id": 3007825, "name": "Landres", "country": "FR", "coord": {"lon": 5.80578, "lat": 49.320751}}, {"id": 3007818, "name": "Landrevarzec", "country": "FR", "coord": {"lon": -4.06044, "lat": 48.09177}}, {"id": 3175168, "name": "Landriano", "country": "IT", "coord": {"lon": 9.26005, "lat": 45.31197}}, {"id": 6049268, "name": "Landrienne", "country": "CA", "coord": {"lon": -77.949516, "lat": 48.550179}}, {"id": 2881516, "name": "Landringhausen", "country": "DE", "coord": {"lon": 9.46455, "lat": 52.35453}}, {"id": 3119344, "name": "Landrove", "country": "ES", "coord": {"lon": -7.6, "lat": 43.633331}}, {"id": 4584590, "name": "Landrum", "country": "US", "coord": {"lon": -82.189278, "lat": 35.17511}}, {"id": 2881508, "name": "Landsberg", "country": "DE", "coord": {"lon": 12.16667, "lat": 51.51667}}, {"id": 2881509, "name": "Landsberg am Lech", "country": "DE", "coord": {"lon": 10.88282, "lat": 48.048191}}, {"id": 6556225, "name": "Landsberied", "country": "DE", "coord": {"lon": 11.1667, "lat": 48.166698}}, {"id": 2881505, "name": "Landsberied", "country": "DE", "coord": {"lon": 11.16667, "lat": 48.166672}},