[{"id": 2846494, "name": "Rippicha", "country": "DE", "coord": {"lon": 12.13333, "lat": 51.01667}}, {"id": 2846493, "name": "Rippien", "country": "DE", "coord": {"lon": 13.73171, "lat": 50.98188}}, {"id": 2960145, "name": "Rippig", "country": "LU", "coord": {"lon": 6.31944, "lat": 49.734169}}, {"id": 2846490, "name": "Rippoldsried", "country": "DE", "coord": {"lon": 8.26667, "lat": 47.76667}}, {"id": 7298333, "name": "Ripponden", "country": "GB", "coord": {"lon": -1.97177, "lat": 53.65432}}, {"id": 2639320, "name": "Ripponden", "country": "GB", "coord": {"lon": -1.94183, "lat": 53.674492}}, {"id": 2960144, "name": "Rippweiler", "country": "LU", "coord": {"lon": 5.9575, "lat": 49.751671}}, {"id": 2846486, "name": "Ripsdorf", "country": "DE", "coord": {"lon": 6.65, "lat": 50.383331}}, {"id": 401653, "name": "Riqab", "country": "YE", "coord": {"lon": 43.464909, "lat": 14.88596}}, {"id": 6441586, "name": "Riquewihr", "country": "FR", "coord": {"lon": 7.2978, "lat": 48.166801}}, {"id": 2983451, "name": "Riquewihr", "country": "FR", "coord": {"lon": 7.29707, "lat": 48.166721}}, {"id": 6454488, "name": "Ris", "country": "FR", "coord": {"lon": 3.5, "lat": 46}}, {"id": 2983449, "name": "Ris", "country": "FR", "coord": {"lon": 3.50638, "lat": 45.999279}}, {"id": 6446192, "name": "Ris-Orangis", "country": "FR", "coord": {"lon": 2.41667, "lat": 48.650002}}, {"id": 2983440, "name": "Ris-Orangis", "country": "FR", "coord": {"lon": 2.41406, "lat": 48.6511}}, {"id": 1448637, "name": "Risalpur", "country": "PK", "coord": {"lon": 71.991661, "lat": 34.061859}}, {"id": 3191631, "name": "Risan", "country": "ME", "coord": {"lon": 18.69556, "lat": 42.514999}}, {"id": 3670700, "name": "Risaralda", "country": "CO", "coord": {"lon": -75.765953, "lat": 5.16647}}, {"id": 7298757, "name": "Risca", "country": "GB", "coord": {"lon": -3.09291, "lat": 51.610889}}, {"id": 2639317, "name": "Risca", "country": "GB", "coord": {"lon": -3.10081, "lat": 51.60799}}, {"id": 617482, "name": "Riscani", "country": "MD", "coord": {"lon": 27.55389, "lat": 47.957218}}, {"id": 7286917, "name": "Risch", "country": "CH", "coord": {"lon": 8.441, "lat": 47.140541}}, {"id": 2846481, "name": "Rischden", "country": "DE", "coord": {"lon": 6.1, "lat": 50.98333}}, {"id": 2846480, "name": "Rischenau", "country": "DE", "coord": {"lon": 9.2831, "lat": 51.87962}}, {"id": 6432079, "name": "Riscle", "country": "FR", "coord": {"lon": -0.0865, "lat": 43.6563}}, {"id": 2983443, "name": "Riscle", "country": "FR", "coord": {"lon": -0.08607, "lat": 43.65633}}, {"id": 2151558, "name": "Risdon", "country": "AU", "coord": {"lon": 147.333328, "lat": -42.799999}}, {"id": 2639313, "name": "Riseley", "country": "GB", "coord": {"lon": -0.47928, "lat": 52.252129}}, {"id": 1258128, "name": "Rishikesh", "country": "IN", "coord": {"lon": 78.316673, "lat": 30.116671}}, {"id": 7303387, "name": "Rishiri Town", "country": "JP", "coord": {"lon": 141.196289, "lat": 45.159279}}, {"id": 293703, "name": "Rishon LeZiyyon", "country": "IL", "coord": {"lon": 34.80444, "lat": 31.96417}}, {"id": 1258126, "name": "Rishra", "country": "IN", "coord": {"lon": 88.347778, "lat": 22.71417}}, {"id": 2639310, "name": "Rishton", "country": "GB", "coord": {"lon": -2.41444, "lat": 53.768059}}, {"id": 4263736, "name": "Rising Sun", "country": "US", "coord": {"lon": -84.853844, "lat": 38.949501}}, {"id": 4366852, "name": "Rising Sun", "country": "US", "coord": {"lon": -76.062729, "lat": 39.697891}}, {"id": 7258553, "name": "Rising Sun-Lebanon", "country": "US", "coord": {"lon": -75.504883, "lat": 39.09977}}, {"id": 2538028, "name": "Rislane", "country": "MA", "coord": {"lon": -2.46034, "lat": 34.769871}}, {"id": 1258124, "name": "Risod", "country": "IN", "coord": {"lon": 76.783333, "lat": 19.966669}}, {"id": 4128469, "name": "Rison", "country": "US", "coord": {"lon": -92.190147, "lat": 33.958431}}, {"id": 3141747, "name": "Risor", "country": "NO", "coord": {"lon": 9.23422, "lat": 58.72057}}, {"id": 7626375, "name": "Rissa", "country": "NO", "coord": {"lon": 9.95989, "lat": 63.583679}}, {"id": 639258, "name": "Rissala", "country": "FI", "coord": {"lon": 27.799999, "lat": 63}}, {"id": 2538027, "name": "Rissani", "country": "MA", "coord": {"lon": -4.26883, "lat": 31.284639}}, {"id": 2846455, "name": "Rissen", "country": "DE", "coord": {"lon": 9.76667, "lat": 53.583328}}, {"id": 2846451, "name": "Rissh\u00f6fen", "country": "DE", "coord": {"lon": 9.8, "lat": 48.133331}}, {"id": 1691695, "name": "Rissing", "country": "PH", "coord": {"lon": 120.434502, "lat": 16.8752}}, {"id": 2614718, "name": "Risskov", "country": "DK", "coord": {"lon": 10.248, "lat": 56.197159}}, {"id": 639249, "name": "Ristiina", "country": "FI", "coord": {"lon": 27.33333, "lat": 61.5}}, {"id": 639248, "name": "Ristiina", "country": "FI", "coord": {"lon": 27.26667, "lat": 61.5}}, {"id": 639234, "name": "Ristijarvi", "country": "FI", "coord": {"lon": 28.216669, "lat": 64.5}}, {"id": 639247, "name": "Ristij\u00e4rvi", "country": "FI", "coord": {"lon": 28.5, "lat": 64.5}}, {"id": 7779093, "name": "Ristinummi", "country": "FI", "coord": {"lon": 21.722969, "lat": 63.091919}}, {"id": 639200, "name": "Ristisaari", "country": "FI", "coord": {"lon": 29.816669, "lat": 62.683331}}, {"id": 589004, "name": "Ristiv\u00e4lja", "country": "EE", "coord": {"lon": 22.771391, "lat": 58.850559}}, {"id": 6551597, "name": "Risum-Lindholm", "country": "DE", "coord": {"lon": 8.88333, "lat": 54.766701}}, {"id": 3208565, "name": "Risum-Lindholm", "country": "DE", "coord": {"lon": 8.86906, "lat": 54.758018}}, {"id": 7463778, "name": "Ritapiret", "country": "ID", "coord": {"lon": 122.174599, "lat": -8.6718}}, {"id": 961226, "name": "Ritchie", "country": "ZA", "coord": {"lon": 24.602779, "lat": -29.03801}}, {"id": 2324439, "name": "Riti", "country": "NG", "coord": {"lon": 9.61667, "lat": 7.91667}}, {"id": 734396, "name": "Ritini", "country": "GR", "coord": {"lon": 22.28083, "lat": 40.286942}}, {"id": 874502, "name": "Ritsa", "country": "GE", "coord": {"lon": 40.534443, "lat": 43.47028}}, {"id": 6550034, "name": "Ritschenhausen", "country": "DE", "coord": {"lon": 10.45, "lat": 50.516701}}, {"id": 2846426, "name": "Ritschenhausen", "country": "DE", "coord": {"lon": 10.45, "lat": 50.51667}}, {"id": 6534369, "name": "Rittana", "country": "IT", "coord": {"lon": 7.39843, "lat": 44.351028}}, {"id": 2846419, "name": "Ritteburg", "country": "DE", "coord": {"lon": 11.33333, "lat": 51.349998}}, {"id": 6552708, "name": "Ritterhude", "country": "DE", "coord": {"lon": 8.7216, "lat": 53.181149}}, {"id": 2846398, "name": "Ritterhude", "country": "DE", "coord": {"lon": 8.7355, "lat": 53.182892}}, {"id": 2846392, "name": "Ritterode", "country": "DE", "coord": {"lon": 11.45, "lat": 51.633331}}, {"id": 6554493, "name": "Rittersdorf", "country": "DE", "coord": {"lon": 6.5, "lat": 50}}, {"id": 2846381, "name": "Rittersdorf", "country": "DE", "coord": {"lon": 6.5, "lat": 50}}, {"id": 6550280, "name": "Rittersdorf", "country": "DE", "coord": {"lon": 11.2333, "lat": 50.8167}}, {"id": 2846380, "name": "Rittersdorf", "country": "DE", "coord": {"lon": 11.23333, "lat": 50.816669}}, {"id": 2846378, "name": "Rittersgrun", "country": "DE", "coord": {"lon": 12.78333, "lat": 50.466671}}, {"id": 6554979, "name": "Rittersheim", "country": "DE", "coord": {"lon": 8.05833, "lat": 49.6647}}, {"id": 2846374, "name": "Rittersheim", "country": "DE", "coord": {"lon": 8.05833, "lat": 49.664719}}, {"id": 2659012, "name": "Ritti", "country": "CH", "coord": {"lon": 7.91667, "lat": 46.283329}}, {"id": 5168225, "name": "Rittman", "country": "US", "coord": {"lon": -81.782082, "lat": 40.978111}}, {"id": 2846360, "name": "Rittmannshausen", "country": "DE", "coord": {"lon": 10.13333, "lat": 51.083328}}, {"id": 2846358, "name": "Rittmarshausen", "country": "DE", "coord": {"lon": 10.1, "lat": 51.48333}}, {"id": 6551489, "name": "Ritzerau", "country": "DE", "coord": {"lon": 10.5667, "lat": 53.666698}}, {"id": 2846333, "name": "Ritzerau", "country": "DE", "coord": {"lon": 10.56667, "lat": 53.666672}}, {"id": 6547848, "name": "Ritzerow", "country": "DE", "coord": {"lon": 12.9667, "lat": 53.666698}}, {"id": 2846329, "name": "Ritzerow", "country": "DE", "coord": {"lon": 12.96667, "lat": 53.666672}}, {"id": 7871608, "name": "Ritzing", "country": "AT", "coord": {"lon": 16.48575, "lat": 47.623409}}, {"id": 2767346, "name": "Ritzing", "country": "AT", "coord": {"lon": 16.5, "lat": 47.599998}}, {"id": 2846316, "name": "Ritzleben", "country": "DE", "coord": {"lon": 11.35, "lat": 52.849998}}, {"id": 5808453, "name": "Ritzville", "country": "US", "coord": {"lon": -118.379982, "lat": 47.127369}}, {"id": 6358990, "name": "Riu de Cerdanya", "country": "ES", "coord": {"lon": 1.82511, "lat": 42.328152}}, {"id": 6424298, "name": "Riu de Cerdanya", "country": "ES", "coord": {"lon": 1.82631, "lat": 42.345409}}, {"id": 6534112, "name": "Riudarenes", "country": "ES", "coord": {"lon": 2.71568, "lat": 41.822842}}, {"id": 3111602, "name": "Riudarenes", "country": "ES", "coord": {"lon": 2.71667, "lat": 41.816669}}, {"id": 6361369, "name": "Riudecanyes", "country": "ES", "coord": {"lon": 0.95195, "lat": 41.133862}}, {"id": 3111598, "name": "Riudecanyes", "country": "ES", "coord": {"lon": 0.96667, "lat": 41.133331}}, {"id": 6361370, "name": "Riudecols", "country": "ES", "coord": {"lon": 0.96204, "lat": 41.17548}}, {"id": 3111596, "name": "Riudecols", "country": "ES", "coord": {"lon": 0.97625, "lat": 41.168999}}, {"id": 6534113, "name": "Riudellots de la Selva", "country": "ES", "coord": {"lon": 2.80307, "lat": 41.89473}}, {"id": 3111592, "name": "Riudellots de la Selva", "country": "ES", "coord": {"lon": 2.80452, "lat": 41.893269}}, {"id": 6361371, "name": "Riudoms", "country": "ES", "coord": {"lon": 1.0571, "lat": 41.14307}}, {"id": 3111590, "name": "Riudoms", "country": "ES", "coord": {"lon": 1.05, "lat": 41.133331}}, {"id": 6534114, "name": "Riumors", "country": "ES", "coord": {"lon": 3.04199, "lat": 42.22644}}, {"id": 3111589, "name": "Riumors", "country": "ES", "coord": {"lon": 3.0419, "lat": 42.227261}}, {"id": 1629590, "name": "Riung", "country": "ID", "coord": {"lon": 121.025597, "lat": -8.4213}}, {"id": 4366877, "name": "Riva", "country": "US", "coord": {"lon": -76.578018, "lat": 38.952061}}, {"id": 3169267, "name": "Riva Ligure", "country": "IT", "coord": {"lon": 7.87965, "lat": 43.837921}}, {"id": 7286918, "name": "Riva San Vitale", "country": "CH", "coord": {"lon": 8.96376, "lat": 45.910118}}, {"id": 2659008, "name": "Riva San Vitale", "country": "CH", "coord": {"lon": 8.97104, "lat": 45.903412}}, {"id": 6543415, "name": "Riva Valdobbia", "country": "IT", "coord": {"lon": 7.95661, "lat": 45.830971}}, {"id": 6535434, "name": "Riva Valdobbia", "country": "IT", "coord": {"lon": 7.95661, "lat": 45.830971}}, {"id": 6541810, "name": "Riva del Garda", "country": "IT", "coord": {"lon": 10.84118, "lat": 45.885761}}, {"id": 3169272, "name": "Riva del Garda", "country": "IT", "coord": {"lon": 10.84117, "lat": 45.885769}}, {"id": 6534974, "name": "Riva di Solto", "country": "IT", "coord": {"lon": 10.04356, "lat": 45.776989}}, {"id": 3169256, "name": "Riva presso Chieri", "country": "IT", "coord": {"lon": 7.87233, "lat": 44.984951}}, {"id": 2983423, "name": "Riva-Bella", "country": "FR", "coord": {"lon": -0.26054, "lat": 49.287708}}, {"id": 3111864, "name": "Rivabellosa", "country": "ES", "coord": {"lon": -2.91667, "lat": 42.716671}}, {"id": 3838759, "name": "Rivadavia", "country": "AR", "coord": {"lon": -68.460808, "lat": -33.19051}}, {"id": 6957761, "name": "Rivage", "country": "BE", "coord": {"lon": 3.9, "lat": 50.549999}}, {"id": 3169269, "name": "Rivalba", "country": "IT", "coord": {"lon": 7.88812, "lat": 45.118351}}, {"id": 6543042, "name": "Rivalta Bormida", "country": "IT", "coord": {"lon": 8.55175, "lat": 44.709751}}, {"id": 6535056, "name": "Rivalta Bormida", "country": "IT", "coord": {"lon": 8.55175, "lat": 44.709751}}, {"id": 6538077, "name": "Rivalta di Torino", "country": "IT", "coord": {"lon": 7.51842, "lat": 45.034039}}, {"id": 3169262, "name": "Rivalta di Torino", "country": "IT", "coord": {"lon": 7.51842, "lat": 45.034039}}, {"id": 3169264, "name": "Rivalta sul Mincio", "country": "IT", "coord": {"lon": 10.67667, "lat": 45.172871}}, {"id": 3169259, "name": "Rivamonte Agordino", "country": "IT", "coord": {"lon": 12.02303, "lat": 46.252258}}, {"id": 3169258, "name": "Rivanazzano", "country": "IT", "coord": {"lon": 9.01368, "lat": 44.929081}}, {"id": 3169255, "name": "Rivara", "country": "IT", "coord": {"lon": 7.63292, "lat": 45.33255}}, {"id": 3169253, "name": "Rivarolo Canavese", "country": "IT", "coord": {"lon": 7.71702, "lat": 45.33115}}, {"id": 3169251, "name": "Rivarolo Ligure", "country": "IT", "coord": {"lon": 8.89367, "lat": 44.436829}}, {"id": 3169250, "name": "Rivarolo Mantovano", "country": "IT", "coord": {"lon": 10.43368, "lat": 45.069969}}, {"id": 3169252, "name": "Rivarolo del Re ed Uniti", "country": "IT", "coord": {"lon": 10.46978, "lat": 45.027969}}, {"id": 6535057, "name": "Rivarone", "country": "IT", "coord": {"lon": 8.71565, "lat": 44.97686}}, {"id": 6535417, "name": "Rivarossa", "country": "IT", "coord": {"lon": 7.71482, "lat": 45.251652}}, {"id": 3617052, "name": "Rivas", "country": "NI", "coord": {"lon": -85.826317, "lat": 11.43716}}, {"id": 6359344, "name": "Rivas-Vaciamadrid", "country": "ES", "coord": {"lon": -3.51701, "lat": 40.351089}}, {"id": 3169247, "name": "Rive", "country": "IT", "coord": {"lon": 8.41754, "lat": 45.214161}}, {"id": 3169246, "name": "Rive dArcano", "country": "IT", "coord": {"lon": 13.03222, "lat": 46.12722}}, {"id": 6434233, "name": "Rive-de-Gier", "country": "FR", "coord": {"lon": 4.61667, "lat": 45.533329}}, {"id": 2983408, "name": "Rive-de-Gier", "country": "FR", "coord": {"lon": 4.62131, "lat": 45.53067}}, {"id": 6428043, "name": "Rivedoux-Plage", "country": "FR", "coord": {"lon": -1.26667, "lat": 46.166672}}, {"id": 2983407, "name": "Rivedoux-Plage", "country": "FR", "coord": {"lon": -1.27093, "lat": 46.158539}}, {"id": 3169245, "name": "Rivello", "country": "IT", "coord": {"lon": 15.75607, "lat": 40.077999}}, {"id": 6554368, "name": "Rivenich", "country": "DE", "coord": {"lon": 6.85, "lat": 49.883301}}, {"id": 2846308, "name": "Rivenich", "country": "DE", "coord": {"lon": 6.85, "lat": 49.883331}}, {"id": 4405766, "name": "River Bend", "country": "US", "coord": {"lon": -94.394951, "lat": 39.17889}}, {"id": 4488102, "name": "River Bend", "country": "US", "coord": {"lon": -77.146896, "lat": 35.06905}}, {"id": 5230843, "name": "River Bluff Addition", "country": "US", "coord": {"lon": -98.065628, "lat": 43.733318}}, {"id": 2274288, "name": "River Cess", "country": "LR", "coord": {"lon": -9.58278, "lat": 5.46}}, {"id": 5103301, "name": "River Edge", "country": "US", "coord": {"lon": -74.039864, "lat": 40.928711}}, {"id": 5268986, "name": "River Falls", "country": "US", "coord": {"lon": -92.62381, "lat": 44.861359}}, {"id": 4907637, "name": "River Forest", "country": "US", "coord": {"lon": -87.81395, "lat": 41.897812}}, {"id": 2593120, "name": "River Gee County", "country": "LR", "coord": {"lon": -7.91667, "lat": 5.25}}, {"id": 4907649, "name": "River Grove", "country": "US", "coord": {"lon": -87.835892, "lat": 41.925861}}, {"id": 6122657, "name": "River Hebert", "country": "CA", "coord": {"lon": -64.38205, "lat": 45.683449}}, {"id": 5780517, "name": "River Heights", "country": "US", "coord": {"lon": -111.821327, "lat": 41.7216}}, {"id": 5269003, "name": "River Hills", "country": "US", "coord": {"lon": -87.924248, "lat": 43.174179}}, {"id": 6122675, "name": "River John", "country": "CA", "coord": {"lon": -63.04866, "lat": 45.750149}}, {"id": 408664, "name": "River Nile State", "country": "SD", "coord": {"lon": 33.200001, "lat": 19}}, {"id": 4722925, "name": "River Oaks", "country": "US", "coord": {"lon": -97.394463, "lat": 32.777069}}, {"id": 4086183, "name": "River Park", "country": "US", "coord": {"lon": -87.811928, "lat": 30.45075}}, {"id": 4170092, "name": "River Park", "country": "US", "coord": {"lon": -80.347267, "lat": 27.314211}}, {"id": 4338818, "name": "River Ridge", "country": "US", "coord": {"lon": -90.21563, "lat": 29.960199}}, {"id": 4488122, "name": "River Road", "country": "US", "coord": {"lon": -76.990784, "lat": 35.506828}}, {"id": 5007247, "name": "River Rouge", "country": "US", "coord": {"lon": -83.134369, "lat": 42.273369}}, {"id": 5103310, "name": "River Vale", "country": "US", "coord": {"lon": -74.012077, "lat": 40.99538}}, {"id": 6122754, "name": "River Valley", "country": "CA", "coord": {"lon": -80.182991, "lat": 46.583389}}, {"id": 5208454, "name": "River View Park", "country": "US", "coord": {"lon": -75.958817, "lat": 40.39259}}, {"id": 6122690, "name": "River of Ponds", "country": "CA", "coord": {"lon": -57.398232, "lat": 50.53336}}, {"id": 3440781, "name": "Rivera", "country": "UY", "coord": {"lon": -55.550758, "lat": -30.90534}}, {"id": 3838741, "name": "Rivera", "country": "AR", "coord": {"lon": -63.24464, "lat": -37.158951}}, {"id": 3670692, "name": "Rivera", "country": "CO", "coord": {"lon": -75.256416, "lat": 2.77717}}, {"id": 5387844, "name": "Riverbank", "country": "US", "coord": {"lon": -120.935493, "lat": 37.736038}}, {"id": 5808402, "name": "Riverbend", "country": "US", "coord": {"lon": -121.750389, "lat": 47.466492}}, {"id": 5436536, "name": "Riverdale", "country": "US", "coord": {"lon": -103.316597, "lat": 38.05862}}, {"id": 4219001, "name": "Riverdale", "country": "US", "coord": {"lon": -84.413261, "lat": 33.572609}}, {"id": 4907683, "name": "Riverdale", "country": "US", "coord": {"lon": -87.633102, "lat": 41.633369}}, {"id": 5103313, "name": "Riverdale", "country": "US", "coord": {"lon": -74.303482, "lat": 40.993992}}, {"id": 5387854, "name": "Riverdale", "country": "US", "coord": {"lon": -119.859581, "lat": 36.431061}}, {"id": 5780531, "name": "Riverdale", "country": "US", "coord": {"lon": -112.00383, "lat": 41.176891}}, {"id": 4366919, "name": "Riverdale Park", "country": "US", "coord": {"lon": -76.931641, "lat": 38.96344}}, {"id": 5387865, "name": "Riverdale Park", "country": "US", "coord": {"lon": -121.05188, "lat": 37.609379}}, {"id": 4592996, "name": "Riverdowns", "country": "US", "coord": {"lon": -82.271782, "lat": 34.900669}}, {"id": 3169243, "name": "Rivergaro", "country": "IT", "coord": {"lon": 9.59727, "lat": 44.909561}}, {"id": 6122645, "name": "Riverhead", "country": "CA", "coord": {"lon": -53.08416, "lat": 47.88599}}, {"id": 5133926, "name": "Riverhead", "country": "US", "coord": {"lon": -72.662041, "lat": 40.917042}}, {"id": 6122668, "name": "Riverhurst", "country": "CA", "coord": {"lon": -106.867973, "lat": 50.900059}}, {"id": 6554788, "name": "Riveris", "country": "DE", "coord": {"lon": 6.76667, "lat": 49.716702}}, {"id": 2846307, "name": "Riveris", "country": "DE", "coord": {"lon": 6.76667, "lat": 49.716671}}, {"id": 6243932, "name": "Riverlands", "country": "NZ", "coord": {"lon": 173.980179, "lat": -41.51828}}, {"id": 6122707, "name": "Rivers", "country": "CA", "coord": {"lon": -100.240288, "lat": 50.030811}}, {"id": 2324433, "name": "Rivers State", "country": "NG", "coord": {"lon": 6.82766, "lat": 4.74974}}, {"id": 961152, "name": "Riversdale", "country": "ZA", "coord": {"lon": 21.25725, "lat": -34.093449}}, {"id": 6122709, "name": "Riversdale", "country": "CA", "coord": {"lon": -63.04866, "lat": 45.416851}}, {"id": 2183411, "name": "Riversdale", "country": "NZ", "coord": {"lon": 168.75, "lat": -45.900002}}, {"id": 3310813, "name": "Riversdale", "country": "IE", "coord": {"lon": -8.19583, "lat": 54.003609}}, {"id": 3488809, "name": "Riversdale", "country": "JM", "coord": {"lon": -76.964172, "lat": 18.165859}}, {"id": 6230948, "name": "Riverside", "country": "NZ", "coord": {"lon": 174.320175, "lat": -35.718182}}, {"id": 4522586, "name": "Riverside", "country": "US", "coord": {"lon": -84.1241, "lat": 39.779781}}, {"id": 5387877, "name": "Riverside", "country": "US", "coord": {"lon": -117.396156, "lat": 33.95335}}, {"id": 4086224, "name": "Riverside", "country": "US", "coord": {"lon": -86.204422, "lat": 33.606209}}, {"id": 4366929, "name": "Riverside", "country": "US", "coord": {"lon": -76.241341, "lat": 39.473721}}, {"id": 4366930, "name": "Riverside", "country": "US", "coord": {"lon": -76.885246, "lat": 39.173439}}, {"id": 4405794, "name": "Riverside", "country": "US", "coord": {"lon": -90.380119, "lat": 38.28672}}, {"id": 4405795, "name": "Riverside", "country": "US", "coord": {"lon": -94.613007, "lat": 39.177502}}, {"id": 4841527, "name": "Riverside", "country": "US", "coord": {"lon": -73.578178, "lat": 41.03371}}, {"id": 4907706, "name": "Riverside", "country": "US", "coord": {"lon": -87.822838, "lat": 41.83503}}, {"id": 5133934, "name": "Riverside", "country": "US", "coord": {"lon": -72.677872, "lat": 40.88121}}, {"id": 5208462, "name": "Riverside", "country": "US", "coord": {"lon": -76.628853, "lat": 40.95536}}, {"id": 5387890, "name": "Riverside County", "country": "US", "coord": {"lon": -116.050827, "lat": 33.733349}}, {"id": 4405799, "name": "Riverside Inn", "country": "US", "coord": {"lon": -94.428551, "lat": 36.567299}}, {"id": 7121193, "name": "Riverside Mobile Home Court", "country": "US", "coord": {"lon": -93.416672, "lat": 48.602779}}, {"id": 2151528, "name": "Riverslea", "country": "AU", "coord": {"lon": 146.949997, "lat": -38}}, {"id": 2961792, "name": "Riverstick", "country": "IE", "coord": {"lon": -8.49778, "lat": 51.7775}}, {"id": 2151522, "name": "Riverstone", "country": "AU", "coord": {"lon": 150.866669, "lat": -33.683331}}, {"id": 2961787, "name": "Riverstown", "country": "IE", "coord": {"lon": -8.39444, "lat": 54.131672}}, {"id": 6122750, "name": "Riverton", "country": "CA", "coord": {"lon": -96.996758, "lat": 50.99831}}, {"id": 2206957, "name": "Riverton", "country": "NZ", "coord": {"lon": 168.016663, "lat": -46.349998}}, {"id": 5780557, "name": "Riverton", "country": "US", "coord": {"lon": -111.939102, "lat": 40.521889}}, {"id": 4248205, "name": "Riverton", "country": "US", "coord": {"lon": -89.539543, "lat": 39.844219}}, {"id": 5103334, "name": "Riverton", "country": "US", "coord": {"lon": -74.996841, "lat": 40.00845}}, {"id": 5103335, "name": "Riverton", "country": "US", "coord": {"lon": -75.014893, "lat": 40.011501}}, {"id": 5808432, "name": "Riverton", "country": "US", "coord": {"lon": -122.294571, "lat": 47.484268}}, {"id": 5836665, "name": "Riverton", "country": "US", "coord": {"lon": -108.380096, "lat": 43.02496}}, {"id": 6122758, "name": "Riverview", "country": "CA", "coord": {"lon": -64.815971, "lat": 46.05455}}, {"id": 4170156, "name": "Riverview", "country": "US", "coord": {"lon": -82.326477, "lat": 27.86614}}, {"id": 2151513, "name": "Riverview", "country": "AU", "coord": {"lon": 152.850006, "lat": -27.6}}, {"id": 4144338, "name": "Riverview", "country": "US", "coord": {"lon": -75.510757, "lat": 39.026501}}, {"id": 4405815, "name": "Riverview", "country": "US", "coord": {"lon": -93.069641, "lat": 38.27586}}, {"id": 4405816, "name": "Riverview", "country": "US", "coord": {"lon": -90.211502, "lat": 38.747829}}, {"id": 5007323, "name": "Riverview", "country": "US", "coord": {"lon": -83.179367, "lat": 42.17421}}, {"id": 6332453, "name": "Riverview Terrace", "country": "US", "coord": {"lon": -96.577782, "lat": 47.761108}}, {"id": 2206009, "name": "Riverwood", "country": "AU", "coord": {"lon": 151.050003, "lat": -33.950001}}, {"id": 4907762, "name": "Riverwoods", "country": "US", "coord": {"lon": -87.897011, "lat": 42.16753}}, {"id": 6444706, "name": "Rivery", "country": "FR", "coord": {"lon": 2.3273, "lat": 49.902302}}, {"id": 2983397, "name": "Rivery", "country": "FR", "coord": {"lon": 2.32235, "lat": 49.903278}}, {"id": 6454085, "name": "Rives", "country": "FR", "coord": {"lon": 5.5, "lat": 45.349998}}, {"id": 2983395, "name": "Rives", "country": "FR", "coord": {"lon": 5.49926, "lat": 45.355049}}, {"id": 5007331, "name": "Rives Junction", "country": "US", "coord": {"lon": -84.461632, "lat": 42.385872}}, {"id": 6441017, "name": "Rivesaltes", "country": "FR", "coord": {"lon": 2.86667, "lat": 42.76667}}, {"id": 2983393, "name": "Rivesaltes", "country": "FR", "coord": {"lon": 2.87239, "lat": 42.769451}}, {"id": 4170174, "name": "Riviera Beach", "country": "US", "coord": {"lon": -80.058098, "lat": 26.775339}}, {"id": 4366966, "name": "Riviera Beach", "country": "US", "coord": {"lon": -76.508018, "lat": 39.166779}}, {"id": 2983387, "name": "Riviere", "country": "FR", "coord": {"lon": 2.692, "lat": 50.233158}}, {"id": 934095, "name": "Riviere des Anguilles", "country": "MU", "coord": {"lon": 57.550831, "lat": -20.485279}}, {"id": 934091, "name": "Riviere du Rempart", "country": "MU", "coord": {"lon": 57.684719, "lat": -20.10306}}, {"id": 3569970, "name": "Riviere-Pilote", "country": "MQ", "coord": {"lon": -60.9035, "lat": 14.47746}}, {"id": 6124931, "name": "Riviere-Rouge", "country": "CA", "coord": {"lon": -74.865959, "lat": 46.41679}}, {"id": 2983381, "name": "Riviere-Saas-et-Gourby", "country": "FR", "coord": {"lon": -1.14986, "lat": 43.679901}}, {"id": 6943832, "name": "Riviere-au-Renard", "country": "CA", "coord": {"lon": -64.397133, "lat": 48.995708}}, {"id": 6354897, "name": "Riviere-du-Loup", "country": "CA", "coord": {"lon": -69.534187, "lat": 47.830441}}, {"id": 2983382, "name": "Rivieres", "country": "FR", "coord": {"lon": 0.36128, "lat": 45.752949}}, {"id": 3169238, "name": "Rivignano", "country": "IT", "coord": {"lon": 13.04056, "lat": 45.877499}}, {"id": 6355796, "name": "Rivilla de Barajas", "country": "ES", "coord": {"lon": -5.01409, "lat": 40.876019}}, {"id": 3111569, "name": "Rivilla de Barajas", "country": "ES", "coord": {"lon": -4.98836, "lat": 40.9021}}, {"id": 6535646, "name": "Rivisondoli", "country": "IT", "coord": {"lon": 14.06671, "lat": 41.870232}}, {"id": 3569976, "name": "Rivi\u00e8re", "country": "MQ", "coord": {"lon": -60.849998, "lat": 14.46667}}, {"id": 6439829, "name": "Rivi\u00e8re", "country": "FR", "coord": {"lon": 2.68333, "lat": 50.23333}}, {"id": 935300, "name": "Rivi\u00e8re du M\u00e2t-les Bas", "country": "RE", "coord": {"lon": 55.68718, "lat": -20.974859}}, {"id": 934092, "name": "Rivi\u00e8re du Poste", "country": "MU", "coord": {"lon": 57.56694, "lat": -20.42417}}, {"id": 934090, "name": "Rivi\u00e8re du Rempart District", "country": "MU", "coord": {"lon": 57.64167, "lat": -20.058331}}, {"id": 6123156, "name": "Rivi\u00e8re-Beaudette", "country": "CA", "coord": {"lon": -74.33255, "lat": 45.233391}}, {"id": 6124776, "name": "Rivi\u00e8re-Pentec\u00f4te", "country": "CA", "coord": {"lon": -67.16552, "lat": 49.78339}}, {"id": 6124815, "name": "Rivi\u00e8re-Pigou", "country": "CA", "coord": {"lon": -65.582031, "lat": 50.2668}}, {"id": 6433944, "name": "Rivi\u00e8re-Saas-et-Gourby", "country": "FR", "coord": {"lon": -1.13333, "lat": 43.683331}}, {"id": 6690672, "name": "Rivi\u00e8re-Sal\u00e9e", "country": "MQ", "coord": {"lon": -60.9814, "lat": 14.5289}}, {"id": 3569967, "name": "Rivi\u00e8re-Sal\u00e9e", "country": "MQ", "coord": {"lon": -60.97813, "lat": 14.52724}}, {"id": 6123007, "name": "Rivi\u00e8re-au-Tonnerre", "country": "CA", "coord": {"lon": -64.782043, "lat": 50.266819}}, {"id": 6122789, "name": "Rivi\u00e8re-\u00e0-Claude", "country": "CA", "coord": {"lon": -65.898773, "lat": 49.216789}}, {"id": 6122923, "name": "Rivi\u00e8re-\u00e0-Pierre", "country": "CA", "coord": {"lon": -72.182381, "lat": 46.98336}}, {"id": 6427812, "name": "Rivi\u00e8res", "country": "FR", "coord": {"lon": 0.35, "lat": 45.75}}, {"id": 7046809, "name": "Rivne", "country": "UA", "coord": {"lon": 34.757729, "lat": 46.360168}}, {"id": 695594, "name": "Rivne", "country": "UA", "coord": {"lon": 26.22743, "lat": 50.623081}}, {"id": 695365, "name": "Rivne", "country": "UA", "coord": {"lon": 31.75432, "lat": 48.247421}}, {"id": 695592, "name": "Rivnens\u2019ka Oblast\u2019", "country": "UA", "coord": {"lon": 26.5, "lat": 51}}, {"id": 3169235, "name": "Rivodutri", "country": "IT", "coord": {"lon": 12.85498, "lat": 42.51643}}, {"id": 6539902, "name": "Rivoli", "country": "IT", "coord": {"lon": 7.52622, "lat": 45.071548}}, {"id": 3169231, "name": "Rivoli", "country": "IT", "coord": {"lon": 7.52622, "lat": 45.071548}}, {"id": 6534999, "name": "Rivoli Veronese", "country": "IT", "coord": {"lon": 10.81178, "lat": 45.572491}}, {"id": 3169228, "name": "Rivolta dAdda", "country": "IT", "coord": {"lon": 9.51145, "lat": 45.470169}}, {"id": 6957760, "name": "Rivreulle", "country": "BE", "coord": {"lon": 4.11667, "lat": 50.349998}}, {"id": 6426286, "name": "Riv\u00e8renert", "country": "FR", "coord": {"lon": 1.23333, "lat": 42.966671}}, {"id": 2983402, "name": "Riv\u00e8renert", "country": "FR", "coord": {"lon": 1.22911, "lat": 42.957161}}, {"id": 2183406, "name": "Riwaka", "country": "NZ", "coord": {"lon": 173, "lat": -41.083328}}, {"id": 2787990, "name": "Rixensart", "country": "BE", "coord": {"lon": 4.53333, "lat": 50.716671}}, {"id": 2787989, "name": "Rixensart", "country": "BE", "coord": {"lon": 4.52529, "lat": 50.712292}}, {"id": 6441587, "name": "Rixheim", "country": "FR", "coord": {"lon": 7.4051, "lat": 47.7486}}, {"id": 2983369, "name": "Rixheim", "country": "FR", "coord": {"lon": 7.40091, "lat": 47.7514}}, {"id": 1797136, "name": "Rixinhe", "country": "CN", "coord": {"lon": 121.679718, "lat": 31.922501}}, {"id": 7413208, "name": "Rixiuma", "country": "CN", "coord": {"lon": 102.005463, "lat": 35.6157}}, {"id": 108410, "name": "Riyadh", "country": "SA", "coord": {"lon": 46.721851, "lat": 24.687731}}, {"id": 1691682, "name": "Rizal", "country": "PH", "coord": {"lon": 121.099998, "lat": 15.68333}}, {"id": 1691606, "name": "Rizal", "country": "PH", "coord": {"lon": 121.106102, "lat": 15.7118}}, {"id": 1691592, "name": "Rizal", "country": "PH", "coord": {"lon": 121.346603, "lat": 17.8486}}, {"id": 1691597, "name": "Rizal", "country": "PH", "coord": {"lon": 121.555283, "lat": 16.718611}}, {"id": 1691612, "name": "Rizal", "country": "PH", "coord": {"lon": 121.391296, "lat": 14.1095}}, {"id": 1691614, "name": "Rizal", "country": "PH", "coord": {"lon": 122.283333, "lat": 13.95}}, {"id": 1691618, "name": "Rizal", "country": "PH", "coord": {"lon": 121.158607, "lat": 13.88361}}, {"id": 1691625, "name": "Rizal", "country": "PH", "coord": {"lon": 123.914169, "lat": 12.97722}}, {"id": 1691626, "name": "Rizal", "country": "PH", "coord": {"lon": 124.1343, "lat": 12.8864}}, {"id": 1691629, "name": "Rizal", "country": "PH", "coord": {"lon": 120.966667, "lat": 12.46667}}, {"id": 1691642, "name": "Rizal", "country": "PH", "coord": {"lon": 122.860703, "lat": 11.4454}}, {"id": 1691645, "name": "Rizal", "country": "PH", "coord": {"lon": 124.579437, "lat": 11.17639}}, {"id": 1691654, "name": "Rizal", "country": "PH", "coord": {"lon": 123.421944, "lat": 10.87528}}, {"id": 1691662, "name": "Rizal", "country": "PH", "coord": {"lon": 122.633331, "lat": 10.68333}}, {"id": 1691673, "name": "Rizal", "country": "PH", "coord": {"lon": 125.483887, "lat": 9.78056}}, {"id": 1691674, "name": "Rizal", "country": "PH", "coord": {"lon": 125.398613, "lat": 8.92917}}, {"id": 1710041, "name": "Rizal", "country": "PH", "coord": {"lon": 122.36972, "lat": 14.7125}}, {"id": 734391, "name": "Rizarion", "country": "GR", "coord": {"lon": 22.083891, "lat": 40.78722}}, {"id": 740483, "name": "Rize", "country": "TR", "coord": {"lon": 40.521938, "lat": 41.020828}}, {"id": 740481, "name": "Rize", "country": "TR", "coord": {"lon": 40.89489, "lat": 40.90443}}, {"id": 1795247, "name": "Rizhao", "country": "CN", "coord": {"lon": 119.54583, "lat": 35.390282}}, {"id": 1797132, "name": "Rizhao", "country": "CN", "coord": {"lon": 119.455276, "lat": 35.427502}}, {"id": 734389, "name": "Rizia", "country": "GR", "coord": {"lon": 26.433331, "lat": 41.616669}}, {"id": 146105, "name": "Rizokarpaso", "country": "CY", "coord": {"lon": 34.375, "lat": 35.599998}}, {"id": 254286, "name": "Rizoma", "country": "GR", "coord": {"lon": 21.735001, "lat": 39.665001}}, {"id": 734386, "name": "Rizomata", "country": "GR", "coord": {"lon": 22.203609, "lat": 40.347221}}, {"id": 254283, "name": "Rizomilos", "country": "GR", "coord": {"lon": 22.75, "lat": 39.433331}}, {"id": 734385, "name": "Rizon", "country": "GR", "coord": {"lon": 22.13583, "lat": 40.733891}}, {"id": 2523608, "name": "Rizziconi", "country": "IT", "coord": {"lon": 15.9582, "lat": 38.410782}}, {"id": 2846444, "name": "Ri\u00dfmannsdorf", "country": "DE", "coord": {"lon": 12.65, "lat": 49.083328}}, {"id": 6355358, "name": "Ri\u00f3par", "country": "ES", "coord": {"lon": -2.43553, "lat": 38.47147}}, {"id": 6359888, "name": "Ri\u00f3s", "country": "ES", "coord": {"lon": -7.2464, "lat": 41.965851}}, {"id": 3263542, "name": "Ri\u0111u\u0161i\u0107a Han", "country": "BA", "coord": {"lon": 17.84833, "lat": 43.28833}}, {"id": 3191612, "name": "Rjav\u010de", "country": "SI", "coord": {"lon": 14.1, "lat": 45.589722}}, {"id": 3141682, "name": "Rjukan", "country": "NO", "coord": {"lon": 8.59411, "lat": 59.87891}}, {"id": 3169220, "name": "Ro", "country": "IT", "coord": {"lon": 11.75621, "lat": 44.946781}}, {"id": 6356572, "name": "Roa", "country": "ES", "coord": {"lon": -3.92445, "lat": 41.713249}}, {"id": 3111567, "name": "Roa", "country": "ES", "coord": {"lon": -3.92782, "lat": 41.696991}}, {"id": 7337833, "name": "Roa", "country": "ID", "coord": {"lon": 121.7183, "lat": -8.7568}}, {"id": 3141671, "name": "Roa", "country": "NO", "coord": {"lon": 10.61585, "lat": 60.290932}}, {"id": 6125327, "name": "Roach", "country": "CA", "coord": {"lon": -66.932182, "lat": 45.666821}}, {"id": 3577430, "name": "Road Town", "country": "VG", "coord": {"lon": -64.616669, "lat": 18.41667}}, {"id": 2639296, "name": "Roade", "country": "GB", "coord": {"lon": -0.89745, "lat": 52.158241}}, {"id": 2151505, "name": "Roadvale", "country": "AU", "coord": {"lon": 152.683334, "lat": -27.91667}}, {"id": 6432357, "name": "Roaillan", "country": "FR", "coord": {"lon": -0.28333, "lat": 44.5}}, {"id": 2983365, "name": "Roaillan", "country": "FR", "coord": {"lon": -0.28209, "lat": 44.49844}}, {"id": 3141667, "name": "Roald", "country": "NO", "coord": {"lon": 6.13333, "lat": 62.583328}}, {"id": 6362612, "name": "Roales", "country": "ES", "coord": {"lon": -5.78125, "lat": 41.549541}}, {"id": 3111565, "name": "Roales", "country": "ES", "coord": {"lon": -5.77211, "lat": 41.551701}}, {"id": 5168341, "name": "Roaming Shores", "country": "US", "coord": {"lon": -80.823418, "lat": 41.643108}}, {"id": 7626376, "name": "Roan", "country": "NO", "coord": {"lon": 10.22898, "lat": 64.172691}}, {"id": 4653451, "name": "Roan Mountain", "country": "US", "coord": {"lon": -82.070396, "lat": 36.196232}}, {"id": 3169218, "name": "Roana", "country": "IT", "coord": {"lon": 11.46239, "lat": 45.882401}}, {"id": 6613992, "name": "Roanne", "country": "FR", "coord": {"lon": 4.06667, "lat": 46.033329}}, {"id": 2983362, "name": "Roanne", "country": "FR", "coord": {"lon": 4.06667, "lat": 46.033329}}, {"id": 6427615, "name": "Roannes-Saint-Mary", "country": "FR", "coord": {"lon": 2.4, "lat": 44.849998}}, {"id": 2983357, "name": "Roannes-Saint-Mary", "country": "FR", "coord": {"lon": 2.39234, "lat": 44.856129}}, {"id": 4782167, "name": "Roanoke", "country": "US", "coord": {"lon": -79.941429, "lat": 37.270969}}, {"id": 4086285, "name": "Roanoke", "country": "US", "coord": {"lon": -85.372169, "lat": 33.15123}}, {"id": 4723024, "name": "Roanoke", "country": "US", "coord": {"lon": -97.225853, "lat": 33.004009}}, {"id": 4907773, "name": "Roanoke", "country": "US", "coord": {"lon": -89.197304, "lat": 40.79615}}, {"id": 4925483, "name": "Roanoke", "country": "US", "coord": {"lon": -85.373306, "lat": 40.962551}}, {"id": 4782181, "name": "Roanoke County", "country": "US", "coord": {"lon": -80.049759, "lat": 37.28347}}, {"id": 4488232, "name": "Roanoke Rapids", "country": "US", "coord": {"lon": -77.654152, "lat": 36.46154}}, {"id": 5208552, "name": "Roaring Spring", "country": "US", "coord": {"lon": -78.390846, "lat": 40.335911}}, {"id": 3169217, "name": "Roaro", "country": "IT", "coord": {"lon": 11.51667, "lat": 45.23333}}, {"id": 6535482, "name": "Roaschia", "country": "IT", "coord": {"lon": 7.45573, "lat": 44.270229}}, {"id": 6534299, "name": "Roascio", "country": "IT", "coord": {"lon": 8.02234, "lat": 44.417141}}, {"id": 3169216, "name": "Roasio", "country": "IT", "coord": {"lon": 8.28482, "lat": 45.604568}}, {"id": 668799, "name": "Roata de Jos", "country": "RO", "coord": {"lon": 25.543329, "lat": 44.410831}}, {"id": 3602736, "name": "Roatan", "country": "HN", "coord": {"lon": -86.53656, "lat": 16.324369}}, {"id": 6534342, "name": "Roatto", "country": "IT", "coord": {"lon": 8.02693, "lat": 44.952049}}, {"id": 2151467, "name": "Rob Roy", "country": "AU", "coord": {"lon": 151.016663, "lat": -29.75}}, {"id": 603304, "name": "Roback", "country": "SE", "coord": {"lon": 20.18326, "lat": 63.811588}}, {"id": 3169215, "name": "Robassomero", "country": "IT", "coord": {"lon": 7.56892, "lat": 45.20005}}, {"id": 118367, "name": "Robat Karim", "country": "IR", "coord": {"lon": 51.082901, "lat": 35.4846}}, {"id": 2483000, "name": "Robbah", "country": "DZ", "coord": {"lon": 6.90984, "lat": 33.279659}}, {"id": 3169213, "name": "Robbiate", "country": "IT", "coord": {"lon": 9.43685, "lat": 45.691479}}, {"id": 4488289, "name": "Robbins", "country": "US", "coord": {"lon": -79.586967, "lat": 35.434029}}, {"id": 4907786, "name": "Robbins", "country": "US", "coord": {"lon": -87.703659, "lat": 41.643921}}, {"id": 5043439, "name": "Robbinsdale", "country": "US", "coord": {"lon": -93.338562, "lat": 45.032188}}, {"id": 4488298, "name": "Robbinsville", "country": "US", "coord": {"lon": -83.807404, "lat": 35.322868}}, {"id": 5103354, "name": "Robbinsville", "country": "US", "coord": {"lon": -74.619324, "lat": 40.21455}}, {"id": 3169212, "name": "Robbio", "country": "IT", "coord": {"lon": 8.59114, "lat": 45.290562}}, {"id": 7839456, "name": "Robe", "country": "AU", "coord": {"lon": 139.990036, "lat": -37.186161}}, {"id": 2062381, "name": "Robe", "country": "AU", "coord": {"lon": 139.75, "lat": -37.183331}}, {"id": 668788, "name": "Robeasca", "country": "RO", "coord": {"lon": 27.133329, "lat": 45.166672}}, {"id": 3169211, "name": "Robecchetto con Induno", "country": "IT", "coord": {"lon": 8.76694, "lat": 45.52927}}, {"id": 6534580, "name": "Robecco Pavese", "country": "IT", "coord": {"lon": 9.15015, "lat": 45.048359}}, {"id": 3169210, "name": "Robecco dOglio", "country": "IT", "coord": {"lon": 10.07657, "lat": 45.259369}}, {"id": 3169209, "name": "Robecco sul Naviglio", "country": "IT", "coord": {"lon": 8.88554, "lat": 45.439072}}, {"id": 6439830, "name": "Robecq", "country": "FR", "coord": {"lon": 2.56667, "lat": 50.599998}}, {"id": 2983354, "name": "Robecq", "country": "FR", "coord": {"lon": 2.56262, "lat": 50.596081}}, {"id": 2983353, "name": "Robehomme", "country": "FR", "coord": {"lon": -0.15487, "lat": 49.230801}}, {"id": 2846286, "name": "Robel", "country": "DE", "coord": {"lon": 12.60372, "lat": 53.375549}}, {"id": 6534343, "name": "Robella", "country": "IT", "coord": {"lon": 8.10193, "lat": 45.10165}}, {"id": 2846282, "name": "Roben", "country": "DE", "coord": {"lon": 12.05, "lat": 50.950001}}, {"id": 2787968, "name": "Robermont", "country": "BE", "coord": {"lon": 5.60578, "lat": 50.62756}}, {"id": 4488314, "name": "Robersonville", "country": "US", "coord": {"lon": -77.24913, "lat": 35.825161}}, {"id": 5529397, "name": "Robert Lee", "country": "US", "coord": {"lon": -100.484818, "lat": 31.89237}}, {"id": 4219161, "name": "Roberta", "country": "US", "coord": {"lon": -84.013237, "lat": 32.721809}}, {"id": 5269165, "name": "Roberts", "country": "US", "coord": {"lon": -92.55603, "lat": 44.98386}}, {"id": 5748638, "name": "Roberts", "country": "US", "coord": {"lon": -120.684731, "lat": 44.081242}}, {"id": 5230872, "name": "Roberts County", "country": "US", "coord": {"lon": -96.983688, "lat": 45.516628}}, {"id": 5529403, "name": "Roberts County", "country": "US", "coord": {"lon": -100.817093, "lat": 35.85004}}, {"id": 6125519, "name": "Roberts Creek", "country": "CA", "coord": {"lon": -123.646919, "lat": 49.423931}}, {"id": 2787964, "name": "Robertsart", "country": "BE", "coord": {"lon": 3.70909, "lat": 50.548512}}, {"id": 2639282, "name": "Robertsbridge", "country": "GB", "coord": {"lon": 0.47253, "lat": 50.985691}}, {"id": 4086363, "name": "Robertsdale", "country": "US", "coord": {"lon": -87.711929, "lat": 30.553801}}, {"id": 603303, "name": "Robertsfors", "country": "SE", "coord": {"lon": 20.848061, "lat": 64.193237}}, {"id": 1258111, "name": "Robertsganj", "country": "IN", "coord": {"lon": 83.066673, "lat": 24.700001}}, {"id": 3362349, "name": "Robertson", "country": "ZA", "coord": {"lon": 19.88537, "lat": -33.803421}}, {"id": 2151485, "name": "Robertson", "country": "AU", "coord": {"lon": 150.600006, "lat": -34.583328}}, {"id": 4723147, "name": "Robertson County", "country": "US", "coord": {"lon": -96.500801, "lat": 31.03352}}, {"id": 4653638, "name": "Robertson County", "country": "US", "coord": {"lon": -86.866661, "lat": 36.516708}}, {"id": 1258109, "name": "Robertsonpet", "country": "IN", "coord": {"lon": 78.283333, "lat": 12.96667}}, {"id": 2274275, "name": "Robertsport", "country": "LR", "coord": {"lon": -11.36861, "lat": 6.75333}}, {"id": 2062363, "name": "Robertstown", "country": "AU", "coord": {"lon": 139.066666, "lat": -34}}, {"id": 5103374, "name": "Robertsville", "country": "US", "coord": {"lon": -74.287918, "lat": 40.346218}}, {"id": 6125653, "name": "Roberval", "country": "CA", "coord": {"lon": -72.232437, "lat": 48.5168}}, {"id": 4488351, "name": "Robeson County", "country": "US", "coord": {"lon": -79.099762, "lat": 34.633499}}, {"id": 5208600, "name": "Robesonia", "country": "US", "coord": {"lon": -76.134392, "lat": 40.351761}}, {"id": 2151480, "name": "Robigana", "country": "AU", "coord": {"lon": 146.949997, "lat": -41.26667}}, {"id": 3169206, "name": "Robilante", "country": "IT", "coord": {"lon": 7.51243, "lat": 44.29353}}, {"id": 4873263, "name": "Robins", "country": "US", "coord": {"lon": -91.66684, "lat": 42.07111}}, {"id": 7260641, "name": "Robins Air Force Base", "country": "US", "coord": {"lon": -83.584442, "lat": 32.609112}}, {"id": 4248256, "name": "Robinson", "country": "US", "coord": {"lon": -87.739189, "lat": 39.005322}}, {"id": 4723165, "name": "Robinson", "country": "US", "coord": {"lon": -97.114723, "lat": 31.46767}}, {"id": 6125724, "name": "Robinson Corner", "country": "CA", "coord": {"lon": -64.282051, "lat": 45.050152}}, {"id": 2961775, "name": "Robinstown", "country": "IE", "coord": {"lon": -6.72861, "lat": 53.592499}}, {"id": 4367034, "name": "Robinwood", "country": "US", "coord": {"lon": -76.514679, "lat": 38.954281}}, {"id": 4367035, "name": "Robinwood", "country": "US", "coord": {"lon": -77.656937, "lat": 39.637039}}, {"id": 4367036, "name": "Robinwood", "country": "US", "coord": {"lon": -77.662498, "lat": 39.625}}, {"id": 6614191, "name": "Robion", "country": "FR", "coord": {"lon": 5.11667, "lat": 43.849998}}, {"id": 2983338, "name": "Robion", "country": "FR", "coord": {"lon": 5.10975, "lat": 43.847069}}, {"id": 329586, "name": "Robit", "country": "ET", "coord": {"lon": 39.633331, "lat": 12.01667}}, {"id": 6358673, "name": "Robla (La)", "country": "ES", "coord": {"lon": -5.6136, "lat": 42.80724}}, {"id": 6362259, "name": "Robladillo", "country": "ES", "coord": {"lon": -4.90429, "lat": 41.609619}}, {"id": 3111559, "name": "Robladillo", "country": "ES", "coord": {"lon": -4.90992, "lat": 41.608379}}, {"id": 6360508, "name": "Robleda", "country": "ES", "coord": {"lon": -6.6047, "lat": 40.385941}}, {"id": 3111557, "name": "Robleda", "country": "ES", "coord": {"lon": -6.60726, "lat": 40.384689}}, {"id": 6362613, "name": "Robleda-Cervantes", "country": "ES", "coord": {"lon": -6.60867, "lat": 42.076481}}, {"id": 3111556, "name": "Robleda-Cervantes", "country": "ES", "coord": {"lon": -6.59414, "lat": 42.082458}}, {"id": 6356851, "name": "Robledillo de Gata", "country": "ES", "coord": {"lon": -6.47074, "lat": 40.341438}}, {"id": 3111551, "name": "Robledillo de Gata", "country": "ES", "coord": {"lon": -6.47129, "lat": 40.322338}}, {"id": 6358007, "name": "Robledillo de Mohernando", "country": "ES", "coord": {"lon": -3.21036, "lat": 40.844082}}, {"id": 3111548, "name": "Robledillo de Mohernando", "country": "ES", "coord": {"lon": -3.23162, "lat": 40.851181}}, {"id": 6356853, "name": "Robledillo de Trujillo", "country": "ES", "coord": {"lon": -5.97458, "lat": 39.268551}}, {"id": 2511781, "name": "Robledillo de Trujillo", "country": "ES", "coord": {"lon": -5.98001, "lat": 39.269562}}, {"id": 6359345, "name": "Robledillo de la Jara", "country": "ES", "coord": {"lon": -3.52977, "lat": 40.949181}}, {"id": 3111550, "name": "Robledillo de la Jara", "country": "ES", "coord": {"lon": -3.52181, "lat": 40.950539}}, {"id": 6356852, "name": "Robledillo de la Vera", "country": "ES", "coord": {"lon": -5.57981, "lat": 40.08844}}, {"id": 3111549, "name": "Robledillo de la Vera", "country": "ES", "coord": {"lon": -5.58896, "lat": 40.100929}}, {"id": 6355359, "name": "Robledo", "country": "ES", "coord": {"lon": -2.40414, "lat": 38.780979}}, {"id": 2511779, "name": "Robledo", "country": "ES", "coord": {"lon": -2.45042, "lat": 38.758072}}, {"id": 6357192, "name": "Robledo (El)", "country": "ES", "coord": {"lon": -4.28938, "lat": 39.205978}}, {"id": 6359346, "name": "Robledo de Chavela", "country": "ES", "coord": {"lon": -4.23744, "lat": 40.491112}}, {"id": 3111525, "name": "Robledo de Chavela", "country": "ES", "coord": {"lon": -4.23635, "lat": 40.500622}}, {"id": 6358008, "name": "Robledo de Corpes", "country": "ES", "coord": {"lon": -2.9349, "lat": 41.117809}}, {"id": 3111524, "name": "Robledo de Corpes", "country": "ES", "coord": {"lon": -2.95, "lat": 41.118382}}, {"id": 3111522, "name": "Robledo de la Guzpe\u00f1a", "country": "ES", "coord": {"lon": -5.01667, "lat": 42.76667}}, {"id": 6356854, "name": "Robledollano", "country": "ES", "coord": {"lon": -5.53119, "lat": 39.630779}}, {"id": 2511774, "name": "Robledollano", "country": "ES", "coord": {"lon": -5.50855, "lat": 39.609619}}, {"id": 6125860, "name": "Roblin", "country": "CA", "coord": {"lon": -77.016144, "lat": 44.383419}}, {"id": 6125862, "name": "Roblin", "country": "CA", "coord": {"lon": -101.356499, "lat": 51.229988}}, {"id": 2846274, "name": "Roblingen am See", "country": "DE", "coord": {"lon": 11.66667, "lat": 51.450001}}, {"id": 6360509, "name": "Robliza de Cojos", "country": "ES", "coord": {"lon": -5.96869, "lat": 40.853588}}, {"id": 3111501, "name": "Robliza de Cojos", "country": "ES", "coord": {"lon": -5.97786, "lat": 40.867661}}, {"id": 1691806, "name": "Robonkon", "country": "PH", "coord": {"lon": 123.418701, "lat": 7.7535}}, {"id": 3444176, "name": "Robore", "country": "BO", "coord": {"lon": -59.75, "lat": -18.33333}}, {"id": 6359347, "name": "Robregordo", "country": "ES", "coord": {"lon": -3.60292, "lat": 41.121719}}, {"id": 3111494, "name": "Robregordo", "country": "ES", "coord": {"lon": -3.59369, "lat": 41.10656}}, {"id": 6358400, "name": "Robres", "country": "ES", "coord": {"lon": -0.48055, "lat": 41.861759}}, {"id": 3111493, "name": "Robres", "country": "ES", "coord": {"lon": -0.46094, "lat": 41.867458}}, {"id": 6359112, "name": "Robres del Castillo", "country": "ES", "coord": {"lon": -2.29222, "lat": 42.256771}}, {"id": 3111492, "name": "Robres del Castillo", "country": "ES", "coord": {"lon": -2.29245, "lat": 42.275928}}, {"id": 6125877, "name": "Robsart", "country": "CA", "coord": {"lon": -109.284767, "lat": 49.383339}}, {"id": 4723212, "name": "Robstown", "country": "US", "coord": {"lon": -97.668877, "lat": 27.7903}}, {"id": 6535483, "name": "Roburent", "country": "IT", "coord": {"lon": 7.89224, "lat": 44.306332}}, {"id": 5529438, "name": "Roby", "country": "US", "coord": {"lon": -100.377609, "lat": 32.744831}}, {"id": 6292432, "name": "Rob\u00e4nkli", "country": "CH", "coord": {"lon": 8.76409, "lat": 47.331532}}, {"id": 1166866, "name": "Rob\u0101r", "country": "PK", "coord": {"lon": 61.916668, "lat": 25.15}}, {"id": 3451017, "name": "Roca Sales", "country": "BR", "coord": {"lon": -51.8675, "lat": -29.28417}}, {"id": 6355980, "name": "Roca de la Sierra (La)", "country": "ES", "coord": {"lon": -6.65932, "lat": 39.084332}}, {"id": 6362081, "name": "Rocafort", "country": "ES", "coord": {"lon": -0.41203, "lat": 39.537289}}, {"id": 2511771, "name": "Rocafort", "country": "ES", "coord": {"lon": -0.4, "lat": 39.533329}}, {"id": 3652315, "name": "Rocafuerte", "country": "EC", "coord": {"lon": -80.433327, "lat": -0.91667}}, {"id": 3111483, "name": "Rocallaura", "country": "ES", "coord": {"lon": 1.14842, "lat": 41.506649}}, {"id": 3111482, "name": "Rocamundo", "country": "ES", "coord": {"lon": -3.94033, "lat": 42.806412}}, {"id": 6125913, "name": "Rocanville", "country": "CA", "coord": {"lon": -101.700943, "lat": 50.383301}}, {"id": 3111479, "name": "Rocas", "country": "ES", "coord": {"lon": -7.7, "lat": 42.333328}}, {"id": 6445057, "name": "Rocbaron", "country": "FR", "coord": {"lon": 6.08333, "lat": 43.299999}}, {"id": 2983332, "name": "Rocbaron", "country": "FR", "coord": {"lon": 6.09059, "lat": 43.304489}}, {"id": 3169198, "name": "Rocca Canavese", "country": "IT", "coord": {"lon": 7.57622, "lat": 45.30975}}, {"id": 6535048, "name": "Rocca Canterano", "country": "IT", "coord": {"lon": 13.02179, "lat": 41.95652}}, {"id": 6535484, "name": "Rocca Ciglie", "country": "IT", "coord": {"lon": 7.95094, "lat": 44.44524}}, {"id": 6535058, "name": "Rocca Grimalda", "country": "IT", "coord": {"lon": 8.64845, "lat": 44.671452}}, {"id": 3169172, "name": "Rocca Imperiale", "country": "IT", "coord": {"lon": 16.580191, "lat": 40.109711}}, {"id": 3169166, "name": "Rocca Massima", "country": "IT", "coord": {"lon": 12.91939, "lat": 41.679321}}, {"id": 3169157, "name": "Rocca Pia", "country": "IT", "coord": {"lon": 13.97701, "lat": 41.93343}}, {"id": 6543570, "name": "Rocca Pietore", "country": "IT", "coord": {"lon": 11.97679, "lat": 46.433922}}, {"id": 6535589, "name": "Rocca Pietore", "country": "IT", "coord": {"lon": 11.97679, "lat": 46.433922}}, {"id": 3169149, "name": "Rocca Priora", "country": "IT", "coord": {"lon": 12.74818, "lat": 41.778622}}, {"id": 3169140, "name": "Rocca San Casciano", "country": "IT", "coord": {"lon": 11.84313, "lat": 44.059158}}, {"id": 3169139, "name": "Rocca San Felice", "country": "IT", "coord": {"lon": 15.16515, "lat": 40.950321}}, {"id": 6535651, "name": "Rocca San Giovanni", "country": "IT", "coord": {"lon": 14.46162, "lat": 42.24604}}, {"id": 6535049, "name": "Rocca Santo Stefano", "country": "IT", "coord": {"lon": 13.02379, "lat": 41.910519}}, {"id": 3169131, "name": "Rocca Sinibalda", "country": "IT", "coord": {"lon": 12.92558, "lat": 42.274429}}, {"id": 6534344, "name": "Rocca dArazzo", "country": "IT", "coord": {"lon": 8.28464, "lat": 44.872051}}, {"id": 3169192, "name": "Rocca dArce", "country": "IT", "coord": {"lon": 13.58511, "lat": 41.58712}}, {"id": 3169188, "name": "Rocca dEvandro", "country": "IT", "coord": {"lon": 13.90812, "lat": 41.389019}}, {"id": 6534295, "name": "Rocca de Baldi", "country": "IT", "coord": {"lon": 7.76114, "lat": 44.42363}}, {"id": 3169187, "name": "Rocca di Botte", "country": "IT", "coord": {"lon": 13.06769, "lat": 42.026218}}, {"id": 3169186, "name": "Rocca di Cambio", "country": "IT", "coord": {"lon": 13.489, "lat": 42.23613}}, {"id": 3169185, "name": "Rocca di Cave", "country": "IT", "coord": {"lon": 12.94549, "lat": 41.84642}}, {"id": 3169182, "name": "Rocca di Mezzo", "country": "IT", "coord": {"lon": 13.5193, "lat": 42.204731}}, {"id": 2523603, "name": "Rocca di Neto", "country": "IT", "coord": {"lon": 17.008909, "lat": 39.184299}}, {"id": 3169181, "name": "Rocca di Papa", "country": "IT", "coord": {"lon": 12.70208, "lat": 41.769619}}, {"id": 6535640, "name": "Roccabascerana", "country": "IT", "coord": {"lon": 14.71684, "lat": 41.018421}}, {"id": 2523604, "name": "Roccabernarda", "country": "IT", "coord": {"lon": 16.87051, "lat": 39.135689}}, {"id": 3169199, "name": "Roccabianca", "country": "IT", "coord": {"lon": 10.21938, "lat": 45.009369}}, {"id": 6534370, "name": "Roccabruna", "country": "IT", "coord": {"lon": 7.34373, "lat": 44.474529}}, {"id": 3169197, "name": "Roccacasale", "country": "IT", "coord": {"lon": 13.8881, "lat": 42.122929}}, {"id": 3169191, "name": "Roccadaspide", "country": "IT", "coord": {"lon": 15.19206, "lat": 40.425411}}, {"id": 6535324, "name": "Roccafiorita", "country": "IT", "coord": {"lon": 15.26739, "lat": 37.930859}}, {"id": 3169178, "name": "Roccaforte Ligure", "country": "IT", "coord": {"lon": 9.02856, "lat": 44.677448}}, {"id": 3169177, "name": "Roccaforte Mondovi", "country": "IT", "coord": {"lon": 7.74474, "lat": 44.317928}}, {"id": 2523602, "name": "Roccaforte del Greco", "country": "IT", "coord": {"lon": 15.8947, "lat": 38.047272}}, {"id": 3169176, "name": "Roccaforzata", "country": "IT", "coord": {"lon": 17.389601, "lat": 40.43742}}, {"id": 3169175, "name": "Roccafranca", "country": "IT", "coord": {"lon": 9.91446, "lat": 45.464378}}, {"id": 3169174, "name": "Roccagiovine", "country": "IT", "coord": {"lon": 12.89938, "lat": 42.050018}}, {"id": 6537410, "name": "Roccagloriosa", "country": "IT", "coord": {"lon": 15.43557, "lat": 40.106998}}, {"id": 3169173, "name": "Roccagloriosa", "country": "IT", "coord": {"lon": 15.43557, "lat": 40.106998}}, {"id": 6535050, "name": "Roccagorga", "country": "IT", "coord": {"lon": 13.1551, "lat": 41.52512}}, {"id": 3169170, "name": "Roccalbegna", "country": "IT", "coord": {"lon": 11.50788, "lat": 42.786301}}, {"id": 2523601, "name": "Roccalumera", "country": "IT", "coord": {"lon": 15.39519, "lat": 37.976261}}, {"id": 3169167, "name": "Roccamandolfi", "country": "IT", "coord": {"lon": 14.35382, "lat": 41.49712}}, {"id": 2523600, "name": "Roccamena", "country": "IT", "coord": {"lon": 13.15474, "lat": 37.837238}}, {"id": 3169165, "name": "Roccamonfina", "country": "IT", "coord": {"lon": 13.98312, "lat": 41.288219}}, {"id": 6535648, "name": "Roccamorice", "country": "IT", "coord": {"lon": 14.02531, "lat": 42.212742}}, {"id": 3169161, "name": "Roccanova", "country": "IT", "coord": {"lon": 16.20318, "lat": 40.212009}}, {"id": 3169160, "name": "Roccantica", "country": "IT", "coord": {"lon": 12.69398, "lat": 42.320728}}, {"id": 2523599, "name": "Roccapalumba", "country": "IT", "coord": {"lon": 13.63846, "lat": 37.80595}}, {"id": 3169156, "name": "Roccapiemonte", "country": "IT", "coord": {"lon": 14.69264, "lat": 40.760712}}, {"id": 3169147, "name": "Roccarainola", "country": "IT", "coord": {"lon": 14.55984, "lat": 40.96941}}, {"id": 3169145, "name": "Roccaraso", "country": "IT", "coord": {"lon": 14.07841, "lat": 41.850128}}, {"id": 3169143, "name": "Roccaromana", "country": "IT", "coord": {"lon": 14.22132, "lat": 41.27412}}, {"id": 3169136, "name": "Roccascalegna", "country": "IT", "coord": {"lon": 14.30682, "lat": 42.062538}}, {"id": 3169135, "name": "Roccasecca", "country": "IT", "coord": {"lon": 13.66711, "lat": 41.551319}}, {"id": 3169133, "name": "Roccasecca dei Volsci", "country": "IT", "coord": {"lon": 13.2128, "lat": 41.478519}}, {"id": 3169132, "name": "Roccasicura", "country": "IT", "coord": {"lon": 14.23442, "lat": 41.696629}}, {"id": 6535485, "name": "Roccasparvera", "country": "IT", "coord": {"lon": 7.44153, "lat": 44.342129}}, {"id": 3169130, "name": "Roccaspinalveti", "country": "IT", "coord": {"lon": 14.47092, "lat": 41.942329}}, {"id": 6541108, "name": "Roccastrada", "country": "IT", "coord": {"lon": 11.16653, "lat": 43.00993}}, {"id": 3169128, "name": "Roccastrada", "country": "IT", "coord": {"lon": 11.16653, "lat": 43.00993}}, {"id": 2523597, "name": "Roccavaldina", "country": "IT", "coord": {"lon": 15.37269, "lat": 38.18327}}, {"id": 6535517, "name": "Roccaverano", "country": "IT", "coord": {"lon": 8.27214, "lat": 44.592239}}, {"id": 6534715, "name": "Roccavignale", "country": "IT", "coord": {"lon": 8.19055, "lat": 44.36124}}, {"id": 3169122, "name": "Roccavione", "country": "IT", "coord": {"lon": 7.48243, "lat": 44.314629}}, {"id": 3169121, "name": "Roccavivara", "country": "IT", "coord": {"lon": 14.59992, "lat": 41.834229}}, {"id": 2523595, "name": "Roccella Ionica", "country": "IT", "coord": {"lon": 16.400909, "lat": 38.32198}}, {"id": 2523594, "name": "Roccella Valdemone", "country": "IT", "coord": {"lon": 15.00968, "lat": 37.93346}}, {"id": 3169119, "name": "Rocchetta", "country": "IT", "coord": {"lon": 14.15722, "lat": 41.236519}}, {"id": 6534300, "name": "Rocchetta Belbo", "country": "IT", "coord": {"lon": 8.17534, "lat": 44.63604}}, {"id": 3169111, "name": "Rocchetta Ligure", "country": "IT", "coord": {"lon": 9.05046, "lat": 44.706551}}, {"id": 3169110, "name": "Rocchetta Nervina", "country": "IT", "coord": {"lon": 7.59964, "lat": 43.890621}}, {"id": 6535518, "name": "Rocchetta Palafea", "country": "IT", "coord": {"lon": 8.34534, "lat": 44.707439}}, {"id": 3169109, "name": "Rocchetta SantAntonio", "country": "IT", "coord": {"lon": 15.46175, "lat": 41.103519}}, {"id": 6535519, "name": "Rocchetta Tanaro", "country": "IT", "coord": {"lon": 8.34564, "lat": 44.85865}}, {"id": 3169113, "name": "Rocchetta a Volturno", "country": "IT", "coord": {"lon": 14.08902, "lat": 41.62582}}, {"id": 3169112, "name": "Rocchetta di Vara", "country": "IT", "coord": {"lon": 9.75788, "lat": 44.251148}}, {"id": 7780267, "name": "Rocek", "country": "ID", "coord": {"lon": 106.0476, "lat": -6.3571}}, {"id": 3111475, "name": "Rocha", "country": "ES", "coord": {"lon": -7.85, "lat": 43.049999}}, {"id": 3440777, "name": "Rocha", "country": "UY", "coord": {"lon": -54.333328, "lat": -34.48333}}, {"id": 6549534, "name": "Rochau", "country": "DE", "coord": {"lon": 11.75, "lat": 52.716702}}, {"id": 2846267, "name": "Rochau", "country": "DE", "coord": {"lon": 11.75, "lat": 52.716671}}, {"id": 2639272, "name": "Rochdale", "country": "GB", "coord": {"lon": -2.1552, "lat": 53.617661}}, {"id": 6616668, "name": "Roche", "country": "FR", "coord": {"lon": 5.1596, "lat": 45.5886}}, {"id": 2983320, "name": "Roche", "country": "FR", "coord": {"lon": 5.15965, "lat": 45.58709}}, {"id": 2639270, "name": "Roche", "country": "GB", "coord": {"lon": -4.83373, "lat": 50.408081}}, {"id": 934076, "name": "Roche Terre", "country": "MU", "coord": {"lon": 57.644718, "lat": -20.01861}}, {"id": 3717916, "name": "Roche-a-Bateau", "country": "HT", "coord": {"lon": -74, "lat": 18.183331}}, {"id": 6434397, "name": "Roche-en-R\u00e9gnier", "country": "FR", "coord": {"lon": 3.93333, "lat": 45.216671}}, {"id": 2983283, "name": "Roche-en-R\u00e9gnier", "country": "FR", "coord": {"lon": 3.94126, "lat": 45.221321}}, {"id": 2983251, "name": "Roche-la-Moliere", "country": "FR", "coord": {"lon": 4.32276, "lat": 45.434078}}, {"id": 6434234, "name": "Roche-la-Moli\u00e8re", "country": "FR", "coord": {"lon": 4.31667, "lat": 45.433331}}, {"id": 6125931, "name": "Rochebaucourt", "country": "CA", "coord": {"lon": -77.499481, "lat": 48.683491}}, {"id": 6445417, "name": "Rochechouart", "country": "FR", "coord": {"lon": 0.81667, "lat": 45.816669}}, {"id": 2983291, "name": "Rochechouart", "country": "FR", "coord": {"lon": 0.81667, "lat": 45.816669}}, {"id": 6433095, "name": "Rochecorbon", "country": "FR", "coord": {"lon": 0.75, "lat": 47.416672}}, {"id": 2983287, "name": "Rochecorbon", "country": "FR", "coord": {"lon": 0.75521, "lat": 47.41658}}, {"id": 2151457, "name": "Rochedale", "country": "AU", "coord": {"lon": 153.133331, "lat": -27.566669}}, {"id": 3451004, "name": "Rochedo", "country": "BR", "coord": {"lon": -54.892502, "lat": -19.95306}}, {"id": 3451001, "name": "Rochedo de Minas", "country": "BR", "coord": {"lon": -43.019718, "lat": -21.629721}}, {"id": 6428044, "name": "Rochefort", "country": "FR", "coord": {"lon": -0.98333, "lat": 45.933331}}, {"id": 2983276, "name": "Rochefort", "country": "FR", "coord": {"lon": -0.98333, "lat": 45.933331}}, {"id": 2787949, "name": "Rochefort", "country": "BE", "coord": {"lon": 5.21936, "lat": 50.162601}}, {"id": 2787948, "name": "Rochefort", "country": "BE", "coord": {"lon": 5.2216, "lat": 50.163101}}, {"id": 6430193, "name": "Rochefort-Samson", "country": "FR", "coord": {"lon": 5.15, "lat": 44.966671}}, {"id": 2983264, "name": "Rochefort-Samson", "country": "FR", "coord": {"lon": 5.15159, "lat": 44.973839}}, {"id": 6431372, "name": "Rochefort-du-Gard", "country": "FR", "coord": {"lon": 4.68333, "lat": 43.966671}}, {"id": 2983268, "name": "Rochefort-du-Gard", "country": "FR", "coord": {"lon": 4.69023, "lat": 43.976521}}, {"id": 6435271, "name": "Rochefort-sur-Loire", "country": "FR", "coord": {"lon": -0.65, "lat": 47.349998}}, {"id": 2983262, "name": "Rochefort-sur-Loire", "country": "FR", "coord": {"lon": -0.65696, "lat": 47.357052}}, {"id": 6430194, "name": "Rochefourchat", "country": "FR", "coord": {"lon": 5.25, "lat": 44.599998}}, {"id": 2983260, "name": "Rochefourchat", "country": "FR", "coord": {"lon": 5.24461, "lat": 44.597221}}, {"id": 501847, "name": "Rochegda", "country": "RU", "coord": {"lon": 43.25, "lat": 62.799999}}, {"id": 6612409, "name": "Rochegude", "country": "FR", "coord": {"lon": 4.83333, "lat": 44.25}}, {"id": 2983257, "name": "Rochegude", "country": "FR", "coord": {"lon": 4.82922, "lat": 44.248589}}, {"id": 2263791, "name": "Rocheira", "country": "PT", "coord": {"lon": -9.33147, "lat": 38.977581}}, {"id": 4219255, "name": "Rochelle", "country": "US", "coord": {"lon": -83.456268, "lat": 31.95101}}, {"id": 4907863, "name": "Rochelle", "country": "US", "coord": {"lon": -89.06871, "lat": 41.92392}}, {"id": 5103384, "name": "Rochelle Park", "country": "US", "coord": {"lon": -74.075142, "lat": 40.907318}}, {"id": 6612245, "name": "Rochemaure", "country": "FR", "coord": {"lon": 4.7, "lat": 44.583328}}, {"id": 2983246, "name": "Rochemaure", "country": "FR", "coord": {"lon": 4.70507, "lat": 44.587471}}, {"id": 6425769, "name": "Rochepaule", "country": "FR", "coord": {"lon": 4.46667, "lat": 45.083328}}, {"id": 2983240, "name": "Rochepaule", "country": "FR", "coord": {"lon": 4.4558, "lat": 45.076721}}, {"id": 2659001, "name": "Roches", "country": "CH", "coord": {"lon": 7.38127, "lat": 47.301991}}, {"id": 7286922, "name": "Roches (BE)", "country": "CH", "coord": {"lon": 7.38126, "lat": 47.30378}}, {"id": 934085, "name": "Roches Noire", "country": "MU", "coord": {"lon": 57.712219, "lat": -20.111111}}, {"id": 2983219, "name": "Roches-Premarie-Andille", "country": "FR", "coord": {"lon": 0.37106, "lat": 46.48251}}, {"id": 6445338, "name": "Roches-Pr\u00e9marie-Andill\u00e9", "country": "FR", "coord": {"lon": 0.3716, "lat": 46.4823}}, {"id": 2983221, "name": "Rocheserviere", "country": "FR", "coord": {"lon": -1.51142, "lat": 46.937649}}, {"id": 6612866, "name": "Rocheservi\u00e8re", "country": "FR", "coord": {"lon": -1.51667, "lat": 46.933331}}, {"id": 2639268, "name": "Rochester", "country": "GB", "coord": {"lon": 0.50546, "lat": 51.387642}}, {"id": 5043473, "name": "Rochester", "country": "US", "coord": {"lon": -92.469902, "lat": 44.021629}}, {"id": 5091872, "name": "Rochester", "country": "US", "coord": {"lon": -70.975616, "lat": 43.304531}}, {"id": 5134086, "name": "Rochester", "country": "US", "coord": {"lon": -77.615562, "lat": 43.154781}}, {"id": 2639267, "name": "Rochester", "country": "GB", "coord": {"lon": -2.25, "lat": 55.299999}}, {"id": 4248284, "name": "Rochester", "country": "US", "coord": {"lon": -89.531761, "lat": 39.749489}}, {"id": 4925519, "name": "Rochester", "country": "US", "coord": {"lon": -86.215828, "lat": 41.064758}}, {"id": 4948875, "name": "Rochester", "country": "US", "coord": {"lon": -70.820038, "lat": 41.73177}}, {"id": 5007400, "name": "Rochester", "country": "US", "coord": {"lon": -83.13382, "lat": 42.680592}}, {"id": 5208641, "name": "Rochester", "country": "US", "coord": {"lon": -80.286453, "lat": 40.70229}}, {"id": 5269196, "name": "Rochester", "country": "US", "coord": {"lon": -88.224258, "lat": 42.741409}}, {"id": 5808524, "name": "Rochester", "country": "US", "coord": {"lon": -123.096252, "lat": 46.82177}}, {"id": 5007402, "name": "Rochester Hills", "country": "US", "coord": {"lon": -83.149933, "lat": 42.658371}}, {"id": 3301879, "name": "Rochestown", "country": "IE", "coord": {"lon": -6.76444, "lat": 52.284168}}, {"id": 3299481, "name": "Rochestown", "country": "IE", "coord": {"lon": -8.38306, "lat": 51.869999}}, {"id": 2983209, "name": "Rochetaillee-sur-Saone", "country": "FR", "coord": {"lon": 4.85, "lat": 45.849998}}, {"id": 6617453, "name": "Rochetaill\u00e9e-sur-Sa\u00f4ne", "country": "FR", "coord": {"lon": 4.8356, "lat": 45.841499}}, {"id": 2639266, "name": "Rochford", "country": "GB", "coord": {"lon": 0.81641, "lat": 51.58371}}, {"id": 2151453, "name": "Rochford", "country": "AU", "coord": {"lon": 144.683334, "lat": -37.316669}}, {"id": 2639265, "name": "Rochford", "country": "GB", "coord": {"lon": 0.70673, "lat": 51.581982}}, {"id": 6126200, "name": "Rochfort Bridge", "country": "CA", "coord": {"lon": -115.035469, "lat": 53.916851}}, {"id": 2961770, "name": "Rochfortbridge", "country": "IE", "coord": {"lon": -7.29611, "lat": 53.414169}}, {"id": 2846261, "name": "Rochlitz", "country": "DE", "coord": {"lon": 12.8, "lat": 51.049999}}, {"id": 668781, "name": "Rociu", "country": "RO", "coord": {"lon": 25.033331, "lat": 44.666672}}, {"id": 5043502, "name": "Rock County", "country": "US", "coord": {"lon": -96.100304, "lat": 43.66663}}, {"id": 5269209, "name": "Rock County", "country": "US", "coord": {"lon": -89.06678, "lat": 42.666679}}, {"id": 5605582, "name": "Rock Creek", "country": "US", "coord": {"lon": -114.305588, "lat": 42.43214}}, {"id": 6126260, "name": "Rock Creek", "country": "CA", "coord": {"lon": -118.988708, "lat": 49.050301}}, {"id": 6126264, "name": "Rock Creek", "country": "CA", "coord": {"lon": -139.086334, "lat": 64.061974}}, {"id": 4086500, "name": "Rock Creek", "country": "US", "coord": {"lon": -87.080269, "lat": 33.477051}}, {"id": 5043510, "name": "Rock Creek", "country": "US", "coord": {"lon": -92.962433, "lat": 45.757462}}, {"id": 4907898, "name": "Rock Falls", "country": "US", "coord": {"lon": -89.689003, "lat": 41.779751}}, {"id": 7248920, "name": "Rock Fork", "country": "US", "coord": {"lon": -83.190666, "lat": 37.355808}}, {"id": 3373592, "name": "Rock Hall", "country": "BB", "coord": {"lon": -59.599998, "lat": 13.25}}, {"id": 4367081, "name": "Rock Hall", "country": "US", "coord": {"lon": -76.234947, "lat": 39.138168}}, {"id": 5007426, "name": "Rock Harbor Lodge", "country": "US", "coord": {"lon": -88.483681, "lat": 48.14571}}, {"id": 5388241, "name": "Rock Haven", "country": "US", "coord": {"lon": -119.31929, "lat": 37.125778}}, {"id": 4443565, "name": "Rock Hill", "country": "US", "coord": {"lon": -89.922302, "lat": 32.18626}}, {"id": 4593142, "name": "Rock Hill", "country": "US", "coord": {"lon": -81.025078, "lat": 34.92487}}, {"id": 4406041, "name": "Rock Hill", "country": "US", "coord": {"lon": -90.378448, "lat": 38.607552}}, {"id": 5134115, "name": "Rock Hill", "country": "US", "coord": {"lon": -74.597656, "lat": 41.625931}}, {"id": 5707899, "name": "Rock House", "country": "US", "coord": {"lon": -115.410881, "lat": 40.42215}}, {"id": 4907907, "name": "Rock Island", "country": "US", "coord": {"lon": -90.578751, "lat": 41.50948}}, {"id": 4170301, "name": "Rock Island", "country": "US", "coord": {"lon": -80.176987, "lat": 26.15509}}, {"id": 4907910, "name": "Rock Island County", "country": "US", "coord": {"lon": -90.5168, "lat": 41.450031}}, {"id": 5057058, "name": "Rock Port", "country": "US", "coord": {"lon": -95.51693, "lat": 40.41111}}, {"id": 4873354, "name": "Rock Rapids", "country": "US", "coord": {"lon": -96.175858, "lat": 43.427189}}, {"id": 3571592, "name": "Rock Sound", "country": "BS", "coord": {"lon": -76.199997, "lat": 24.9}}, {"id": 5836898, "name": "Rock Springs", "country": "US", "coord": {"lon": -109.202904, "lat": 41.58746}}, {"id": 5269294, "name": "Rock Springs", "country": "US", "coord": {"lon": -89.919006, "lat": 43.492481}}, {"id": 4873371, "name": "Rock Valley", "country": "US", "coord": {"lon": -96.295029, "lat": 43.205261}}, {"id": 2151413, "name": "Rock Valley", "country": "AU", "coord": {"lon": 153.166672, "lat": -28.75}}, {"id": 5103396, "name": "Rockaway", "country": "US", "coord": {"lon": -74.51432, "lat": 40.901211}}, {"id": 5749022, "name": "Rockaway Beach", "country": "US", "coord": {"lon": -123.942909, "lat": 45.613441}}, {"id": 2151449, "name": "Rockbank", "country": "AU", "coord": {"lon": 144.670029, "lat": -37.733528}}, {"id": 2639259, "name": "Rockbeare", "country": "GB", "coord": {"lon": -3.39039, "lat": 50.74575}}, {"id": 2961768, "name": "Rockchapel", "country": "IE", "coord": {"lon": -9.15, "lat": 52.283329}}, {"id": 6126245, "name": "Rockcliffe Park", "country": "CA", "coord": {"lon": -75.68264, "lat": 45.4501}}, {"id": 2961767, "name": "Rockcorry", "country": "IE", "coord": {"lon": -7.01667, "lat": 54.116669}}, {"id": 5749017, "name": "Rockcreek", "country": "US", "coord": {"lon": -122.877052, "lat": 45.550121}}, {"id": 7839768, "name": "Rockdale", "country": "AU", "coord": {"lon": 151.143417, "lat": -33.96611}}, {"id": 2151443, "name": "Rockdale", "country": "AU", "coord": {"lon": 151.133331, "lat": -33.950001}}, {"id": 4723369, "name": "Rockdale", "country": "US", "coord": {"lon": -97.001373, "lat": 30.655479}}, {"id": 4907953, "name": "Rockdale", "country": "US", "coord": {"lon": -88.114502, "lat": 41.506142}}, {"id": 4219431, "name": "Rockdale County", "country": "US", "coord": {"lon": -84.016579, "lat": 33.650108}}, {"id": 6553212, "name": "Rockenberg", "country": "DE", "coord": {"lon": 8.73333, "lat": 50.4333}}, {"id": 2846235, "name": "Rockenberg", "country": "DE", "coord": {"lon": 8.73688, "lat": 50.4305}}, {"id": 2846234, "name": "Rockenbrunn", "country": "DE", "coord": {"lon": 11.2918, "lat": 49.466671}}, {"id": 2846229, "name": "Rockenhausen", "country": "DE", "coord": {"lon": 7.83333, "lat": 49.633331}}, {"id": 2846213, "name": "Rockershausen", "country": "DE", "coord": {"lon": 6.91667, "lat": 49.25}}, {"id": 6554659, "name": "Rockeskyll", "country": "DE", "coord": {"lon": 6.7, "lat": 50.25}}, {"id": 2846209, "name": "Rockeskyll", "country": "DE", "coord": {"lon": 6.7, "lat": 50.25}}, {"id": 4488532, "name": "Rockfish", "country": "US", "coord": {"lon": -79.066139, "lat": 34.992661}}, {"id": 5043556, "name": "Rockford", "country": "US", "coord": {"lon": -93.734413, "lat": 45.088299}}, {"id": 4907959, "name": "Rockford", "country": "US", "coord": {"lon": -89.094002, "lat": 42.27113}}, {"id": 4086637, "name": "Rockford", "country": "US", "coord": {"lon": -86.219688, "lat": 32.889568}}, {"id": 5007436, "name": "Rockford", "country": "US", "coord": {"lon": -85.560028, "lat": 43.120029}}, {"id": 5168450, "name": "Rockford", "country": "US", "coord": {"lon": -84.646629, "lat": 40.687832}}, {"id": 5168451, "name": "Rockford", "country": "US", "coord": {"lon": -81.308441, "lat": 40.477009}}, {"id": 6126307, "name": "Rockglen", "country": "CA", "coord": {"lon": -105.951149, "lat": 49.183361}}, {"id": 7839389, "name": "Rockhampton", "country": "AU", "coord": {"lon": 150.227158, "lat": -22.884439}}, {"id": 2151437, "name": "Rockhampton", "country": "AU", "coord": {"lon": 150.5, "lat": -23.383329}}, {"id": 6550219, "name": "Rockhausen", "country": "DE", "coord": {"lon": 11.05, "lat": 50.900002}}, {"id": 2846206, "name": "Rockhausen", "country": "DE", "coord": {"lon": 11.05, "lat": 50.900002}}, {"id": 2961757, "name": "Rockhill", "country": "IE", "coord": {"lon": -8.15, "lat": 54.066669}}, {"id": 2846204, "name": "Rockholt", "country": "DE", "coord": {"lon": 7.25, "lat": 52.799999}}, {"id": 2846203, "name": "Rockingen", "country": "DE", "coord": {"lon": 10.56667, "lat": 49.049999}}, {"id": 7839633, "name": "Rockingham", "country": "AU", "coord": {"lon": 115.732384, "lat": -32.282391}}, {"id": 2062338, "name": "Rockingham", "country": "AU", "coord": {"lon": 115.716667, "lat": -32.283329}}, {"id": 4488587, "name": "Rockingham", "country": "US", "coord": {"lon": -79.773949, "lat": 34.93932}}, {"id": 5240399, "name": "Rockingham", "country": "US", "coord": {"lon": -72.488983, "lat": 43.18758}}, {"id": 4488575, "name": "Rockingham County", "country": "US", "coord": {"lon": -79.783089, "lat": 36.400139}}, {"id": 5091860, "name": "Rockingham County", "country": "US", "coord": {"lon": -71.099503, "lat": 42.966751}}, {"id": 3513332, "name": "Rockland", "country": "SX", "coord": {"lon": -63.049999, "lat": 18.033331}}, {"id": 4948924, "name": "Rockland", "country": "US", "coord": {"lon": -70.916161, "lat": 42.130661}}, {"id": 4832458, "name": "Rockland", "country": "US", "coord": {"lon": -69.108932, "lat": 44.103691}}, {"id": 5134189, "name": "Rockland County", "country": "US", "coord": {"lon": -74.049591, "lat": 41.166759}}, {"id": 2151430, "name": "Rocklea", "country": "AU", "coord": {"lon": 153.004013, "lat": -27.539169}}, {"id": 4170358, "name": "Rockledge", "country": "US", "coord": {"lon": -80.725327, "lat": 28.35084}}, {"id": 5208767, "name": "Rockledge", "country": "US", "coord": {"lon": -75.089622, "lat": 40.081219}}, {"id": 2062335, "name": "Rockleigh", "country": "AU", "coord": {"lon": 139.116669, "lat": -35}}, {"id": 3373590, "name": "Rockley", "country": "BB", "coord": {"lon": -59.588692, "lat": 13.07471}}, {"id": 2151429, "name": "Rockley", "country": "AU", "coord": {"lon": 149.566666, "lat": -33.700001}}, {"id": 5388319, "name": "Rocklin", "country": "US", "coord": {"lon": -121.235779, "lat": 38.79073}}, {"id": 2151428, "name": "Rocklyn", "country": "AU", "coord": {"lon": 144.050003, "lat": -37.433331}}, {"id": 4219459, "name": "Rockmart", "country": "US", "coord": {"lon": -85.041611, "lat": 34.002602}}, {"id": 2151426, "name": "Rockmount", "country": "AU", "coord": {"lon": 152.033325, "lat": -27.683331}}, {"id": 6126486, "name": "Rockport", "country": "CA", "coord": {"lon": -75.932663, "lat": 44.36681}}, {"id": 4263848, "name": "Rockport", "country": "US", "coord": {"lon": -87.2789, "lat": 39.880871}}, {"id": 4263856, "name": "Rockport", "country": "US", "coord": {"lon": -87.049438, "lat": 37.88311}}, {"id": 4723422, "name": "Rockport", "country": "US", "coord": {"lon": -97.054428, "lat": 28.020571}}, {"id": 4948936, "name": "Rockport", "country": "US", "coord": {"lon": -70.620323, "lat": 42.655651}}, {"id": 4976817, "name": "Rockport", "country": "US", "coord": {"lon": -69.076149, "lat": 44.184521}}, {"id": 2151424, "name": "Rocksberg", "country": "AU", "coord": {"lon": 152.833328, "lat": -27.1}}, {"id": 2846190, "name": "Rocksdorf", "country": "DE", "coord": {"lon": 11.41548, "lat": 49.195171}}, {"id": 5529514, "name": "Rocksprings", "country": "US", "coord": {"lon": -100.20536, "lat": 30.01576}}, {"id": 6549982, "name": "Rockstedt", "country": "DE", "coord": {"lon": 10.75, "lat": 51.283298}}, {"id": 2846186, "name": "Rockstedt", "country": "DE", "coord": {"lon": 10.75, "lat": 51.283329}}, {"id": 4907985, "name": "Rockton", "country": "US", "coord": {"lon": -89.072327, "lat": 42.452518}}, {"id": 4367175, "name": "Rockville", "country": "US", "coord": {"lon": -77.152763, "lat": 39.084}}, {"id": 4263850, "name": "Rockville", "country": "US", "coord": {"lon": -87.229179, "lat": 39.762539}}, {"id": 4841628, "name": "Rockville", "country": "US", "coord": {"lon": -72.449532, "lat": 41.86676}}, {"id": 5043571, "name": "Rockville", "country": "US", "coord": {"lon": -94.340828, "lat": 45.471909}}, {"id": 5134203, "name": "Rockville Centre", "country": "US", "coord": {"lon": -73.641243, "lat": 40.65871}}, {"id": 4723406, "name": "Rockwall", "country": "US", "coord": {"lon": -96.459709, "lat": 32.931229}}, {"id": 4723410, "name": "Rockwall County", "country": "US", "coord": {"lon": -96.400261, "lat": 32.90012}}, {"id": 4723416, "name": "Rockwell", "country": "US", "coord": {"lon": -95.549683, "lat": 33.591221}}, {"id": 2062331, "name": "Rockwell", "country": "AU", "coord": {"lon": 114.900002, "lat": -28.35}}, {"id": 4128767, "name": "Rockwell", "country": "US", "coord": {"lon": -93.133789, "lat": 34.46426}}, {"id": 4488600, "name": "Rockwell", "country": "US", "coord": {"lon": -80.406448, "lat": 35.55125}}, {"id": 4873424, "name": "Rockwell", "country": "US", "coord": {"lon": -93.191872, "lat": 42.985241}}, {"id": 4873426, "name": "Rockwell City", "country": "US", "coord": {"lon": -94.633873, "lat": 42.39526}}, {"id": 4219480, "name": "Rockwell Estates", "country": "US", "coord": {"lon": -85.07605, "lat": 33.02874}}, {"id": 2846183, "name": "Rockwinkel", "country": "DE", "coord": {"lon": 8.93333, "lat": 53.083328}}, {"id": 2846182, "name": "Rockwitz", "country": "DE", "coord": {"lon": 13.1, "lat": 53.700001}}, {"id": 4653999, "name": "Rockwood", "country": "US", "coord": {"lon": -84.684937, "lat": 35.865631}}, {"id": 5007451, "name": "Rockwood", "country": "US", "coord": {"lon": -83.246597, "lat": 42.070881}}, {"id": 2151387, "name": "Rocky Cape", "country": "AU", "coord": {"lon": 145.483337, "lat": -40.916672}}, {"id": 5436808, "name": "Rocky Ford", "country": "US", "coord": {"lon": -103.72023, "lat": 38.052509}}, {"id": 2151307, "name": "Rocky Hall", "country": "AU", "coord": {"lon": 149.516663, "lat": -36.933331}}, {"id": 4488762, "name": "Rocky Mount", "country": "US", "coord": {"lon": -77.790527, "lat": 35.93821}}, {"id": 4782691, "name": "Rocky Mount", "country": "US", "coord": {"lon": -79.891983, "lat": 36.997639}}, {"id": 6126749, "name": "Rocky Mountain House", "country": "CA", "coord": {"lon": -114.9188, "lat": 52.366829}}, {"id": 5134235, "name": "Rocky Point", "country": "US", "coord": {"lon": -72.925377, "lat": 40.952599}}, {"id": 3488777, "name": "Rocky Point", "country": "JM", "coord": {"lon": -77.26107, "lat": 17.774}}, {"id": 4488758, "name": "Rocky Point", "country": "US", "coord": {"lon": -77.887756, "lat": 34.435169}}, {"id": 5808691, "name": "Rocky Point", "country": "US", "coord": {"lon": -122.66848, "lat": 47.592869}}, {"id": 2151260, "name": "Rocky River", "country": "AU", "coord": {"lon": 151.5, "lat": -30.616671}}, {"id": 5168491, "name": "Rocky River", "country": "US", "coord": {"lon": -81.839302, "lat": 41.475601}}, {"id": 5208851, "name": "Rocky Valley", "country": "US", "coord": {"lon": -75.367119, "lat": 40.50177}}, {"id": 6126942, "name": "Rocky View", "country": "CA", "coord": {"lon": -113.935272, "lat": 51.183411}}, {"id": 2787939, "name": "Roclenge-sur-Geer", "country": "BE", "coord": {"lon": 5.59444, "lat": 50.756882}}, {"id": 6427400, "name": "Rocquancourt", "country": "FR", "coord": {"lon": -0.31667, "lat": 49.099998}}, {"id": 2983178, "name": "Rocquancourt", "country": "FR", "coord": {"lon": -0.32147, "lat": 49.093731}}, {"id": 2983174, "name": "Rocquencourt", "country": "FR", "coord": {"lon": 2.10228, "lat": 48.83783}}, {"id": 6444060, "name": "Rocquencourt", "country": "FR", "coord": {"lon": 2.11667, "lat": 48.833328}}, {"id": 6453596, "name": "Rocroi", "country": "FR", "coord": {"lon": 4.51667, "lat": 49.916672}}, {"id": 2983165, "name": "Rocroi", "country": "FR", "coord": {"lon": 4.5222, "lat": 49.926102}}, {"id": 3087144, "name": "Roczyny", "country": "PL", "coord": {"lon": 19.31568, "lat": 49.853699}}, {"id": 2846152, "name": "Rod an der Weil", "country": "DE", "coord": {"lon": 8.37879, "lat": 50.341412}}, {"id": 2846181, "name": "Roda", "country": "DE", "coord": {"lon": 11.45, "lat": 50.549999}}, {"id": 2846177, "name": "Roda", "country": "DE", "coord": {"lon": 12.23333, "lat": 50.98333}}, {"id": 6355360, "name": "Roda (La)", "country": "ES", "coord": {"lon": -2.19224, "lat": 39.180408}}, {"id": 6361037, "name": "Roda de Andaluc\u00eda (La)", "country": "ES", "coord": {"lon": -4.78133, "lat": 37.20892}}, {"id": 3111468, "name": "Roda de Bara", "country": "ES", "coord": {"lon": 1.46667, "lat": 41.183331}}, {"id": 6361373, "name": "Roda de Bar\u00e0", "country": "ES", "coord": {"lon": 1.466, "lat": 41.177601}}, {"id": 6360896, "name": "Roda de Eresma", "country": "ES", "coord": {"lon": -4.17872, "lat": 41.032669}}, {"id": 3111467, "name": "Roda de Eresma", "country": "ES", "coord": {"lon": -4.1813, "lat": 41.028519}}, {"id": 3111466, "name": "Roda de Is\u00e1bena", "country": "ES", "coord": {"lon": 0.52845, "lat": 42.29142}}, {"id": 2846158, "name": "Rodalben", "country": "DE", "coord": {"lon": 7.63962, "lat": 49.239399}}, {"id": 2960143, "name": "Rodange", "country": "LU", "coord": {"lon": 5.84083, "lat": 49.546391}}, {"id": 3169098, "name": "Rodano", "country": "IT", "coord": {"lon": 9.35315, "lat": 45.47607}}, {"id": 3541999, "name": "Rodas", "country": "CU", "coord": {"lon": -80.55722, "lat": 22.34083}}, {"id": 2983163, "name": "Rodas", "country": "FR", "coord": {"lon": 1.13574, "lat": 45.16938}}, {"id": 2846149, "name": "Rodau", "country": "DE", "coord": {"lon": 8.58056, "lat": 49.71917}}, {"id": 2767332, "name": "Rodaun", "country": "AT", "coord": {"lon": 16.26667, "lat": 48.133331}}, {"id": 7626343, "name": "Rodberg", "country": "NO", "coord": {"lon": 8.94721, "lat": 60.26722}}, {"id": 2614626, "name": "Rodby", "country": "DK", "coord": {"lon": 11.38885, "lat": 54.69495}}, {"id": 2614624, "name": "Rodbyhavn", "country": "DK", "coord": {"lon": 11.35203, "lat": 54.654419}}, {"id": 2846141, "name": "Roddahn", "country": "DE", "coord": {"lon": 12.30752, "lat": 52.830181}}, {"id": 3208472, "name": "Rodde", "country": "DE", "coord": {"lon": 7.51667, "lat": 52.283329}}, {"id": 2846133, "name": "Rodden", "country": "DE", "coord": {"lon": 12.16667, "lat": 51.333328}}, {"id": 3304966, "name": "Roddenagh", "country": "IE", "coord": {"lon": -6.36639, "lat": 52.857498}}, {"id": 6553336, "name": "Rodder", "country": "DE", "coord": {"lon": 6.86667, "lat": 50.400002}}, {"id": 2846124, "name": "Rodder", "country": "DE", "coord": {"lon": 6.85882, "lat": 50.39473}}, {"id": 6534301, "name": "Roddi", "country": "IT", "coord": {"lon": 7.97544, "lat": 44.679642}}, {"id": 6126959, "name": "Roddickton", "country": "CA", "coord": {"lon": -56.13139, "lat": 50.866791}}, {"id": 2614623, "name": "Rodding", "country": "DK", "coord": {"lon": 9.06316, "lat": 55.365688}}, {"id": 6534302, "name": "Roddino", "country": "IT", "coord": {"lon": 8.01914, "lat": 44.573841}}, {"id": 2639239, "name": "Rode Heath", "country": "GB", "coord": {"lon": -2.28333, "lat": 53.116669}}, {"id": 2787931, "name": "Rodebeek", "country": "BE", "coord": {"lon": 4.41749, "lat": 50.84581}}, {"id": 2682155, "name": "Rodeby", "country": "SE", "coord": {"lon": 15.6, "lat": 56.25}}, {"id": 3450982, "name": "Rodeio", "country": "BR", "coord": {"lon": -49.36639, "lat": -26.922779}}, {"id": 3450978, "name": "Rodeio Doze", "country": "BR", "coord": {"lon": -49.333328, "lat": -26.85}}, {"id": 6360245, "name": "Rodeiro", "country": "ES", "coord": {"lon": -7.96089, "lat": 42.659309}}, {"id": 3111459, "name": "Rodeiro", "country": "ES", "coord": {"lon": -7.95519, "lat": 42.651932}}, {"id": 3450977, "name": "Rodeiro", "country": "BR", "coord": {"lon": -42.865002, "lat": -21.200001}}, {"id": 2614611, "name": "Rodekro", "country": "DK", "coord": {"lon": 9.31641, "lat": 55.07016}}, {"id": 3390220, "name": "Rodelas", "country": "BR", "coord": {"lon": -38.76667, "lat": -8.84556}}, {"id": 2846093, "name": "Rodelhausen", "country": "DE", "coord": {"lon": 7.33333, "lat": 50}}, {"id": 3111456, "name": "Rodellar", "country": "ES", "coord": {"lon": -0.07858, "lat": 42.28249}}, {"id": 6534303, "name": "Rodello", "country": "IT", "coord": {"lon": 8.05684, "lat": 44.62854}}, {"id": 2846089, "name": "Rodelmaier", "country": "DE", "coord": {"lon": 10.28333, "lat": 50.316669}}, {"id": 2846084, "name": "Rodelsee", "country": "DE", "coord": {"lon": 10.25, "lat": 49.73333}}, {"id": 2748026, "name": "Roden", "country": "NL", "coord": {"lon": 6.42083, "lat": 53.137501}}, {"id": 6557048, "name": "Roden", "country": "DE", "coord": {"lon": 9.62639, "lat": 49.895599}}, {"id": 2846072, "name": "Roden", "country": "DE", "coord": {"lon": 9.62639, "lat": 49.895561}}, {"id": 2846069, "name": "Rodenas", "country": "DE", "coord": {"lon": 8.7, "lat": 54.883331}}, {"id": 3111454, "name": "Rodenas", "country": "ES", "coord": {"lon": -1.51617, "lat": 40.640759}}, {"id": 6555057, "name": "Rodenbach", "country": "DE", "coord": {"lon": 7.65, "lat": 49.466702}}, {"id": 2846067, "name": "Rodenbach", "country": "DE", "coord": {"lon": 7.65, "lat": 49.466671}}, {"id": 6553190, "name": "Rodenbach", "country": "DE", "coord": {"lon": 9.0045, "lat": 50.147202}}, {"id": 2846063, "name": "Rodenbach", "country": "DE", "coord": {"lon": 9.03333, "lat": 50.150002}}, {"id": 2846066, "name": "Rodenbach", "country": "DE", "coord": {"lon": 8.10556, "lat": 49.573891}}, {"id": 6551910, "name": "Rodenbek", "country": "DE", "coord": {"lon": 10.0167, "lat": 54.283298}}, {"id": 2846048, "name": "Rodenbek", "country": "DE", "coord": {"lon": 10.01667, "lat": 54.283329}}, {"id": 2846040, "name": "Rodenberg", "country": "DE", "coord": {"lon": 9.35, "lat": 52.316669}}, {"id": 2960141, "name": "Rodenbourg", "country": "LU", "coord": {"lon": 6.28917, "lat": 49.682499}}, {"id": 3169096, "name": "Rodengo", "country": "IT", "coord": {"lon": 11.7, "lat": 46.799999}}, {"id": 6534787, "name": "Rodengo - Rodeneck", "country": "IT", "coord": {"lon": 11.69048, "lat": 46.77953}}, {"id": 6534749, "name": "Rodengo-Saiano", "country": "IT", "coord": {"lon": 10.10716, "lat": 45.599579}}, {"id": 2846035, "name": "Rodenhausen", "country": "DE", "coord": {"lon": 8.56667, "lat": 50.716671}}, {"id": 3207410, "name": "Rodental", "country": "DE", "coord": {"lon": 11.06667, "lat": 50.283329}}, {"id": 2846023, "name": "Rodenwalde", "country": "DE", "coord": {"lon": 10.93468, "lat": 53.43808}}, {"id": 6551598, "name": "Roden\u00e4s", "country": "DE", "coord": {"lon": 8.7, "lat": 54.883301}}, {"id": 5488280, "name": "Rodeo", "country": "US", "coord": {"lon": -109.031174, "lat": 31.835369}}, {"id": 3622057, "name": "Rodeo", "country": "CR", "coord": {"lon": -84.062714, "lat": 9.53843}}, {"id": 3988515, "name": "Rodeo", "country": "MX", "coord": {"lon": -104.550003, "lat": 25.183331}}, {"id": 5388467, "name": "Rodeo", "country": "US", "coord": {"lon": -122.266907, "lat": 38.032982}}, {"id": 3838684, "name": "Rodeo del Medio", "country": "AR", "coord": {"lon": -68.683319, "lat": -32.99353}}, {"id": 2846020, "name": "Roder", "country": "DE", "coord": {"lon": 6.53333, "lat": 50.466671}}, {"id": 2960140, "name": "Roder", "country": "LU", "coord": {"lon": 6.08361, "lat": 50.055828}}, {"id": 2845982, "name": "Rodern", "country": "DE", "coord": {"lon": 7.45, "lat": 49.950001}}, {"id": 6535751, "name": "Rodero", "country": "IT", "coord": {"lon": 8.91523, "lat": 45.823978}}, {"id": 7286926, "name": "Rodersdorf", "country": "CH", "coord": {"lon": 7.44625, "lat": 47.484558}}, {"id": 2658998, "name": "Rodersdorf", "country": "CH", "coord": {"lon": 7.4576, "lat": 47.482201}}, {"id": 2960139, "name": "Rodershausen", "country": "LU", "coord": {"lon": 6.13111, "lat": 50.036671}}, {"id": 6554494, "name": "Rodershausen", "country": "DE", "coord": {"lon": 6.2, "lat": 49.983299}}, {"id": 2845968, "name": "Rodershausen", "country": "DE", "coord": {"lon": 6.2, "lat": 49.98333}}, {"id": 3272457, "name": "Rodersheim-Gronau", "country": "DE", "coord": {"lon": 8.26139, "lat": 49.43}}, {"id": 2845959, "name": "Rodesgr\u00fcn", "country": "DE", "coord": {"lon": 11.75, "lat": 50.333328}}, {"id": 2845953, "name": "Rodewisch", "country": "DE", "coord": {"lon": 12.41667, "lat": 50.533329}}, {"id": 6427003, "name": "Rodez", "country": "FR", "coord": {"lon": 2.5748, "lat": 44.350201}}, {"id": 2983154, "name": "Rodez", "country": "FR", "coord": {"lon": 2.57338, "lat": 44.352581}}, {"id": 3111451, "name": "Rodezas", "country": "ES", "coord": {"lon": -4.23138, "lat": 43.343269}}, {"id": 6359113, "name": "Rodezno", "country": "ES", "coord": {"lon": -2.83032, "lat": 42.512821}}, {"id": 3111450, "name": "Rodezno", "country": "ES", "coord": {"lon": -2.84597, "lat": 42.525761}}, {"id": 3208103, "name": "Rodgau", "country": "DE", "coord": {"lon": 8.88333, "lat": 50.01667}}, {"id": 3336893, "name": "Rodgau", "country": "DE", "coord": {"lon": 8.88588, "lat": 50.026272}}, {"id": 2845940, "name": "Rodheim", "country": "DE", "coord": {"lon": 8.95, "lat": 50.450001}}, {"id": 2845937, "name": "Rodheim vor der H\u00f6he", "country": "DE", "coord": {"lon": 8.7, "lat": 50.26667}}, {"id": 2523592, "name": "Rodi", "country": "IT", "coord": {"lon": 15.16928, "lat": 38.10886}}, {"id": 3169094, "name": "Rodi Garganico", "country": "IT", "coord": {"lon": 15.88105, "lat": 41.928741}}, {"id": 3111445, "name": "Rodiezmo", "country": "ES", "coord": {"lon": -5.68333, "lat": 42.950001}}, {"id": 6536223, "name": "Rodigo", "country": "IT", "coord": {"lon": 10.62498, "lat": 45.199581}}, {"id": 3169093, "name": "Rodigo2", "country": "IT", "coord": {"lon": 10.62498, "lat": 45.199581}}, {"id": 3111443, "name": "Rodilana", "country": "ES", "coord": {"lon": -4.87798, "lat": 41.37059}}, {"id": 6431487, "name": "Rodilhan", "country": "FR", "coord": {"lon": 4.43333, "lat": 43.833328}}, {"id": 2983152, "name": "Rodilhan", "country": "FR", "coord": {"lon": 4.43088, "lat": 43.827251}}, {"id": 3191592, "name": "Rodine", "country": "SI", "coord": {"lon": 14.18333, "lat": 46.383331}}, {"id": 2845924, "name": "Roding", "country": "DE", "coord": {"lon": 12.51861, "lat": 49.196388}}, {"id": 2845919, "name": "Rodinghausen", "country": "DE", "coord": {"lon": 8.48333, "lat": 52.25}}, {"id": 1493623, "name": "Rodino", "country": "RU", "coord": {"lon": 80.25, "lat": 52.5}}, {"id": 695581, "name": "Rodinskoye", "country": "UA", "coord": {"lon": 37.20602, "lat": 48.35199}}, {"id": 501787, "name": "Rodionovka", "country": "RU", "coord": {"lon": 37.428612, "lat": 55.021942}}, {"id": 501788, "name": "Rodionovka", "country": "RU", "coord": {"lon": 36.900002, "lat": 52.900002}}, {"id": 695579, "name": "Rodionovka", "country": "UA", "coord": {"lon": 33.231941, "lat": 47.996239}}, {"id": 501782, "name": "Rodionovo", "country": "RU", "coord": {"lon": 38.946667, "lat": 55.987499}}, {"id": 501783, "name": "Rodionovo", "country": "RU", "coord": {"lon": 37.402779, "lat": 55.90472}}, {"id": 7601393, "name": "Rodionovo", "country": "RU", "coord": {"lon": 36.107201, "lat": 56.194}}, {"id": 501775, "name": "Rodionovo-Nesvetaiskoye", "country": "RU", "coord": {"lon": 39.700001, "lat": 47.599998}}, {"id": 501774, "name": "Rodionovo-Nesvetayskaya", "country": "RU", "coord": {"lon": 39.71212, "lat": 47.610329}}, {"id": 2845918, "name": "Rodishain", "country": "DE", "coord": {"lon": 10.91667, "lat": 51.533329}}, {"id": 2845914, "name": "Rodleben", "country": "DE", "coord": {"lon": 12.2, "lat": 51.900002}}, {"id": 668772, "name": "Rodna", "country": "RO", "coord": {"lon": 24.816669, "lat": 47.416672}}, {"id": 6127029, "name": "Rodney", "country": "CA", "coord": {"lon": -81.68306, "lat": 42.566792}}, {"id": 4144366, "name": "Rodney Village", "country": "US", "coord": {"lon": -75.532417, "lat": 39.132061}}, {"id": 501732, "name": "Rodniki", "country": "RU", "coord": {"lon": 38.066849, "lat": 55.652039}}, {"id": 501730, "name": "Rodniki", "country": "RU", "coord": {"lon": 41.73048, "lat": 57.105129}}, {"id": 501716, "name": "Rodnikovskaya", "country": "RU", "coord": {"lon": 40.665562, "lat": 44.764439}}, {"id": 871206, "name": "Rodnikovyy", "country": "RU", "coord": {"lon": 40.004444, "lat": 44.677502}}, {"id": 695572, "name": "Rodnykivs\u2019ke", "country": "UA", "coord": {"lon": 33.849998, "lat": 44.466667}}, {"id": 695574, "name": "Rodnykove", "country": "UA", "coord": {"lon": 33.954071, "lat": 45.042961}}, {"id": 3191589, "name": "Rodoc", "country": "BA", "coord": {"lon": 17.80694, "lat": 43.308891}}, {"id": 3390219, "name": "Rodolfo Fernandes", "country": "BR", "coord": {"lon": -38.060001, "lat": -5.78806}}, {"id": 695570, "name": "Rodomyslovka", "country": "UA", "coord": {"lon": 36.284721, "lat": 49.293331}}, {"id": 734374, "name": "Rodopolis", "country": "GR", "coord": {"lon": 22.998329, "lat": 41.257778}}, {"id": 400666, "name": "Rodos", "country": "GR", "coord": {"lon": 28.2225, "lat": 36.44083}}, {"id": 254253, "name": "Rodotopion", "country": "GR", "coord": {"lon": 20.72583, "lat": 39.708328}}, {"id": 2614600, "name": "Rodovre", "country": "DK", "coord": {"lon": 12.45373, "lat": 55.680618}}, {"id": 1547449, "name": "Rodrigues", "country": "MU", "coord": {"lon": 63.416672, "lat": -19.700001}}, {"id": 1699296, "name": "Rodriguez", "country": "PH", "coord": {"lon": 121.141701, "lat": 14.7314}}, {"id": 3440762, "name": "Rodriguez", "country": "UY", "coord": {"lon": -56.541672, "lat": -34.382778}}, {"id": 2845903, "name": "Rodt", "country": "DE", "coord": {"lon": 6.58333, "lat": 49.549999}}, {"id": 6548215, "name": "Roduchelstorf", "country": "DE", "coord": {"lon": 10.9833, "lat": 53.8167}}, {"id": 2845899, "name": "Roduchelstorf", "country": "DE", "coord": {"lon": 10.98333, "lat": 53.816669}}, {"id": 6534769, "name": "Roe Volciano", "country": "IT", "coord": {"lon": 10.48857, "lat": 45.611992}}, {"id": 5103431, "name": "Roebling", "country": "US", "coord": {"lon": -74.78627, "lat": 40.11594}}, {"id": 7839634, "name": "Roebourne", "country": "AU", "coord": {"lon": 116.85743, "lat": -21.039709}}, {"id": 2062276, "name": "Roebourne", "country": "AU", "coord": {"lon": 117.133331, "lat": -20.783331}}, {"id": 4593372, "name": "Roebuck", "country": "US", "coord": {"lon": -81.966209, "lat": 34.87957}}, {"id": 2960137, "name": "Roedgen", "country": "LU", "coord": {"lon": 6.03472, "lat": 49.574718}}, {"id": 2960136, "name": "Roedt", "country": "LU", "coord": {"lon": 6.285, "lat": 49.56778}}, {"id": 2845559, "name": "Roehrnbach", "country": "DE", "coord": {"lon": 13.52271, "lat": 48.73859}}, {"id": 4278272, "name": "Roeland Park", "country": "US", "coord": {"lon": -94.632179, "lat": 39.03751}}, {"id": 2062270, "name": "Roelands", "country": "AU", "coord": {"lon": 115.816673, "lat": -33.283329}}, {"id": 2748000, "name": "Roermond", "country": "NL", "coord": {"lon": 5.9875, "lat": 51.194172}}, {"id": 6553721, "name": "Roes", "country": "DE", "coord": {"lon": 7.25664, "lat": 50.243031}}, {"id": 2845894, "name": "Roes", "country": "DE", "coord": {"lon": 7.25836, "lat": 50.242809}}, {"id": 2787891, "name": "Roeselare", "country": "BE", "coord": {"lon": 3.13333, "lat": 50.950001}}, {"id": 2787889, "name": "Roeselare", "country": "BE", "coord": {"lon": 3.12269, "lat": 50.946529}}, {"id": 6693274, "name": "Roeser", "country": "LU", "coord": {"lon": 6.15, "lat": 49.542221}}, {"id": 2960135, "name": "Roeser", "country": "LU", "coord": {"lon": 6.15, "lat": 49.542221}}, {"id": 668766, "name": "Roesti", "country": "RO", "coord": {"lon": 24.08333, "lat": 44.916672}}, {"id": 6553051, "name": "Roetgen", "country": "DE", "coord": {"lon": 6.2, "lat": 50.650002}}, {"id": 2844277, "name": "Roetgen", "country": "DE", "coord": {"lon": 6.2, "lat": 50.650002}}, {"id": 2787878, "name": "Roeulx", "country": "BE", "coord": {"lon": 4.11163, "lat": 50.503651}}, {"id": 2983144, "name": "Roeulx", "country": "FR", "coord": {"lon": 3.33333, "lat": 50.299999}}, {"id": 2983143, "name": "Roeux", "country": "FR", "coord": {"lon": 2.90073, "lat": 50.295261}}, {"id": 2845893, "name": "Roez", "country": "DE", "coord": {"lon": 12.51667, "lat": 53.450001}}, {"id": 2983141, "name": "Roeze-sur-Sarthe", "country": "FR", "coord": {"lon": 0.06723, "lat": 47.895458}}, {"id": 6427616, "name": "Roffiac", "country": "FR", "coord": {"lon": 3.03333, "lat": 45.049999}}, {"id": 2983139, "name": "Roffiac", "country": "FR", "coord": {"lon": 3.03957, "lat": 45.052391}}, {"id": 2845891, "name": "Rofingen", "country": "DE", "coord": {"lon": 10.44268, "lat": 48.424419}}, {"id": 3169089, "name": "Rofrano", "country": "IT", "coord": {"lon": 15.42786, "lat": 40.211399}}, {"id": 818486, "name": "Rogacheva", "country": "RU", "coord": {"lon": 36.665001, "lat": 55.261944}}, {"id": 501670, "name": "Rogach\u00ebvo", "country": "RU", "coord": {"lon": 38.055, "lat": 55.392776}}, {"id": 3141558, "name": "Rogaland Fylke", "country": "NO", "coord": {"lon": 6.25, "lat": 59}}, {"id": 3087126, "name": "Rogalinek", "country": "PL", "coord": {"lon": 16.899891, "lat": 52.249451}}, {"id": 760462, "name": "Rogal\u00f3w", "country": "PL", "coord": {"lon": 22.131519, "lat": 51.309811}}, {"id": 2151223, "name": "Rogans Hill", "country": "AU", "coord": {"lon": 151.016663, "lat": -33.73333}}, {"id": 3191580, "name": "Rogaska Slatina", "country": "SI", "coord": {"lon": 15.63972, "lat": 46.237499}}, {"id": 3191579, "name": "Rogasovci", "country": "SI", "coord": {"lon": 16.033331, "lat": 46.799999}}, {"id": 3191578, "name": "Rogatec", "country": "SI", "coord": {"lon": 15.70028, "lat": 46.229439}}, {"id": 3191576, "name": "Rogatica", "country": "BA", "coord": {"lon": 19.002501, "lat": 43.800831}}, {"id": 695559, "name": "Rogatin", "country": "UA", "coord": {"lon": 24.609261, "lat": 49.409}}, {"id": 2845885, "name": "Rogatz", "country": "DE", "coord": {"lon": 11.76667, "lat": 52.316669}}, {"id": 2845884, "name": "Roge", "country": "DE", "coord": {"lon": 10.76667, "lat": 54.099998}}, {"id": 6535358, "name": "Rogeno", "country": "IT", "coord": {"lon": 9.27404, "lat": 45.782379}}, {"id": 3575641, "name": "Roger", "country": "DM", "coord": {"lon": -61.400002, "lat": 15.33333}}, {"id": 2151222, "name": "Roger River", "country": "AU", "coord": {"lon": 145.066666, "lat": -41}}, {"id": 5043608, "name": "Rogers", "country": "US", "coord": {"lon": -93.553009, "lat": 45.18885}}, {"id": 4128894, "name": "Rogers", "country": "US", "coord": {"lon": -94.118538, "lat": 36.33202}}, {"id": 4723670, "name": "Rogers", "country": "US", "coord": {"lon": -97.226662, "lat": 30.93157}}, {"id": 5007477, "name": "Rogers City", "country": "US", "coord": {"lon": -83.818329, "lat": 45.421398}}, {"id": 4549638, "name": "Rogers County", "country": "US", "coord": {"lon": -95.583588, "lat": 36.36676}}, {"id": 4144372, "name": "Rogers Development", "country": "US", "coord": {"lon": -75.364082, "lat": 38.700951}}, {"id": 6127159, "name": "Rogersville", "country": "CA", "coord": {"lon": -65.427048, "lat": 46.73452}}, {"id": 4086921, "name": "Rogersville", "country": "US", "coord": {"lon": -87.294739, "lat": 34.825642}}, {"id": 4406271, "name": "Rogersville", "country": "US", "coord": {"lon": -93.055733, "lat": 37.117001}}, {"id": 4654293, "name": "Rogersville", "country": "US", "coord": {"lon": -83.00544, "lat": 36.407318}}, {"id": 6443412, "name": "Rogerville", "country": "FR", "coord": {"lon": 0.26667, "lat": 49.5}}, {"id": 2983135, "name": "Rogerville", "country": "FR", "coord": {"lon": 0.26516, "lat": 49.50296}}, {"id": 3362324, "name": "Roggebaai", "country": "ZA", "coord": {"lon": 18.433331, "lat": -33.916672}}, {"id": 2845871, "name": "Roggenbach", "country": "DE", "coord": {"lon": 8.36667, "lat": 48.083328}}, {"id": 6557190, "name": "Roggenburg", "country": "DE", "coord": {"lon": 10.2333, "lat": 48.283298}}, {"id": 2845863, "name": "Roggenburg", "country": "DE", "coord": {"lon": 10.23136, "lat": 48.275879}}, {"id": 6548216, "name": "Roggendorf", "country": "DE", "coord": {"lon": 11.0167, "lat": 53.700001}}, {"id": 2845858, "name": "Roggendorf", "country": "DE", "coord": {"lon": 11.01667, "lat": 53.700001}}, {"id": 2845857, "name": "Roggenhagen", "country": "DE", "coord": {"lon": 13.41667, "lat": 53.666672}}, {"id": 2845852, "name": "Roggenstede", "country": "DE", "coord": {"lon": 7.48333, "lat": 53.633331}}, {"id": 6548217, "name": "Roggenstorf", "country": "DE", "coord": {"lon": 11.0667, "lat": 53.916698}}, {"id": 2845845, "name": "Roggenstorf", "country": "DE", "coord": {"lon": 11.06667, "lat": 53.916672}}, {"id": 6548019, "name": "Roggentin", "country": "DE", "coord": {"lon": 12.8833, "lat": 53.333302}}, {"id": 2845842, "name": "Roggentin", "country": "DE", "coord": {"lon": 12.88333, "lat": 53.333328}}, {"id": 6547792, "name": "Roggentin", "country": "DE", "coord": {"lon": 12.2034, "lat": 54.0709}}, {"id": 2845840, "name": "Roggentin", "country": "DE", "coord": {"lon": 12.2, "lat": 54.066669}}, {"id": 2845835, "name": "Roggersing", "country": "DE", "coord": {"lon": 13.14149, "lat": 48.790039}},