[{"id": 1608057, "name": "Pak Chong", "country": "TH", "coord": {"lon": 101.416138, "lat": 14.70802}}, {"id": 7521305, "name": "Central Luzon", "country": "PH", "coord": {"lon": 120.797623, "lat": 15.30714}}, {"id": 1679435, "name": "Province of Zambales", "country": "PH", "coord": {"lon": 120.166672, "lat": 15.33333}}, {"id": 1706869, "name": "Leley", "country": "PH", "coord": {"lon": 120.236, "lat": 15.1201}}, {"id": 331743, "name": "Mai Albo", "country": "ER", "coord": {"lon": 38.5, "lat": 15.11667}}, {"id": 2453347, "name": "R\u00e9gion de Mopti", "country": "ML", "coord": {"lon": -4, "lat": 14.66667}}, {"id": 2449661, "name": "Til\u00e8ya", "country": "ML", "coord": {"lon": -1.51733, "lat": 15.18771}}, {"id": 1679859, "name": "Villar", "country": "PH", "coord": {"lon": 120.2369, "lat": 15.1831}}, {"id": 2249221, "name": "R\u00e9gion de Louga", "country": "SN", "coord": {"lon": -15.47192, "lat": 15.44748}}, {"id": 2244122, "name": "V\u00e8ndou S\u00e9no", "country": "SN", "coord": {"lon": -15.0865, "lat": 15.2707}}, {"id": 71132, "name": "Sanaa", "country": "YE", "coord": {"lon": 44.4249, "lat": 15.26069}}, {"id": 6940801, "name": "Bani Matar", "country": "YE", "coord": {"lon": 44.049801, "lat": 15.215}}, {"id": 79133, "name": "Al Khasamah", "country": "YE", "coord": {"lon": 44.102188, "lat": 15.32345}}, {"id": 330867, "name": "Mescul", "country": "ER", "coord": {"lon": 37.5, "lat": 15.3}}, {"id": 344674, "name": "Agametta", "country": "ER", "coord": {"lon": 39.216671, "lat": 15.33333}}, {"id": 1608526, "name": "Changwat Nakhon Sawan", "country": "TH", "coord": {"lon": 100.083328, "lat": 15.7}}, {"id": 1616236, "name": "Ban Nam Song", "country": "TH", "coord": {"lon": 100.083328, "lat": 15.46667}}, {"id": 1599922, "name": "Ban Nong Rang Ka", "country": "TH", "coord": {"lon": 102.01667, "lat": 15.46667}}, {"id": 2457161, "name": "R\u00e9gion de Gao", "country": "ML", "coord": {"lon": 1.63696, "lat": 16.63619}}, {"id": 2448705, "name": "Wagaman", "country": "ML", "coord": {"lon": 2.0368, "lat": 15.45}}, {"id": 3613358, "name": "Departamento de Col\u00f3n", "country": "HN", "coord": {"lon": -85.666672, "lat": 15.75}}, {"id": 3614736, "name": "Boca de Hule", "country": "HN", "coord": {"lon": -85.550003, "lat": 15.5}}, {"id": 1608899, "name": "Changwat Maha Sarakham", "country": "TH", "coord": {"lon": 103.666672, "lat": 16.33333}}, {"id": 1610510, "name": "Kae Dam", "country": "TH", "coord": {"lon": 103.384438, "lat": 16.02397}}, {"id": 6201195, "name": "Mu\u1e29\u0101faz\u0327at \u1e28ajjah", "country": "YE", "coord": {"lon": 43.25, "lat": 16}}, {"id": 6940589, "name": "Abs", "country": "YE", "coord": {"lon": 43.0485, "lat": 16.0215}}, {"id": 34915, "name": "Dayr al \u1e28is\u012b", "country": "YE", "coord": {"lon": 43.099998, "lat": 16.049999}}, {"id": 74222, "name": "Mu\u1e29\u0101faz\u0327at al Jawf", "country": "YE", "coord": {"lon": 45.5243, "lat": 16.597401}}, {"id": 6940701, "name": "Al Maslub", "country": "YE", "coord": {"lon": 44.5667, "lat": 16.0961}}, {"id": 71622, "name": "Rakkat al \u2018Askar\u012b", "country": "YE", "coord": {"lon": 44.48333, "lat": 16.15}}, {"id": 3531011, "name": "Estado de Chiapas", "country": "MX", "coord": {"lon": -92.5, "lat": 16.5}}, {"id": 3816597, "name": "Las Maravillas", "country": "MX", "coord": {"lon": -92.98333, "lat": 16.25}}, {"id": 2246451, "name": "R\u00e9gion de Saint-Louis", "country": "SN", "coord": {"lon": -15, "lat": 16.33333}}, {"id": 2250139, "name": "Keur Mor Ibra", "country": "SN", "coord": {"lon": -15.42222, "lat": 16.3375}}, {"id": 1604767, "name": "Changwat Yasothon", "country": "TH", "coord": {"lon": 104.133331, "lat": 15.75}}, {"id": 1611884, "name": "Ban Wang Pong", "country": "TH", "coord": {"lon": 100.404556, "lat": 17.51972}}, {"id": 1906686, "name": "Changwat Udon Thani", "country": "TH", "coord": {"lon": 102.833328, "lat": 17.33333}}, {"id": 7680198, "name": "Ban Laem Thong Phatthana", "country": "TH", "coord": {"lon": 102.417671, "lat": 17.506969}}, {"id": 8136321, "name": "Ban Na Lap Laeng", "country": "TH", "coord": {"lon": 100.259499, "lat": 17.516171}}, {"id": 1604054, "name": "Ban Dan Mae Kham Man Nuea", "country": "TH", "coord": {"lon": 99.956306, "lat": 17.538639}}, {"id": 3499976, "name": "La Venta", "country": "DO", "coord": {"lon": -69.966667, "lat": 18.48333}}, {"id": 3491913, "name": "Villas Agr\u00edcolas N\u00famero Dos", "country": "DO", "coord": {"lon": -69.949997, "lat": 18.48333}}, {"id": 3496751, "name": "Marmolejos", "country": "DO", "coord": {"lon": -69.949997, "lat": 18.5}}, {"id": 3512407, "name": "Arroyo Hondo", "country": "DO", "coord": {"lon": -69.949997, "lat": 18.5}}, {"id": 3503706, "name": "Provincia de La Altagracia", "country": "DO", "coord": {"lon": -68.633331, "lat": 18.58333}}, {"id": 3495694, "name": "Otra Banda", "country": "DO", "coord": {"lon": -68.662811, "lat": 18.65016}}, {"id": 1119013, "name": "Ban Mae Wan", "country": "TH", "coord": {"lon": 99.233673, "lat": 18.962561}}, {"id": 2449893, "name": "Tessalit", "country": "ML", "coord": {"lon": 1.01139, "lat": 20.19861}}, {"id": 1294701, "name": "Tanaunghla", "country": "MM", "coord": {"lon": 95.51667, "lat": 20.48333}}, {"id": 3520914, "name": "Estado de Quer\u00e9taro de Arteaga", "country": "MX", "coord": {"lon": -99.916672, "lat": 21}}, {"id": 1292118, "name": "Thayetchin", "country": "MM", "coord": {"lon": 94.550003, "lat": 21.066669}}, {"id": 1286764, "name": "W\u0101n Yamp\u0113ng", "country": "MM", "coord": {"lon": 99.366669, "lat": 21.16667}}, {"id": 2425714, "name": "Serd\u00e9g\u00e9", "country": "TD", "coord": {"lon": 17.01667, "lat": 21.33333}}, {"id": 1318433, "name": "Kongm\u00f6ng", "country": "MM", "coord": {"lon": 97.449997, "lat": 22.549999}}, {"id": 1809935, "name": "Guangdong Sheng", "country": "CN", "coord": {"lon": 113, "lat": 23}}, {"id": 1292572, "name": "Thanbankyun", "country": "MM", "coord": {"lon": 97.133331, "lat": 24.15}}, {"id": 108210, "name": "Ash Shubram\u012byah", "country": "SA", "coord": {"lon": 44.130001, "lat": 24.253611}}, {"id": 1268980, "name": "Jharol", "country": "IN", "coord": {"lon": 73.466667, "lat": 24.4}}, {"id": 108947, "name": "Qa\u015fr al Quraynah", "country": "SA", "coord": {"lon": 46.421291, "lat": 24.46747}}, {"id": 1668284, "name": "Taiwan", "country": "TW", "coord": {"lon": 121, "lat": 24}}, {"id": 7280291, "name": "Taiwan", "country": "TW", "coord": {"lon": 120.705406, "lat": 24.15114}}, {"id": 1668841, "name": "Siji", "country": "TW", "coord": {"lon": 121.426109, "lat": 24.48694}}, {"id": 1185958, "name": "Tul\u0101p\u0101ra", "country": "BD", "coord": {"lon": 89.23333, "lat": 24.51667}}, {"id": 1298480, "name": "Sagaing Division", "country": "MM", "coord": {"lon": 95.5, "lat": 23.5}}, {"id": 2508807, "name": "Wilaya d\u2019 Adrar", "country": "DZ", "coord": {"lon": -1, "lat": 25.75}}, {"id": 2507678, "name": "Akabli", "country": "DZ", "coord": {"lon": 1.37528, "lat": 26.708281}}, {"id": 392343, "name": "Al F\u0101\u1e11il\u012b", "country": "SA", "coord": {"lon": 49.174511, "lat": 26.98016}}, {"id": 2462900, "name": "Ad Dchira", "country": "EH", "coord": {"lon": -13.05194, "lat": 27.02611}}, {"id": 1312356, "name": "Mahkawshan", "country": "MM", "coord": {"lon": 97.23333, "lat": 27.26667}}, {"id": 1257896, "name": "Sadabad", "country": "IN", "coord": {"lon": 78.050003, "lat": 27.450001}}, {"id": 2510769, "name": "Kingdom of Spain", "country": "ES", "coord": {"lon": -4, "lat": 40}}, {"id": 2593110, "name": "Comunidad Aut\u00f3noma de Canarias", "country": "ES", "coord": {"lon": -15.5, "lat": 28}}, {"id": 6354970, "name": "Puerto Rico", "country": "ES", "coord": {"lon": -15.71045, "lat": 27.789431}}, {"id": 127082, "name": "Ost\u0101n-e Kh\u016bzest\u0101n", "country": "IR", "coord": {"lon": 49, "lat": 31.5}}, {"id": 98862, "name": "Mu\u1e29\u0101faz\u0327at an Najaf", "country": "IQ", "coord": {"lon": 43.833328, "lat": 31.25}}, {"id": 94589, "name": "Ra\u1e29bah", "country": "IQ", "coord": {"lon": 44.314999, "lat": 31.73357}}, {"id": 1806260, "name": "Jiangsu Sheng", "country": "CN", "coord": {"lon": 120, "lat": 33}}, {"id": 1790100, "name": "Xiaolingwei", "country": "CN", "coord": {"lon": 118.849998, "lat": 32.033329}}, {"id": 1859181, "name": "Kobaruyama", "country": "JP", "coord": {"lon": 131.283325, "lat": 32.01667}}, {"id": 1474856, "name": "D\u00ea Kan\u0101t-e La\u0163\u012bf", "country": "AF", "coord": {"lon": 65.039543, "lat": 32.107262}}, {"id": 1133835, "name": "Marghakay", "country": "AF", "coord": {"lon": 68.178207, "lat": 32.144299}}, {"id": 1140382, "name": "Khadzhi-Alam-Kalay", "country": "AF", "coord": {"lon": 65.536209, "lat": 32.31834}}, {"id": 1461264, "name": "Qaryah-ye Band Now", "country": "AF", "coord": {"lon": 63.382301, "lat": 32.360828}}, {"id": 1122162, "name": "T\u014dngar", "country": "AF", "coord": {"lon": 66.452667, "lat": 32.383301}}, {"id": 1148416, "name": "Aril", "country": "AF", "coord": {"lon": 67.389381, "lat": 32.453541}}, {"id": 94823, "name": "Mu\u1e29\u0101faz\u0327at Karbal\u0101\u2019", "country": "IQ", "coord": {"lon": 43.833328, "lat": 32.5}}, {"id": 6780871, "name": "\u1e28asan Y\u016bsuf", "country": "IQ", "coord": {"lon": 44.273621, "lat": 32.479019}}, {"id": 7106997, "name": "Kh\u00ean\u1e0faka\u012b Karam Z\u0101way", "country": "AF", "coord": {"lon": 69.142174, "lat": 32.532841}}, {"id": 1433879, "name": "K\u0101k\u0101 Kh\u0113l", "country": "AF", "coord": {"lon": 69.266472, "lat": 32.53952}}, {"id": 2496045, "name": "Wilaya de Gharda\u00efa", "country": "DZ", "coord": {"lon": 3.16667, "lat": 31.08333}}, {"id": 2496049, "name": "Gharda\u00efa", "country": "DZ", "coord": {"lon": 3.67347, "lat": 32.49094}}, {"id": 1179245, "name": "Federally Administered Tribal Areas", "country": "PK", "coord": {"lon": 69.999252, "lat": 33.014549}}, {"id": 1852748, "name": "Sembonyama", "country": "JP", "coord": {"lon": 129.850006, "lat": 32.700001}}, {"id": 2264397, "name": "Portuguese Republic", "country": "PT", "coord": {"lon": -8, "lat": 39.5}}, {"id": 2593105, "name": "Regi\u00e3o Aut\u00f3noma da Madeira", "country": "PT", "coord": {"lon": -16.75, "lat": 32.666672}}, {"id": 1121941, "name": "\u016ar\u0101yin-e \u2018Uly\u0101", "country": "AF", "coord": {"lon": 62.182041, "lat": 33.24662}}, {"id": 4445717, "name": "Shavers (historical)", "country": "US", "coord": {"lon": -88.530037, "lat": 33.25568}}, {"id": 5524819, "name": "Lakeview", "country": "US", "coord": {"lon": -102.050453, "lat": 33.326481}}, {"id": 2538470, "name": "R\u00e9gion de Rabat-Sal\u00e9-Zemmour-Za\u00ebr", "country": "MA", "coord": {"lon": -6.33333, "lat": 33.75}}, {"id": 4180067, "name": "Apollo (historical)", "country": "US", "coord": {"lon": -83.527672, "lat": 33.36541}}, {"id": 1435246, "name": "Kh\u0101n\u012b-ye \u2018Uly\u0101", "country": "AF", "coord": {"lon": 68.530434, "lat": 33.386532}}, {"id": 1856566, "name": "Morizane", "country": "JP", "coord": {"lon": 131.033325, "lat": 33.400002}}, {"id": 4694710, "name": "Grayson County", "country": "US", "coord": {"lon": -96.683601, "lat": 33.616772}}, {"id": 1852025, "name": "Shiobaru", "country": "JP", "coord": {"lon": 130.433334, "lat": 33.566669}}, {"id": 138327, "name": "Jowk\u0101n", "country": "IR", "coord": {"lon": 51.258701, "lat": 33.610401}}, {"id": 1854029, "name": "Ono", "country": "JP", "coord": {"lon": 134.366669, "lat": 33.98333}}, {"id": 1168197, "name": "Peshawar", "country": "PK", "coord": {"lon": 71.578491, "lat": 34.007999}}, {"id": 2565327, "name": "Al Ha\u00efmriyine", "country": "MA", "coord": {"lon": -6.01, "lat": 34.169998}}, {"id": 5368381, "name": "Los Angeles County", "country": "US", "coord": {"lon": -118.200912, "lat": 34.366661}}, {"id": 1462157, "name": "Shiwnah Takhak", "country": "AF", "coord": {"lon": 67.011597, "lat": 34.21674}}, {"id": 4187459, "name": "Chattooga County", "country": "US", "coord": {"lon": -85.33329, "lat": 34.466751}}, {"id": 4224239, "name": "Sprite", "country": "US", "coord": {"lon": -85.39579, "lat": 34.288429}}, {"id": 1856207, "name": "Nagao", "country": "JP", "coord": {"lon": 134.166672, "lat": 34.26667}}, {"id": 1796480, "name": "Shaanxi", "country": "CN", "coord": {"lon": 109, "lat": 36}}, {"id": 2001378, "name": "Weiyanggong", "country": "CN", "coord": {"lon": 108.910583, "lat": 34.28936}}, {"id": 4589213, "name": "Newberry County", "country": "US", "coord": {"lon": -81.616501, "lat": 34.30014}}, {"id": 4587774, "name": "Mount Bethel (historical)", "country": "US", "coord": {"lon": -81.562332, "lat": 34.3382}}, {"id": 4583989, "name": "Kershaw County", "country": "US", "coord": {"lon": -80.56646, "lat": 34.45015}}, {"id": 1129953, "name": "K\u0101ns\u012b Sufl\u00e1", "country": "AF", "coord": {"lon": 65.254913, "lat": 34.528061}}, {"id": 1470705, "name": "Dahan-e Akhtah Kh\u0101nah", "country": "AF", "coord": {"lon": 65.169777, "lat": 34.509521}}, {"id": 1141133, "name": "Ghurumb\u0101w", "country": "AF", "coord": {"lon": 63.02243, "lat": 34.539558}}, {"id": 1865721, "name": "Ageki", "country": "JP", "coord": {"lon": 136.516663, "lat": 35.150002}}, {"id": 1862978, "name": "Hayashi", "country": "JP", "coord": {"lon": 139.633331, "lat": 35.216671}}, {"id": 1860310, "name": "Kamonomiya", "country": "JP", "coord": {"lon": 139.183334, "lat": 35.283329}}, {"id": 260096, "name": "Nom\u00f3s Chani\u00e1s", "country": "GR", "coord": {"lon": 24, "lat": 35.333328}}, {"id": 5306372, "name": "Nelson", "country": "US", "coord": {"lon": -113.320213, "lat": 35.51416}}, {"id": 1907255, "name": "Koyasu", "country": "JP", "coord": {"lon": 139.255554, "lat": 35.41806}}, {"id": 1907235, "name": "Miyanomae", "country": "JP", "coord": {"lon": 139.392776, "lat": 35.422779}}, {"id": 4550954, "name": "Schoolton", "country": "US", "coord": {"lon": -96.458618, "lat": 35.391739}}, {"id": 6419788, "name": "Kubota", "country": "JP", "coord": {"lon": 140.008331, "lat": 35.453331}}, {"id": 4460324, "name": "Chatham County", "country": "US", "coord": {"lon": -79.266411, "lat": 35.700142}}, {"id": 1852278, "name": "Shimo-kodanaka", "country": "JP", "coord": {"lon": 139.633331, "lat": 35.566669}}, {"id": 1864381, "name": "Denench\u014dfu", "country": "JP", "coord": {"lon": 139.666672, "lat": 35.583328}}, {"id": 1855301, "name": "Nishi-hanawa", "country": "JP", "coord": {"lon": 138.533325, "lat": 35.583328}}, {"id": 1907157, "name": "Fujino", "country": "JP", "coord": {"lon": 139.143066, "lat": 35.606392}}, {"id": 1865090, "name": "Asagaya", "country": "JP", "coord": {"lon": 139.649994, "lat": 35.700001}}, {"id": 1864231, "name": "Egotamachi", "country": "JP", "coord": {"lon": 139.666672, "lat": 35.73333}}, {"id": 1864878, "name": "Awatabe", "country": "JP", "coord": {"lon": 136.239395, "lat": 35.915611}}, {"id": 1854022, "name": "Ono", "country": "JP", "coord": {"lon": 136.487274, "lat": 35.98106}}, {"id": 4619773, "name": "Dyer County", "country": "US", "coord": {"lon": -89.40007, "lat": 36.050072}}, {"id": 4652680, "name": "Rehoboth", "country": "US", "coord": {"lon": -89.25563, "lat": 36.032291}}, {"id": 2110809, "name": "Tateno", "country": "JP", "coord": {"lon": 140.116669, "lat": 36.033329}}, {"id": 1848119, "name": "Yugawa", "country": "JP", "coord": {"lon": 138.233337, "lat": 36.033329}}, {"id": 2111043, "name": "Shiogasaki", "country": "JP", "coord": {"lon": 140.550003, "lat": 36.333328}}, {"id": 6355530, "name": "Almer\u00eda", "country": "ES", "coord": {"lon": -2.42778, "lat": 36.772511}}, {"id": 2515136, "name": "La Vega de Ac\u00e1", "country": "ES", "coord": {"lon": -2.43526, "lat": 36.836449}}, {"id": 1845106, "name": "Ch\u2019ungch\u2019\u014fng-bukto", "country": "KR", "coord": {"lon": 128, "lat": 36.75}}, {"id": 6357744, "name": "Monachil", "country": "ES", "coord": {"lon": -3.54034, "lat": 37.13715}}, {"id": 4896861, "name": "Illinois", "country": "US", "coord": {"lon": -89.250366, "lat": 40.00032}}, {"id": 4748806, "name": "Breaks", "country": "US", "coord": {"lon": -82.280983, "lat": 37.29594}}, {"id": 6802827, "name": "\uad34\ub0b4", "country": "KR", "coord": {"lon": 127.320099, "lat": 37.507198}}, {"id": 2520437, "name": "Campillo de Adentro", "country": "ES", "coord": {"lon": -1.1491, "lat": 37.563431}}, {"id": 1890085, "name": "Tangp\u2019y\u014fng", "country": "KR", "coord": {"lon": 128.038773, "lat": 37.570621}}, {"id": 6541770, "name": "Pedara", "country": "IT", "coord": {"lon": 15.05669, "lat": 37.616852}}, {"id": 5341170, "name": "Curry Village", "country": "US", "coord": {"lon": -119.572662, "lat": 37.73687}}, {"id": 5413481, "name": "Bent County", "country": "US", "coord": {"lon": -103.067146, "lat": 37.966671}}, {"id": 5436536, "name": "Riverdale", "country": "US", "coord": {"lon": -103.316597, "lat": 38.05862}}, {"id": 1833702, "name": "Umulmok", "country": "KR", "coord": {"lon": 127.316673, "lat": 38.049999}}, {"id": 5435436, "name": "Prowers County", "country": "US", "coord": {"lon": -102.400467, "lat": 37.966679}}, {"id": 6537734, "name": "Altofonte", "country": "IT", "coord": {"lon": 13.29624, "lat": 38.042049}}, {"id": 8133884, "name": "Dimos Mandra-Eidyllia", "country": "GR", "coord": {"lon": 23.361919, "lat": 38.141659}}, {"id": 6367618, "name": "My\u014fngw\u014fli-ri", "country": "KR", "coord": {"lon": 127.544724, "lat": 38.121941}}, {"id": 4048572, "name": "Rowan County", "country": "US", "coord": {"lon": -83.433243, "lat": 38.183411}}, {"id": 2114152, "name": "Aone", "country": "JP", "coord": {"lon": 140.533615, "lat": 38.141941}}, {"id": 6542127, "name": "Palermo", "country": "IT", "coord": {"lon": 13.36143, "lat": 38.115719}}, {"id": 2524002, "name": "Noce", "country": "IT", "coord": {"lon": 13.33333, "lat": 38.116669}}, {"id": 5354590, "name": "Guadalcanal Village", "country": "US", "coord": {"lon": -122.293861, "lat": 38.11853}}, {"id": 2525587, "name": "Basilic\u00f2", "country": "IT", "coord": {"lon": 15.83333, "lat": 38.166672}}, {"id": 5539525, "name": "Garfield County", "country": "US", "coord": {"lon": -111.501282, "lat": 37.750542}}, {"id": 2525635, "name": "Badiazza", "country": "IT", "coord": {"lon": 15.53333, "lat": 38.216671}}, {"id": 2525104, "name": "Castanea delle Furie", "country": "IT", "coord": {"lon": 15.51667, "lat": 38.25}}, {"id": 5446275, "name": "Ravanna", "country": "US", "coord": {"lon": -100.382362, "lat": 38.15974}}, {"id": 2518759, "name": "El \u00c1guila", "country": "ES", "coord": {"lon": -5.01667, "lat": 38.299999}}, {"id": 6697800, "name": "Central Greece", "country": "GR", "coord": {"lon": 23.13995, "lat": 38.352428}}, {"id": 5435465, "name": "Pueblo County", "country": "US", "coord": {"lon": -104.483856, "lat": 38.183338}}, {"id": 5435047, "name": "Poncha Springs", "country": "US", "coord": {"lon": -106.07724, "lat": 38.512779}}, {"id": 8010625, "name": "Set\u00fabal", "country": "PT", "coord": {"lon": -8.90817, "lat": 38.517422}}, {"id": 8013161, "name": "S\u00e3o Louren\u00e7o", "country": "PT", "coord": {"lon": -9.0042, "lat": 38.4897}}, {"id": 2261633, "name": "Vila Nogueira de Azeit\u00e3o", "country": "PT", "coord": {"lon": -9.01667, "lat": 38.51667}}, {"id": 5376101, "name": "Napa County", "country": "US", "coord": {"lon": -122.334419, "lat": 38.483238}}, {"id": 5386729, "name": "Redbud Park (historical)", "country": "US", "coord": {"lon": -122.137199, "lat": 38.519348}}, {"id": 5396498, "name": "Sloughhouse", "country": "US", "coord": {"lon": -121.19384, "lat": 38.495739}}, {"id": 304825, "name": "Manisa", "country": "TR", "coord": {"lon": 28.16667, "lat": 38.833328}}, {"id": 5420926, "name": "El Paso County", "country": "US", "coord": {"lon": -104.517189, "lat": 38.833328}}, {"id": 5442076, "name": "Truckton", "country": "US", "coord": {"lon": -104.182182, "lat": 38.738049}}, {"id": 6697810, "name": "West Greece", "country": "GR", "coord": {"lon": 21.2915, "lat": 38.487991}}, {"id": 265508, "name": "Nom\u00f3s Aitol\u00edas kai Akarnan\u00edas", "country": "GR", "coord": {"lon": 21.5, "lat": 38.5}}, {"id": 8133845, "name": "Dimos Agrinio", "country": "GR", "coord": {"lon": 21.45495, "lat": 38.65316}}, {"id": 2512177, "name": "Puertollano", "country": "ES", "coord": {"lon": -4.10734, "lat": 38.687119}}, {"id": 5445498, "name": "Grainfield", "country": "US", "coord": {"lon": -100.465141, "lat": 39.113621}}, {"id": 6697806, "name": "North Aegean", "country": "GR", "coord": {"lon": 25.345461, "lat": 39.563351}}, {"id": 258465, "name": "Nom\u00f3s L\u00e9svou", "country": "GR", "coord": {"lon": 26.33333, "lat": 39.166672}}, {"id": 8133755, "name": "Dimos Lesbos", "country": "GR", "coord": {"lon": 26.24251, "lat": 39.1698}}, {"id": 256757, "name": "Moria", "country": "GR", "coord": {"lon": 26.51667, "lat": 39.133331}}, {"id": 5427526, "name": "Kit Carson County", "country": "US", "coord": {"lon": -102.567139, "lat": 39.299992}}, {"id": 8012995, "name": "Parreira", "country": "PT", "coord": {"lon": -8.39014, "lat": 39.15081}}, {"id": 6538065, "name": "Monserrato", "country": "IT", "coord": {"lon": 9.14704, "lat": 39.259941}}, {"id": 306536, "name": "K\u00f6pr\u00fcba\u015f\u0131", "country": "TR", "coord": {"lon": 31.216669, "lat": 39.283329}}, {"id": 6355316, "name": "Casas-Ib\u00e1\u00f1ez", "country": "ES", "coord": {"lon": -1.44083, "lat": 39.333199}}, {"id": 5514336, "name": "Vanderbilt (historical)", "country": "US", "coord": {"lon": -115.978394, "lat": 39.424648}}, {"id": 2112569, "name": "Ishiwaki", "country": "JP", "coord": {"lon": 140.050003, "lat": 39.383331}}, {"id": 5446632, "name": "Thomas County", "country": "US", "coord": {"lon": -101.05043, "lat": 39.349998}}, {"id": 6970803, "name": "A\u015fa\u011f\u0131 Alada\u011f", "country": "TR", "coord": {"lon": 43.035519, "lat": 39.420959}}, {"id": 2520543, "name": "Calder\u00f3n", "country": "ES", "coord": {"lon": -1.18333, "lat": 39.533329}}, {"id": 5424440, "name": "Harris Park", "country": "US", "coord": {"lon": -105.491112, "lat": 39.511662}}, {"id": 258575, "name": "Nom\u00f3s Lar\u00edsis", "country": "GR", "coord": {"lon": 22.5, "lat": 39.5}}, {"id": 5095971, "name": "Brindletown", "country": "US", "coord": {"lon": -74.50515, "lat": 40.04734}}, {"id": 5576103, "name": "Crisman", "country": "US", "coord": {"lon": -105.361382, "lat": 40.040821}}, {"id": 3173418, "name": "Mileo", "country": "IT", "coord": {"lon": 16.01667, "lat": 40.049999}}, {"id": 751916, "name": "Ar\u0131kl\u0131ba\u011flar\u0131", "country": "TR", "coord": {"lon": 32.349998, "lat": 40.049999}}, {"id": 5583173, "name": "Ward", "country": "US", "coord": {"lon": -105.508331, "lat": 40.072208}}, {"id": 3172153, "name": "Provincia di Nuoro", "country": "IT", "coord": {"lon": 9.33333, "lat": 40.166672}}, {"id": 5074889, "name": "Pawnee City", "country": "US", "coord": {"lon": -96.154449, "lat": 40.10833}}, {"id": 5162774, "name": "Miami County", "country": "US", "coord": {"lon": -84.233276, "lat": 40.050049}}, {"id": 5162767, "name": "Meyers (historical)", "country": "US", "coord": {"lon": -84.317169, "lat": 40.131439}}, {"id": 2520610, "name": "Provincia de C\u00e1ceres", "country": "ES", "coord": {"lon": -6.37482, "lat": 39.522049}}, {"id": 6356806, "name": "Madrigal de la Vera", "country": "ES", "coord": {"lon": -5.36707, "lat": 40.19006}}, {"id": 3117727, "name": "Madrigal de la Vera", "country": "ES", "coord": {"lon": -5.36818, "lat": 40.147598}}, {"id": 2523962, "name": "Provincia di Oristano", "country": "IT", "coord": {"lon": 8.6, "lat": 39.900002}}, {"id": 6539357, "name": "Cuglieri", "country": "IT", "coord": {"lon": 8.56642, "lat": 40.18795}}, {"id": 8010485, "name": "Figueira da Foz", "country": "PT", "coord": {"lon": -8.80609, "lat": 40.158249}}, {"id": 5565500, "name": "Humboldt County", "country": "US", "coord": {"lon": -123.917831, "lat": 40.666519}}, {"id": 5565253, "name": "Honeydew", "country": "US", "coord": {"lon": -124.122818, "lat": 40.244308}}, {"id": 8133764, "name": "Dimos Kozani", "country": "GR", "coord": {"lon": 21.83445, "lat": 40.312981}}, {"id": 735563, "name": "Kozani", "country": "GR", "coord": {"lon": 21.78639, "lat": 40.301109}}, {"id": 5171871, "name": "Shelby County", "country": "US", "coord": {"lon": -84.183281, "lat": 40.316719}}, {"id": 7729130, "name": "Lakeside Village", "country": "US", "coord": {"lon": -84.184998, "lat": 40.293892}}, {"id": 5560570, "name": "Bull Creek", "country": "US", "coord": {"lon": -124.026428, "lat": 40.33569}}, {"id": 5444907, "name": "Yuma County", "country": "US", "coord": {"lon": -102.433807, "lat": 39.983318}}, {"id": 6359301, "name": "Loeches", "country": "ES", "coord": {"lon": -3.42061, "lat": 40.382851}}, {"id": 5771084, "name": "Barro", "country": "US", "coord": {"lon": -113.488876, "lat": 40.726879}}, {"id": 1528919, "name": "Ak-Shor", "country": "KG", "coord": {"lon": 72.209633, "lat": 40.44574}}, {"id": 2130204, "name": "Hachinohe", "country": "JP", "coord": {"lon": 141.491943, "lat": 40.505001}}, {"id": 5081111, "name": "Verona", "country": "US", "coord": {"lon": -97.966164, "lat": 40.553619}}, {"id": 735764, "name": "Chortiatis", "country": "GR", "coord": {"lon": 23.09963, "lat": 40.610481}}, {"id": 3170027, "name": "Potenza", "country": "IT", "coord": {"lon": 15.80857, "lat": 40.644321}}, {"id": 3336900, "name": "Castilla y Le\u00f3n", "country": "ES", "coord": {"lon": -4.25, "lat": 41.666672}}, {"id": 6360513, "name": "Salamanca", "country": "ES", "coord": {"lon": -5.68022, "lat": 40.955971}}, {"id": 5171643, "name": "Seneca County", "country": "US", "coord": {"lon": -83.116577, "lat": 41.116718}}, {"id": 5172848, "name": "Springville", "country": "US", "coord": {"lon": -83.386589, "lat": 41.009781}}, {"id": 3179865, "name": "Provincia di Caserta", "country": "IT", "coord": {"lon": 14.16667, "lat": 41.23333}}, {"id": 3182649, "name": "Provincia di Avellino", "country": "IT", "coord": {"lon": 15.15, "lat": 40.98333}}, {"id": 2737650, "name": "Mira", "country": "PT", "coord": {"lon": -8.65, "lat": 41.049999}}, {"id": 5696463, "name": "Jacinto", "country": "US", "coord": {"lon": -103.404099, "lat": 41.225811}}, {"id": 734375, "name": "Nom\u00f3s Rod\u00f3pis", "country": "GR", "coord": {"lon": 25.5, "lat": 41.083328}}, {"id": 8133827, "name": "Dimos Komotini", "country": "GR", "coord": {"lon": 25.386499, "lat": 41.105381}}, {"id": 735640, "name": "Komotini", "country": "GR", "coord": {"lon": 25.396391, "lat": 41.12278}}, {"id": 6457401, "name": "Provincia di Olbia-Tempio", "country": "IT", "coord": {"lon": 9.49459, "lat": 40.922981}}, {"id": 6539586, "name": "Tempio Pausania", "country": "IT", "coord": {"lon": 9.10352, "lat": 40.897369}}, {"id": 3181038, "name": "Campavaglio", "country": "IT", "coord": {"lon": 9.23333, "lat": 41.133331}}, {"id": 733839, "name": "Nom\u00f3s X\u00e1nthis", "country": "GR", "coord": {"lon": 24.83333, "lat": 41.166672}}, {"id": 8133837, "name": "Dimos Xanthi", "country": "GR", "coord": {"lon": 24.766239, "lat": 41.208431}}, {"id": 4861712, "name": "Indiana", "country": "US", "coord": {"lon": -93.0252, "lat": 41.204441}}, {"id": 3336901, "name": "Catalunya", "country": "ES", "coord": {"lon": 1.86768, "lat": 41.820461}}, {"id": 3115175, "name": "Ol\u00e8rdola", "country": "ES", "coord": {"lon": 1.71667, "lat": 41.316669}}, {"id": 5205930, "name": "Pike County", "country": "US", "coord": {"lon": -75.124893, "lat": 41.50037}}, {"id": 4861743, "name": "Indiantown (historical)", "country": "US", "coord": {"lon": -95.108047, "lat": 41.312489}}, {"id": 5825405, "name": "Fort LaClede (historical)", "country": "US", "coord": {"lon": -108.389267, "lat": 41.415241}}, {"id": 3110921, "name": "Sant Adria de Besos", "country": "ES", "coord": {"lon": 2.21855, "lat": 41.430729}}, {"id": 3176885, "name": "Foggia", "country": "IT", "coord": {"lon": 15.54925, "lat": 41.46093}}, {"id": 1484841, "name": "Navoiy Province", "country": "UZ", "coord": {"lon": 64, "lat": 42}}, {"id": 1514595, "name": "Omontoy", "country": "UZ", "coord": {"lon": 64.266212, "lat": 41.322041}}, {"id": 4880695, "name": "Warren County", "country": "US", "coord": {"lon": -93.550217, "lat": 41.333328}}, {"id": 4870622, "name": "Palmyra", "country": "US", "coord": {"lon": -93.438271, "lat": 41.4361}}, {"id": 4926802, "name": "Steubenville", "country": "US", "coord": {"lon": -85.022743, "lat": 41.532269}}, {"id": 785389, "name": "Strovija", "country": "MK", "coord": {"lon": 21.410561, "lat": 41.563061}}, {"id": 6358797, "name": "Balaguer", "country": "ES", "coord": {"lon": 0.81691, "lat": 41.78809}}, {"id": 6355230, "name": "Prov\u00edncia de Girona", "country": "ES", "coord": {"lon": 2.81113, "lat": 41.989159}}, {"id": 3114964, "name": "Provincia de Ourense", "country": "ES", "coord": {"lon": -7.5, "lat": 42.166672}}, {"id": 3175264, "name": "La Giustiniana", "country": "IT", "coord": {"lon": 12.4, "lat": 41.98333}}, {"id": 5562484, "name": "Del Norte County", "country": "US", "coord": {"lon": -123.901176, "lat": 41.699841}}, {"id": 3120513, "name": "Provincia de Huesca", "country": "ES", "coord": {"lon": -0.16667, "lat": 42.166672}}, {"id": 732800, "name": "Republic of Bulgaria", "country": "BG", "coord": {"lon": 25, "lat": 43}}, {"id": 6360254, "name": "Vigo", "country": "ES", "coord": {"lon": -8.81206, "lat": 42.215488}}, {"id": 3130625, "name": "Alcabre", "country": "ES", "coord": {"lon": -8.76667, "lat": 42.216671}}, {"id": 3169411, "name": "Provincia di Rieti", "country": "IT", "coord": {"lon": 12.86667, "lat": 42.299999}}, {"id": 6536922, "name": "Frasso Sabino", "country": "IT", "coord": {"lon": 12.80558, "lat": 42.229832}}, {"id": 3176572, "name": "Frasso Sabino", "country": "IT", "coord": {"lon": 12.80558, "lat": 42.229832}}, {"id": 5128148, "name": "Mundale", "country": "US", "coord": {"lon": -75.049606, "lat": 42.25481}}, {"id": 5823980, "name": "Dwyer Junction", "country": "US", "coord": {"lon": -104.994972, "lat": 42.234692}}, {"id": 3180145, "name": "Casamaina", "country": "IT", "coord": {"lon": 13.38333, "lat": 42.25}}, {"id": 5610054, "name": "Three Creek", "country": "US", "coord": {"lon": -115.1595, "lat": 42.071301}}, {"id": 4932165, "name": "Camp Wyoma", "country": "US", "coord": {"lon": -73.125381, "lat": 42.428421}}, {"id": 5138846, "name": "South Gilboa Station", "country": "US", "coord": {"lon": -74.562653, "lat": 42.410912}}, {"id": 3119944, "name": "Labor del Rey", "country": "ES", "coord": {"lon": -6.40021, "lat": 42.48547}}, {"id": 5138935, "name": "South New Berlin", "country": "US", "coord": {"lon": -75.385178, "lat": 42.529518}}, {"id": 1538652, "name": "Ch\u00fcy", "country": "KG", "coord": {"lon": 74.5, "lat": 42.416672}}, {"id": 8064044, "name": "Ala-Archa Al\u2019plegri", "country": "KG", "coord": {"lon": 74.482483, "lat": 42.562351}}, {"id": 4936231, "name": "Farnams", "country": "US", "coord": {"lon": -73.185661, "lat": 42.541752}}, {"id": 4997811, "name": "Kalamo", "country": "US", "coord": {"lon": -85.012772, "lat": 42.542809}}, {"id": 6426205, "name": "Garanou", "country": "FR", "coord": {"lon": 1.75, "lat": 42.76667}}, {"id": 6538616, "name": "Foligno", "country": "IT", "coord": {"lon": 12.70107, "lat": 42.944038}}, {"id": 3129116, "name": "Ayazaza", "country": "ES", "coord": {"lon": -2.93794, "lat": 43.130219}}, {"id": 2985244, "name": "R\u00e9gion Provence-Alpes-C\u00f4te d'Azur", "country": "FR", "coord": {"lon": 6, "lat": 44}}, {"id": 2970749, "name": "D\u00e9partement du Var", "country": "FR", "coord": {"lon": 6.33333, "lat": 43.5}}, {"id": 2990918, "name": "Arrondissement de Narbonne", "country": "FR", "coord": {"lon": 2.83333, "lat": 43.083328}}, {"id": 6325394, "name": "Sorabilla", "country": "ES", "coord": {"lon": -2.03511, "lat": 43.210419}}, {"id": 6362424, "name": "Sestao", "country": "ES", "coord": {"lon": -2.99444, "lat": 43.306519}}, {"id": 6431494, "name": "Carbonne", "country": "FR", "coord": {"lon": 1.23333, "lat": 43.299999}}, {"id": 3028652, "name": "Carbonne", "country": "FR", "coord": {"lon": 1.2252, "lat": 43.298569}}, {"id": 2995468, "name": "Arrondissement de Marseille", "country": "FR", "coord": {"lon": 5.5, "lat": 43.333328}}, {"id": 6357275, "name": "Arteixo", "country": "ES", "coord": {"lon": -8.51835, "lat": 43.328159}}, {"id": 3104580, "name": "Vi\u00f1as", "country": "ES", "coord": {"lon": -8.41667, "lat": 43.349998}}, {"id": 2977584, "name": "Saint-Pierre", "country": "FR", "coord": {"lon": 5.05324, "lat": 43.37009}}, {"id": 6440420, "name": "Ilharre", "country": "FR", "coord": {"lon": -1.03333, "lat": 43.383331}}, {"id": 793760, "name": "Golov\u0161a", "country": "RS", "coord": {"lon": 20.35611, "lat": 43.476391}}, {"id": 6360653, "name": "Arnuero", "country": "ES", "coord": {"lon": -3.55729, "lat": 43.49308}}, {"id": 3112595, "name": "Quejo", "country": "ES", "coord": {"lon": -3.54806, "lat": 43.49667}}, {"id": 5586500, "name": "Bonneville County", "country": "US", "coord": {"lon": -111.50106, "lat": 43.41658}}, {"id": 5609454, "name": "Swan Valley", "country": "US", "coord": {"lon": -111.341621, "lat": 43.456032}}, {"id": 3269932, "name": "Tinje", "country": "BA", "coord": {"lon": 18.18417, "lat": 43.521671}}, {"id": 6542090, "name": "Cascina", "country": "IT", "coord": {"lon": 10.49941, "lat": 43.679138}}, {"id": 6620318, "name": "Capraia Fiorentina", "country": "IT", "coord": {"lon": 11.01268, "lat": 43.737492}}, {"id": 3174529, "name": "Provincia di Lucca", "country": "IT", "coord": {"lon": 10.45, "lat": 44.033329}}, {"id": 3171172, "name": "Provincia di Pesaro e Urbino", "country": "IT", "coord": {"lon": 12.63333, "lat": 43.666672}}, {"id": 6541554, "name": "Montemurlo", "country": "IT", "coord": {"lon": 11.03112, "lat": 43.92165}}, {"id": 5094264, "name": "Warren", "country": "US", "coord": {"lon": -71.892029, "lat": 43.923119}}, {"id": 6455460, "name": "Les M\u00e9es", "country": "FR", "coord": {"lon": 5.98333, "lat": 44.033329}}, {"id": 6451408, "name": "Castelsarrasin", "country": "FR", "coord": {"lon": 1.1, "lat": 44.033329}}, {"id": 3337530, "name": "Zadarska \u017dupanija", "country": "HR", "coord": {"lon": 15.33333, "lat": 44.083328}}, {"id": 6431472, "name": "Vallabrix", "country": "FR", "coord": {"lon": 4.48333, "lat": 44.066669}}, {"id": 2997026, "name": "Lussolle", "country": "FR", "coord": {"lon": -0.15561, "lat": 44.095612}}, {"id": 6541657, "name": "Borghetto Santo Spirito", "country": "IT", "coord": {"lon": 8.23905, "lat": 44.115429}}, {"id": 3176745, "name": "Provincia di Forl\u00ec", "country": "IT", "coord": {"lon": 12.03333, "lat": 44.083328}}, {"id": 6541838, "name": "Cesena", "country": "IT", "coord": {"lon": 12.26404, "lat": 44.15617}}, {"id": 6433931, "name": "Pontenx-les-Forges", "country": "FR", "coord": {"lon": -1.11667, "lat": 44.25}}, {"id": 2986198, "name": "Pontenx-les-Forges", "country": "FR", "coord": {"lon": -1.12095, "lat": 44.241341}}, {"id": 5590266, "name": "Crystal (historical)", "country": "US", "coord": {"lon": -114.32589, "lat": 44.267422}}, {"id": 2976739, "name": "Saint-Trosse", "country": "FR", "coord": {"lon": -1.0588, "lat": 44.294289}}, {"id": 5117867, "name": "Franklin County", "country": "US", "coord": {"lon": -74.349609, "lat": 44.650051}}, {"id": 5587585, "name": "Cabarton", "country": "US", "coord": {"lon": -116.040131, "lat": 44.435452}}, {"id": 3173884, "name": "Marola", "country": "IT", "coord": {"lon": 10.48333, "lat": 44.48333}}, {"id": 6543042, "name": "Rivalta Bormida", "country": "IT", "coord": {"lon": 8.55175, "lat": 44.709751}}, {"id": 6535056, "name": "Rivalta Bormida", "country": "IT", "coord": {"lon": 8.55175, "lat": 44.709751}}, {"id": 6542120, "name": "Ferrara", "country": "IT", "coord": {"lon": 11.62071, "lat": 44.826778}}, {"id": 3171057, "name": "Provincia di Piacenza", "country": "IT", "coord": {"lon": 9.58333, "lat": 44.883331}}, {"id": 6538411, "name": "Carpaneto Piacentino", "country": "IT", "coord": {"lon": 9.78927, "lat": 44.91526}}, {"id": 3172488, "name": "Mucinasso", "country": "IT", "coord": {"lon": 9.71667, "lat": 45.01667}}, {"id": 5598464, "name": "Lemhi County", "country": "US", "coord": {"lon": -114.00119, "lat": 45.666592}}, {"id": 5584508, "name": "Baker", "country": "US", "coord": {"lon": -113.734512, "lat": 45.09465}}, {"id": 5259487, "name": "Langlade County", "country": "US", "coord": {"lon": -89.05011, "lat": 45.250519}}, {"id": 3171364, "name": "Provincia di Pavia", "country": "IT", "coord": {"lon": 9.13333, "lat": 45.116669}}, {"id": 3177969, "name": "Corte Rusta", "country": "IT", "coord": {"lon": 11, "lat": 45.133331}}, {"id": 2987966, "name": "Arrondissement de P\u00e9rigueux", "country": "FR", "coord": {"lon": 0.58333, "lat": 45.166672}}, {"id": 5016060, "name": "Albion Center", "country": "US", "coord": {"lon": -94.073593, "lat": 45.17691}}, {"id": 3164600, "name": "Provincia di Venezia", "country": "IT", "coord": {"lon": 12.32632, "lat": 45.440449}}, {"id": 5731315, "name": "Hilgard", "country": "US", "coord": {"lon": -118.227997, "lat": 45.35207}}, {"id": 5032867, "name": "Kandiyohi County", "country": "US", "coord": {"lon": -95.000839, "lat": 45.133301}}, {"id": 6538317, "name": "Mirano", "country": "IT", "coord": {"lon": 12.11091, "lat": 45.491699}}, {"id": 3177845, "name": "Creazzo", "country": "IT", "coord": {"lon": 11.4785, "lat": 45.53199}}, {"id": 6542284, "name": "Venezia", "country": "IT", "coord": {"lon": 12.33092, "lat": 45.4389}}, {"id": 3177820, "name": "Cret", "country": "IT", "coord": {"lon": 7.43333, "lat": 45.599998}}, {"id": 5606338, "name": "Sampson", "country": "US", "coord": {"lon": -116.008469, "lat": 45.51767}}, {"id": 3006201, "name": "Arrondissement de La Tour-du-Pin", "country": "FR", "coord": {"lon": 5.41667, "lat": 45.583328}}, {"id": 6433202, "name": "Four", "country": "FR", "coord": {"lon": 5.18333, "lat": 45.583328}}, {"id": 3165186, "name": "Trieste", "country": "IT", "coord": {"lon": 13.76667, "lat": 45.666672}}, {"id": 6440004, "name": "Corent", "country": "FR", "coord": {"lon": 3.2, "lat": 45.666672}}, {"id": 6540342, "name": "Albino", "country": "IT", "coord": {"lon": 9.79636, "lat": 45.763779}}, {"id": 3186832, "name": "Zalog", "country": "SI", "coord": {"lon": 14.19944, "lat": 45.766941}}, {"id": 667268, "name": "Sibiu", "country": "RO", "coord": {"lon": 24.15, "lat": 45.799999}}, {"id": 3197146, "name": "Ob\u010dina Kr\u0161ko", "country": "SI", "coord": {"lon": 15.46063, "lat": 45.95137}}, {"id": 6539881, "name": "Sacile", "country": "IT", "coord": {"lon": 12.50285, "lat": 45.95406}}, {"id": 3203287, "name": "Britof", "country": "SI", "coord": {"lon": 13.66667, "lat": 46}}, {"id": 3198636, "name": "Je\u017ea", "country": "SI", "coord": {"lon": 14.54972, "lat": 46.101669}}, {"id": 3239091, "name": "Ob\u010dina Cerkno", "country": "SI", "coord": {"lon": 13.97306, "lat": 46.125}}, {"id": 3198478, "name": "Kal", "country": "SI", "coord": {"lon": 15.11667, "lat": 46.166672}}, {"id": 719819, "name": "Hungary", "country": "HU", "coord": {"lon": 20, "lat": 47}}, {"id": 3013736, "name": "D\u00e9partement de la Haute-Savoie", "country": "FR", "coord": {"lon": 6.33333, "lat": 46}}, {"id": 3164854, "name": "Valle di Dentro", "country": "IT", "coord": {"lon": 10.28333, "lat": 46.48333}}, {"id": 7287039, "name": "Saint-Sulpice (VD)", "country": "CH", "coord": {"lon": 6.55994, "lat": 46.513}}, {"id": 675366, "name": "Izvoarele de Sus", "country": "RO", "coord": {"lon": 26.91667, "lat": 46.533329}}, {"id": 3017372, "name": "R\u00e9gion Franche-Comt\u00e9", "country": "FR", "coord": {"lon": 6, "lat": 47}}, {"id": 3012051, "name": "D\u00e9partement du Jura", "country": "FR", "coord": {"lon": 5.83333, "lat": 46.833328}}, {"id": 3052717, "name": "Fels\u0151telep", "country": "HU", "coord": {"lon": 19.47806, "lat": 46.561211}}, {"id": 5692786, "name": "Walser Crossing", "country": "US", "coord": {"lon": -103.596298, "lat": 46.619179}}, {"id": 6428320, "name": "Trouy", "country": "FR", "coord": {"lon": 2.35, "lat": 47.01667}}, {"id": 2971553, "name": "Trouy", "country": "FR", "coord": {"lon": 2.36018, "lat": 47.011532}}, {"id": 674673, "name": "Livada de Bihor", "country": "RO", "coord": {"lon": 21.883329, "lat": 47}}, {"id": 2658821, "name": "Kanton St. Gallen", "country": "CH", "coord": {"lon": 9.25, "lat": 47.25}}, {"id": 2658792, "name": "Wahlkreis Sargans", "country": "CH", "coord": {"lon": 9.43333, "lat": 47.049999}}, {"id": 7287482, "name": "Vilters-Wangs", "country": "CH", "coord": {"lon": 9.4253, "lat": 47.009701}}, {"id": 2658117, "name": "Vilters", "country": "CH", "coord": {"lon": 9.45322, "lat": 47.026138}}, {"id": 3020989, "name": "D\u00e9partement du Doubs", "country": "FR", "coord": {"lon": 6.41667, "lat": 47.166672}}, {"id": 2986301, "name": "Arrondissement de Pontarlier", "country": "FR", "coord": {"lon": 6.25, "lat": 46.833328}}, {"id": 7286995, "name": "Ruswil", "country": "CH", "coord": {"lon": 8.13588, "lat": 47.07748}}, {"id": 7670215, "name": "Holz", "country": "CH", "coord": {"lon": 8.17067, "lat": 47.054569}}, {"id": 5796126, "name": "Grays Harbor County", "country": "US", "coord": {"lon": -123.83461, "lat": 47.083149}}, {"id": 6458892, "name": "Amt Burgdorf", "country": "CH", "coord": {"lon": 7.60801, "lat": 47.05983}}, {"id": 2660172, "name": "Kernenried", "country": "CH", "coord": {"lon": 7.54679, "lat": 47.069679}}, {"id": 7285190, "name": "Bellmund", "country": "CH", "coord": {"lon": 7.24318, "lat": 47.102871}}, {"id": 2661566, "name": "Bellmund", "country": "CH", "coord": {"lon": 7.24608, "lat": 47.108521}}, {"id": 3335053, "name": "Greith", "country": "AT", "coord": {"lon": 15.55, "lat": 47.116669}}, {"id": 2768273, "name": "Puchfeld", "country": "AT", "coord": {"lon": 14.43333, "lat": 47.116669}}, {"id": 3009708, "name": "La Croix Verte", "country": "FR", "coord": {"lon": -0.06694, "lat": 47.269642}}, {"id": 2768895, "name": "Picheldorf", "country": "AT", "coord": {"lon": 15.18333, "lat": 47.400002}}, {"id": 6442051, "name": "Ormenans", "country": "FR", "coord": {"lon": 6.2, "lat": 47.450001}}, {"id": 7285161, "name": "Basel", "country": "CH", "coord": {"lon": 7.59361, "lat": 47.557732}}, {"id": 5811704, "name": "Spokane County", "country": "US", "coord": {"lon": -117.367706, "lat": 47.616562}}, {"id": 6458867, "name": "Bezirk B\u00fclach", "country": "CH", "coord": {"lon": 8.56764, "lat": 47.497059}}, {"id": 7285707, "name": "Eglisau", "country": "CH", "coord": {"lon": 8.52607, "lat": 47.573349}}, {"id": 6291126, "name": "Hinter Stadtberg", "country": "CH", "coord": {"lon": 8.54108, "lat": 47.573429}}, {"id": 683333, "name": "Bulai-Bosanci", "country": "RO", "coord": {"lon": 26.25, "lat": 47.633331}}, {"id": 2808206, "name": "Windhag", "country": "DE", "coord": {"lon": 9.45, "lat": 47.666672}}, {"id": 3030293, "name": "R\u00e9gion Bretagne", "country": "FR", "coord": {"lon": -3, "lat": 48}}, {"id": 665849, "name": "Jude\u0163ul Suceava", "country": "RO", "coord": {"lon": 25.75, "lat": 47.583328}}, {"id": 3214106, "name": "Regierungsbezirk T\u00fcbingen", "country": "DE", "coord": {"lon": 9.5, "lat": 48.166672}}, {"id": 2762809, "name": "Unterleithen", "country": "AT", "coord": {"lon": 14.03333, "lat": 48.183331}}, {"id": 3027257, "name": "R\u00e9gion Champagne-Ardenne", "country": "FR", "coord": {"lon": 4.5, "lat": 49}}, {"id": 7871967, "name": "Burgkirchen", "country": "AT", "coord": {"lon": 13.10051, "lat": 48.203911}}, {"id": 2775260, "name": "Innere Stadt", "country": "AT", "coord": {"lon": 16.371349, "lat": 48.209061}}, {"id": 3343955, "name": "Bratislavsk\u00fd Kraj", "country": "SK", "coord": {"lon": 17.16667, "lat": 48.333328}}, {"id": 2779225, "name": "Friesenegg", "country": "AT", "coord": {"lon": 14.24558, "lat": 48.301868}}, {"id": 5812148, "name": "Stevens County", "country": "US", "coord": {"lon": -117.834419, "lat": 48.433231}}, {"id": 3012874, "name": "R\u00e9gion \u00cele-de-France", "country": "FR", "coord": {"lon": 2.5, "lat": 48.5}}, {"id": 6443664, "name": "Fontenailles", "country": "FR", "coord": {"lon": 2.95, "lat": 48.549999}}, {"id": 2761377, "name": "Wielands", "country": "AT", "coord": {"lon": 14.93333, "lat": 48.75}}, {"id": 3214104, "name": "Regierungsbezirk Karlsruhe", "country": "DE", "coord": {"lon": 8.66667, "lat": 49}}, {"id": 3220814, "name": "Landkreis Regen", "country": "DE", "coord": {"lon": 13.12361, "lat": 49.029999}}, {"id": 2947612, "name": "Blossersberg", "country": "DE", "coord": {"lon": 12.9, "lat": 49.083328}}, {"id": 3339538, "name": "Kraj Vyso\u010dina", "country": "CZ", "coord": {"lon": 15.5, "lat": 49.416672}}, {"id": 3056843, "name": "Ve\u013ek\u00fd Bysterec", "country": "SK", "coord": {"lon": 19.28545, "lat": 49.210861}}, {"id": 6554905, "name": "Ha\u00dfloch", "country": "DE", "coord": {"lon": 8.25705, "lat": 49.359699}}, {"id": 3061694, "name": "Okres \u017d\u010f\u00e1r nad S\u00e1zavou", "country": "CZ", "coord": {"lon": 16.033331, "lat": 49.5}}, {"id": 2809673, "name": "Wiebelskirchen", "country": "DE", "coord": {"lon": 7.18333, "lat": 49.366669}}, {"id": 3068075, "name": "Podhradn\u00ed Lhota", "country": "CZ", "coord": {"lon": 17.79505, "lat": 49.42075}}, {"id": 3036244, "name": "Audignicourt", "country": "FR", "coord": {"lon": 3.13397, "lat": 49.47876}}, {"id": 2960313, "name": "Grand Duchy of Luxembourg", "country": "LU", "coord": {"lon": 6.16667, "lat": 49.75}}, {"id": 3247901, "name": "Landkreis Kusel", "country": "DE", "coord": {"lon": 7.49917, "lat": 49.57111}}, {"id": 3220801, "name": "Landkreis F\u00fcrth", "country": "DE", "coord": {"lon": 10.82167, "lat": 49.451111}}, {"id": 3068724, "name": "Otavo\u017eaty", "country": "CZ", "coord": {"lon": 15.23333, "lat": 49.57328}}, {"id": 2896977, "name": "H\u00fcttenfeld", "country": "DE", "coord": {"lon": 8.58861, "lat": 49.59639}}, {"id": 3061883, "name": "Z\u00e1mek Z\u010f\u00e1r nad S\u00e1zavou II", "country": "CZ", "coord": {"lon": 15.93333, "lat": 49.583328}}, {"id": 3339576, "name": "St\u0159edo\u010desk\u00fd kraj", "country": "CZ", "coord": {"lon": 14.1964, "lat": 50.127178}}, {"id": 2840270, "name": "Scharrau", "country": "DE", "coord": {"lon": 8.38333, "lat": 49.583328}}, {"id": 2938912, "name": "Regierungsbezirk Darmstadt", "country": "DE", "coord": {"lon": 8.66667, "lat": 49.833328}}, {"id": 3220969, "name": "Landkreis Gro\u00df-Gerau", "country": "DE", "coord": {"lon": 8.4625, "lat": 49.914719}}, {"id": 6553175, "name": "Nauheim", "country": "DE", "coord": {"lon": 8.46333, "lat": 49.950802}}, {"id": 3064835, "name": "Stud\u00e1nka", "country": "CZ", "coord": {"lon": 15.80599, "lat": 50.036259}}, {"id": 2974304, "name": "D\u00e9partement de la Somme", "country": "FR", "coord": {"lon": 2.5, "lat": 49.916672}}, {"id": 3033018, "name": "Bethencourt-sur-Mer", "country": "FR", "coord": {"lon": 1.50348, "lat": 50.07756}}, {"id": 3071155, "name": "Male\u0161ice", "country": "CZ", "coord": {"lon": 14.52123, "lat": 50.087742}}, {"id": 3068049, "name": "Podles\u00ed", "country": "CZ", "coord": {"lon": 15.98279, "lat": 50.084419}}, {"id": 3247464, "name": "Landkreis Cochem-Zell", "country": "DE", "coord": {"lon": 7.17917, "lat": 50.146111}}, {"id": 3339542, "name": "Olomouck\u00fd kraj", "country": "CZ", "coord": {"lon": 17.16667, "lat": 49.75}}, {"id": 3067044, "name": "Ramzov\u00e1", "country": "CZ", "coord": {"lon": 17.063379, "lat": 50.194538}}, {"id": 758116, "name": "Stopnica", "country": "PL", "coord": {"lon": 20.937799, "lat": 50.440182}}, {"id": 2833525, "name": "Segendorf", "country": "DE", "coord": {"lon": 7.46667, "lat": 50.450001}}, {"id": 3074512, "name": "Janov", "country": "CZ", "coord": {"lon": 13.56368, "lat": 50.585079}}, {"id": 5943101, "name": "Duchess", "country": "CA", "coord": {"lon": -111.918503, "lat": 50.71682}}, {"id": 3305799, "name": "Direktionsbezirk Dresden", "country": "DE", "coord": {"lon": 14.08333, "lat": 51.166672}}, {"id": 2804107, "name": "Zinnwald-Georgenfeld", "country": "DE", "coord": {"lon": 13.76553, "lat": 50.73708}}, {"id": 2921284, "name": "Georgenfeld", "country": "DE", "coord": {"lon": 13.75664, "lat": 50.737728}}, {"id": 2845133, "name": "Rosch\u00fctz", "country": "DE", "coord": {"lon": 12.08333, "lat": 50.900002}}, {"id": 2859590, "name": "Obernetphen", "country": "DE", "coord": {"lon": 8.1, "lat": 50.900002}}, {"id": 2759343, "name": "Gemeente Beek", "country": "NL", "coord": {"lon": 5.78333, "lat": 50.933331}}, {"id": 2922568, "name": "Gardsch\u00fctz", "country": "DE", "coord": {"lon": 12.43333, "lat": 50.950001}}, {"id": 2787814, "name": "Rommelaar", "country": "BE", "coord": {"lon": 4.89558, "lat": 50.98872}}, {"id": 2651049, "name": "Dover District", "country": "GB", "coord": {"lon": 1.23333, "lat": 51.150002}}, {"id": 7290558, "name": "Hart District", "country": "GB", "coord": {"lon": -0.8811, "lat": 51.275639}}, {"id": 7287910, "name": "Fetcham", "country": "GB", "coord": {"lon": -0.35582, "lat": 51.288792}}, {"id": 2648110, "name": "Greater London", "country": "GB", "coord": {"lon": -0.16667, "lat": 51.5}}, {"id": 2875801, "name": "L\u00f6ssnig", "country": "DE", "coord": {"lon": 12.4, "lat": 51.299999}}, {"id": 764758, "name": "Miku\u0142owice", "country": "PL", "coord": {"lon": 20.06139, "lat": 51.351639}}, {"id": 7292856, "name": "Sandhurst", "country": "GB", "coord": {"lon": -0.78636, "lat": 51.350281}}, {"id": 2642233, "name": "Morden", "country": "GB", "coord": {"lon": -0.19837, "lat": 51.39822}}, {"id": 7532212, "name": "Radom", "country": "PL", "coord": {"lon": 21.156099, "lat": 51.417198}}, {"id": 7530747, "name": "Powiat kozienicki", "country": "PL", "coord": {"lon": 21.4958, "lat": 51.639462}}, {"id": 3333121, "name": "Barnet", "country": "GB", "coord": {"lon": -0.21423, "lat": 51.65736}}, {"id": 2634895, "name": "Wales", "country": "GB", "coord": {"lon": -3.5, "lat": 52.5}}, {"id": 2653256, "name": "Chepstow", "country": "GB", "coord": {"lon": -2.67683, "lat": 51.640869}}, {"id": 2831874, "name": "Sinsen", "country": "DE", "coord": {"lon": 7.18333, "lat": 51.666672}}, {"id": 2648152, "name": "Great Braxted", "country": "GB", "coord": {"lon": 0.69901, "lat": 51.795292}}, {"id": 3294179, "name": "Fort Cross Roads", "country": "IE", "coord": {"lon": -8.49333, "lat": 51.835281}}, {"id": 2937935, "name": "Regierungsbezirk Detmold", "country": "DE", "coord": {"lon": 8, "lat": 51.799999}}, {"id": 2845406, "name": "R\u00f6llinghausen", "country": "DE", "coord": {"lon": 9.83796, "lat": 51.971851}}, {"id": 759245, "name": "Sierzch\u00f3w", "country": "PL", "coord": {"lon": 21.119061, "lat": 51.986809}}, {"id": 2641918, "name": "Nacton", "country": "GB", "coord": {"lon": 1.23589, "lat": 52.01825}}, {"id": 2810519, "name": "Westenfeld", "country": "DE", "coord": {"lon": 7.43333, "lat": 52.066669}}, {"id": 2635527, "name": "Tre-groes", "country": "GB", "coord": {"lon": -4.31667, "lat": 52.066669}}, {"id": 7290655, "name": "Malvern Hills District", "country": "GB", "coord": {"lon": -2.40461, "lat": 52.16713}}, {"id": 7531413, "name": "Jakub\u00f3w", "country": "PL", "coord": {"lon": 21.681141, "lat": 52.23954}}, {"id": 2649217, "name": "Forest Heath District", "country": "GB", "coord": {"lon": 0.56667, "lat": 52.333328}}, {"id": 2647687, "name": "Haddenham", "country": "GB", "coord": {"lon": 0.14827, "lat": 52.357891}}, {"id": 6552362, "name": "Grafhorst", "country": "DE", "coord": {"lon": 10.95, "lat": 52.450001}}, {"id": 7290602, "name": "East Northamptonshire District", "country": "GB", "coord": {"lon": -0.50664, "lat": 52.448132}}, {"id": 3333180, "name": "City of Peterborough", "country": "GB", "coord": {"lon": -0.25, "lat": 52.583328}}, {"id": 3337499, "name": "Wojew\u00f3dztwo Zachodniopomorskie", "country": "PL", "coord": {"lon": 15.5, "lat": 53.5}}, {"id": 766023, "name": "\u0141om\u017cyca", "country": "PL", "coord": {"lon": 22.03982, "lat": 53.17382}}, {"id": 3315176, "name": "Ballycoyle", "country": "IE", "coord": {"lon": -6.26861, "lat": 53.181938}}, {"id": 6691053, "name": "Meadow Mount", "country": "IE", "coord": {"lon": -6.26272, "lat": 53.284721}}, {"id": 2934571, "name": "D\u00fcnkirchen", "country": "DE", "coord": {"lon": 7.96667, "lat": 53.416672}}, {"id": 2857594, "name": "Ohrb\u00fclt", "country": "DE", "coord": {"lon": 7.96667, "lat": 53.416672}}, {"id": 2905434, "name": "Kreis Herzogtum Lauenburg", "country": "DE", "coord": {"lon": 10.625, "lat": 53.607498}}, {"id": 7530931, "name": "Powiat chojnicki", "country": "PL", "coord": {"lon": 17.718821, "lat": 53.800991}}, {"id": 2637958, "name": "Shipley", "country": "GB", "coord": {"lon": -1.76667, "lat": 53.833328}}, {"id": 764312, "name": "Mragowo", "country": "PL", "coord": {"lon": 21.305071, "lat": 53.864368}}, {"id": 3249077, "name": "Kreis Steinburg", "country": "DE", "coord": {"lon": 9.50361, "lat": 53.93306}}, {"id": 6050066, "name": "La Ronge", "country": "CA", "coord": {"lon": -105.284218, "lat": 55.100128}}, {"id": 5978020, "name": "Huallen", "country": "CA", "coord": {"lon": -119.286034, "lat": 55.166641}}, {"id": 2614478, "name": "Roskilde Kommune", "country": "DK", "coord": {"lon": 12.1, "lat": 55.650002}}, {"id": 2618038, "name": "Ladeg\u00e5rdshuse", "country": "DK", "coord": {"lon": 12.11667, "lat": 55.650002}}, {"id": 2691742, "name": "Mj\u00f6lby Kommun", "country": "SE", "coord": {"lon": 15.13333, "lat": 58.316669}}, {"id": 2683371, "name": "Ramshult", "country": "SE", "coord": {"lon": 15.3, "lat": 58.216671}}, {"id": 5936286, "name": "Dease Lake", "country": "CA", "coord": {"lon": -129.987488, "lat": 58.435692}}, {"id": 3337386, "name": "V\u00e4stra G\u00f6talands L\u00e4n", "country": "SE", "coord": {"lon": 13, "lat": 58}}, {"id": 2667302, "name": "Trollh\u00e4ttans Kommun", "country": "SE", "coord": {"lon": 12.41667, "lat": 58.23333}}, {"id": 2665174, "name": "V\u00e4ne \u00c5saka", "country": "SE", "coord": {"lon": 12.41667, "lat": 58.25}}, {"id": 3141558, "name": "Rogaland Fylke", "country": "NO", "coord": {"lon": 6.25, "lat": 59}}, {"id": 6691859, "name": "Teekkarikylae", "country": "FI", "coord": {"lon": 24.83502, "lat": 60.18959}}, {"id": 3157357, "name": "Fjell", "country": "NO", "coord": {"lon": 5.12194, "lat": 60.362671}}, {"id": 650861, "name": "Kouvola", "country": "FI", "coord": {"lon": 26.700001, "lat": 60.866669}}, {"id": 830699, "name": "Etel\u00e4-Karjala", "country": "FI", "coord": {"lon": 28, "lat": 60.833328}}, {"id": 5951659, "name": "Faro", "country": "CA", "coord": {"lon": -133.337204, "lat": 62.232868}}, {"id": 6692025, "name": "Halssilanrinne", "country": "FI", "coord": {"lon": 25.80611, "lat": 62.245831}}, {"id": 6943716, "name": "Snowdrift", "country": "CA", "coord": {"lon": -110.736, "lat": 62.405602}}, {"id": 654121, "name": "Karhunkyl\u00e4", "country": "FI", "coord": {"lon": 24.200001, "lat": 62.299999}}, {"id": 631566, "name": "Viitasaari", "country": "FI", "coord": {"lon": 25.83333, "lat": 63.083328}}, {"id": 657093, "name": "Huopanankoski", "country": "FI", "coord": {"lon": 25.533331, "lat": 63.066669}}, {"id": 2998554, "name": "L'Hospitalet-pr\u00e8s-l'Andorre", "country": "FR", "coord": {"lon": 1.79931, "lat": 42.589142}}, {"id": 6540246, "name": "Villanova sull'Arda", "country": "IT", "coord": {"lon": 9.99847, "lat": 45.02647}}, {"id": 3008452, "name": "L'Allier", "country": "FR", "coord": {"lon": 1.21667, "lat": 48.01667}}, {"id": 6325526, "name": "L'Isle-Verte", "country": "CA", "coord": {"lon": -69.340637, "lat": 48.01347}}, {"id": 3231369, "name": "L'Eure", "country": "FR", "coord": {"lon": 0.13472, "lat": 49.484718}}, {"id": 817409, "name": "Kravtsovo", "country": "RU", "coord": {"lon": 37.807701, "lat": 55.05442}}, {"id": 488839, "name": "Starodzhereliyevskaya", "country": "RU", "coord": {"lon": 38.296799, "lat": 45.47599}}, {"id": 498698, "name": "Saransk", "country": "RU", "coord": {"lon": 45.1749, "lat": 54.1838}}, {"id": 7260215, "name": "Tyndall Air Force Base", "country": "US", "coord": {"lon": -85.607307, "lat": 30.08535}}, {"id": 4345638, "name": "Weil", "country": "US", "coord": {"lon": -92.560699, "lat": 31.31185}}, {"id": 5935277, "name": "Dartmouth", "country": "CA", "coord": {"lon": -63.57719, "lat": 44.671341}}, {"id": 5039807, "name": "Noyes", "country": "US", "coord": {"lon": -97.204514, "lat": 48.99749}}, {"id": 5790289, "name": "Clearbrook", "country": "US", "coord": {"lon": -122.32238, "lat": 48.978729}}, {"id": 1679432, "name": "Zamboanga", "country": "PH", "coord": {"lon": 122.073891, "lat": 6.91028}}, {"id": 1729933, "name": "Aurora", "country": "PH", "coord": {"lon": 123.582603, "lat": 7.9506}}, {"id": 1731818, "name": "Province of Agusan del Sur", "country": "PH", "coord": {"lon": 125.833328, "lat": 8.5}}, {"id": 1151933, "name": "Nakhon Si Thammarat", "country": "TH", "coord": {"lon": 99.966667, "lat": 8.43333}}, {"id": 2419533, "name": "Kindia", "country": "GN", "coord": {"lon": -12.86576, "lat": 10.05692}}, {"id": 1717512, "name": "Cebu City", "country": "PH", "coord": {"lon": 123.890709, "lat": 10.31672}}, {"id": 2229798, "name": "Kousseri", "country": "CM", "coord": {"lon": 15.03063, "lat": 12.07689}}, {"id": 1153958, "name": "Ban Yang Duan", "country": "TH", "coord": {"lon": 99.166672, "lat": 10.5}}, {"id": 3668605, "name": "Santa Marta", "country": "CO", "coord": {"lon": -74.199043, "lat": 11.24079}}, {"id": 1712813, "name": "Gloria", "country": "PH", "coord": {"lon": 121.466667, "lat": 12.98333}}, {"id": 2493330, "name": "I-n-Amenas", "country": "DZ", "coord": {"lon": 9.54112, "lat": 28.043711}}, {"id": 5322021, "name": "Young", "country": "US", "coord": {"lon": -110.963737, "lat": 34.101429}}, {"id": 4658872, "name": "South Dyersburg", "country": "US", "coord": {"lon": -89.391182, "lat": 36.01952}}, {"id": 4603330, "name": "Atwood", "country": "US", "coord": {"lon": -88.678108, "lat": 35.973122}}, {"id": 2111258, "name": "Ryugasaki", "country": "JP", "coord": {"lon": 140.183334, "lat": 35.900002}}, {"id": 2521886, "name": "Almeria", "country": "ES", "coord": {"lon": -2.45974, "lat": 36.838139}}, {"id": 325363, "name": "Adana", "country": "TR", "coord": {"lon": 35.328892, "lat": 37.001671}}, {"id": 5365687, "name": "Le Grand", "country": "US", "coord": {"lon": -120.24823, "lat": 37.22855}}, {"id": 1849053, "name": "Utsunomiya-shi", "country": "JP", "coord": {"lon": 139.883606, "lat": 36.56583}}, {"id": 6357731, "name": "Lanjar\u00f3n", "country": "ES", "coord": {"lon": -3.45289, "lat": 36.967979}}, {"id": 2513709, "name": "Monachil", "country": "ES", "coord": {"lon": -3.53724, "lat": 37.133202}}, {"id": 6361041, "name": "San Juan de Aznalfarache", "country": "ES", "coord": {"lon": -6.03134, "lat": 37.36499}}, {"id": 5425180, "name": "Hoehne", "country": "US", "coord": {"lon": -104.381088, "lat": 37.281132}}, {"id": 7668950, "name": "Realejo-San Mat\u00edas", "country": "ES", "coord": {"lon": -3.59389, "lat": 37.173328}}, {"id": 6536452, "name": "Tortona", "country": "IT", "coord": {"lon": 8.86455, "lat": 44.893349}}, {"id": 298333, "name": "Sanliurfa", "country": "TR", "coord": {"lon": 38.793919, "lat": 37.16708}}, {"id": 5386335, "name": "Ravenswood", "country": "US", "coord": {"lon": -122.135239, "lat": 37.47633}}, {"id": 8133798, "name": "Dimos Galatsi", "country": "GR", "coord": {"lon": 23.757111, "lat": 38.01915}}, {"id": 2516255, "name": "Jumilla", "country": "ES", "coord": {"lon": -1.325, "lat": 38.479172}}, {"id": 2523281, "name": "Sant\u2019Avendrace", "country": "IT", "coord": {"lon": 9.09694, "lat": 39.23056}}, {"id": 4521978, "name": "Prospect", "country": "US", "coord": {"lon": -83.563812, "lat": 39.135071}}, {"id": 5784492, "name": "Wendover", "country": "US", "coord": {"lon": -114.037514, "lat": 40.737148}}, {"id": 3111108, "name": "Salamanca", "country": "ES", "coord": {"lon": -5.65, "lat": 40.966671}}, {"id": 4920512, "name": "Fremont", "country": "US", "coord": {"lon": -84.932739, "lat": 41.730881}}, {"id": 3116226, "name": "Monzalbarba", "country": "ES", "coord": {"lon": -0.966, "lat": 41.703571}}, {"id": 6426295, "name": "Saint-Girons", "country": "FR", "coord": {"lon": 1.15, "lat": 42.98333}}, {"id": 3116962, "name": "Melarde", "country": "ES", "coord": {"lon": -5.32373, "lat": 43.34428}}, {"id": 3182225, "name": "Bellaria", "country": "IT", "coord": {"lon": 12.46519, "lat": 44.146}}, {"id": 5120956, "name": "Hogansburg", "country": "US", "coord": {"lon": -74.663239, "lat": 44.973942}}, {"id": 5039576, "name": "North Redwood", "country": "US", "coord": {"lon": -95.094437, "lat": 44.56329}}, {"id": 5036727, "name": "Marshall", "country": "US", "coord": {"lon": -95.788353, "lat": 44.446899}}, {"id": 6454071, "name": "Grenoble", "country": "FR", "coord": {"lon": 5.7266, "lat": 45.187199}}, {"id": 5040864, "name": "Parkwood Estates", "country": "US", "coord": {"lon": -95.084717, "lat": 45.130001}}, {"id": 5266230, "name": "Park Falls", "country": "US", "coord": {"lon": -90.441551, "lat": 45.934399}}, {"id": 6538252, "name": "Bassano del Grappa", "country": "IT", "coord": {"lon": 11.7357, "lat": 45.767601}}, {"id": 1529144, "name": "Temeke", "country": "CN", "coord": {"lon": 89.699997, "lat": 47.23333}}, {"id": 5046026, "name": "Sauk Centre", "country": "US", "coord": {"lon": -94.952522, "lat": 45.737461}}, {"id": 6440623, "name": "Serres-Castet", "country": "FR", "coord": {"lon": -0.35, "lat": 43.383331}}, {"id": 6543730, "name": "Turate", "country": "IT", "coord": {"lon": 9.00424, "lat": 45.657269}}, {"id": 6536269, "name": "Casier", "country": "IT", "coord": {"lon": 12.29331, "lat": 45.642101}}, {"id": 6554728, "name": "Farschweiler", "country": "DE", "coord": {"lon": 6.81667, "lat": 49.716702}}, {"id": 6442609, "name": "Mamers", "country": "FR", "coord": {"lon": 0.38333, "lat": 48.349998}}, {"id": 6555946, "name": "Bitz", "country": "DE", "coord": {"lon": 9.0917, "lat": 48.243881}}, {"id": 6446923, "name": "Bar-sur-Aube", "country": "FR", "coord": {"lon": 4.71667, "lat": 48.23333}}, {"id": 3057630, "name": "Skalica", "country": "SK", "coord": {"lon": 17.226351, "lat": 48.844898}}, {"id": 2956656, "name": "Amberg", "country": "DE", "coord": {"lon": 11.86222, "lat": 49.441391}}, {"id": 2903806, "name": "Hirschau", "country": "DE", "coord": {"lon": 11.95083, "lat": 49.544998}}, {"id": 6446433, "name": "Anguilcourt-le-Sart", "country": "FR", "coord": {"lon": 3.43333, "lat": 49.683331}}, {"id": 6553890, "name": "D\u00f6rth", "country": "DE", "coord": {"lon": 7.58333, "lat": 50.150002}}, {"id": 2784199, "name": "Waimes", "country": "BE", "coord": {"lon": 6.11207, "lat": 50.414879}}, {"id": 2858114, "name": "Odenkirchen", "country": "DE", "coord": {"lon": 6.45043, "lat": 51.13192}}, {"id": 7533313, "name": "Lewin Brzeski", "country": "PL", "coord": {"lon": 17.630301, "lat": 50.754501}}, {"id": 2647282, "name": "Hawkwell", "country": "GB", "coord": {"lon": 0.67347, "lat": 51.591949}}, {"id": 3298509, "name": "Rahtnnane", "country": "IE", "coord": {"lon": -10.38556, "lat": 52.14167}}, {"id": 6552946, "name": "Wietmarschen", "country": "DE", "coord": {"lon": 7.13333, "lat": 52.533298}}, {"id": 2724180, "name": "Axelvold", "country": "SE", "coord": {"lon": 13.09178, "lat": 55.96854}}, {"id": 6138201, "name": "Saint-Felicien", "country": "CA", "coord": {"lon": -72.449059, "lat": 48.65007}}, {"id": 6535687, "name": "Viverone", "country": "IT", "coord": {"lon": 8.04942, "lat": 45.427261}}, {"id": 5881219, "name": "Eastern District", "country": "AS", "coord": {"lon": -170.649994, "lat": -14.26667}}, {"id": 7839622, "name": "Nedlands", "country": "AU", "coord": {"lon": 115.799423, "lat": -31.97994}}, {"id": 2140691, "name": "Kone", "country": "NC", "coord": {"lon": 164.865814, "lat": -21.059509}}, {"id": 2156897, "name": "Moriac", "country": "AU", "coord": {"lon": 144.166672, "lat": -38.23333}}, {"id": 8010597, "name": "Alpiar\u00e7a", "country": "PT", "coord": {"lon": -8.56336, "lat": 39.238819}}, {"id": 8012981, "name": "Alpiar\u00e7a", "country": "PT", "coord": {"lon": -8.56336, "lat": 39.238819}}, {"id": 2268600, "name": "Enejas", "country": "PT", "coord": {"lon": -8.57527, "lat": 39.249531}}, {"id": 7302646, "name": "Dartmouth Crossing", "country": "CA", "coord": {"lon": -63.564999, "lat": 44.701672}}, {"id": 8133669, "name": "Dimos Aigialeia", "country": "GR", "coord": {"lon": 22.139139, "lat": 38.153}}, {"id": 265500, "name": "Aigio", "country": "GR", "coord": {"lon": 22.08194, "lat": 38.248611}}, {"id": 6454885, "name": "Yerres", "country": "FR", "coord": {"lon": 2.5, "lat": 48.716671}}, {"id": 2991213, "name": "Arrondissement de Mulhouse", "country": "FR", "coord": {"lon": 7.41667, "lat": 47.666672}}, {"id": 6441466, "name": "H\u00e9singue", "country": "FR", "coord": {"lon": 7.51667, "lat": 47.583328}}, {"id": 3167895, "name": "San Paolo", "country": "IT", "coord": {"lon": 7.63333, "lat": 45.049999}}, {"id": 3001464, "name": "Les Chenais", "country": "FR", "coord": {"lon": -1.34529, "lat": 48.061192}}, {"id": 2066052, "name": "Moana", "country": "AU", "coord": {"lon": 138.483337, "lat": -35.200001}}, {"id": 2773064, "name": "Landersdorf", "country": "AT", "coord": {"lon": 15.63333, "lat": 48.416672}}, {"id": 3219616, "name": "San Vigilio", "country": "IT", "coord": {"lon": 12.35806, "lat": 46.130829}}, {"id": 2192676, "name": "Campbells Bay", "country": "NZ", "coord": {"lon": 174.766663, "lat": -36.75}}, {"id": 4563793, "name": "Cimarrona", "country": "PR", "coord": {"lon": -66.19017, "lat": 17.99608}}, {"id": 2976008, "name": "Arrondissement de Sarlat-la-Can\u00e9da", "country": "FR", "coord": {"lon": 1.08333, "lat": 44.916672}}, {"id": 3220832, "name": "Landkreis Freising", "country": "DE", "coord": {"lon": 11.735, "lat": 48.44083}}, {"id": 4404807, "name": "Pulaski County", "country": "US", "coord": {"lon": -92.200172, "lat": 37.83337}}, {"id": 7839396, "name": "Toowoomba", "country": "AU", "coord": {"lon": 151.477051, "lat": -27.47958}}, {"id": 2160987, "name": "Kudo", "country": "AU", "coord": {"lon": 151.833328, "lat": -27.33333}}, {"id": 2784107, "name": "Wangenies", "country": "BE", "coord": {"lon": 4.52019, "lat": 50.480228}}, {"id": 5758058, "name": "Umatilla County", "country": "US", "coord": {"lon": -118.50135, "lat": 45.50013}}, {"id": 2644993, "name": "Lambourn", "country": "GB", "coord": {"lon": -1.53105, "lat": 51.508049}}, {"id": 7286464, "name": "Maur", "country": "CH", "coord": {"lon": 8.65996, "lat": 47.33609}}, {"id": 6294456, "name": "R\u00fcti", "country": "CH", "coord": {"lon": 8.65277, "lat": 47.34367}}, {"id": 3219982, "name": "Basaldella", "country": "IT", "coord": {"lon": 13.21444, "lat": 46.025558}}, {"id": 6275364, "name": "El Ks\u00e2r", "country": "LB", "coord": {"lon": 35.689999, "lat": 33.962219}}, {"id": 2644577, "name": "Leven", "country": "GB", "coord": {"lon": -3, "lat": 56.200001}}, {"id": 730918, "name": "Obshtina Ikhtiman", "country": "BG", "coord": {"lon": 23.816669, "lat": 42.433331}}, {"id": 1526586, "name": "Aktobe", "country": "KZ", "coord": {"lon": 70.400002, "lat": 43.466671}}, {"id": 6448939, "name": "Dhuizon", "country": "FR", "coord": {"lon": 1.65, "lat": 47.583328}}, {"id": 3021458, "name": "Dhuizon", "country": "FR", "coord": {"lon": 1.65809, "lat": 47.587238}}, {"id": 2997523, "name": "D\u00e9partement du Lot-et-Garonne", "country": "FR", "coord": {"lon": 0.5, "lat": 44.333328}}, {"id": 3038633, "name": "Arrondissement d'Agen", "country": "FR", "coord": {"lon": 0.58333, "lat": 44.166672}}, {"id": 6435033, "name": "Pont-du-Casse", "country": "FR", "coord": {"lon": 0.68333, "lat": 44.23333}}, {"id": 2986220, "name": "Pont-du-Casse", "country": "FR", "coord": {"lon": 0.67924, "lat": 44.228668}}, {"id": 5887023, "name": "Armour Heights", "country": "CA", "coord": {"lon": -79.431068, "lat": 43.745991}}, {"id": 6360731, "name": "Torrelavega", "country": "ES", "coord": {"lon": -4.0511, "lat": 43.344582}}, {"id": 3107775, "name": "Torrelavega", "country": "ES", "coord": {"lon": -4.04785, "lat": 43.349442}}, {"id": 5053645, "name": "Zimmerman Terrace", "country": "US", "coord": {"lon": -93.583611, "lat": 45.448608}}, {"id": 7290543, "name": "Epping Forest District", "country": "GB", "coord": {"lon": 0.16555, "lat": 51.712818}}, {"id": 634964, "name": "Tampere", "country": "FI", "coord": {"lon": 23.75, "lat": 61.5}}, {"id": 7839490, "name": "Corrigin", "country": "AU", "coord": {"lon": 117.810226, "lat": -32.375992}}, {"id": 2070577, "name": "Gorge Rock", "country": "AU", "coord": {"lon": 117.933327, "lat": -32.450001}}, {"id": 6694945, "name": "Peggy's Cove", "country": "CA", "coord": {"lon": -63.914181, "lat": 44.49366}}, {"id": 2864508, "name": "Neum\u00fchle", "country": "DE", "coord": {"lon": 11.78333, "lat": 50.283329}}, {"id": 3576979, "name": "Kew", "country": "TC", "coord": {"lon": -72.033333, "lat": 21.9}}, {"id": 6615604, "name": "Blue Mountains", "country": "AU", "coord": {"lon": 150.330643, "lat": -33.71331}}, {"id": 2755203, "name": "Gemeente Grootegast", "country": "NL", "coord": {"lon": 6.26667, "lat": 53.200001}}, {"id": 3149469, "name": "Korsmo", "country": "NO", "coord": {"lon": 11.66667, "lat": 60.25}}, {"id": 7290612, "name": "Selby District", "country": "GB", "coord": {"lon": -1.12659, "lat": 53.778111}}, {"id": 6452003, "name": "Rosny-sous-Bois", "country": "FR", "coord": {"lon": 2.48333, "lat": 48.866669}}, {"id": 6176895, "name": "Water Valley", "country": "CA", "coord": {"lon": -114.60202, "lat": 51.500099}}, {"id": 2648300, "name": "Goring-by-Sea", "country": "GB", "coord": {"lon": -0.42194, "lat": 50.812389}}, {"id": 3014755, "name": "Gr\u00e9gny", "country": "FR", "coord": {"lon": 6.53655, "lat": 45.498638}}, {"id": 2615023, "name": "Raml\u00f8se", "country": "DK", "coord": {"lon": 12.11608, "lat": 56.013981}}, {"id": 725615, "name": "V\u016drzulitsa", "country": "BG", "coord": {"lon": 25.466669, "lat": 43.433331}}, {"id": 2634548, "name": "Wembury", "country": "GB", "coord": {"lon": -4.07529, "lat": 50.32272}}, {"id": 2184443, "name": "Pollok", "country": "NZ", "coord": {"lon": 174.616669, "lat": -37.133331}}, {"id": 2162276, "name": "Jimboomba", "country": "AU", "coord": {"lon": 153.033325, "lat": -27.83333}}, {"id": 6453802, "name": "Pl\u00e9rin", "country": "FR", "coord": {"lon": -2.78333, "lat": 48.533329}}, {"id": 7287303, "name": "Thierrens", "country": "CH", "coord": {"lon": 6.75896, "lat": 46.70385}}, {"id": 6359189, "name": "Lugo", "country": "ES", "coord": {"lon": -7.49944, "lat": 43.002628}}, {"id": 7297945, "name": "Lea", "country": "GB", "coord": {"lon": -2.49776, "lat": 51.8932}}, {"id": 2644766, "name": "Lea", "country": "GB", "coord": {"lon": -2.5, "lat": 51.900002}}, {"id": 2696058, "name": "Lilla Edets Kommun", "country": "SE", "coord": {"lon": 12.16667, "lat": 58.133331}}, {"id": 2701590, "name": "K\u00e4rra", "country": "SE", "coord": {"lon": 12.15, "lat": 58.083328}}, {"id": 2811444, "name": "Wellspang", "country": "DE", "coord": {"lon": 9.61667, "lat": 54.583328}}, {"id": 2847079, "name": "Riedlingen", "country": "DE", "coord": {"lon": 10.75, "lat": 48.716671}}, {"id": 3333209, "name": "District of Telford and Wrekin", "country": "GB", "coord": {"lon": -2.5, "lat": 52.75}}, {"id": 7291968, "name": "Wellington", "country": "GB", "coord": {"lon": -2.51371, "lat": 52.70639}}, {"id": 2634573, "name": "Wellington", "country": "GB", "coord": {"lon": -2.51667, "lat": 52.700001}}, {"id": 3171043, "name": "Piaia", "country": "IT", "coord": {"lon": 11.98333, "lat": 46.383331}}, {"id": 2953415, "name": "Landkreis Bad Kreuznach", "country": "DE", "coord": {"lon": 7.69833, "lat": 49.823891}}, {"id": 7290609, "name": "Richmondshire District", "country": "GB", "coord": {"lon": -1.91612, "lat": 54.357288}}, {"id": 5398597, "name": "Stanislaus County", "country": "US", "coord": {"lon": -121.001602, "lat": 37.549931}}, {"id": 6356921, "name": "Arcos de la Frontera", "country": "ES", "coord": {"lon": -5.71978, "lat": 36.734509}}, {"id": 3174958, "name": "Le Caselle", "country": "IT", "coord": {"lon": 11.91667, "lat": 45.533329}}, {"id": 3333192, "name": "Borough of Sefton", "country": "GB", "coord": {"lon": -3, "lat": 53.5}}, {"id": 7301053, "name": "Maghull", "country": "GB", "coord": {"lon": -2.93941, "lat": 53.511101}}, {"id": 2643198, "name": "Maghull", "country": "GB", "coord": {"lon": -2.94117, "lat": 53.51619}}, {"id": 5094497, "name": "West Brookline", "country": "US", "coord": {"lon": -71.679237, "lat": 42.736198}}, {"id": 2652975, "name": "Clackmannanshire", "country": "GB", "coord": {"lon": -3.75, "lat": 56.166672}}, {"id": 2653939, "name": "Cambus", "country": "GB", "coord": {"lon": -3.84426, "lat": 56.124401}}, {"id": 6356034, "name": "Ibiza", "country": "ES", "coord": {"lon": 1.43577, "lat": 38.908939}}, {"id": 6695972, "name": "Es Cana", "country": "ES", "coord": {"lon": 1.41219, "lat": 38.907379}}, {"id": 2267094, "name": "Distrito de Leiria", "country": "PT", "coord": {"lon": -8.83333, "lat": 39.666672}}, {"id": 2263594, "name": "Samarra", "country": "PT", "coord": {"lon": -8.2, "lat": 39.466671}}, {"id": 2509929, "name": "Valldemossa", "country": "ES", "coord": {"lon": 2.6223, "lat": 39.710419}}, {"id": 2984512, "name": "Arrondissement de Rambouillet", "country": "FR", "coord": {"lon": 1.91667, "lat": 48.583328}}, {"id": 6444068, "name": "Saint-Germain-de-la-Grange", "country": "FR", "coord": {"lon": 1.9, "lat": 48.833328}}, {"id": 2170702, "name": "Cooee", "country": "AU", "coord": {"lon": 145.883331, "lat": -41.066669}}, {"id": 3038111, "name": "D\u00e9partement de l'Allier", "country": "FR", "coord": {"lon": 3, "lat": 46.5}}, {"id": 5908691, "name": "Bridgeport", "country": "CA", "coord": {"lon": -80.482986, "lat": 43.483398}}, {"id": 2647048, "name": "Herstmonceux", "country": "GB", "coord": {"lon": 0.3229, "lat": 50.88958}}, {"id": 3199558, "name": "Gri\u017ee", "country": "SI", "coord": {"lon": 15.15056, "lat": 46.229439}}, {"id": 2641545, "name": "Newton Longville", "country": "GB", "coord": {"lon": -0.76595, "lat": 51.976002}}, {"id": 2644973, "name": "Lancaster", "country": "GB", "coord": {"lon": -2.76667, "lat": 54.116669}}, {"id": 2526435, "name": "Zaio", "country": "MA", "coord": {"lon": -2.7329, "lat": 34.942822}}, {"id": 2753437, "name": "Gemeente Hulst", "country": "NL", "coord": {"lon": 4.0778, "lat": 51.312321}}, {"id": 5421327, "name": "Estabrook", "country": "US", "coord": {"lon": -105.429443, "lat": 39.383041}}, {"id": 7290555, "name": "Eastleigh District", "country": "GB", "coord": {"lon": -1.32746, "lat": 50.92263}}, {"id": 2641254, "name": "North Stoneham", "country": "GB", "coord": {"lon": -1.37044, "lat": 50.953209}}, {"id": 8133670, "name": "Dimos Kalavryta", "country": "GR", "coord": {"lon": 22.049959, "lat": 37.960732}}, {"id": 7286001, "name": "Gudo", "country": "CH", "coord": {"lon": 8.94564, "lat": 46.181438}}, {"id": 2785110, "name": "Uilenhoek", "country": "BE", "coord": {"lon": 3.96667, "lat": 50.966671}}, {"id": 2648857, "name": "Garrabost", "country": "GB", "coord": {"lon": -6.21667, "lat": 58.216671}}, {"id": 986873, "name": "Kroondal", "country": "ZA", "coord": {"lon": 27.315969, "lat": -25.719351}}, {"id": 6359279, "name": "Daganzo de Arriba", "country": "ES", "coord": {"lon": -3.43988, "lat": 40.562531}}, {"id": 6232255, "name": "MOUNT ALBERT", "country": "NZ", "coord": {"lon": 174.720184, "lat": -36.878201}}, {"id": 2824860, "name": "S\u00fclz", "country": "DE", "coord": {"lon": 6.92156, "lat": 50.91819}}, {"id": 8133746, "name": "Dimos Molos-Agios Konstantinos", "country": "GR", "coord": {"lon": 22.730459, "lat": 38.754951}}, {"id": 6433935, "name": "Pouillon", "country": "FR", "coord": {"lon": -1, "lat": 43.599998}}, {"id": 2801423, "name": "Bos", "country": "BE", "coord": {"lon": 4.71667, "lat": 51.066669}}, {"id": 2705294, "name": "Holmen", "country": "SE", "coord": {"lon": 12.63333, "lat": 57.799999}}, {"id": 7294063, "name": "Llanelli", "country": "GB", "coord": {"lon": -4.16522, "lat": 51.670731}}, {"id": 2635437, "name": "Trostre", "country": "GB", "coord": {"lon": -4.13667, "lat": 51.67598}}, {"id": 2035607, "name": "Inner Mongolia Autonomous Region", "country": "CN", "coord": {"lon": 112, "lat": 44}}, {"id": 2037922, "name": "Dalan Turu", "country": "CN", "coord": {"lon": 105.199997, "lat": 40.799999}}, {"id": 3364236, "name": "Meersig", "country": "NA", "coord": {"lon": 14.48333, "lat": -22.98333}}, {"id": 3790028, "name": "El Pedregal", "country": "VE", "coord": {"lon": -71.66655, "lat": 10.65553}}, {"id": 3166850, "name": "Seano", "country": "IT", "coord": {"lon": 11.01667, "lat": 43.833328}}, {"id": 3167417, "name": "Sant\u2019Antonino", "country": "IT", "coord": {"lon": 10.75, "lat": 44.549999}}, {"id": 5231992, "name": "Spink County", "country": "US", "coord": {"lon": -98.317039, "lat": 44.936081}}, {"id": 2652297, "name": "Coseley", "country": "GB", "coord": {"lon": -2.0855, "lat": 52.544781}}, {"id": 6357621, "name": "Ribes de Freser", "country": "ES", "coord": {"lon": 2.16789, "lat": 42.299061}}, {"id": 3111829, "name": "Ribes Altes", "country": "ES", "coord": {"lon": 2.18333, "lat": 42.316669}}, {"id": 6556242, "name": "Kr\u00fcn", "country": "DE", "coord": {"lon": 11.2833, "lat": 47.5}}, {"id": 2883236, "name": "Krun", "country": "DE", "coord": {"lon": 11.28333, "lat": 47.5}}, {"id": 2788313, "name": "Ravels", "country": "BE", "coord": {"lon": 4.99037, "lat": 51.37199}}, {"id": 6452533, "name": "Aiffres", "country": "FR", "coord": {"lon": -0.41667, "lat": 46.283329}}, {"id": 3038555, "name": "Aiffres", "country": "FR", "coord": {"lon": -0.42101, "lat": 46.294491}}, {"id": 2865125, "name": "Neuh\u00e4usel", "country": "DE", "coord": {"lon": 7.91667, "lat": 47.98333}}, {"id": 5332628, "name": "Calaveras County", "country": "US", "coord": {"lon": -120.584373, "lat": 38.166592}}, {"id": 5343792, "name": "Douds Landing", "country": "US", "coord": {"lon": -120.32547, "lat": 38.2127}}, {"id": 847515, "name": "Kurkim\u00e4ki", "country": "FI", "coord": {"lon": 25.06745, "lat": 60.23325}}, {"id": 2524777, "name": "Felline", "country": "IT", "coord": {"lon": 18.116671, "lat": 39.933331}}, {"id": 3333154, "name": "Hillingdon", "country": "GB", "coord": {"lon": -0.45, "lat": 51.5}}, {"id": 2620571, "name": "Hegningen", "country": "DK", "coord": {"lon": 12.28181, "lat": 55.028049}}, {"id": 4013052, "name": "Concepci\u00f3n", "country": "MX", "coord": {"lon": -117.116669, "lat": 32.533329}}, {"id": 2880083, "name": "Launsbach", "country": "DE", "coord": {"lon": 8.66667, "lat": 50.616669}}, {"id": 7839544, "name": "Glen Eira", "country": "AU", "coord": {"lon": 145.040985, "lat": -37.89949}}, {"id": 7932651, "name": "Bentleigh East", "country": "AU", "coord": {"lon": 145.059875, "lat": -37.920101}}, {"id": 6542249, "name": "Cencenighe Agordino", "country": "IT", "coord": {"lon": 11.97339, "lat": 46.343121}}, {"id": 3179178, "name": "Cencenighe", "country": "IT", "coord": {"lon": 11.97339, "lat": 46.343121}}, {"id": 3164197, "name": "Villanova", "country": "IT", "coord": {"lon": 14.21667, "lat": 40.833328}}, {"id": 3163948, "name": "Vomero", "country": "IT", "coord": {"lon": 14.23333, "lat": 40.833328}}, {"id": 6544227, "name": "Gemeente De Wolden", "country": "NL", "coord": {"lon": 6.37277, "lat": 52.701019}}, {"id": 2756100, "name": "Engeland", "country": "NL", "coord": {"lon": 6.36944, "lat": 52.767502}}, {"id": 7839389, "name": "Rockhampton", "country": "AU", "coord": {"lon": 150.227158, "lat": -22.884439}}, {"id": 3021371, "name": "Arrondissement de Dijon", "country": "FR", "coord": {"lon": 5, "lat": 47.416672}}, {"id": 6428723, "name": "Marcilly-sur-Tille", "country": "FR", "coord": {"lon": 5.13333, "lat": 47.51667}}, {"id": 2995940, "name": "Marcilly-sur-Tille", "country": "FR", "coord": {"lon": 5.12979, "lat": 47.516998}}, {"id": 7287217, "name": "Stans", "country": "CH", "coord": {"lon": 8.36333, "lat": 46.958858}}, {"id": 648901, "name": "Lappeenranta", "country": "FI", "coord": {"lon": 28.16667, "lat": 61.049999}}, {"id": 7290537, "name": "Cheshire West and Chester", "country": "GB", "coord": {"lon": -2.73595, "lat": 53.163521}}, {"id": 7294598, "name": "Great Boughton", "country": "GB", "coord": {"lon": -2.85604, "lat": 53.189949}}, {"id": 6693608, "name": "Hoole", "country": "GB", "coord": {"lon": -2.87689, "lat": 53.199799}}, {"id": 2920424, "name": "Gilfershausen", "country": "DE", "coord": {"lon": 9.83333, "lat": 50.98333}}, {"id": 2648372, "name": "Godalming", "country": "GB", "coord": {"lon": -0.61725, "lat": 51.18462}}, {"id": 1273909, "name": "Churachandpur", "country": "IN", "coord": {"lon": 93.666672, "lat": 24.33333}}, {"id": 6355669, "name": "Colilla (La)", "country": "ES", "coord": {"lon": -4.75503, "lat": 40.644089}}, {"id": 2744642, "name": "Westkapelle", "country": "NL", "coord": {"lon": 3.44028, "lat": 51.529171}}, {"id": 631273, "name": "Voistia", "country": "FI", "coord": {"lon": 25.33333, "lat": 60.950001}}, {"id": 7296006, "name": "Filton", "country": "GB", "coord": {"lon": -2.5739, "lat": 51.511299}}, {"id": 2653328, "name": "Charlton", "country": "GB", "coord": {"lon": -2.6, "lat": 51.51667}}, {"id": 2879021, "name": "Leithe", "country": "DE", "coord": {"lon": 7.11667, "lat": 51.466671}}, {"id": 830705, "name": "Tavastland", "country": "FI", "coord": {"lon": 24.25, "lat": 60.833328}}, {"id": 630737, "name": "Yp\u00e4j\u00e4", "country": "FI", "coord": {"lon": 23.25, "lat": 60.833328}}, {"id": 646756, "name": "Manninen", "country": "FI", "coord": {"lon": 23.216669, "lat": 60.799999}}, {"id": 747458, "name": "Erenler", "country": "TR", "coord": {"lon": 29.566669, "lat": 41.116669}}, {"id": 6173864, "name": "Vernon", "country": "CA", "coord": {"lon": -119.269051, "lat": 50.258091}}, {"id": 6431696, "name": "Montaigut-sur-Save", "country": "FR", "coord": {"lon": 1.25, "lat": 43.700001}}, {"id": 2150460, "name": "Sandringham", "country": "AU", "coord": {"lon": 145, "lat": -37.950001}}, {"id": 1993378, "name": "Cideng", "country": "ID", "coord": {"lon": 106.806198, "lat": -6.1674}}, {"id": 2159630, "name": "Longreach", "country": "AU", "coord": {"lon": 144.25, "lat": -23.450001}}, {"id": 6543944, "name": "Ikast-Brande Kommune", "country": "DK", "coord": {"lon": 9.21667, "lat": 55.98333}}, {"id": 3131675, "name": "Vik", "country": "NO", "coord": {"lon": 6.58512, "lat": 61.088631}}, {"id": 7288344, "name": "Vik", "country": "NO", "coord": {"lon": 6.57806, "lat": 61.057121}}, {"id": 1520789, "name": "Mynaral", "country": "KZ", "coord": {"lon": 73.684441, "lat": 45.416111}}, {"id": 6073377, "name": "Midnapore", "country": "CA", "coord": {"lon": -114.059029, "lat": 50.915321}}, {"id": 294568, "name": "Kefar Aharon", "country": "IL", "coord": {"lon": 34.792782, "lat": 31.91111}}, {"id": 6692397, "name": "Bjorli", "country": "NO", "coord": {"lon": 8.20404, "lat": 62.259609}}, {"id": 261702, "name": "Ix\u00f3s", "country": "GR", "coord": {"lon": 28.183331, "lat": 36.416672}}, {"id": 4163123, "name": "Macon", "country": "US", "coord": {"lon": -84.279068, "lat": 30.49464}}, {"id": 2658007, "name": "Zuerich (Kreis 3) / Alt-Wiedikon", "country": "CH", "coord": {"lon": 8.51497, "lat": 47.362011}}, {"id": 2921959, "name": "Gehrsweilerhof", "country": "DE", "coord": {"lon": 7.78333, "lat": 49.466671}}, {"id": 6535097, "name": "Casale Litta", "country": "IT", "coord": {"lon": 8.74133, "lat": 45.767872}}, {"id": 7839758, "name": "Newcastle", "country": "AU", "coord": {"lon": 151.708435, "lat": -32.876282}}, {"id": 4186876, "name": "Cedar Hill", "country": "US", "coord": {"lon": -83.76545, "lat": 34.022331}}, {"id": 2871045, "name": "Mindelheim", "country": "DE", "coord": {"lon": 10.48333, "lat": 48.049999}}, {"id": 830686, "name": "Norra Karelen", "country": "FI", "coord": {"lon": 30, "lat": 63}}, {"id": 639200, "name": "Ristisaari", "country": "FI", "coord": {"lon": 29.816669, "lat": 62.683331}}, {"id": 2668674, "name": "Tj\u00f6rns Kommun", "country": "SE", "coord": {"lon": 11.66667, "lat": 58.033329}}, {"id": 7839676, "name": "Kingborough", "country": "AU", "coord": {"lon": 147.262497, "lat": -43.213799}}, {"id": 2749851, "name": "Gemeente Noordoostpolder", "country": "NL", "coord": {"lon": 5.75, "lat": 52.700001}}, {"id": 7839624, "name": "Northam", "country": "AU", "coord": {"lon": 116.649643, "lat": -31.69898}}, {"id": 3124936, "name": "Clavijo", "country": "ES", "coord": {"lon": -2.42666, "lat": 42.348969}}, {"id": 8133821, "name": "Dimos Chios", "country": "GR", "coord": {"lon": 26.01646, "lat": 38.401981}}, {"id": 7701425, "name": "Kambos", "country": "GR", "coord": {"lon": 26.123341, "lat": 38.32246}}, {"id": 2510071, "name": "Uxola", "country": "ES", "coord": {"lon": -0.48333, "lat": 38.700001}}, {"id": 3302143, "name": "Landkreis Nordwestmecklenburg", "country": "DE", "coord": {"lon": 11.24806, "lat": 53.807781}}, {"id": 6548221, "name": "Schlagsdorf", "country": "DE", "coord": {"lon": 10.8333, "lat": 53.733299}}, {"id": 2838955, "name": "Schlagsdorf", "country": "DE", "coord": {"lon": 10.83333, "lat": 53.73333}}, {"id": 5392329, "name": "San Luis Obispo County", "country": "US", "coord": {"lon": -120.534332, "lat": 35.366638}}, {"id": 7839527, "name": "Banyule", "country": "AU", "coord": {"lon": 145.085754, "lat": -37.73386}}, {"id": 2159454, "name": "Lower Plenty", "country": "AU", "coord": {"lon": 145.116669, "lat": -37.73333}}, {"id": 3129986, "name": "A\u00f1orga", "country": "ES", "coord": {"lon": -2.00161, "lat": 43.28397}}, {"id": 6325069, "name": "Iza", "country": "ES", "coord": {"lon": -2.0011, "lat": 43.301979}}, {"id": 3084052, "name": "Swierczewo", "country": "PL", "coord": {"lon": 16.883329, "lat": 52.366669}}, {"id": 2749813, "name": "Noordwijk aan Zee", "country": "NL", "coord": {"lon": 4.43472, "lat": 52.243328}}, {"id": 6362115, "name": "Valencia", "country": "ES", "coord": {"lon": -0.35457, "lat": 39.45612}}, {"id": 2520457, "name": "Campanar", "country": "ES", "coord": {"lon": -0.4, "lat": 39.48333}}, {"id": 8063665, "name": "Branksome", "country": "GB", "coord": {"lon": -1.92344, "lat": 50.732101}}, {"id": 7287583, "name": "Wiliberg", "country": "CH", "coord": {"lon": 8.01662, "lat": 47.266949}}, {"id": 6697616, "name": "Wiliberg", "country": "CH", "coord": {"lon": 8.02139, "lat": 47.268688}}, {"id": 6452423, "name": "Allennes-les-Marais", "country": "FR", "coord": {"lon": 2.95, "lat": 50.533329}}, {"id": 2749385, "name": "Oosterzee", "country": "NL", "coord": {"lon": 5.77572, "lat": 52.873791}}, {"id": 6359207, "name": "Pontenova (A)", "country": "ES", "coord": {"lon": -7.18214, "lat": 43.328339}}, {"id": 7285691, "name": "Echarlens", "country": "CH", "coord": {"lon": 7.07716, "lat": 46.645828}}, {"id": 3153009, "name": "Hem", "country": "NO", "coord": {"lon": 10.01667, "lat": 59.433331}}, {"id": 5530531, "name": "Shafter", "country": "US", "coord": {"lon": -104.303253, "lat": 29.820169}}, {"id": 4261996, "name": "Navilleton", "country": "US", "coord": {"lon": -85.938583, "lat": 38.381729}}, {"id": 4919627, "name": "Deming", "country": "US", "coord": {"lon": -86.098602, "lat": 40.115311}}, {"id": 3990668, "name": "Rancho El Aguajito", "country": "MX", "coord": {"lon": -116.966667, "lat": 32.416672}}, {"id": 736120, "name": "Nom\u00f3s Imath\u00edas", "country": "GR", "coord": {"lon": 22.25, "lat": 40.5}}, {"id": 1690091, "name": "San Felipe", "country": "PH", "coord": {"lon": 123.205833, "lat": 13.64222}}, {"id": 4978496, "name": "Shermans Corner", "country": "US", "coord": {"lon": -69.006416, "lat": 44.45813}}, {"id": 2984741, "name": "Quiberon", "country": "FR", "coord": {"lon": -3.11962, "lat": 47.484119}}, {"id": 4010969, "name": "El Bedito", "country": "MX", "coord": {"lon": -109.76667, "lat": 22.98333}}, {"id": 2939819, "name": "Coswig", "country": "DE", "coord": {"lon": 12.45, "lat": 51.883331}}, {"id": 2748200, "name": "Gemeente Rheden", "country": "NL", "coord": {"lon": 6.05, "lat": 52.01667}}, {"id": 2756865, "name": "Dieren", "country": "NL", "coord": {"lon": 6.1, "lat": 52.052502}}, {"id": 6542661, "name": "Velo d'Astico", "country": "IT", "coord": {"lon": 11.36769, "lat": 45.788399}}, {"id": 3173670, "name": "Meda", "country": "IT", "coord": {"lon": 11.4005, "lat": 45.777821}}, {"id": 7300649, "name": "Llanllyfni", "country": "GB", "coord": {"lon": -4.24085, "lat": 53.039379}}, {"id": 6536003, "name": "Saint-Nicolas", "country": "IT", "coord": {"lon": 7.1667, "lat": 45.71656}}, {"id": 3167922, "name": "San Nicolas", "country": "IT", "coord": {"lon": 7.16667, "lat": 45.716671}}, {"id": 2883655, "name": "Kronsburg", "country": "DE", "coord": {"lon": 10.13901, "lat": 54.287979}}, {"id": 2831030, "name": "Sophienh\u00f6he", "country": "DE", "coord": {"lon": 10.16667, "lat": 54.299999}}, {"id": 7839836, "name": "Wyndham", "country": "AU", "coord": {"lon": 144.635727, "lat": -37.892799}}, {"id": 7285011, "name": "Bezirk Pr\u00e4ttigau-Davos", "country": "CH", "coord": {"lon": 9.84407, "lat": 46.866241}}, {"id": 2764178, "name": "Strassgang", "country": "AT", "coord": {"lon": 15.4, "lat": 47.033329}}, {"id": 2751271, "name": "Gemeente Made en Drimmelen", "country": "NL", "coord": {"lon": 4.78333, "lat": 51.666672}}, {"id": 3582324, "name": "Consejo", "country": "BZ", "coord": {"lon": -88.283333, "lat": 18.450001}}, {"id": 5160581, "name": "Lemoyne", "country": "US", "coord": {"lon": -83.474098, "lat": 41.495892}}, {"id": 2644287, "name": "Little Milton", "country": "GB", "coord": {"lon": -1.10495, "lat": 51.702801}}, {"id": 4177409, "name": "Walton County", "country": "US", "coord": {"lon": -86.166611, "lat": 30.62575}}, {"id": 4165763, "name": "New Harmony", "country": "US", "coord": {"lon": -86.279953, "lat": 30.853519}}, {"id": 7285661, "name": "Domdidier", "country": "CH", "coord": {"lon": 7.01607, "lat": 46.862629}}, {"id": 2772062, "name": "Maisbirbaum", "country": "AT", "coord": {"lon": 16.299999, "lat": 48.5}}, {"id": 7290613, "name": "Ashfield District", "country": "GB", "coord": {"lon": -1.25288, "lat": 53.089439}}, {"id": 2638215, "name": "Selston", "country": "GB", "coord": {"lon": -1.30179, "lat": 53.07193}}, {"id": 2637358, "name": "South Normanton", "country": "GB", "coord": {"lon": -1.34262, "lat": 53.106369}}, {"id": 4343122, "name": "Tangipahoa Parish", "country": "US", "coord": {"lon": -90.400093, "lat": 30.666849}}, {"id": 2178144, "name": "Alexandra", "country": "AU", "coord": {"lon": 145.699997, "lat": -37.183331}}, {"id": 2518328, "name": "El Molino", "country": "ES", "coord": {"lon": -3.87743, "lat": 36.76849}}, {"id": 7296240, "name": "Llangollen Rural", "country": "GB", "coord": {"lon": -3.10033, "lat": 52.971062}}, {"id": 3174254, "name": "Maglie", "country": "IT", "coord": {"lon": 18.298929, "lat": 40.11842}}, {"id": 2658377, "name": "Thun", "country": "CH", "coord": {"lon": 7.62166, "lat": 46.751179}}, {"id": 3333124, "name": "Bexley", "country": "GB", "coord": {"lon": 0.13333, "lat": 51.416672}}, {"id": 2655774, "name": "Bexleyheath", "country": "GB", "coord": {"lon": 0.13943, "lat": 51.46291}}, {"id": 637220, "name": "Sein\u00e4joki", "country": "FI", "coord": {"lon": 22.816669, "lat": 62.783329}}, {"id": 644790, "name": "Niemist\u00f6", "country": "FI", "coord": {"lon": 22.799999, "lat": 62.799999}}, {"id": 7292723, "name": "Tilehurst", "country": "GB", "coord": {"lon": -1.04711, "lat": 51.45789}}, {"id": 2746607, "name": "Gemeente Strijen", "country": "NL", "coord": {"lon": 4.55, "lat": 51.73333}}, {"id": 2746609, "name": "Strijen", "country": "NL", "coord": {"lon": 4.55083, "lat": 51.745209}}, {"id": 3180193, "name": "Casale Vignarola", "country": "IT", "coord": {"lon": 12.59136, "lat": 41.488781}}, {"id": 3183583, "name": "Abbadia di Stura", "country": "IT", "coord": {"lon": 7.71667, "lat": 45.099998}}, {"id": 7521552, "name": "Ardeatino", "country": "IT", "coord": {"lon": 12.503, "lat": 41.857861}}, {"id": 4992137, "name": "Emmet County", "country": "US", "coord": {"lon": -84.916718, "lat": 45.53334}}, {"id": 4987969, "name": "Canby Corners", "country": "US", "coord": {"lon": -84.915329, "lat": 45.63612}}, {"id": 6094915, "name": "Otter Creek", "country": "CA", "coord": {"lon": -81.133041, "lat": 44.083389}}, {"id": 3144656, "name": "Nesodden", "country": "NO", "coord": {"lon": 10.6494, "lat": 59.842201}}, {"id": 3153801, "name": "Hasle", "country": "NO", "coord": {"lon": 10.7, "lat": 59.783329}}, {"id": 7291120, "name": "Falmouth", "country": "GB", "coord": {"lon": -5.07133, "lat": 50.14505}}, {"id": 2649715, "name": "Falmouth", "country": "GB", "coord": {"lon": -5.07113, "lat": 50.154411}}, {"id": 6556008, "name": "Burgrieden", "country": "DE", "coord": {"lon": 9.93333, "lat": 48.233299}}, {"id": 6445401, "name": "Nexon", "country": "FR", "coord": {"lon": 1.18333, "lat": 45.683331}}, {"id": 1854579, "name": "Ohama", "country": "JP", "coord": {"lon": 136.833328, "lat": 34.5}}, {"id": 6360189, "name": "San Bartolom\u00e9 de Tirajana", "country": "ES", "coord": {"lon": -15.58081, "lat": 27.82506}}, {"id": 6354969, "name": "Playa del Ingles", "country": "ES", "coord": {"lon": -15.5787, "lat": 27.756701}}, {"id": 2654981, "name": "Bradley in the Moors", "country": "GB", "coord": {"lon": -1.91204, "lat": 52.968681}}, {"id": 1013550, "name": "Christiana", "country": "ZA", "coord": {"lon": 25.16111, "lat": -27.914021}}, {"id": 6227744, "name": "Terrace End", "country": "NZ", "coord": {"lon": 175.630203, "lat": -40.348251}}, {"id": 6544252, "name": "Gemeente Leidschendam-Voorburg", "country": "NL", "coord": {"lon": 4.40139, "lat": 52.078331}}, {"id": 2656060, "name": "Beckford", "country": "GB", "coord": {"lon": -2.03478, "lat": 52.020531}}, {"id": 3632885, "name": "Mariperez", "country": "VE", "coord": {"lon": -66.871132, "lat": 10.51637}}, {"id": 6941738, "name": "La Florida", "country": "VE", "coord": {"lon": -66.87841, "lat": 10.50334}}, {"id": 1281556, "name": "Chalengkou", "country": "CN", "coord": {"lon": 93.900002, "lat": 38.033329}}, {"id": 1538472, "name": "Laotai", "country": "CN", "coord": {"lon": 88.823059, "lat": 44.083611}}, {"id": 6157718, "name": "Stouffville", "country": "CA", "coord": {"lon": -79.249603, "lat": 43.96682}}, {"id": 4563244, "name": "Carolina Municipio", "country": "PR", "coord": {"lon": -65.957939, "lat": 18.37578}}, {"id": 2620134, "name": "Holeby", "country": "DK", "coord": {"lon": 11.46416, "lat": 54.711479}}, {"id": 2964468, "name": "Durrow", "country": "IE", "coord": {"lon": -7.3925, "lat": 52.84417}}, {"id": 3369086, "name": "Cloetesville", "country": "ZA", "coord": {"lon": 18.85507, "lat": -33.912392}}, {"id": 3458825, "name": "Lapa", "country": "BR", "coord": {"lon": -46.700001, "lat": -23.533331}}, {"id": 3862555, "name": "Caroya", "country": "AR", "coord": {"lon": -64.116669, "lat": -31.033331}}, {"id": 6356154, "name": "Montcada i Reixac", "country": "ES", "coord": {"lon": 2.18386, "lat": 41.495392}}, {"id": 5755890, "name": "Talent", "country": "US", "coord": {"lon": -122.788651, "lat": 42.245682}}, {"id": 7555444, "name": "Stio Caracol", "country": "BR", "coord": {"lon": -46.24052, "lat": -23.45262}}, {"id": 4880327, "name": "Volga", "country": "US", "coord": {"lon": -91.540977, "lat": 42.80471}}, {"id": 4693922, "name": "Goliad County", "country": "US", "coord": {"lon": -97.433601, "lat": 28.65027}}, {"id": 3345130, "name": "Carew Newton", "country": "GB", "coord": {"lon": -4.82917, "lat": 51.705559}}, {"id": 634829, "name": "Tattula", "country": "FI", "coord": {"lon": 23.25, "lat": 60.466671}}, {"id": 1022393, "name": "Arboretum", "country": "ZA", "coord": {"lon": 32.061741, "lat": -28.756849}}, {"id": 2065001, "name": "Nannup", "country": "AU", "coord": {"lon": 115.75, "lat": -33.98333}}, {"id": 2847258, "name": "Riedelsbach", "country": "DE", "coord": {"lon": 13.80286, "lat": 48.75132}}, {"id": 5205669, "name": "Perry County", "country": "US", "coord": {"lon": -77.249992, "lat": 40.500359}}, {"id": 5186715, "name": "Dellville", "country": "US", "coord": {"lon": -77.115807, "lat": 40.363972}}, {"id": 3167974, "name": "San Michele", "country": "IT", "coord": {"lon": 12.96667, "lat": 41.433331}}, {"id": 6361970, "name": "Cullera", "country": "ES", "coord": {"lon": -0.24939, "lat": 39.164581}}, {"id": 6544287, "name": "Gemeente Noordenveld", "country": "NL", "coord": {"lon": 6.44622, "lat": 53.114941}}, {"id": 2997857, "name": "D\u00e9partement du Loiret", "country": "FR", "coord": {"lon": 2.33333, "lat": 47.916672}}, {"id": 3008622, "name": "La Jacquemini\u00e8re", "country": "FR", "coord": {"lon": 3.08377, "lat": 47.99955}}, {"id": 2888639, "name": "Kleink\u00f6nigsdorf", "country": "DE", "coord": {"lon": 6.76667, "lat": 50.950001}}, {"id": 6543838, "name": "Cavagnolo", "country": "IT", "coord": {"lon": 8.04903, "lat": 45.151749}}, {"id": 6429107, "name": "Qu\u00e9vert", "country": "FR", "coord": {"lon": -2.08333, "lat": 48.466671}}, {"id": 7522460, "name": "Viimsi vald", "country": "EE", "coord": {"lon": 24.78879, "lat": 59.580261}}, {"id": 2511064, "name": "Santiponce", "country": "ES", "coord": {"lon": -6.04106, "lat": 37.435532}}, {"id": 1346629, "name": "Layka", "country": "CN", "coord": {"lon": 79.731667, "lat": 37.076939}}, {"id": 6357429, "name": "Cuenca", "country": "ES", "coord": {"lon": -2.13615, "lat": 40.074921}}, {"id": 3119813, "name": "La Cueva", "country": "ES", "coord": {"lon": -1.92892, "lat": 40.43317}}, {"id": 6084704, "name": "Murray Park", "country": "CA", "coord": {"lon": -97.276451, "lat": 49.902199}}, {"id": 2635750, "name": "Todber", "country": "GB", "coord": {"lon": -2.28928, "lat": 50.980839}}, {"id": 5021676, "name": "Cloverleaf Mobile Home Community", "country": "US", "coord": {"lon": -94.138893, "lat": 45.57222}}, {"id": 6438285, "name": "Hazebrouck", "country": "FR", "coord": {"lon": 2.53333, "lat": 50.716671}}, {"id": 2639524, "name": "Redruth", "country": "GB", "coord": {"lon": -5.22434, "lat": 50.23315}}, {"id": 2647488, "name": "Harecastle", "country": "GB", "coord": {"lon": -2.25, "lat": 53.066669}}, {"id": 3333125, "name": "City and Borough of Birmingham", "country": "GB", "coord": {"lon": -1.89823, "lat": 52.48048}}, {"id": 260451, "name": "K\u00e1to Vlas\u00eda", "country": "GR", "coord": {"lon": 21.91667, "lat": 38}}, {"id": 2749835, "name": "Noord-Scharwoude", "country": "NL", "coord": {"lon": 4.81111, "lat": 52.69833}}, {"id": 6101606, "name": "Petawawa", "country": "CA", "coord": {"lon": -77.280067, "lat": 45.89452}}, {"id": 7261046, "name": "Cayuse", "country": "US", "coord": {"lon": -118.566116, "lat": 45.67643}}, {"id": 650167, "name": "Kuortane", "country": "FI", "coord": {"lon": 23.58333, "lat": 62.75}}, {"id": 3163969, "name": "Volta Barozzo", "country": "IT", "coord": {"lon": 11.9, "lat": 45.366669}}, {"id": 3171456, "name": "Provincia di Parma", "country": "IT", "coord": {"lon": 10.08333, "lat": 44.700001}}, {"id": 3111394, "name": "Romanillos", "country": "ES", "coord": {"lon": -3.92815, "lat": 40.444061}}, {"id": 284305, "name": "Beit \u1e62af\u0101f\u0101", "country": "IL", "coord": {"lon": 35.203041, "lat": 31.74267}}, {"id": 8010565, "name": "Sintra", "country": "PT", "coord": {"lon": -9.3837, "lat": 38.814388}}, {"id": 2942093, "name": "Budelsdorf", "country": "DE", "coord": {"lon": 9.68333, "lat": 54.316669}}, {"id": 2174299, "name": "Bracalba", "country": "AU", "coord": {"lon": 152.850006, "lat": -27.01667}}, {"id": 2752240, "name": "Krommenie", "country": "NL", "coord": {"lon": 4.7625, "lat": 52.499168}}, {"id": 3580529, "name": "Savannah", "country": "KY", "coord": {"lon": -81.300003, "lat": 19.26667}}, {"id": 2713509, "name": "Fruf\u00e4llan", "country": "SE", "coord": {"lon": 12.96667, "lat": 57.783329}}, {"id": 2786459, "name": "Smoorken", "country": "BE", "coord": {"lon": 3.41667, "lat": 50.883331}}, {"id": 3333139, "name": "City and Borough of Coventry", "country": "GB", "coord": {"lon": -1.5, "lat": 52.416672}}, {"id": 2649259, "name": "Foleshill", "country": "GB", "coord": {"lon": -1.48303, "lat": 52.439301}}, {"id": 2620452, "name": "Hemmesh\u00f8j", "country": "DK", "coord": {"lon": 11.29146, "lat": 55.34544}}, {"id": 4085392, "name": "Ramer", "country": "US", "coord": {"lon": -86.221352, "lat": 32.05043}}, {"id": 759083, "name": "Skopanie", "country": "PL", "coord": {"lon": 21.57295, "lat": 50.481899}}, {"id": 3088161, "name": "Prabuty", "country": "PL", "coord": {"lon": 19.205469, "lat": 53.755001}}, {"id": 2751998, "name": "Lammerenburg", "country": "NL", "coord": {"lon": 3.55833, "lat": 51.466671}}, {"id": 4905232, "name": "Palm Beach", "country": "US", "coord": {"lon": -88.197311, "lat": 42.37669}}, {"id": 7285000, "name": "Wahlkreis Rheintal", "country": "CH", "coord": {"lon": 9.57903, "lat": 47.377689}},