[{"id": 6294629, "name": "Hinter-R\u00fcti", "country": "CH", "coord": {"lon": 8.64974, "lat": 47.415009}}, {"id": 2659779, "name": "Maloja", "country": "CH", "coord": {"lon": 9.69594, "lat": 46.403481}}, {"id": 7285723, "name": "Embd", "country": "CH", "coord": {"lon": 7.79617, "lat": 46.21674}}, {"id": 2660914, "name": "Embd", "country": "CH", "coord": {"lon": 7.83203, "lat": 46.216301}}, {"id": 2660871, "name": "Erlenbach im Simmental", "country": "CH", "coord": {"lon": 7.55445, "lat": 46.66021}}, {"id": 7287282, "name": "T\u00e4sch", "country": "CH", "coord": {"lon": 7.81117, "lat": 46.05405}}, {"id": 2658418, "name": "T\u00e4sch", "country": "CH", "coord": {"lon": 7.77826, "lat": 46.066929}}, {"id": 7287354, "name": "Turtmann", "country": "CH", "coord": {"lon": 7.7148, "lat": 46.186131}}, {"id": 2658287, "name": "Turtmann", "country": "CH", "coord": {"lon": 7.70195, "lat": 46.301479}}, {"id": 7287239, "name": "Stettlen", "country": "CH", "coord": {"lon": 7.52212, "lat": 46.956631}}, {"id": 2661037, "name": "Deisswil", "country": "CH", "coord": {"lon": 7.51413, "lat": 46.958172}}, {"id": 2661828, "name": "Albeuve", "country": "CH", "coord": {"lon": 7.0567, "lat": 46.517269}}, {"id": 7287109, "name": "Sch\u00f6nengrund", "country": "CH", "coord": {"lon": 9.23175, "lat": 47.320709}}, {"id": 2658707, "name": "Sch\u00f6nengrund", "country": "CH", "coord": {"lon": 9.2269, "lat": 47.327862}}, {"id": 7285663, "name": "Dompierre (FR)", "country": "CH", "coord": {"lon": 6.98947, "lat": 46.85677}}, {"id": 2660996, "name": "Dompierre", "country": "CH", "coord": {"lon": 6.99075, "lat": 46.852081}}, {"id": 7286553, "name": "Morens (FR)", "country": "CH", "coord": {"lon": 6.90416, "lat": 46.845749}}, {"id": 2659590, "name": "Morens", "country": "CH", "coord": {"lon": 6.90697, "lat": 46.843639}}, {"id": 7285521, "name": "Clos du Doubs", "country": "CH", "coord": {"lon": 7.12063, "lat": 47.350948}}, {"id": 2658858, "name": "Saint-Ursanne", "country": "CH", "coord": {"lon": 7.15436, "lat": 47.364738}}, {"id": 7302244, "name": "Kleinwangeen", "country": "CH", "coord": {"lon": 8.29455, "lat": 47.194962}}, {"id": 7286064, "name": "Herdern", "country": "CH", "coord": {"lon": 8.9204, "lat": 47.615471}}, {"id": 2660372, "name": "Herdern", "country": "CH", "coord": {"lon": 8.91077, "lat": 47.603039}}, {"id": 7287366, "name": "Ufhusen", "country": "CH", "coord": {"lon": 7.89289, "lat": 47.107922}}, {"id": 2658272, "name": "Ufhusen", "country": "CH", "coord": {"lon": 7.89624, "lat": 47.11647}}, {"id": 7286150, "name": "Is\u00e9rables", "country": "CH", "coord": {"lon": 7.26783, "lat": 46.148029}}, {"id": 2660242, "name": "Iserables", "country": "CH", "coord": {"lon": 7.24474, "lat": 46.162281}}, {"id": 6294820, "name": "R\u00fcmikon", "country": "CH", "coord": {"lon": 8.78724, "lat": 47.502319}}, {"id": 6295099, "name": "Oberwinterthur (Kreis 2) / Essigfabrik", "country": "CH", "coord": {"lon": 8.77438, "lat": 47.5014}}, {"id": 7287387, "name": "Unterstammheim", "country": "CH", "coord": {"lon": 8.78965, "lat": 47.647072}}, {"id": 6290988, "name": "Ulmerhof", "country": "CH", "coord": {"lon": 8.78306, "lat": 47.65202}}, {"id": 2660541, "name": "Grafenort", "country": "CH", "coord": {"lon": 8.3744, "lat": 46.870171}}, {"id": 7286629, "name": "Neunforn", "country": "CH", "coord": {"lon": 8.77196, "lat": 47.602322}}, {"id": 7669799, "name": "Niederneunforn", "country": "CH", "coord": {"lon": 8.78482, "lat": 47.59729}}, {"id": 7286735, "name": "Ohmstal", "country": "CH", "coord": {"lon": 7.95418, "lat": 47.159321}}, {"id": 2659302, "name": "Ohmstal", "country": "CH", "coord": {"lon": 7.95228, "lat": 47.158329}}, {"id": 7287311, "name": "Tiefencastel", "country": "CH", "coord": {"lon": 9.61312, "lat": 46.644981}}, {"id": 2658365, "name": "Tiefencastel", "country": "CH", "coord": {"lon": 9.57883, "lat": 46.660141}}, {"id": 2658320, "name": "Tretsch", "country": "CH", "coord": {"lon": 9.55, "lat": 46.966671}}, {"id": 7285040, "name": "Agiez", "country": "CH", "coord": {"lon": 6.50766, "lat": 46.718182}}, {"id": 2661838, "name": "Agiez", "country": "CH", "coord": {"lon": 6.50751, "lat": 46.721031}}, {"id": 7287637, "name": "Zillis-Reischen", "country": "CH", "coord": {"lon": 9.47006, "lat": 46.638031}}, {"id": 2657920, "name": "Zillis", "country": "CH", "coord": {"lon": 9.4423, "lat": 46.634102}}, {"id": 7286401, "name": "Luthern", "country": "CH", "coord": {"lon": 7.90784, "lat": 47.051441}}, {"id": 2659821, "name": "Luthern", "country": "CH", "coord": {"lon": 7.91692, "lat": 47.057529}}, {"id": 7286647, "name": "Nieder\u00f6sch", "country": "CH", "coord": {"lon": 7.61587, "lat": 47.115761}}, {"id": 2661820, "name": "Alchenstorf", "country": "CH", "coord": {"lon": 7.63785, "lat": 47.12537}}, {"id": 7285608, "name": "Cunter", "country": "CH", "coord": {"lon": 9.60429, "lat": 46.620232}}, {"id": 2661131, "name": "Cunter", "country": "CH", "coord": {"lon": 9.60154, "lat": 46.609241}}, {"id": 7285265, "name": "Bivio", "country": "CH", "coord": {"lon": 9.66173, "lat": 46.457779}}, {"id": 2661484, "name": "Bivio", "country": "CH", "coord": {"lon": 9.65064, "lat": 46.468552}}, {"id": 7285220, "name": "Betschwanden", "country": "CH", "coord": {"lon": 9.05233, "lat": 46.92979}}, {"id": 2661537, "name": "Betschwanden", "country": "CH", "coord": {"lon": 9.02763, "lat": 46.946339}}, {"id": 2659026, "name": "Rigi Kaltbad", "country": "CH", "coord": {"lon": 8.46524, "lat": 47.044151}}, {"id": 7287206, "name": "Spl\u00fcgen", "country": "CH", "coord": {"lon": 9.31336, "lat": 46.542519}}, {"id": 2658528, "name": "Spl\u00fcgen", "country": "CH", "coord": {"lon": 9.3231, "lat": 46.553101}}, {"id": 2661204, "name": "Ch\u00e2teauneuf", "country": "CH", "coord": {"lon": 7.33137, "lat": 46.223179}}, {"id": 7287464, "name": "Villars-Mendraz", "country": "CH", "coord": {"lon": 6.72678, "lat": 46.64529}}, {"id": 2660128, "name": "Klosters Serneus", "country": "CH", "coord": {"lon": 9.83826, "lat": 46.889179}}, {"id": 7285788, "name": "Fahrni", "country": "CH", "coord": {"lon": 7.65449, "lat": 46.798882}}, {"id": 2660833, "name": "Fahrni", "country": "CH", "coord": {"lon": 7.66971, "lat": 46.796711}}, {"id": 7287172, "name": "Sils im Domleschg", "country": "CH", "coord": {"lon": 9.46489, "lat": 46.690769}}, {"id": 2658590, "name": "Sils im Domleschg", "country": "CH", "coord": {"lon": 9.45404, "lat": 46.700409}}, {"id": 7285092, "name": "Ardez", "country": "CH", "coord": {"lon": 10.18529, "lat": 46.769939}}, {"id": 2661726, "name": "Ardez", "country": "CH", "coord": {"lon": 10.20228, "lat": 46.775059}}, {"id": 7287417, "name": "Varen", "country": "CH", "coord": {"lon": 7.59282, "lat": 46.337559}}, {"id": 2658185, "name": "Varen", "country": "CH", "coord": {"lon": 7.60743, "lat": 46.3186}}, {"id": 7285445, "name": "Cauco", "country": "CH", "coord": {"lon": 9.12209, "lat": 46.333641}}, {"id": 7670080, "name": "Bodio", "country": "CH", "coord": {"lon": 9.12033, "lat": 46.33242}}, {"id": 2660868, "name": "Ernen", "country": "CH", "coord": {"lon": 8.14583, "lat": 46.398701}}, {"id": 7285582, "name": "Courtedoux", "country": "CH", "coord": {"lon": 7.028, "lat": 47.412891}}, {"id": 2661093, "name": "Courtedoux", "country": "CH", "coord": {"lon": 7.04281, "lat": 47.408199}}, {"id": 7286614, "name": "Neckertal", "country": "CH", "coord": {"lon": 9.16402, "lat": 47.346142}}, {"id": 2659505, "name": "Necker", "country": "CH", "coord": {"lon": 9.1302, "lat": 47.345619}}, {"id": 2661047, "name": "Danis", "country": "CH", "coord": {"lon": 9.05568, "lat": 46.75486}}, {"id": 2659635, "name": "Mols", "country": "CH", "coord": {"lon": 9.28654, "lat": 47.111729}}, {"id": 7287375, "name": "Unterems", "country": "CH", "coord": {"lon": 7.69366, "lat": 46.289028}}, {"id": 2659395, "name": "Oberems", "country": "CH", "coord": {"lon": 7.69531, "lat": 46.28154}}, {"id": 7287203, "name": "Speicher", "country": "CH", "coord": {"lon": 9.44366, "lat": 47.41291}}, {"id": 2658537, "name": "Speicher", "country": "CH", "coord": {"lon": 9.44335, "lat": 47.4109}}, {"id": 7286417, "name": "Maggia", "country": "CH", "coord": {"lon": 8.68087, "lat": 46.26915}}, {"id": 2659647, "name": "Moghegno", "country": "CH", "coord": {"lon": 8.70655, "lat": 46.2407}}, {"id": 7287336, "name": "Trin", "country": "CH", "coord": {"lon": 9.32992, "lat": 46.862431}}, {"id": 7669966, "name": "Trin Mulin", "country": "CH", "coord": {"lon": 9.34107, "lat": 46.833672}}, {"id": 7285892, "name": "G\u00e4nsbrunnen", "country": "CH", "coord": {"lon": 7.46698, "lat": 47.26202}}, {"id": 2660666, "name": "G\u00e4nsbrunnen", "country": "CH", "coord": {"lon": 7.46856, "lat": 47.26123}}, {"id": 2660941, "name": "Egga", "country": "CH", "coord": {"lon": 9.53172, "lat": 46.800018}}, {"id": 2660706, "name": "Melchsee-Frutt", "country": "CH", "coord": {"lon": 8.26854, "lat": 46.77457}}, {"id": 7285522, "name": "Coeuve", "country": "CH", "coord": {"lon": 7.09532, "lat": 47.452339}}, {"id": 2661152, "name": "Coeuve", "country": "CH", "coord": {"lon": 7.09794, "lat": 47.452888}}, {"id": 7287016, "name": "Saicourt", "country": "CH", "coord": {"lon": 7.17473, "lat": 47.252258}}, {"id": 2661570, "name": "Bellelay", "country": "CH", "coord": {"lon": 7.16658, "lat": 47.263302}}, {"id": 7285791, "name": "Faido", "country": "CH", "coord": {"lon": 8.83548, "lat": 46.474819}}, {"id": 2661174, "name": "Chiggiogna", "country": "CH", "coord": {"lon": 8.82168, "lat": 46.466949}}, {"id": 2659312, "name": "Ocourt", "country": "CH", "coord": {"lon": 7.07827, "lat": 47.352242}}, {"id": 2661060, "name": "Curtina", "country": "CH", "coord": {"lon": 9.02353, "lat": 46.081909}}, {"id": 7287488, "name": "Visperterminen", "country": "CH", "coord": {"lon": 7.94019, "lat": 46.243038}}, {"id": 2658110, "name": "Visperterminen", "country": "CH", "coord": {"lon": 7.90192, "lat": 46.258991}}, {"id": 2659980, "name": "Le Bry", "country": "CH", "coord": {"lon": 7.0833, "lat": 46.703449}}, {"id": 7287205, "name": "Spiringen", "country": "CH", "coord": {"lon": 8.84351, "lat": 46.878391}}, {"id": 2660368, "name": "Hergersboden", "country": "CH", "coord": {"lon": 8.89907, "lat": 46.88702}}, {"id": 2660766, "name": "Fischingen", "country": "CH", "coord": {"lon": 8.96914, "lat": 47.41428}}, {"id": 7287335, "name": "Trimstein", "country": "CH", "coord": {"lon": 7.5769, "lat": 46.90292}}, {"id": 2658310, "name": "Trimstein", "country": "CH", "coord": {"lon": 7.5835, "lat": 46.904812}}, {"id": 7287415, "name": "Valzeina", "country": "CH", "coord": {"lon": 9.61364, "lat": 46.943039}}, {"id": 2658189, "name": "Valzeina", "country": "CH", "coord": {"lon": 9.60268, "lat": 46.950199}}, {"id": 7285311, "name": "Bourg-Saint-Pierre", "country": "CH", "coord": {"lon": 7.21275, "lat": 45.919579}}, {"id": 2661428, "name": "Bourg-Saint-Pierre", "country": "CH", "coord": {"lon": 7.20772, "lat": 45.948761}}, {"id": 7286715, "name": "Oberstocken", "country": "CH", "coord": {"lon": 7.55025, "lat": 46.70676}}, {"id": 2659338, "name": "Oberstocken", "country": "CH", "coord": {"lon": 7.55471, "lat": 46.717461}}, {"id": 7285678, "name": "Duillier", "country": "CH", "coord": {"lon": 6.22979, "lat": 46.409241}}, {"id": 2661217, "name": "Changins", "country": "CH", "coord": {"lon": 6.23212, "lat": 46.398079}}, {"id": 2659940, "name": "Les Bayards", "country": "CH", "coord": {"lon": 6.51, "lat": 46.915581}}, {"id": 7286153, "name": "Isorno", "country": "CH", "coord": {"lon": 8.67284, "lat": 46.209171}}, {"id": 2661675, "name": "Auressio", "country": "CH", "coord": {"lon": 8.68396, "lat": 46.201111}}, {"id": 7285807, "name": "Ferenbalm", "country": "CH", "coord": {"lon": 7.22473, "lat": 46.943081}}, {"id": 2660798, "name": "Ferenbalm", "country": "CH", "coord": {"lon": 7.21124, "lat": 46.948799}}, {"id": 7287379, "name": "Unteriberg", "country": "CH", "coord": {"lon": 8.83151, "lat": 47.048038}}, {"id": 2659313, "name": "Ochsenboden", "country": "CH", "coord": {"lon": 8.85486, "lat": 47.061062}}, {"id": 2659362, "name": "Ober R\u00e4mis", "country": "CH", "coord": {"lon": 7.81766, "lat": 46.986229}}, {"id": 7287068, "name": "Saxeten", "country": "CH", "coord": {"lon": 7.82745, "lat": 46.625099}}, {"id": 2658770, "name": "Saxeten", "country": "CH", "coord": {"lon": 7.83087, "lat": 46.636581}}, {"id": 2660817, "name": "Farvagny-le-Petit", "country": "CH", "coord": {"lon": 7.07239, "lat": 46.728649}}, {"id": 2659768, "name": "Mannried", "country": "CH", "coord": {"lon": 7.38783, "lat": 46.566681}}, {"id": 7286158, "name": "Jaun", "country": "CH", "coord": {"lon": 7.26621, "lat": 46.605911}}, {"id": 2660268, "name": "Im Fang", "country": "CH", "coord": {"lon": 7.23971, "lat": 46.60186}}, {"id": 2659178, "name": "Pont-de-Nant", "country": "CH", "coord": {"lon": 7.09751, "lat": 46.253471}}, {"id": 7287171, "name": "Silenen", "country": "CH", "coord": {"lon": 8.75168, "lat": 46.776932}}, {"id": 2658934, "name": "Ru\u00e8ras", "country": "CH", "coord": {"lon": 8.68333, "lat": 46.75}}, {"id": 7286967, "name": "Rovray", "country": "CH", "coord": {"lon": 6.76668, "lat": 46.788872}}, {"id": 2658942, "name": "Rovray", "country": "CH", "coord": {"lon": 6.76445, "lat": 46.784889}}, {"id": 7287440, "name": "Versam", "country": "CH", "coord": {"lon": 9.34449, "lat": 46.777039}}, {"id": 2658153, "name": "Versam", "country": "CH", "coord": {"lon": 9.3378, "lat": 46.792049}}, {"id": 7669429, "name": "Agriswil", "country": "CH", "coord": {"lon": 7.19784, "lat": 46.95546}}, {"id": 2661195, "name": "Chavannes-sous-Orsonnens", "country": "CH", "coord": {"lon": 6.99228, "lat": 46.728069}}, {"id": 2658978, "name": "Rondch\u00e2tel", "country": "CH", "coord": {"lon": 7.24652, "lat": 47.176781}}, {"id": 2658834, "name": "Sangernboden", "country": "CH", "coord": {"lon": 7.35187, "lat": 46.713299}}, {"id": 2660845, "name": "Etzwilen", "country": "CH", "coord": {"lon": 8.81808, "lat": 47.65844}}, {"id": 7287384, "name": "Untersch\u00e4chen", "country": "CH", "coord": {"lon": 8.79357, "lat": 46.858292}}, {"id": 2658243, "name": "Untersch\u00e4chen", "country": "CH", "coord": {"lon": 8.76923, "lat": 46.862808}}, {"id": 7286116, "name": "Hospental", "country": "CH", "coord": {"lon": 8.5619, "lat": 46.60664}}, {"id": 2660297, "name": "Hospental", "country": "CH", "coord": {"lon": 8.56977, "lat": 46.61956}}, {"id": 2661310, "name": "Burstera", "country": "CH", "coord": {"lon": 7.29047, "lat": 46.676311}}, {"id": 2658251, "name": "Unter-Gomerkinden", "country": "CH", "coord": {"lon": 7.64869, "lat": 46.98822}}, {"id": 7287196, "name": "Sornetan", "country": "CH", "coord": {"lon": 7.21755, "lat": 47.27264}}, {"id": 2658546, "name": "Sornetan", "country": "CH", "coord": {"lon": 7.21686, "lat": 47.274609}}, {"id": 7669445, "name": "Au", "country": "CH", "coord": {"lon": 8.95418, "lat": 47.398441}}, {"id": 7285443, "name": "Casti-Wergenstein", "country": "CH", "coord": {"lon": 9.35401, "lat": 46.615929}}, {"id": 7670441, "name": "Vargistagn", "country": "CH", "coord": {"lon": 9.40838, "lat": 46.627899}}, {"id": 2660709, "name": "Fruence", "country": "CH", "coord": {"lon": 6.90915, "lat": 46.521561}}, {"id": 2659910, "name": "Letten", "country": "CH", "coord": {"lon": 8.53333, "lat": 47.400002}}, {"id": 7287062, "name": "Saulcy", "country": "CH", "coord": {"lon": 7.16072, "lat": 47.302582}}, {"id": 2658779, "name": "Saulcy", "country": "CH", "coord": {"lon": 7.15404, "lat": 47.30238}}, {"id": 7286591, "name": "M\u00fcnster-Geschinen", "country": "CH", "coord": {"lon": 8.27504, "lat": 46.492001}}, {"id": 2660627, "name": "Geschinen", "country": "CH", "coord": {"lon": 8.28007, "lat": 46.495319}}, {"id": 7287344, "name": "Tschappina", "country": "CH", "coord": {"lon": 9.36069, "lat": 46.676659}}, {"id": 2659334, "name": "Tschappina", "country": "CH", "coord": {"lon": 9.38035, "lat": 46.687538}}, {"id": 6691871, "name": "Obertschappina", "country": "CH", "coord": {"lon": 9.37145, "lat": 46.68663}}, {"id": 2658921, "name": "R\u00fcschegg-Graben", "country": "CH", "coord": {"lon": 7.40246, "lat": 46.795292}}, {"id": 2658751, "name": "Sch\u00e4rlig", "country": "CH", "coord": {"lon": 7.9, "lat": 46.883331}}, {"id": 2660889, "name": "Ensex", "country": "CH", "coord": {"lon": 7.1087, "lat": 46.323521}}, {"id": 7285854, "name": "Forel (Lavaux)", "country": "CH", "coord": {"lon": 6.76288, "lat": 46.53788}}, {"id": 7669512, "name": "Cornes de Cerf", "country": "CH", "coord": {"lon": 6.77054, "lat": 46.54298}}, {"id": 2660100, "name": "Kr\u00f6schenbrunnen", "country": "CH", "coord": {"lon": 7.87831, "lat": 46.910252}}, {"id": 6619276, "name": "L'Orient", "country": "CH", "coord": {"lon": 6.23942, "lat": 46.601452}}, {"id": 2657965, "name": "Witzwil", "country": "CH", "coord": {"lon": 7.06026, "lat": 46.987919}}, {"id": 2659069, "name": "Reusch", "country": "CH", "coord": {"lon": 7.24154, "lat": 46.36517}}, {"id": 2659788, "name": "Magnot", "country": "CH", "coord": {"lon": 7.27102, "lat": 46.218811}}, {"id": 2661423, "name": "Brail", "country": "CH", "coord": {"lon": 10.03513, "lat": 46.655521}}, {"id": 7285421, "name": "Calfreisen", "country": "CH", "coord": {"lon": 9.60047, "lat": 46.854439}}, {"id": 2661252, "name": "Castiel", "country": "CH", "coord": {"lon": 9.60361, "lat": 46.839378}}, {"id": 2661165, "name": "Ciernes-Picat", "country": "CH", "coord": {"lon": 7.17031, "lat": 46.505291}}, {"id": 2660393, "name": "Heidb\u00fchl", "country": "CH", "coord": {"lon": 7.80104, "lat": 46.872471}}, {"id": 7286246, "name": "Ladir", "country": "CH", "coord": {"lon": 9.19064, "lat": 46.811371}}, {"id": 2660064, "name": "Ladir", "country": "CH", "coord": {"lon": 9.20272, "lat": 46.790508}}, {"id": 2660687, "name": "Gadmen", "country": "CH", "coord": {"lon": 8.35224, "lat": 46.737331}}, {"id": 6695941, "name": "Thayngen, Altdorf", "country": "CH", "coord": {"lon": 8.65952, "lat": 47.784229}}, {"id": 7286830, "name": "Pr\u00e4z", "country": "CH", "coord": {"lon": 9.39717, "lat": 46.747551}}, {"id": 7670133, "name": "Dalin", "country": "CH", "coord": {"lon": 9.40558, "lat": 46.736382}}, {"id": 2658746, "name": "Scheid", "country": "CH", "coord": {"lon": 9.44851, "lat": 46.777222}}, {"id": 7285761, "name": "Erschmatt", "country": "CH", "coord": {"lon": 7.69351, "lat": 46.346901}}, {"id": 2660866, "name": "Erschmatt", "country": "CH", "coord": {"lon": 7.69146, "lat": 46.3218}}, {"id": 2660922, "name": "Eison", "country": "CH", "coord": {"lon": 7.46257, "lat": 46.152672}}, {"id": 2660548, "name": "Gottefrey", "country": "CH", "coord": {"lon": 7.17172, "lat": 46.15052}}, {"id": 2660278, "name": "Iffigen", "country": "CH", "coord": {"lon": 7.44069, "lat": 46.400089}}, {"id": 7287220, "name": "St. Ant\u00f6nien", "country": "CH", "coord": {"lon": 9.84184, "lat": 46.9743}}, {"id": 2659650, "name": "Mittlersass", "country": "CH", "coord": {"lon": 9.83333, "lat": 47}}, {"id": 7286557, "name": "Morissen", "country": "CH", "coord": {"lon": 9.17367, "lat": 46.73484}}, {"id": 2659582, "name": "Morissen", "country": "CH", "coord": {"lon": 9.1811, "lat": 46.729729}}, {"id": 7287346, "name": "Tschiertschen-Praden", "country": "CH", "coord": {"lon": 9.60105, "lat": 46.799431}}, {"id": 2658296, "name": "Tschiertschen", "country": "CH", "coord": {"lon": 9.60638, "lat": 46.817661}}, {"id": 7287576, "name": "Wildberg", "country": "CH", "coord": {"lon": 8.8262, "lat": 47.41753}}, {"id": 2658340, "name": "T\u00f6ssegg", "country": "CH", "coord": {"lon": 8.83802, "lat": 47.437092}}, {"id": 2661722, "name": "Argseeli", "country": "CH", "coord": {"lon": 8.92791, "lat": 46.900242}}, {"id": 2659972, "name": "L'Etivaz", "country": "CH", "coord": {"lon": 7.15, "lat": 46.416672}}, {"id": 7285944, "name": "G\u00f6schenen", "country": "CH", "coord": {"lon": 8.49877, "lat": 46.663952}}, {"id": 2660553, "name": "G\u00f6schenen", "country": "CH", "coord": {"lon": 8.58709, "lat": 46.668159}}, {"id": 2661764, "name": "Alvaneu", "country": "CH", "coord": {"lon": 9.64378, "lat": 46.678921}}, {"id": 7669801, "name": "Niederwangen", "country": "CH", "coord": {"lon": 7.37298, "lat": 46.927021}}, {"id": 2659962, "name": "Lelgio", "country": "CH", "coord": {"lon": 8.97042, "lat": 46.08511}}, {"id": 2661420, "name": "Bratsch", "country": "CH", "coord": {"lon": 7.70828, "lat": 46.320728}}, {"id": 7286356, "name": "Linden", "country": "CH", "coord": {"lon": 7.68681, "lat": 46.848431}}, {"id": 2659883, "name": "Linden", "country": "CH", "coord": {"lon": 7.67491, "lat": 46.848721}}, {"id": 7286638, "name": "Niedergesteln", "country": "CH", "coord": {"lon": 7.79232, "lat": 46.336658}}, {"id": 2659465, "name": "Niedergesteln", "country": "CH", "coord": {"lon": 7.78218, "lat": 46.31287}}, {"id": 7287546, "name": "Wassen", "country": "CH", "coord": {"lon": 8.53343, "lat": 46.724602}}, {"id": 2658047, "name": "Wassen", "country": "CH", "coord": {"lon": 8.59881, "lat": 46.706509}}, {"id": 7669564, "name": "Eschi", "country": "CH", "coord": {"lon": 7.37522, "lat": 46.61314}}, {"id": 2658673, "name": "Schwefelbergbad", "country": "CH", "coord": {"lon": 7.41719, "lat": 46.715382}}, {"id": 2661054, "name": "Dailly", "country": "CH", "coord": {"lon": 7.03333, "lat": 46.200001}}, {"id": 2658268, "name": "Ulrichen", "country": "CH", "coord": {"lon": 8.30475, "lat": 46.506409}}, {"id": 2660641, "name": "Genthalh\u00fctten", "country": "CH", "coord": {"lon": 8.28268, "lat": 46.736}}, {"id": 2661536, "name": "Bettelried", "country": "CH", "coord": {"lon": 7.38333, "lat": 46.533329}}, {"id": 7286149, "name": "Isenthal", "country": "CH", "coord": {"lon": 8.52449, "lat": 46.886311}}, {"id": 2660244, "name": "Isenthal", "country": "CH", "coord": {"lon": 8.56121, "lat": 46.910789}}, {"id": 7286274, "name": "Lauenen", "country": "CH", "coord": {"lon": 7.33845, "lat": 46.3983}}, {"id": 2660005, "name": "Lauenen", "country": "CH", "coord": {"lon": 7.3217, "lat": 46.42437}}, {"id": 7287126, "name": "Schwende", "country": "CH", "coord": {"lon": 9.39302, "lat": 47.280708}}, {"id": 2658046, "name": "Wasserauen", "country": "CH", "coord": {"lon": 9.42575, "lat": 47.283421}}, {"id": 7287405, "name": "Valcolla", "country": "CH", "coord": {"lon": 9.04829, "lat": 46.099522}}, {"id": 2661164, "name": "Cimadera", "country": "CH", "coord": {"lon": 9.04607, "lat": 46.0788}}, {"id": 2658638, "name": "Selfranga", "country": "CH", "coord": {"lon": 9.88416, "lat": 46.861431}}, {"id": 2661643, "name": "Bad-Schwarzsee", "country": "CH", "coord": {"lon": 7.28179, "lat": 46.671001}}, {"id": 2660961, "name": "D\u00fcrrenboden", "country": "CH", "coord": {"lon": 8.83333, "lat": 46.933331}}, {"id": 2660358, "name": "Hertenstein", "country": "CH", "coord": {"lon": 8.40364, "lat": 47.02692}}, {"id": 2658743, "name": "Scherliau", "country": "CH", "coord": {"lon": 7.41667, "lat": 46.849998}}, {"id": 7287512, "name": "Wachseldorn", "country": "CH", "coord": {"lon": 7.73712, "lat": 46.820099}}, {"id": 2658083, "name": "Wachseldorn", "country": "CH", "coord": {"lon": 7.72507, "lat": 46.822048}}, {"id": 2659392, "name": "Oberengstringen", "country": "CH", "coord": {"lon": 8.46515, "lat": 47.408409}}, {"id": 2658017, "name": "Werdh\u00f6lzli", "country": "CH", "coord": {"lon": 8.5, "lat": 47.400002}}, {"id": 2661565, "name": "Bellwald", "country": "CH", "coord": {"lon": 8.16, "lat": 46.423901}}, {"id": 7286251, "name": "Lalden", "country": "CH", "coord": {"lon": 7.89795, "lat": 46.30032}}, {"id": 2660051, "name": "Lalden", "country": "CH", "coord": {"lon": 7.90235, "lat": 46.299511}}, {"id": 2660829, "name": "Faldum Alp", "country": "CH", "coord": {"lon": 7.73915, "lat": 46.377899}}, {"id": 1011880, "name": "Da Nova", "country": "ZA", "coord": {"lon": 22.13343, "lat": -34.184479}}, {"id": 962367, "name": "Richards Bay", "country": "ZA", "coord": {"lon": 32.037682, "lat": -28.78301}}, {"id": 949276, "name": "The Village", "country": "ZA", "coord": {"lon": 32.097561, "lat": -28.790939}}, {"id": 3359510, "name": "Wellington", "country": "ZA", "coord": {"lon": 19.0112, "lat": -33.639809}}, {"id": 962597, "name": "Reunion", "country": "ZA", "coord": {"lon": 30.942921, "lat": -29.96455}}, {"id": 994321, "name": "Jacobs", "country": "ZA", "coord": {"lon": 30.98333, "lat": -29.91667}}, {"id": 995409, "name": "Horton", "country": "ZA", "coord": {"lon": 27.0158, "lat": -33.098209}}, {"id": 3361934, "name": "Saldanha", "country": "ZA", "coord": {"lon": 17.944201, "lat": -33.011669}}, {"id": 3369179, "name": "Caledon", "country": "ZA", "coord": {"lon": 19.4265, "lat": -34.229969}}, {"id": 943937, "name": "Villiers", "country": "ZA", "coord": {"lon": 28.600611, "lat": -27.03026}}, {"id": 7290494, "name": "Greenhills", "country": "ZA", "coord": {"lon": 27.693529, "lat": -26.1611}}, {"id": 1012413, "name": "Cullinan", "country": "ZA", "coord": {"lon": 28.52364, "lat": -25.670879}}, {"id": 955407, "name": "Sishen", "country": "ZA", "coord": {"lon": 22.98333, "lat": -27.783331}}, {"id": 1002145, "name": "George", "country": "ZA", "coord": {"lon": 22.461729, "lat": -33.963001}}, {"id": 953781, "name": "Soweto", "country": "ZA", "coord": {"lon": 27.85849, "lat": -26.267811}}, {"id": 979692, "name": "Malvern", "country": "ZA", "coord": {"lon": 30.925211, "lat": -29.88521}}, {"id": 939435, "name": "Winston Park", "country": "ZA", "coord": {"lon": 30.786711, "lat": -29.798731}}, {"id": 996506, "name": "Hillcrest", "country": "ZA", "coord": {"lon": 30.76396, "lat": -29.77475}}, {"id": 1015504, "name": "Bronkhorstspruit", "country": "ZA", "coord": {"lon": 28.742479, "lat": -25.81015}}, {"id": 1015969, "name": "Brandfort", "country": "ZA", "coord": {"lon": 26.459681, "lat": -28.700081}}, {"id": 940316, "name": "Westonaria", "country": "ZA", "coord": {"lon": 27.6486, "lat": -26.319059}}, {"id": 943952, "name": "Village of Happiness", "country": "ZA", "coord": {"lon": 30.36293, "lat": -30.85589}}, {"id": 942470, "name": "Vryheid", "country": "ZA", "coord": {"lon": 30.791651, "lat": -27.76952}}, {"id": 988356, "name": "Kokstad", "country": "ZA", "coord": {"lon": 29.42412, "lat": -30.54723}}, {"id": 952734, "name": "Stanger", "country": "ZA", "coord": {"lon": 31.289539, "lat": -29.328159}}, {"id": 970566, "name": "Nigel", "country": "ZA", "coord": {"lon": 28.477131, "lat": -26.431379}}, {"id": 964315, "name": "Mokopane", "country": "ZA", "coord": {"lon": 29.009741, "lat": -24.194361}}, {"id": 1011031, "name": "Delmas", "country": "ZA", "coord": {"lon": 28.68322, "lat": -26.146601}}, {"id": 938694, "name": "White River", "country": "ZA", "coord": {"lon": 31.01166, "lat": -25.33177}}, {"id": 964712, "name": "Plettenberg Bay", "country": "ZA", "coord": {"lon": 23.371599, "lat": -34.052738}}, {"id": 994493, "name": "Isipingo", "country": "ZA", "coord": {"lon": 30.91853, "lat": -29.986389}}, {"id": 956754, "name": "Sedgefield", "country": "ZA", "coord": {"lon": 22.8055, "lat": -34.021099}}, {"id": 952745, "name": "Standplaas", "country": "ZA", "coord": {"lon": 22.57687, "lat": -33.977928}}, {"id": 1019330, "name": "Bhisho", "country": "ZA", "coord": {"lon": 27.442181, "lat": -32.84721}}, {"id": 3359041, "name": "Worcester", "country": "ZA", "coord": {"lon": 19.448521, "lat": -33.646511}}, {"id": 1019704, "name": "Bethlehem", "country": "ZA", "coord": {"lon": 28.30707, "lat": -28.23078}}, {"id": 956907, "name": "Schweizer-Reneke", "country": "ZA", "coord": {"lon": 25.329309, "lat": -27.188709}}, {"id": 3366880, "name": "Hermanus", "country": "ZA", "coord": {"lon": 19.234461, "lat": -34.418701}}, {"id": 949683, "name": "Thabazimbi", "country": "ZA", "coord": {"lon": 27.411551, "lat": -24.59165}}, {"id": 981827, "name": "Louis Trichardt", "country": "ZA", "coord": {"lon": 29.903191, "lat": -23.04385}}, {"id": 956767, "name": "Secunda", "country": "ZA", "coord": {"lon": 29.16667, "lat": -26.549999}}, {"id": 965241, "name": "Piet Retief", "country": "ZA", "coord": {"lon": 30.813231, "lat": -27.007059}}, {"id": 3358975, "name": "Yzerfontein", "country": "ZA", "coord": {"lon": 18.16157, "lat": -33.344379}}, {"id": 964432, "name": "Port Alfred", "country": "ZA", "coord": {"lon": 26.891041, "lat": -33.590569}}, {"id": 1021040, "name": "Barkly West", "country": "ZA", "coord": {"lon": 24.521509, "lat": -28.53537}}, {"id": 943960, "name": "Viljoenskroon", "country": "ZA", "coord": {"lon": 26.948549, "lat": -27.20841}}, {"id": 990930, "name": "Kimberley", "country": "ZA", "coord": {"lon": 24.76232, "lat": -28.73226}}, {"id": 1021086, "name": "Barberton", "country": "ZA", "coord": {"lon": 31.05319, "lat": -25.78842}}, {"id": 963049, "name": "Rayton", "country": "ZA", "coord": {"lon": 28.533381, "lat": -25.73917}}, {"id": 986846, "name": "Kroonstad", "country": "ZA", "coord": {"lon": 27.23488, "lat": -27.65036}}, {"id": 941966, "name": "Warmbaths", "country": "ZA", "coord": {"lon": 28.283331, "lat": -24.883329}}, {"id": 990802, "name": "Kirkwood", "country": "ZA", "coord": {"lon": 25.44278, "lat": -33.398289}}, {"id": 950709, "name": "Swellendam", "country": "ZA", "coord": {"lon": 20.44171, "lat": -34.022621}}, {"id": 991247, "name": "Kew", "country": "ZA", "coord": {"lon": 28.09573, "lat": -26.121321}}, {"id": 1015420, "name": "Brown Stones", "country": "ZA", "coord": {"lon": 29.98381, "lat": -29.19655}}, {"id": 3360934, "name": "Strand", "country": "ZA", "coord": {"lon": 18.827511, "lat": -34.106869}}, {"id": 962649, "name": "Reservoir Hills", "country": "ZA", "coord": {"lon": 30.942699, "lat": -29.802441}}, {"id": 954161, "name": "Somerset East", "country": "ZA", "coord": {"lon": 25.588039, "lat": -32.721729}}, {"id": 3364795, "name": "Langebaan", "country": "ZA", "coord": {"lon": 18.0315, "lat": -33.097511}}, {"id": 967476, "name": "Orkney", "country": "ZA", "coord": {"lon": 26.67272, "lat": -26.98023}}, {"id": 943882, "name": "Virginia", "country": "ZA", "coord": {"lon": 26.865931, "lat": -28.10391}}, {"id": 969619, "name": "Nottingham Road", "country": "ZA", "coord": {"lon": 29.98333, "lat": -29.35}}, {"id": 965528, "name": "Phalaborwa", "country": "ZA", "coord": {"lon": 31.141069, "lat": -23.942989}}, {"id": 3362864, "name": "Pinelands", "country": "ZA", "coord": {"lon": 18.506809, "lat": -33.942219}}, {"id": 1007400, "name": "Dundee", "country": "ZA", "coord": {"lon": 30.233709, "lat": -28.16678}}, {"id": 993911, "name": "Jeffreys Bay", "country": "ZA", "coord": {"lon": 24.9195, "lat": -34.05064}}, {"id": 984087, "name": "Lebowakgomo", "country": "ZA", "coord": {"lon": 29.5, "lat": -24.200001}}, {"id": 968665, "name": "Modimolle", "country": "ZA", "coord": {"lon": 28.4, "lat": -24.700001}}, {"id": 1023672, "name": "Addo", "country": "ZA", "coord": {"lon": 25.689899, "lat": -33.548328}}, {"id": 1013397, "name": "Clarens", "country": "ZA", "coord": {"lon": 28.419849, "lat": -28.5154}}, {"id": 940377, "name": "West End", "country": "ZA", "coord": {"lon": 27.44523, "lat": -26.90514}}, {"id": 945094, "name": "Valhalla", "country": "ZA", "coord": {"lon": 28.149429, "lat": -25.80584}}, {"id": 7778818, "name": "Auckland Park", "country": "ZA", "coord": {"lon": 28.003851, "lat": -26.181351}}, {"id": 1013081, "name": "Colenso", "country": "ZA", "coord": {"lon": 29.825821, "lat": -28.739321}}, {"id": 1014073, "name": "Carletonville", "country": "ZA", "coord": {"lon": 27.397671, "lat": -26.360941}}, {"id": 1011951, "name": "Danabaai", "country": "ZA", "coord": {"lon": 22.03891, "lat": -34.19891}}, {"id": 1022108, "name": "Aston Bay", "country": "ZA", "coord": {"lon": 24.905689, "lat": -34.079971}}, {"id": 996256, "name": "Hluhluwe", "country": "ZA", "coord": {"lon": 32.26762, "lat": -28.01895}}, {"id": 1013886, "name": "Cato Ridge", "country": "ZA", "coord": {"lon": 30.58333, "lat": -29.73333}}, {"id": 958435, "name": "Sabierivier", "country": "ZA", "coord": {"lon": 31.113899, "lat": -25.03586}}, {"id": 3364791, "name": "Langebaanweg", "country": "ZA", "coord": {"lon": 18.1488, "lat": -32.974449}}, {"id": 942511, "name": "Vryburg", "country": "ZA", "coord": {"lon": 24.728399, "lat": -26.956591}}, {"id": 8063768, "name": "Melrose Estate", "country": "ZA", "coord": {"lon": 28.052601, "lat": -26.147079}}, {"id": 3364246, "name": "McGregor", "country": "ZA", "coord": {"lon": 19.82906, "lat": -33.94725}}, {"id": 956098, "name": "Shelly Beach", "country": "ZA", "coord": {"lon": 30.41427, "lat": -30.80064}}, {"id": 949049, "name": "Three Rivers", "country": "ZA", "coord": {"lon": 27.97621, "lat": -26.65406}}, {"id": 1003953, "name": "Fort Beaufort", "country": "ZA", "coord": {"lon": 26.63376, "lat": -32.774769}}, {"id": 945995, "name": "Underberg", "country": "ZA", "coord": {"lon": 29.49448, "lat": -29.79084}}, {"id": 944120, "name": "Verulam", "country": "ZA", "coord": {"lon": 31.0471, "lat": -29.6434}}, {"id": 1005040, "name": "Eshowe", "country": "ZA", "coord": {"lon": 31.4699, "lat": -28.88648}}, {"id": 3368039, "name": "Elsiesrivier", "country": "ZA", "coord": {"lon": 18.585409, "lat": -33.930729}}, {"id": 3368014, "name": "Epping Forest", "country": "ZA", "coord": {"lon": 18.57756, "lat": -33.935081}}, {"id": 1021396, "name": "Balfour", "country": "ZA", "coord": {"lon": 28.59016, "lat": -26.663309}}, {"id": 952747, "name": "Standerton", "country": "ZA", "coord": {"lon": 29.24152, "lat": -26.933661}}, {"id": 1005976, "name": "Elarduspark", "country": "ZA", "coord": {"lon": 28.255381, "lat": -25.831881}}, {"id": 3367877, "name": "Franschhoek", "country": "ZA", "coord": {"lon": 19.119801, "lat": -33.910751}}, {"id": 1014257, "name": "Calitzdorp", "country": "ZA", "coord": {"lon": 21.68862, "lat": -33.532318}}, {"id": 972206, "name": "Naboomspruit", "country": "ZA", "coord": {"lon": 28.716669, "lat": -24.51667}}, {"id": 940359, "name": "Western Township", "country": "ZA", "coord": {"lon": 27.883329, "lat": -26.16667}}, {"id": 987648, "name": "Koster", "country": "ZA", "coord": {"lon": 26.89756, "lat": -25.86301}}, {"id": 990825, "name": "Kinross", "country": "ZA", "coord": {"lon": 29.086679, "lat": -26.41663}}, {"id": 1000065, "name": "Greenwood Park", "country": "ZA", "coord": {"lon": 31.01667, "lat": -29.783331}}, {"id": 963961, "name": "Prospect", "country": "ZA", "coord": {"lon": 31.02973, "lat": -29.80006}}, {"id": 945142, "name": "Vaalwater", "country": "ZA", "coord": {"lon": 28.1, "lat": -24.16667}}, {"id": 1001736, "name": "Glencoe", "country": "ZA", "coord": {"lon": 30.14702, "lat": -28.17827}}, {"id": 3361084, "name": "Stanford", "country": "ZA", "coord": {"lon": 19.45615, "lat": -34.4394}}, {"id": 941812, "name": "Waterfall", "country": "ZA", "coord": {"lon": 31.05022, "lat": -29.40661}}, {"id": 3362671, "name": "Pringle Bay", "country": "ZA", "coord": {"lon": 18.827061, "lat": -34.348179}}, {"id": 963528, "name": "Queensburgh", "country": "ZA", "coord": {"lon": 30.906429, "lat": -29.877689}}, {"id": 1020310, "name": "Bellair", "country": "ZA", "coord": {"lon": 30.950621, "lat": -29.891951}}, {"id": 990849, "name": "King William\u2019s Town", "country": "ZA", "coord": {"lon": 27.394541, "lat": -32.88031}}, {"id": 958441, "name": "Sabie", "country": "ZA", "coord": {"lon": 30.78001, "lat": -25.099899}}, {"id": 990902, "name": "Kingsborough", "country": "ZA", "coord": {"lon": 30.866671, "lat": -30.08333}}, {"id": 3359094, "name": "Wolseley", "country": "ZA", "coord": {"lon": 19.20052, "lat": -33.414028}}, {"id": 1023309, "name": "Aliwal North", "country": "ZA", "coord": {"lon": 26.711411, "lat": -30.693661}}, {"id": 955313, "name": "Siyabuswa", "country": "ZA", "coord": {"lon": 29.04454, "lat": -25.11319}}, {"id": 3369183, "name": "Cafda Village", "country": "ZA", "coord": {"lon": 18.485701, "lat": -34.059978}}, {"id": 3363441, "name": "Ocean View", "country": "ZA", "coord": {"lon": 18.353649, "lat": -34.148609}}, {"id": 3367458, "name": "Grassy Park", "country": "ZA", "coord": {"lon": 18.498631, "lat": -34.047199}}, {"id": 964424, "name": "Port Edward", "country": "ZA", "coord": {"lon": 30.227989, "lat": -31.050671}}, {"id": 982587, "name": "Little Falls", "country": "ZA", "coord": {"lon": 27.89085, "lat": -26.12092}}, {"id": 1011858, "name": "Danville", "country": "ZA", "coord": {"lon": 28.12747, "lat": -25.740471}}, {"id": 964132, "name": "Pretoria-Wes", "country": "ZA", "coord": {"lon": 28.161249, "lat": -25.754419}}, {"id": 1013888, "name": "Cato Manor", "country": "ZA", "coord": {"lon": 30.945801, "lat": -29.860701}}, {"id": 940504, "name": "Wemmer", "country": "ZA", "coord": {"lon": 28.01667, "lat": -26.200001}}, {"id": 966189, "name": "Parkview", "country": "ZA", "coord": {"lon": 28.027321, "lat": -26.161909}}, {"id": 1007968, "name": "Drieweeksleegte", "country": "ZA", "coord": {"lon": 22.1341, "lat": -30.938089}}, {"id": 945970, "name": "Uniondale", "country": "ZA", "coord": {"lon": 23.123171, "lat": -33.658951}}, {"id": 972674, "name": "Muldersdrift", "country": "ZA", "coord": {"lon": 27.8512, "lat": -26.037041}}, {"id": 1015714, "name": "Brentwood Park", "country": "ZA", "coord": {"lon": 28.29258, "lat": -26.13526}}, {"id": 1013911, "name": "Cathcart", "country": "ZA", "coord": {"lon": 27.14362, "lat": -32.2985}}, {"id": 937136, "name": "Zeerust", "country": "ZA", "coord": {"lon": 26.075121, "lat": -25.536949}}, {"id": 3363171, "name": "Oude Raapkraal", "country": "ZA", "coord": {"lon": 18.433331, "lat": -34.083328}}, {"id": 1012080, "name": "Dalton", "country": "ZA", "coord": {"lon": 30.631189, "lat": -29.340931}}, {"id": 3369174, "name": "Calvinia", "country": "ZA", "coord": {"lon": 19.776011, "lat": -31.47069}}, {"id": 941976, "name": "Warden", "country": "ZA", "coord": {"lon": 28.9653, "lat": -27.854521}}, {"id": 940394, "name": "Westbrook", "country": "ZA", "coord": {"lon": 31.165489, "lat": -29.59215}}, {"id": 979330, "name": "Manor Gardens", "country": "ZA", "coord": {"lon": 30.98333, "lat": -29.866671}}, {"id": 8063413, "name": "Arcadia", "country": "ZA", "coord": {"lon": 28.221371, "lat": -25.746401}}, {"id": 1017354, "name": "Bosbokrand", "country": "ZA", "coord": {"lon": 31.067181, "lat": -24.835991}}, {"id": 3369083, "name": "Clovelly", "country": "ZA", "coord": {"lon": 18.43276, "lat": -34.12487}}, {"id": 3369090, "name": "Clifton", "country": "ZA", "coord": {"lon": 18.379141, "lat": -33.93684}}, {"id": 3361711, "name": "Sea Point", "country": "ZA", "coord": {"lon": 18.389681, "lat": -33.918579}}, {"id": 942683, "name": "Vredefort", "country": "ZA", "coord": {"lon": 27.364599, "lat": -27.008051}}, {"id": 966737, "name": "Paardekraal", "country": "ZA", "coord": {"lon": 27.883329, "lat": -26.183331}}, {"id": 977363, "name": "Meadowlands", "country": "ZA", "coord": {"lon": 27.883329, "lat": -26.200001}}, {"id": 7870410, "name": "Albertskroon", "country": "ZA", "coord": {"lon": 27.974621, "lat": -26.161449}}, {"id": 971377, "name": "New Hanover", "country": "ZA", "coord": {"lon": 30.528021, "lat": -29.35519}}, {"id": 3368962, "name": "Darling", "country": "ZA", "coord": {"lon": 18.379379, "lat": -33.37817}}, {"id": 986822, "name": "Krugersdorp", "country": "ZA", "coord": {"lon": 27.77515, "lat": -26.08577}}, {"id": 1105777, "name": "Centurion", "country": "ZA", "coord": {"lon": 28.18577, "lat": -25.85891}}, {"id": 7871282, "name": "Cape Gate", "country": "ZA", "coord": {"lon": 18.69684, "lat": -33.85231}}, {"id": 961226, "name": "Ritchie", "country": "ZA", "coord": {"lon": 24.602779, "lat": -29.03801}}, {"id": 968453, "name": "Ofcolaco", "country": "ZA", "coord": {"lon": 30.3957, "lat": -24.081579}}, {"id": 956375, "name": "Seshego", "country": "ZA", "coord": {"lon": 29.38802, "lat": -23.84664}}, {"id": 3362324, "name": "Roggebaai", "country": "ZA", "coord": {"lon": 18.433331, "lat": -33.916672}}, {"id": 964137, "name": "Pretoria", "country": "ZA", "coord": {"lon": 28.18783, "lat": -25.74486}}, {"id": 979691, "name": "Malvern", "country": "ZA", "coord": {"lon": 28.10165, "lat": -26.203039}}, {"id": 956839, "name": "Sea Park", "country": "ZA", "coord": {"lon": 30.491871, "lat": -30.69611}}, {"id": 967542, "name": "Orania", "country": "ZA", "coord": {"lon": 24.41205, "lat": -29.81381}}, {"id": 982701, "name": "Lindley", "country": "ZA", "coord": {"lon": 27.913481, "lat": -27.879101}}, {"id": 1023365, "name": "Alexandria", "country": "ZA", "coord": {"lon": 26.41268, "lat": -33.653461}}, {"id": 3363913, "name": "Mouille Point", "country": "ZA", "coord": {"lon": 18.40531, "lat": -33.900269}}, {"id": 974933, "name": "Mogwase", "country": "ZA", "coord": {"lon": 27.266541, "lat": -25.185049}}, {"id": 1012358, "name": "Curry\u2019s Post", "country": "ZA", "coord": {"lon": 30.14007, "lat": -29.360001}}, {"id": 1003844, "name": "Fouriesburg", "country": "ZA", "coord": {"lon": 28.133329, "lat": -28.58333}}, {"id": 982771, "name": "Lime Acres", "country": "ZA", "coord": {"lon": 23.469919, "lat": -28.361959}}, {"id": 994257, "name": "Jagersfontein", "country": "ZA", "coord": {"lon": 25.427059, "lat": -29.761259}}, {"id": 3368192, "name": "Edgemead", "country": "ZA", "coord": {"lon": 18.53977, "lat": -33.87241}}, {"id": 3363983, "name": "Montague Gardens", "country": "ZA", "coord": {"lon": 18.520321, "lat": -33.863522}}, {"id": 954486, "name": "Smithfield", "country": "ZA", "coord": {"lon": 26.530701, "lat": -30.213659}}, {"id": 1019031, "name": "Blanco", "country": "ZA", "coord": {"lon": 22.41153, "lat": -33.946419}}, {"id": 1005781, "name": "Elliot", "country": "ZA", "coord": {"lon": 27.85, "lat": -31.33333}}, {"id": 1023698, "name": "Adams College", "country": "ZA", "coord": {"lon": 30.81568, "lat": -30.03199}}, {"id": 951271, "name": "Sutherland", "country": "ZA", "coord": {"lon": 20.66107, "lat": -32.394348}}, {"id": 1011632, "name": "De Aar", "country": "ZA", "coord": {"lon": 24.0123, "lat": -30.64966}}, {"id": 983065, "name": "Leslie", "country": "ZA", "coord": {"lon": 28.9189, "lat": -26.367371}}, {"id": 3363453, "name": "Oakdale", "country": "ZA", "coord": {"lon": 18.683331, "lat": -33.833328}}, {"id": 1013675, "name": "Chatsworth", "country": "ZA", "coord": {"lon": 30.891701, "lat": -29.918659}}, {"id": 982103, "name": "Lorraine", "country": "ZA", "coord": {"lon": 25.51545, "lat": -33.967232}}, {"id": 951350, "name": "Sunridge Park", "country": "ZA", "coord": {"lon": 25.52948, "lat": -33.953991}}, {"id": 3366939, "name": "Heathfield", "country": "ZA", "coord": {"lon": 18.468081, "lat": -34.047642}}, {"id": 1023517, "name": "Agulhas", "country": "ZA", "coord": {"lon": 20.01734, "lat": -34.8223}}, {"id": 976358, "name": "Middelburg", "country": "ZA", "coord": {"lon": 25.00633, "lat": -31.492849}}, {"id": 1015657, "name": "Brighton Beach", "country": "ZA", "coord": {"lon": 31.0009, "lat": -29.939569}}, {"id": 1005544, "name": "Empangeni", "country": "ZA", "coord": {"lon": 31.89329, "lat": -28.761971}}, {"id": 966305, "name": "Panorama", "country": "ZA", "coord": {"lon": 31.89113, "lat": -28.75383}}, {"id": 1012724, "name": "Cornelia", "country": "ZA", "coord": {"lon": 28.852261, "lat": -27.23226}}, {"id": 971352, "name": "New Kingsmead", "country": "ZA", "coord": {"lon": 31.01667, "lat": -29.816669}}, {"id": 1007420, "name": "Duncan Village", "country": "ZA", "coord": {"lon": 27.863319, "lat": -33.01226}}, {"id": 1000116, "name": "Greenfields", "country": "ZA", "coord": {"lon": 27.86216, "lat": -33.033298}}, {"id": 3362001, "name": "Rugby", "country": "ZA", "coord": {"lon": 18.49012, "lat": -33.895721}}, {"id": 984896, "name": "La Mercy", "country": "ZA", "coord": {"lon": 31.13106, "lat": -29.639179}}, {"id": 1022391, "name": "Arbor Park", "country": "ZA", "coord": {"lon": 29.950899, "lat": -27.777161}}, {"id": 1105774, "name": "Eersterus", "country": "ZA", "coord": {"lon": 28.314951, "lat": -25.70546}}, {"id": 1006978, "name": "East Lynne", "country": "ZA", "coord": {"lon": 28.277769, "lat": -25.70664}}, {"id": 963944, "name": "Protea Ridge", "country": "ZA", "coord": {"lon": 27.75, "lat": -26.033331}}, {"id": 3370331, "name": "Aurora", "country": "ZA", "coord": {"lon": 18.48514, "lat": -32.705959}}, {"id": 982332, "name": "Lombardy East", "country": "ZA", "coord": {"lon": 28.124729, "lat": -26.11832}}, {"id": 981139, "name": "Lyndhurst", "country": "ZA", "coord": {"lon": 28.109051, "lat": -26.12752}}, {"id": 972138, "name": "Nancefield", "country": "ZA", "coord": {"lon": 27.917879, "lat": -26.303949}}, {"id": 1005928, "name": "Eldoradopark", "country": "ZA", "coord": {"lon": 27.89784, "lat": -26.297119}}, {"id": 1023454, "name": "Albert Falls", "country": "ZA", "coord": {"lon": 30.433439, "lat": -29.44039}}, {"id": 1001632, "name": "Glenhurd", "country": "ZA", "coord": {"lon": 25.566669, "lat": -33.950001}}, {"id": 1013337, "name": "Clermont", "country": "ZA", "coord": {"lon": 30.897881, "lat": -29.793119}}, {"id": 1010728, "name": "De Rust", "country": "ZA", "coord": {"lon": 22.535231, "lat": -33.490349}}, {"id": 937246, "name": "Zastron", "country": "ZA", "coord": {"lon": 27.08395, "lat": -30.30225}}, {"id": 973971, "name": "Morgan\u2019s Bay", "country": "ZA", "coord": {"lon": 28.34112, "lat": -32.704601}}, {"id": 357542, "name": "\u2018Ezbet el-Auq\u00e2t", "country": "EG", "coord": {"lon": 31.30526, "lat": 29.865339}}, {"id": 359781, "name": "Mu\u1e29\u0101faz\u0327at Asy\u016b\u0163", "country": "EG", "coord": {"lon": 31.1, "lat": 27.200001}}, {"id": 359783, "name": "Asyut", "country": "EG", "coord": {"lon": 31.18368, "lat": 27.18096}}, {"id": 347794, "name": "Mu\u1e29\u0101faz\u0327at S\u016bh\u0101j", "country": "EG", "coord": {"lon": 31.700001, "lat": 26.5}}, {"id": 347796, "name": "Suhaj", "country": "EG", "coord": {"lon": 31.69478, "lat": 26.55695}}, {"id": 358044, "name": "Mu\u1e29\u0101faz\u0327at Dumy\u0101\u0163", "country": "EG", "coord": {"lon": 31.75, "lat": 31.35}}, {"id": 358048, "name": "Damietta", "country": "EG", "coord": {"lon": 31.81332, "lat": 31.416479}}, {"id": 359787, "name": "Mu\u1e29\u0101faz\u0327at Asw\u0101n", "country": "EG", "coord": {"lon": 32.900002, "lat": 23.299999}}, {"id": 359792, "name": "Aswan", "country": "EG", "coord": {"lon": 32.90704, "lat": 24.09343}}, {"id": 358617, "name": "Mu\u1e29\u0101faz\u0327at B\u016br Sa\u2018\u012bd", "country": "EG", "coord": {"lon": 32.299999, "lat": 31.1}}, {"id": 412814, "name": "Syria", "country": "EG", "coord": {"lon": 32.299999, "lat": 31.26667}}, {"id": 351483, "name": "Naj\u2018 al Khu\u0163bah", "country": "EG", "coord": {"lon": 32.633331, "lat": 25.683331}}, {"id": 361849, "name": "Mu\u1e29\u0101faz\u0327at ad Daqahl\u012byah", "country": "EG", "coord": {"lon": 31.6, "lat": 31.1}}, {"id": 347591, "name": "Talkha", "country": "EG", "coord": {"lon": 31.377871, "lat": 31.0539}}, {"id": 349852, "name": "S\u0101\u1e29il \u0162ah\u0163\u0101", "country": "EG", "coord": {"lon": 31.5, "lat": 26.76667}}, {"id": 359212, "name": "Bani Mazar", "country": "EG", "coord": {"lon": 30.8004, "lat": 28.503599}}, {"id": 359171, "name": "Mu\u1e29\u0101faz\u0327at Ban\u012b Suwayf", "country": "EG", "coord": {"lon": 30.6, "lat": 28.9}}, {"id": 361024, "name": "Al Jan\u0101dilah", "country": "EG", "coord": {"lon": 31.08333, "lat": 29.066669}}, {"id": 360829, "name": "Al Mahallah al Kubra", "country": "EG", "coord": {"lon": 31.164989, "lat": 30.974501}}, {"id": 360689, "name": "Mu\u1e29\u0101faz\u0327at al Min\u016bf\u012byah", "country": "EG", "coord": {"lon": 31, "lat": 30.5}}, {"id": 347612, "name": "Tala", "country": "EG", "coord": {"lon": 30.942921, "lat": 30.68025}}, {"id": 353223, "name": "Mad\u012bnat as S\u0101d\u0101t", "country": "EG", "coord": {"lon": 30.508711, "lat": 30.36742}}, {"id": 362004, "name": "Abu Tij", "country": "EG", "coord": {"lon": 31.31897, "lat": 27.044109}}, {"id": 7916170, "name": "Mas\u0101kin al Akhsh\u0101b wa ash Sh\u0101y", "country": "EG", "coord": {"lon": 31.23937, "lat": 30.125549}}, {"id": 354076, "name": "Kafr Shukr", "country": "EG", "coord": {"lon": 31.24444, "lat": 30.549721}}, {"id": 358620, "name": "Bur Safajah", "country": "EG", "coord": {"lon": 33.936508, "lat": 26.729179}}, {"id": 349158, "name": "Shibin al Kawm", "country": "EG", "coord": {"lon": 31.009041, "lat": 30.55258}}, {"id": 352951, "name": "Mallawi", "country": "EG", "coord": {"lon": 30.84165, "lat": 27.7314}}, {"id": 360761, "name": "Al Mansurah", "country": "EG", "coord": {"lon": 31.38069, "lat": 31.036369}}, {"id": 362610, "name": "Ab\u016b \u1e28amm\u0101d al Ma\u1e29a\u0163\u0163ah", "country": "EG", "coord": {"lon": 31.66667, "lat": 30.533331}}, {"id": 355628, "name": "Idku", "country": "EG", "coord": {"lon": 30.299009, "lat": 31.307819}}, {"id": 350203, "name": "Rosetta", "country": "EG", "coord": {"lon": 30.416389, "lat": 31.40444}}, {"id": 351434, "name": "Naj Hammadi", "country": "EG", "coord": {"lon": 32.241421, "lat": 26.04949}}, {"id": 355026, "name": "Jirja", "country": "EG", "coord": {"lon": 31.891609, "lat": 26.338261}}, {"id": 360997, "name": "Mu\u1e29\u0101faz\u0327at al J\u012bzah", "country": "EG", "coord": {"lon": 31.05286, "lat": 29.997761}}, {"id": 359900, "name": "As Saff", "country": "EG", "coord": {"lon": 31.281111, "lat": 29.56472}}, {"id": 358840, "name": "Bilbays", "country": "EG", "coord": {"lon": 31.562229, "lat": 30.420389}}, {"id": 346315, "name": "W\u0101si\u0163", "country": "EG", "coord": {"lon": 34.67083, "lat": 29.029169}}, {"id": 353802, "name": "Kawm Umbu", "country": "EG", "coord": {"lon": 32.946259, "lat": 24.47669}}, {"id": 355015, "name": "Jizayy", "country": "EG", "coord": {"lon": 30.84684, "lat": 30.463051}}, {"id": 354500, "name": "Mu\u1e29\u0101faz\u0327at Kafr ash Shaykh", "country": "EG", "coord": {"lon": 30.9, "lat": 31.299999}}, {"id": 359304, "name": "Bal\u1e6d\u00eem", "country": "EG", "coord": {"lon": 31.09094, "lat": 31.55463}}, {"id": 411165, "name": "Idfu", "country": "EG", "coord": {"lon": 32.874722, "lat": 24.98028}}, {"id": 352603, "name": "Mu\u1e29\u0101faz\u0327at Ma\u0163r\u016b\u1e29", "country": "EG", "coord": {"lon": 27.5, "lat": 29.700001}}, {"id": 352733, "name": "Marsa Matruh", "country": "EG", "coord": {"lon": 27.245279, "lat": 31.352539}}, {"id": 2335196, "name": "Kano State", "country": "NG", "coord": {"lon": 8.5, "lat": 11.5}}, {"id": 2335204, "name": "Kano", "country": "NG", "coord": {"lon": 8.51672, "lat": 12.00012}}, {"id": 2327735, "name": "Ogbomoso", "country": "NG", "coord": {"lon": 4.26667, "lat": 8.13333}}, {"id": 2565343, "name": "Edo", "country": "NG", "coord": {"lon": 6, "lat": 6.5}}, {"id": 2347283, "name": "Benin City", "country": "NG", "coord": {"lon": 5.62749, "lat": 6.33504}}, {"id": 2327546, "name": "Ogun State", "country": "NG", "coord": {"lon": 3.58333, "lat": 7}}, {"id": 2352947, "name": "Abeokuta", "country": "NG", "coord": {"lon": 3.35, "lat": 7.15}}, {"id": 2597365, "name": "Osun State", "country": "NG", "coord": {"lon": 4.5, "lat": 7.5}}, {"id": 2325590, "name": "Osogbo", "country": "NG", "coord": {"lon": 4.56667, "lat": 7.76667}}, {"id": 2326168, "name": "Ondo State", "country": "NG", "coord": {"lon": 5.08333, "lat": 7.16667}}, {"id": 2350841, "name": "Akure", "country": "NG", "coord": {"lon": 5.19312, "lat": 7.25256}}, {"id": 2347470, "name": "Bauchi", "country": "NG", "coord": {"lon": 9.84327, "lat": 10.31344}}, {"id": 2595347, "name": "Gombe State", "country": "NG", "coord": {"lon": 11.16667, "lat": 10.25}}, {"id": 2340451, "name": "Gombe", "country": "NG", "coord": {"lon": 11.16729, "lat": 10.28969}}, {"id": 2345891, "name": "Cross River State", "country": "NG", "coord": {"lon": 8.5, "lat": 5.75}}, {"id": 2338242, "name": "Ikom", "country": "NG", "coord": {"lon": 8.70632, "lat": 5.96669}}, {"id": 2334797, "name": "Katsina State", "country": "NG", "coord": {"lon": 7.5, "lat": 12.25}}, {"id": 2334802, "name": "Katsina", "country": "NG", "coord": {"lon": 7.60063, "lat": 12.98943}}, {"id": 2597364, "name": "Kogi State", "country": "NG", "coord": {"lon": 6.75, "lat": 7.75}}, {"id": 2331939, "name": "Lokoja", "country": "NG", "coord": {"lon": 6.743, "lat": 7.80236}}, {"id": 2346794, "name": "Borno State", "country": "NG", "coord": {"lon": 13, "lat": 11.5}}, {"id": 2331447, "name": "Maiduguri", "country": "NG", "coord": {"lon": 13.16027, "lat": 11.84644}}, {"id": 2328925, "name": "Niger State", "country": "NG", "coord": {"lon": 6, "lat": 10}}, {"id": 2330100, "name": "Minna", "country": "NG", "coord": {"lon": 6.55694, "lat": 9.61389}}, {"id": 2349961, "name": "Anambra State", "country": "NG", "coord": {"lon": 7, "lat": 6.33333}}, {"id": 2326016, "name": "Onitsha", "country": "NG", "coord": {"lon": 6.78845, "lat": 6.14543}}, {"id": 2322907, "name": "Sokoto State", "country": "NG", "coord": {"lon": 5.25, "lat": 13.08333}}, {"id": 2322911, "name": "Sokoto", "country": "NG", "coord": {"lon": 5.23902, "lat": 13.06092}}, {"id": 2565341, "name": "Delta State", "country": "NG", "coord": {"lon": 6, "lat": 5.5}}, {"id": 2319133, "name": "Warri", "country": "NG", "coord": {"lon": 5.75, "lat": 5.51667}}, {"id": 2565342, "name": "Adamawa State", "country": "NG", "coord": {"lon": 12.5, "lat": 9.33333}}, {"id": 2318044, "name": "Yola", "country": "NG", "coord": {"lon": 12.48333, "lat": 9.2}}, {"id": 2318560, "name": "Wusasa", "country": "NG", "coord": {"lon": 7.67925, "lat": 11.07543}}, {"id": 2327879, "name": "Offa", "country": "NG", "coord": {"lon": 4.71667, "lat": 8.15}}, {"id": 2336905, "name": "Iwo", "country": "NG", "coord": {"lon": 4.18333, "lat": 7.63333}}, {"id": 2324828, "name": "Plateau State", "country": "NG", "coord": {"lon": 9.75, "lat": 9.16667}}, {"id": 2335953, "name": "Jos", "country": "NG", "coord": {"lon": 8.9, "lat": 9.91667}}, {"id": 2350813, "name": "Akwa Ibom State", "country": "NG", "coord": {"lon": 7.83333, "lat": 5}}, {"id": 7074978, "name": "Afaha Oku", "country": "NG", "coord": {"lon": 7.9217, "lat": 5.04827}}, {"id": 2565340, "name": "Abia State", "country": "NG", "coord": {"lon": 7.5, "lat": 5.41667}}, {"id": 2353151, "name": "Aba", "country": "NG", "coord": {"lon": 7.36667, "lat": 5.10658}}, {"id": 2325200, "name": "Oyo", "country": "NG", "coord": {"lon": 3.93333, "lat": 7.85}}, {"id": 2338900, "name": "Ife", "country": "NG", "coord": {"lon": 4.56667, "lat": 7.46667}}, {"id": 2347209, "name": "Bida", "country": "NG", "coord": {"lon": 6.01667, "lat": 9.08333}}, {"id": 2331303, "name": "Maitama", "country": "NG", "coord": {"lon": 7.49444, "lat": 9.10306}}, {"id": 2334528, "name": "Ketu Adieowe", "country": "NG", "coord": {"lon": 3.06667, "lat": 6.6}}, {"id": 2595346, "name": "Ekiti State", "country": "NG", "coord": {"lon": 5.25, "lat": 7.66667}}, {"id": 2352379, "name": "Ado-Ekiti", "country": "NG", "coord": {"lon": 5.2215, "lat": 7.621}}, {"id": 2348395, "name": "Badagry", "country": "NG", "coord": {"lon": 2.88333, "lat": 6.41667}}, {"id": 2325458, "name": "Otta", "country": "NG", "coord": {"lon": 3.73333, "lat": 6.66667}}, {"id": 2342955, "name": "Eyamba Town", "country": "NG", "coord": {"lon": 7.16747, "lat": 4.44253}}, {"id": 2328151, "name": "Obudu", "country": "NG", "coord": {"lon": 9.17157, "lat": 6.66737}}, {"id": 2337181, "name": "Iseyin", "country": "NG", "coord": {"lon": 3.6, "lat": 7.96667}}, {"id": 2347954, "name": "Bama", "country": "NG", "coord": {"lon": 13.68558, "lat": 11.5221}}, {"id": 2325688, "name": "Oron", "country": "NG", "coord": {"lon": 8.23434, "lat": 4.82561}}, {"id": 2327445, "name": "Ohunene", "country": "NG", "coord": {"lon": 6.66587, "lat": 7.46614}}, {"id": 2346995, "name": "Biu", "country": "NG", "coord": {"lon": 12.19458, "lat": 10.61285}}, {"id": 160192, "name": "Dodoma Region", "country": "TZ", "coord": {"lon": 36, "lat": -6}}, {"id": 160196, "name": "Dodoma", "country": "TZ", "coord": {"lon": 35.739471, "lat": -6.17221}}, {"id": 159067, "name": "Iringa Region", "country": "TZ", "coord": {"lon": 35, "lat": -9}}, {"id": 159071, "name": "Iringa", "country": "TZ", "coord": {"lon": 35.700001, "lat": -7.76667}}, {"id": 877744, "name": "Mtwara Region", "country": "TZ", "coord": {"lon": 39, "lat": -10.66667}}, {"id": 877747, "name": "Mtwara", "country": "TZ", "coord": {"lon": 40.183331, "lat": -10.26667}}, {"id": 149653, "name": "Tabora Region", "country": "TZ", "coord": {"lon": 32.833328, "lat": -5.5}}, {"id": 149658, "name": "Tabora", "country": "TZ", "coord": {"lon": 32.799999, "lat": -5.01667}}, {"id": 154380, "name": "Mbeya", "country": "TZ", "coord": {"lon": 33.450001, "lat": -8.9}}, {"id": 154775, "name": "Mara Region", "country": "TZ", "coord": {"lon": 34, "lat": -1.75}}, {"id": 152451, "name": "Musoma", "country": "TZ", "coord": {"lon": 33.799999, "lat": -1.5}}, {"id": 153220, "name": "Morogoro", "country": "TZ", "coord": {"lon": 37.666672, "lat": -6.81667}}, {"id": 149876, "name": "Singida Region", "country": "TZ", "coord": {"lon": 34.5, "lat": -5.5}}, {"id": 149879, "name": "Singida", "country": "TZ", "coord": {"lon": 34.75, "lat": -4.81667}}, {"id": 150004, "name": "Shinyanga Region", "country": "TZ", "coord": {"lon": 33, "lat": -3.75}}, {"id": 150006, "name": "Shinyanga", "country": "TZ", "coord": {"lon": 33.433331, "lat": -3.66667}}, {"id": 157732, "name": "Kigoma Region", "country": "TZ", "coord": {"lon": 30, "lat": -5}}, {"id": 157738, "name": "Kigoma", "country": "TZ", "coord": {"lon": 29.626671, "lat": -4.87694}}, {"id": 148679, "name": "Kagera Region", "country": "TZ", "coord": {"lon": 31.5, "lat": -2}}, {"id": 160961, "name": "Bukoba", "country": "TZ", "coord": {"lon": 31.81222, "lat": -1.33167}}, {"id": 917524, "name": "Copperbelt Province", "country": "ZM", "coord": {"lon": 28, "lat": -13}}, {"id": 910111, "name": "Livingstone", "country": "ZM", "coord": {"lon": 25.85425, "lat": -17.84194}}, {"id": 905395, "name": "Mufulira", "country": "ZM", "coord": {"lon": 28.240709, "lat": -12.54982}}, {"id": 916095, "name": "Kabwe", "country": "ZM", "coord": {"lon": 28.44644, "lat": -14.4469}}, {"id": 917889, "name": "Chiwempala", "country": "ZM", "coord": {"lon": 27.841021, "lat": -12.55203}}, {"id": 906054, "name": "Mongu", "country": "ZM", "coord": {"lon": 23.127411, "lat": -15.24835}}, {"id": 918702, "name": "Chipata", "country": "ZM", "coord": {"lon": 32.650002, "lat": -13.63333}}, {"id": 2249222, "name": "Louga", "country": "SN", "coord": {"lon": -16.22436, "lat": 15.61867}}, {"id": 2250338, "name": "Keur Issa Bambara", "country": "SN", "coord": {"lon": -16.9, "lat": 14.8}}, {"id": 2250804, "name": "R\u00e9gion de Kaolack", "country": "SN", "coord": {"lon": -15.97977, "lat": 13.92239}}, {"id": 2244460, "name": "Tiofak", "country": "SN", "coord": {"lon": -16.049999, "lat": 14.16667}}, {"id": 2252308, "name": "R\u00e9gion de Diourbel", "country": "SN", "coord": {"lon": -16.186819, "lat": 14.76877}}, {"id": 2253301, "name": "Dangol", "country": "SN", "coord": {"lon": -16.26667, "lat": 14.66667}}, {"id": 2246608, "name": "Pourham", "country": "SN", "coord": {"lon": -16.41667, "lat": 14.35}}, {"id": 2246678, "name": "Pikine", "country": "SN", "coord": {"lon": -17.4, "lat": 14.75}}, {"id": 2248698, "name": "Mbake", "country": "SN", "coord": {"lon": -15.90803, "lat": 14.79032}}, {"id": 2248409, "name": "Mekhe", "country": "SN", "coord": {"lon": -16.621799, "lat": 15.1097}}, {"id": 2243973, "name": "Yof", "country": "SN", "coord": {"lon": -17.47389, "lat": 14.76056}}, {"id": 2244990, "name": "R\u00e9gion de Tambacounda", "country": "SN", "coord": {"lon": -13.27513, "lat": 13.98416}}, {"id": 2252263, "name": "Djidje Kounda", "country": "SN", "coord": {"lon": -13.66667, "lat": 13.75}}, {"id": 2246550, "name": "Rhouma", "country": "SN", "coord": {"lon": -15.68194, "lat": 16.462219}}, {"id": 2244221, "name": "Tour\u00e9", "country": "SN", "coord": {"lon": -16.066669, "lat": 14.51667}}, {"id": 2249281, "name": "Lingu\u00e8re", "country": "SN", "coord": {"lon": -15.1193, "lat": 15.3953}}, {"id": 2251055, "name": "Kabrousse", "country": "SN", "coord": {"lon": -16.72056, "lat": 12.35556}}, {"id": 2253901, "name": "Bignona", "country": "SN", "coord": {"lon": -16.226391, "lat": 12.81028}}, {"id": 2253348, "name": "Dakar Dodj", "country": "SN", "coord": {"lon": -16.73333, "lat": 14.93333}}, {"id": 2251354, "name": "Gouye Gal", "country": "SN", "coord": {"lon": -16.35, "lat": 15.48333}}, {"id": 2251339, "name": "Grand Dakar", "country": "SN", "coord": {"lon": -17.45528, "lat": 14.70889}}, {"id": 2245709, "name": "S\u00e9bikhoutane", "country": "SN", "coord": {"lon": -17.136669, "lat": 14.74694}}, {"id": 2244177, "name": "Velingara", "country": "SN", "coord": {"lon": -14.11667, "lat": 13.15}}, {"id": 7303937, "name": "R\u00e9gion de S\u00e9dhiou", "country": "SN", "coord": {"lon": -15.55801, "lat": 12.70683}}, {"id": 2245704, "name": "Sedhiou", "country": "SN", "coord": {"lon": -15.55694, "lat": 12.70806}}, {"id": 2294286, "name": "Upper West Region", "country": "GH", "coord": {"lon": -2.25, "lat": 10.33333}}, {"id": 2294342, "name": "Tumu", "country": "GH", "coord": {"lon": -1.97911, "lat": 10.87645}}, {"id": 2301360, "name": "Eastern Region", "country": "GH", "coord": {"lon": -0.5, "lat": 6.5}}, {"id": 2299522, "name": "Koforidua", "country": "GH", "coord": {"lon": -0.25913, "lat": 6.09408}}, {"id": 2294291, "name": "Upper East Region", "country": "GH", "coord": {"lon": -0.75, "lat": 10.75}}, {"id": 2302821, "name": "Bolgatanga", "country": "GH", "coord": {"lon": -0.85139, "lat": 10.78556}}, {"id": 370737, "name": "Malakal", "country": "SS", "coord": {"lon": 31.66048, "lat": 9.53342}}, {"id": 408655, "name": "Central Equatoria State", "country": "SS", "coord": {"lon": 31, "lat": 4.75}}, {"id": 373303, "name": "Juba", "country": "SS", "coord": {"lon": 31.58247, "lat": 4.85165}}, {"id": 365286, "name": "Um B\u0101rid", "country": "SD", "coord": {"lon": 34.321098, "lat": 12.4057}}, {"id": 377039, "name": "Port Sudan", "country": "SD", "coord": {"lon": 37.216438, "lat": 19.617451}}, {"id": 380308, "name": "Abyei", "country": "SD", "coord": {"lon": 28.434931, "lat": 9.59525}}, {"id": 408650, "name": "Unity State", "country": "SS", "coord": {"lon": 29.85, "lat": 8.65}}, {"id": 377472, "name": "Bentiu", "country": "SS", "coord": {"lon": 29.83333, "lat": 9.23333}}, {"id": 371101, "name": "Ludu", "country": "SD", "coord": {"lon": 34.283329, "lat": 10.55}}, {"id": 363656, "name": "Yambio", "country": "SS", "coord": {"lon": 28.395491, "lat": 4.57213}}, {"id": 379251, "name": "Khartoum North", "country": "SD", "coord": {"lon": 32.625832, "lat": 15.62889}}, {"id": 408663, "name": "Kassala State", "country": "SD", "coord": {"lon": 35.650002, "lat": 15.9}}, {"id": 372753, "name": "Kassala", "country": "SD", "coord": {"lon": 36.399979, "lat": 15.45099}}, {"id": 2223602, "name": "North-West Region", "country": "CM", "coord": {"lon": 10.5, "lat": 6.33333}}, {"id": 2234974, "name": "Bamenda", "country": "CM", "coord": {"lon": 10.15824, "lat": 5.95266}}, {"id": 2231538, "name": "Foto", "country": "CM", "coord": {"lon": 10.06226, "lat": 5.45878}}, {"id": 2221788, "name": "South-West Region", "country": "CM", "coord": {"lon": 9.33333, "lat": 5.41667}}, {"id": 2233410, "name": "Buea", "country": "CM", "coord": {"lon": 9.241, "lat": 4.1527}}, {"id": 2229752, "name": "Kumba", "country": "CM", "coord": {"lon": 9.4469, "lat": 4.6363}}, {"id": 2221504, "name": "Tiko", "country": "CM", "coord": {"lon": 9.3699, "lat": 4.0745}}, {"id": 2223603, "name": "North Region", "country": "CM", "coord": {"lon": 14, "lat": 8.5}}, {"id": 2231320, "name": "Garoua", "country": "CM", "coord": {"lon": 13.4, "lat": 9.3}}, {"id": 2228373, "name": "Maroua", "country": "CM", "coord": {"lon": 14.31592, "lat": 10.59095}}, {"id": 2231565, "name": "Fontain", "country": "CM", "coord": {"lon": 10.91667, "lat": 5.73333}}, {"id": 2234536, "name": "Belabo", "country": "CM", "coord": {"lon": 13.3, "lat": 4.93333}}, {"id": 7109573, "name": "Djo", "country": "CM", "coord": {"lon": 10.41705, "lat": 5.34332}}, {"id": 2223638, "name": "Nlongo", "country": "CM", "coord": {"lon": 9.93333, "lat": 4.95}}, {"id": 2233252, "name": "Dang", "country": "CM", "coord": {"lon": 11.23333, "lat": 4.75}}, {"id": 2232652, "name": "Domb\u00e9", "country": "CM", "coord": {"lon": 9.91667, "lat": 2.95}}, {"id": 2234663, "name": "Batouri", "country": "CM", "coord": {"lon": 14.36667, "lat": 4.43333}}, {"id": 2224513, "name": "Ngoulmokong", "country": "CM", "coord": {"lon": 13.61667, "lat": 3.16667}}, {"id": 2221046, "name": "Yabassi", "country": "CM", "coord": {"lon": 9.96822, "lat": 4.45697}}, {"id": 2224162, "name": "Nkan", "country": "CM", "coord": {"lon": 12.66667, "lat": 2.66667}}, {"id": 925074, "name": "Nchesi", "country": "MW", "coord": {"lon": 33.783329, "lat": -13.98333}}, {"id": 923292, "name": "Zomba District", "country": "MW", "coord": {"lon": 35.418289, "lat": -15.43007}}, {"id": 923295, "name": "Zomba", "country": "MW", "coord": {"lon": 35.318802, "lat": -15.38596}}, {"id": 928531, "name": "Kasungu District", "country": "MW", "coord": {"lon": 33.416672, "lat": -13}}, {"id": 928534, "name": "Kasungu", "country": "MW", "coord": {"lon": 33.48333, "lat": -13.03333}}, {"id": 930283, "name": "Thyolo District", "country": "MW", "coord": {"lon": 35.1506, "lat": -16.105829}}, {"id": 923652, "name": "Thyolo", "country": "MW", "coord": {"lon": 35.140461, "lat": -16.067751}}, {"id": 3348303, "name": "Huila Province", "country": "AO", "coord": {"lon": 15.00014, "lat": -14.69531}}, {"id": 3347762, "name": "Lubango", "country": "AO", "coord": {"lon": 13.4925, "lat": -14.91717}}, {"id": 3372346, "name": "Lobito", "country": "AO", "coord": {"lon": 13.59972, "lat": -12.31972}}, {"id": 2243271, "name": "Cabinda", "country": "AO", "coord": {"lon": 12.2, "lat": -5.55}}, {"id": 3349234, "name": "Prov\u00edncia do Kwanza Sul", "country": "AO", "coord": {"lon": 15.03197, "lat": -10.82696}}, {"id": 2239861, "name": "Malanje", "country": "AO", "coord": {"lon": 14.92634, "lat": -9.96361}}, {"id": 3348310, "name": "Prov\u00edncia do Huambo", "country": "AO", "coord": {"lon": 15.66667, "lat": -12.5}}, {"id": 3348313, "name": "Huambo", "country": "AO", "coord": {"lon": 15.73917, "lat": -12.77611}}, {"id": 3351660, "name": "Prov\u00edncia de Benguela", "country": "AO", "coord": {"lon": 13.92825, "lat": -12.854}}, {"id": 3351663, "name": "Benguela", "country": "AO", "coord": {"lon": 13.40547, "lat": -12.57626}}, {"id": 145531, "name": "Saurimo", "country": "AO", "coord": {"lon": 20.39155, "lat": -9.66078}}, {"id": 7866653, "name": "Quilamba", "country": "AO", "coord": {"lon": 14.36468, "lat": -10.84475}}, {"id": 3347016, "name": "Namibe Province", "country": "AO", "coord": {"lon": 12.66002, "lat": -15.33207}}, {"id": 3347019, "name": "Namibe", "country": "AO", "coord": {"lon": 12.15222, "lat": -15.19611}}, {"id": 400741, "name": "Eastern Province", "country": "KE", "coord": {"lon": 38, "lat": 0}}, {"id": 186827, "name": "Meru", "country": "KE", "coord": {"lon": 37.655869, "lat": 0.04626}}, {"id": 196231, "name": "Isiolo", "country": "KE", "coord": {"lon": 37.58218, "lat": 0.35462}}, {"id": 191220, "name": "Kitale", "country": "KE", "coord": {"lon": 35.006222, "lat": 1.01572}}, {"id": 198476, "name": "Embu", "country": "KE", "coord": {"lon": 37.4506, "lat": -0.53112}}, {"id": 400745, "name": "North Eastern Province", "country": "KE", "coord": {"lon": 40.25, "lat": 1}}, {"id": 197745, "name": "Garissa", "country": "KE", "coord": {"lon": 39.64011, "lat": -0.45355}}, {"id": 181656, "name": "Parklands", "country": "KE", "coord": {"lon": 36.799999, "lat": -1.25}}, {"id": 189741, "name": "Lamu", "country": "KE", "coord": {"lon": 40.902012, "lat": -2.27169}}, {"id": 2397842, "name": "Province du Moyen-Ogoou\u00e9", "country": "GA", "coord": {"lon": 10.5, "lat": -0.5}}, {"id": 2401325, "name": "Dakar", "country": "GA", "coord": {"lon": 10.21667, "lat": -0.7}}, {"id": 2400547, "name": "Gamba", "country": "GA", "coord": {"lon": 10, "lat": -2.65}}, {"id": 2400454, "name": "Province du Haut-Ogoou\u00e9", "country": "GA", "coord": {"lon": 14, "lat": -2}}, {"id": 2397574, "name": "Ngobounda", "country": "GA", "coord": {"lon": 13.58333, "lat": -1.63333}}, {"id": 2454390, "name": "Kouoro", "country": "ML", "coord": {"lon": -5.70803, "lat": 12.0146}}, {"id": 2451185, "name": "Sikasso", "country": "ML", "coord": {"lon": -5.6697, "lat": 11.3135}}, {"id": 2454532, "name": "R\u00e9gion de Koulikoro", "country": "ML", "coord": {"lon": -7.75, "lat": 14}}, {"id": 2454530, "name": "Koulikoro", "country": "ML", "coord": {"lon": -7.55985, "lat": 12.86273}}, {"id": 2460489, "name": "Bandiagara", "country": "ML", "coord": {"lon": -3.61038, "lat": 14.35005}}, {"id": 2458334, "name": "Douentza", "country": "ML", "coord": {"lon": -2.9517, "lat": 14.9951}}, {"id": 2452655, "name": "Niono", "country": "ML", "coord": {"lon": -5.993, "lat": 14.2526}}, {"id": 2451285, "name": "S\u00e9var\u00e9", "country": "ML", "coord": {"lon": -4.09344, "lat": 14.52742}}, {"id": 6910806, "name": "Kala Dangan", "country": "ML", "coord": {"lon": -6.2699, "lat": 13.4629}}, {"id": 2449066, "name": "R\u00e9gion de Tombouctou", "country": "ML", "coord": {"lon": -3, "lat": 20}}, {"id": 2456917, "name": "Goundam", "country": "ML", "coord": {"lon": -3.67075, "lat": 16.41453}}, {"id": 2597275, "name": "D\u00e9partement du Littoral", "country": "BJ", "coord": {"lon": 2.41667, "lat": 6.36667}}, {"id": 2394819, "name": "Cotonou", "country": "BJ", "coord": {"lon": 2.41833, "lat": 6.36536}}, {"id": 2394992, "name": "D\u00e9partement du Borgou", "country": "BJ", "coord": {"lon": 2.75, "lat": 9.75}}, {"id": 2392204, "name": "Parakou", "country": "BJ", "coord": {"lon": 2.63031, "lat": 9.33716}}, {"id": 2392325, "name": "D\u00e9partement de l\u2019 Ou\u00e9m\u00e9", "country": "BJ", "coord": {"lon": 2.5, "lat": 6.66667}}, {"id": 2392087, "name": "Porto-Novo", "country": "BJ", "coord": {"lon": 2.60359, "lat": 6.49646}}, {"id": 2394092, "name": "Godom\u00e8", "country": "BJ", "coord": {"lon": 2.35, "lat": 6.38333}}, {"id": 2395049, "name": "Bohicon", "country": "BJ", "coord": {"lon": 2.0667, "lat": 7.17826}}, {"id": 2392897, "name": "Lokossa", "country": "BJ", "coord": {"lon": 1.71674, "lat": 6.63869}}, {"id": 2392895, "name": "Lokossa-Tchikom\u00e9", "country": "BJ", "coord": {"lon": 1.71667, "lat": 6.63333}}, {"id": 2392601, "name": "Natitingou", "country": "BJ", "coord": {"lon": 1.37962, "lat": 10.30416}}, {"id": 2395504, "name": "D\u00e9partement de l\u2019 Atlantique", "country": "BJ", "coord": {"lon": 2.25, "lat": 6.66667}}, {"id": 2392308, "name": "Ouidah", "country": "BJ", "coord": {"lon": 2.08506, "lat": 6.36307}}, {"id": 2395635, "name": "Allada", "country": "BJ", "coord": {"lon": 2.15138, "lat": 6.66547}}, {"id": 7670857, "name": "Atsinanana", "country": "MG", "coord": {"lon": 48.900002, "lat": -19}}, {"id": 1053384, "name": "Toamasina", "country": "MG", "coord": {"lon": 49.383331, "lat": -18.16667}}, {"id": 7670849, "name": "Boeny", "country": "MG", "coord": {"lon": 46.099998, "lat": -16.299999}}, {"id": 1062663, "name": "Mahajanga", "country": "MG", "coord": {"lon": 46.316669, "lat": -15.71667}}, {"id": 1069166, "name": "Antsirabe", "country": "MG", "coord": {"lon": 47.033329, "lat": -19.85}}, {"id": 1082992, "name": "Ambatolampy", "country": "MG", "coord": {"lon": 47.416672, "lat": -19.383329}}, {"id": 7670913, "name": "Atsimo-Andrefana", "country": "MG", "coord": {"lon": 44.400002, "lat": -23.200001}}, {"id": 1055429, "name": "Toliara", "country": "MG", "coord": {"lon": 43.666672, "lat": -23.35}}, {"id": 1055433, "name": "Fort Dauphin", "country": "MG", "coord": {"lon": 46.998741, "lat": -25.031851}}, {"id": 7670905, "name": "Haute Matsiatra", "country": "MG", "coord": {"lon": 46.5, "lat": -21.370001}}, {"id": 1064890, "name": "Fianarantsoa", "country": "MG", "coord": {"lon": 47.083328, "lat": -21.433331}}, {"id": 1058532, "name": "Moramanga", "country": "MG", "coord": {"lon": 48.200001, "lat": -18.933331}}, {"id": 1066514, "name": "Betafo", "country": "MG", "coord": {"lon": 46.849998, "lat": -19.83333}}, {"id": 1083724, "name": "Ambanja", "country": "MG", "coord": {"lon": 48.450001, "lat": -13.68333}}, {"id": 1082243, "name": "Ambilobe", "country": "MG", "coord": {"lon": 49.049999, "lat": -13.2}}, {"id": 1080968, "name": "Ambodisatirana", "country": "MG", "coord": {"lon": 50.166672, "lat": -14.26667}}, {"id": 1068971, "name": "Antsohihy", "country": "MG", "coord": {"lon": 47.987511, "lat": -14.87959}}, {"id": 1076105, "name": "Andoany", "country": "MG", "coord": {"lon": 48.26667, "lat": -13.4}}, {"id": 2429060, "name": "R\u00e9gion du Logone Occidental", "country": "TD", "coord": {"lon": 15.87236, "lat": 8.7529}}, {"id": 2427455, "name": "Moundou", "country": "TD", "coord": {"lon": 16.08333, "lat": 8.56667}}, {"id": 242246, "name": "R\u00e9gion du Ouadda\u00ef", "country": "TD", "coord": {"lon": 21.25, "lat": 13.5}}, {"id": 245785, "name": "Abeche", "country": "TD", "coord": {"lon": 20.832399, "lat": 13.82916}}, {"id": 2434478, "name": "R\u00e9gion du Chari-Baguirmi", "country": "TD", "coord": {"lon": 16.25, "lat": 11.34}}, {"id": 2427123, "name": "NDjamena", "country": "TD", "coord": {"lon": 15.0444, "lat": 12.10672}}, {"id": 2431555, "name": "R\u00e9gion du Gu\u00e9ra", "country": "TD", "coord": {"lon": 18.5, "lat": 11.5}}, {"id": 2427637, "name": "Mongo", "country": "TD", "coord": {"lon": 18.693029, "lat": 12.18441}}, {"id": 933210, "name": "North East District", "country": "BW", "coord": {"lon": 27.5, "lat": -21}}, {"id": 933778, "name": "Francistown", "country": "BW", "coord": {"lon": 27.507879, "lat": -21.16995}}, {"id": 933099, "name": "Selebi-Phikwe", "country": "BW", "coord": {"lon": 27.849831, "lat": -21.979031}}, {"id": 7745146, "name": "Magotane", "country": "BW", "coord": {"lon": 25.8029, "lat": -24.877911}}, {"id": 933182, "name": "Palapye", "country": "BW", "coord": {"lon": 27.125071, "lat": -22.546049}}, {"id": 933088, "name": "Serowe", "country": "BW", "coord": {"lon": 26.716669, "lat": -22.383329}}, {"id": 7746220, "name": "Gamafikana", "country": "BW", "coord": {"lon": 25.36657, "lat": -24.993959}}, {"id": 933654, "name": "Kgatleng District", "country": "BW", "coord": {"lon": 26.5, "lat": -24.25}}, {"id": 933340, "name": "Mochudi", "country": "BW", "coord": {"lon": 26.15, "lat": -24.41667}}, {"id": 933562, "name": "Kweneng District", "country": "BW", "coord": {"lon": 25, "lat": -24}}, {"id": 933872, "name": "Borakalalop Camp", "country": "BW", "coord": {"lon": 25.51667, "lat": -24.4}}, {"id": 7654016, "name": "Mmale", "country": "BW", "coord": {"lon": 26.983419, "lat": -22.2827}}, {"id": 7752612, "name": "Marotse", "country": "BW", "coord": {"lon": 25.544861, "lat": -24.71526}}, {"id": 7884617, "name": "Moko", "country": "BW", "coord": {"lon": 26.848721, "lat": -23.05641}}, {"id": 933758, "name": "Ghanzi District", "country": "BW", "coord": {"lon": 22, "lat": -22}}, {"id": 933759, "name": "Ghanzi", "country": "BW", "coord": {"lon": 21.783331, "lat": -21.566669}}, {"id": 2214812, "name": "Mu\u2018askar J\u0101l\u016b", "country": "LY", "coord": {"lon": 13.16667, "lat": 32.866669}}, {"id": 2214813, "name": "B\u0101b al \u2018Az\u012bz\u012byah", "country": "LY", "coord": {"lon": 13.175, "lat": 32.875}}, {"id": 88319, "name": "Benghazi", "country": "LY", "coord": {"lon": 20.066669, "lat": 32.116669}}, {"id": 88823, "name": "Al \u2018Ur\u016bbah", "country": "LY", "coord": {"lon": 20.066669, "lat": 32.116669}}, {"id": 87204, "name": "Sha\u2018b\u012byat Darnah", "country": "LY", "coord": {"lon": 22.533331, "lat": 32.049999}}, {"id": 87205, "name": "Darnah", "country": "LY", "coord": {"lon": 22.63669, "lat": 32.76704}}, {"id": 2210553, "name": "Sha\u2018b\u012byat Surt", "country": "LY", "coord": {"lon": 16.5, "lat": 30.33333}}, {"id": 2210554, "name": "Surt", "country": "LY", "coord": {"lon": 16.588659, "lat": 31.20892}}, {"id": 443289, "name": "Sha\u2018b\u012byat al Jabal al Akh\u1e11ar", "country": "LY", "coord": {"lon": 21.75, "lat": 32.200001}}, {"id": 89055, "name": "Al Bayda", "country": "LY", "coord": {"lon": 21.75506, "lat": 32.762718}}, {"id": 7602688, "name": "Sha\u2018b\u012byat al Bu\u0163n\u0101n", "country": "LY", "coord": {"lon": 24.16667, "lat": 30.23333}}, {"id": 81302, "name": "Tobruk", "country": "LY", "coord": {"lon": 23.976391, "lat": 32.083611}}, {"id": 3374766, "name": "Republic of Cape Verde", "country": "CV", "coord": {"lon": -24, "lat": 16}}, {"id": 49518, "name": "Republic of Rwanda", "country": "RW", "coord": {"lon": 30, "lat": -2}}, {"id": 1026014, "name": "Tete", "country": "MZ", "coord": {"lon": 33.58667, "lat": -16.156389}}, {"id": 1024312, "name": "Prov\u00edncia de Zamb\u00e9zia", "country": "MZ", "coord": {"lon": 37, "lat": -17}}, {"id": 1028434, "name": "Quelimane", "country": "MZ", "coord": {"lon": 36.888329, "lat": -17.878611}}, {"id": 1040947, "name": "Prov\u00edncia de Manica", "country": "MZ", "coord": {"lon": 33.5, "lat": -19}}, {"id": 1049261, "name": "Chimoio", "country": "MZ", "coord": {"lon": 33.48333, "lat": -19.11639}}, {"id": 1033354, "name": "Prov\u00edncia de Nampula", "country": "MZ", "coord": {"lon": 39, "lat": -15}}, {"id": 1035025, "name": "Cidade de Nacala", "country": "MZ", "coord": {"lon": 40.672779, "lat": -14.54278}}, {"id": 1033356, "name": "Nampula", "country": "MZ", "coord": {"lon": 39.266602, "lat": -15.11646}}, {"id": 1026804, "name": "Prov\u00edncia de Sofala", "country": "MZ", "coord": {"lon": 34.928612, "lat": -19.764721}}, {"id": 1052373, "name": "Beira", "country": "MZ", "coord": {"lon": 34.83889, "lat": -19.843611}}, {"id": 1046058, "name": "Prov\u00edncia de Gaza", "country": "MZ", "coord": {"lon": 33, "lat": -23.5}}, {"id": 1024552, "name": "Xai-Xai", "country": "MZ", "coord": {"lon": 33.644169, "lat": -25.051941}}, {"id": 1037807, "name": "Miceti", "country": "MZ", "coord": {"lon": 40.5, "lat": -12.95}}, {"id": 1045110, "name": "Prov\u00edncia de Inhambane", "country": "MZ", "coord": {"lon": 34.5, "lat": -23}}, {"id": 1045114, "name": "Inhambane", "country": "MZ", "coord": {"lon": 35.383331, "lat": -23.865}}, {"id": 2413451, "name": "Gambia", "country": "GM", "coord": {"lon": -15.5, "lat": 13.5}}, {"id": 1106788, "name": "Dubreuil", "country": "MU", "coord": {"lon": 57.595001, "lat": -20.297501}}, {"id": 934718, "name": "Black River District", "country": "MU", "coord": {"lon": 57.416672, "lat": -20.33333}}, {"id": 934778, "name": "Bambous", "country": "MU", "coord": {"lon": 57.406109, "lat": -20.25667}}, {"id": 934090, "name": "Rivi\u00e8re du Rempart District", "country": "MU", "coord": {"lon": 57.64167, "lat": -20.058331}}, {"id": 1106771, "name": "Mapou", "country": "MU", "coord": {"lon": 57.601391, "lat": -20.07583}}, {"id": 934133, "name": "Quartier Militaire", "country": "MU", "coord": {"lon": 57.589169, "lat": -20.243891}}, {"id": 934032, "name": "Saint Pierre", "country": "MU", "coord": {"lon": 57.520828, "lat": -20.217501}}, {"id": 1106763, "name": "Gros Cailloux", "country": "MU", "coord": {"lon": 57.43, "lat": -20.20722}}, {"id": 1106782, "name": "Esp\u00e9rance", "country": "MU", "coord": {"lon": 57.587219, "lat": -20.225}}, {"id": 934195, "name": "Petite Riviere", "country": "MU", "coord": {"lon": 57.445278, "lat": -20.18944}}, {"id": 934466, "name": "Grand Port District", "country": "MU", "coord": {"lon": 57.633331, "lat": -20.41667}}, {"id": 934240, "name": "New Grove", "country": "MU", "coord": {"lon": 57.613609, "lat": -20.408609}}, {"id": 934072, "name": "Rose Belle", "country": "MU", "coord": {"lon": 57.596668, "lat": -20.40028}}, {"id": 1547449, "name": "Rodrigues", "country": "MU", "coord": {"lon": 63.416672, "lat": -19.700001}}, {"id": 1545752, "name": "Port Mathurin", "country": "MU", "coord": {"lon": 63.416672, "lat": -19.683331}}, {"id": 934262, "name": "Montagne Blanche", "country": "MU", "coord": {"lon": 57.654442, "lat": -20.28278}}, {"id": 934522, "name": "Flacq District", "country": "MU", "coord": {"lon": 57.716671, "lat": -20.23333}}, {"id": 934631, "name": "Centre de Flacq", "country": "MU", "coord": {"lon": 57.714439, "lat": -20.18972}}, {"id": 934693, "name": "Bon Accueil", "country": "MU", "coord": {"lon": 57.656391, "lat": -20.17083}}, {"id": 934739, "name": "Belle Vue Maurel", "country": "MU", "coord": {"lon": 57.663609, "lat": -20.120279}}, {"id": 934089, "name": "Grande Riviere Noire", "country": "MU", "coord": {"lon": 57.366112, "lat": -20.360279}}, {"id": 934091, "name": "Riviere du Rempart", "country": "MU", "coord": {"lon": 57.684719, "lat": -20.10306}}, {"id": 934017, "name": "Savanne District", "country": "MU", "coord": {"lon": 57.5, "lat": -20.466669}}, {"id": 934614, "name": "Chemin Grenier", "country": "MU", "coord": {"lon": 57.465561, "lat": -20.487221}}, {"id": 933995, "name": "Souillac", "country": "MU", "coord": {"lon": 57.51667, "lat": -20.51667}}, {"id": 934479, "name": "Grand Gaube", "country": "MU", "coord": {"lon": 57.660831, "lat": -20.00639}}, {"id": 934750, "name": "Bel Air", "country": "MU", "coord": {"lon": 57.745281, "lat": -20.254169}}, {"id": 934513, "name": "Fond du Sac", "country": "MU", "coord": {"lon": 57.578609, "lat": -20.04306}}, {"id": 934085, "name": "Roches Noire", "country": "MU", "coord": {"lon": 57.712219, "lat": -20.111111}}, {"id": 1106638, "name": "Mare La Chaux", "country": "MU", "coord": {"lon": 57.749439, "lat": -20.198059}}, {"id": 934303, "name": "Mare Tabac", "country": "MU", "coord": {"lon": 57.588612, "lat": -20.435829}}, {"id": 934740, "name": "Belle Rose", "country": "MU", "coord": {"lon": 57.726391, "lat": -20.261669}}, {"id": 1106642, "name": "Belle Mare", "country": "MU", "coord": {"lon": 57.76833, "lat": -20.195}}, {"id": 933953, "name": "Trou aux Biches", "country": "MU", "coord": {"lon": 57.546108, "lat": -20.045}}, {"id": 1106721, "name": "La Flora", "country": "MU", "coord": {"lon": 57.553612, "lat": -20.41028}}, {"id": 933970, "name": "The Vale", "country": "MU", "coord": {"lon": 57.58778, "lat": -20.02833}}, {"id": 1106815, "name": "Vall\u00e9e des Pr\u00eatres", "country": "MU", "coord": {"lon": 57.53056, "lat": -20.166941}}, {"id": 934127, "name": "Quatre Soeurs", "country": "MU", "coord": {"lon": 57.770561, "lat": -20.29917}}, {"id": 933951, "name": "Trou d\u2019Eau Douce", "country": "MU", "coord": {"lon": 57.7775, "lat": -20.237221}}, {"id": 1106693, "name": "Union Park", "country": "MU", "coord": {"lon": 57.573608, "lat": -20.386391}}, {"id": 1106625, "name": "D\u2019Epinay", "country": "MU", "coord": {"lon": 57.589169, "lat": -20.12694}}, {"id": 934092, "name": "Rivi\u00e8re du Poste", "country": "MU", "coord": {"lon": 57.56694, "lat": -20.42417}}, {"id": 934076, "name": "Roche Terre", "country": "MU", "coord": {"lon": 57.644718, "lat": -20.01861}}, {"id": 934052, "name": "Sainte Croix", "country": "MU", "coord": {"lon": 57.521389, "lat": -20.145}}, {"id": 934343, "name": "L\u2019Escalier", "country": "MU", "coord": {"lon": 57.612221, "lat": -20.469999}}, {"id": 934818, "name": "Abercrombie", "country": "MU", "coord": {"lon": 57.516109, "lat": -20.14806}}, {"id": 1106807, "name": "Plaine Verte", "country": "MU", "coord": {"lon": 57.507778, "lat": -20.15361}}, {"id": 934309, "name": "Mare d\u2019Albert", "country": "MU", "coord": {"lon": 57.62278, "lat": -20.41861}}, {"id": 934159, "name": "Pont Blanc", "country": "MU", "coord": {"lon": 57.704441, "lat": -20.16667}}, {"id": 934442, "name": "Henrietta", "country": "MU", "coord": {"lon": 57.466389, "lat": -20.33556}}, {"id": 1106589, "name": "Cluny", "country": "MU", "coord": {"lon": 57.603889, "lat": -20.36694}}, {"id": 934749, "name": "Grand Bel Air", "country": "MU", "coord": {"lon": 57.673611, "lat": -20.406389}}, {"id": 1106585, "name": "Baie du Cap", "country": "MU", "coord": {"lon": 57.37056, "lat": -20.488331}}, {"id": 1106803, "name": "Bain des Dames", "country": "MU", "coord": {"lon": 57.475559, "lat": -20.15917}}, {"id": 934734, "name": "Bell Village", "country": "MU", "coord": {"lon": 57.479439, "lat": -20.1675}}, {"id": 934705, "name": "Bois des Amourettes", "country": "MU", "coord": {"lon": 57.73111, "lat": -20.36306}}, {"id": 2572183, "name": "Commune de Brazzaville", "country": "CG", "coord": {"lon": 15.28048, "lat": -4.2657}}, {"id": 2260535, "name": "Brazzaville", "country": "CG", "coord": {"lon": 15.28318, "lat": -4.26583}}, {"id": 2258738, "name": "R\u00e9gion du Kouilou", "country": "CG", "coord": {"lon": 12, "lat": -4}}, {"id": 2255414, "name": "Pointe-Noire", "country": "CG", "coord": {"lon": 11.86352, "lat": -4.77609}}, {"id": 2258314, "name": "Losange", "country": "CG", "coord": {"lon": 11.84194, "lat": -4.80028}}, {"id": 233508, "name": "Entebbe", "country": "UG", "coord": {"lon": 32.446941, "lat": 0.06444}}, {"id": 233709, "name": "Mpigi District", "country": "UG", "coord": {"lon": 32.19902, "lat": 0.07285}}, {"id": 229024, "name": "Mpigi", "country": "UG", "coord": {"lon": 32.31361, "lat": 0.225}}, {"id": 443365, "name": "Soroti District", "country": "UG", "coord": {"lon": 33.594318, "lat": 1.78481}}, {"id": 226975, "name": "Opiyai", "country": "UG", "coord": {"lon": 33.616669, "lat": 1.7}}, {"id": 443349, "name": "Lira District", "country": "UG", "coord": {"lon": 32.945869, "lat": 2.33107}}, {"id": 230166, "name": "Lira", "country": "UG", "coord": {"lon": 32.909721, "lat": 2.235}}, {"id": 443356, "name": "Moroto District", "country": "UG", "coord": {"lon": 34.643951, "lat": 2.6389}}, {"id": 228512, "name": "Nadiket", "country": "UG", "coord": {"lon": 34.650002, "lat": 2.51667}}, {"id": 443366, "name": "Tororo District", "country": "UG", "coord": {"lon": 34.083328, "lat": 0.75}}, {"id": 226110, "name": "Tororo", "country": "UG", "coord": {"lon": 34.180851, "lat": 0.69299}}, {"id": 6930701, "name": "Boucle du Mouhoun", "country": "BF", "coord": {"lon": -3.47305, "lat": 12.47203}}, {"id": 2357858, "name": "Province du Mouhoun", "country": "BF", "coord": {"lon": -3.41667, "lat": 12.25}}, {"id": 2361477, "name": "Dedougou", "country": "BF", "coord": {"lon": -3.46667, "lat": 12.46667}}, {"id": 6930707, "name": "Centre-Ouest", "country": "BF", "coord": {"lon": -2.36876, "lat": 12.25488}}, {"id": 2361988, "name": "Province du Boulkiemd\u00e9", "country": "BF", "coord": {"lon": -2.16667, "lat": 12.33333}}, {"id": 2358946, "name": "Koudougou", "country": "BF", "coord": {"lon": -2.36667, "lat": 12.25}}, {"id": 6930709, "name": "Est", "country": "BF", "coord": {"lon": 0.36349, "lat": 12.06308}}, {"id": 2360223, "name": "Province du Gourma", "country": "BF", "coord": {"lon": 0.5, "lat": 12.08333}}, {"id": 2360886, "name": "Fada NGourma", "country": "BF", "coord": {"lon": 0.35778, "lat": 12.06222}}, {"id": 6930711, "name": "Nord", "country": "BF", "coord": {"lon": -2.4212, "lat": 13.58809}}, {"id": 2356667, "name": "Province du Passor\u00e9", "country": "BF", "coord": {"lon": -2.16667, "lat": 12.91667}}, {"id": 2353688, "name": "Yako", "country": "BF", "coord": {"lon": -2.26667, "lat": 12.96667}}, {"id": 6930712, "name": "Plateau-Central", "country": "BF", "coord": {"lon": -1.30102, "lat": 12.58774}}, {"id": 2356983, "name": "Province d' Oubritenga", "country": "BF", "coord": {"lon": -1.41667, "lat": 12.58333}}, {"id": 2353257, "name": "Ziniare", "country": "BF", "coord": {"lon": -1.29833, "lat": 12.58222}}, {"id": 6930710, "name": "Hauts-Bassins", "country": "BF", "coord": {"lon": -4.29634, "lat": 11.20804}}, {"id": 2360075, "name": "Province du Houet", "country": "BF", "coord": {"lon": -4.25, "lat": 11.33333}}, {"id": 2361145, "name": "Dogona", "country": "BF", "coord": {"lon": -4.28035, "lat": 11.20476}}, {"id": 2355211, "name": "Province du Sourou", "country": "BF", "coord": {"lon": -3, "lat": 13.25}}, {"id": 2354176, "name": "Tougan", "country": "BF", "coord": {"lon": -3.06667, "lat": 13.06667}}, {"id": 2403846, "name": "Republic of Sierra Leone", "country": "SL", "coord": {"lon": -11.5, "lat": 8.5}}, {"id": 879431, "name": "Victoria Falls", "country": "ZW", "coord": {"lon": 25.842991, "lat": -17.923531}}, {"id": 1105843, "name": "Bulawayo Province", "country": "ZW", "coord": {"lon": 28.58333, "lat": -20.15}}, {"id": 894701, "name": "Bulawayo", "country": "ZW", "coord": {"lon": 28.58333, "lat": -20.15}}, {"id": 884141, "name": "Norton", "country": "ZW", "coord": {"lon": 30.700001, "lat": -17.883329}}, {"id": 886843, "name": "Mashonaland Central Province", "country": "ZW", "coord": {"lon": 31, "lat": -17}}, {"id": 891099, "name": "Glendale", "country": "ZW", "coord": {"lon": 31.067181, "lat": -17.355141}}, {"id": 892876, "name": "Concession", "country": "ZW", "coord": {"lon": 30.950001, "lat": -17.383329}}, {"id": 1106398, "name": "Mbare", "country": "ZW", "coord": {"lon": 31.03722, "lat": -17.858061}}, {"id": 2314302, "name": "Kinshasa", "country": "CD", "coord": {"lon": 15.32146, "lat": -4.32459}}, {"id": 2312096, "name": "Ndolo", "country": "CD", "coord": {"lon": 15.31667, "lat": -4.31667}}, {"id": 205703, "name": "Province du Katanga", "country": "CD", "coord": {"lon": 26, "lat": -9}}, {"id": 922704, "name": "Lubumbashi", "country": "CD", "coord": {"lon": 27.47938, "lat": -11.66089}}, {"id": 206938, "name": "Province du Nord-Kivu", "country": "CD", "coord": {"lon": 28.75, "lat": -0.66667}}, {"id": 216281, "name": "Goma", "country": "CD", "coord": {"lon": 29.22278, "lat": -1.67917}}, {"id": 212731, "name": "Kisangani", "country": "CD", "coord": {"lon": 28.17, "lat": -0.36194}}, {"id": 205413, "name": "Province du Sud-Kivu", "country": "CD", "coord": {"lon": 28.25, "lat": -3.16667}}, {"id": 217831, "name": "Bukavu", "country": "CD", "coord": {"lon": 28.86083, "lat": -2.50833}}, {"id": 2317277, "name": "Province du Bas-Congo", "country": "CD", "coord": {"lon": 14.5, "lat": -5.5}}, {"id": 2313002, "name": "Matadi", "country": "CD", "coord": {"lon": 13.45, "lat": -5.81667}}, {"id": 922773, "name": "Kolwezi", "country": "CD", "coord": {"lon": 25.46674, "lat": -10.71484}}, {"id": 216541, "name": "Fizi", "country": "CD", "coord": {"lon": 28.94417, "lat": -4.30111}}, {"id": 214478, "name": "Kananga", "country": "CD", "coord": {"lon": 23.9, "lat": -9.08333}}, {"id": 922741, "name": "Likasi", "country": "CD", "coord": {"lon": 26.73333, "lat": -10.98139}}, {"id": 217562, "name": "Butembo", "country": "CD", "coord": {"lon": 29.283331, "lat": 0.15}}, {"id": 217695, "name": "Bunia", "country": "CD", "coord": {"lon": 30.25, "lat": 1.56667}}, {"id": 923051, "name": "Kamina", "country": "CD", "coord": {"lon": 23.533331, "lat": -10.63333}}, {"id": 218241, "name": "Bonema", "country": "CD", "coord": {"lon": 21.15, "lat": -0.75}}, {"id": 216661, "name": "Province de l\u2019 \u00c9quateur", "country": "CD", "coord": {"lon": 20.5, "lat": 1}}, {"id": 216404, "name": "Gbadolite", "country": "CD", "coord": {"lon": 21.01667, "lat": 4.28333}}, {"id": 214755, "name": "Kama", "country": "CD", "coord": {"lon": 25.950001, "lat": -2.95}}, {"id": 8070734, "name": "Bolaka", "country": "CD", "coord": {"lon": 18.275061, "lat": 0.05545}}, {"id": 204953, "name": "Tshikapa", "country": "CD", "coord": {"lon": 20.799999, "lat": -6.41667}}, {"id": 2317396, "name": "Province de Bandundu", "country": "CD", "coord": {"lon": 18, "lat": -4}}, {"id": 2317397, "name": "Bandundu", "country": "CD", "coord": {"lon": 17.366671, "lat": -3.31667}}, {"id": 2314705, "name": "Kikwit", "country": "CD", "coord": {"lon": 18.816191, "lat": -5.04098}}, {"id": 2315728, "name": "Gemena", "country": "CD", "coord": {"lon": 19.76667, "lat": 3.25}}, {"id": 2312892, "name": "Mbanza", "country": "CD", "coord": {"lon": 14.95, "lat": -4.76667}}, {"id": 208891, "name": "Mokumbano", "country": "CD", "coord": {"lon": 20.813641, "lat": 2.51422}}, {"id": 214974, "name": "Kalemie", "country": "CD", "coord": {"lon": 29.19471, "lat": -5.94749}}, {"id": 922944, "name": "Kasumbalesa", "country": "CD", "coord": {"lon": 27.797779, "lat": -12.1975}}, {"id": 211647, "name": "Lodja", "country": "CD", "coord": {"lon": 23.433331, "lat": -3.48333}}, {"id": 214138, "name": "Province du Kasa\u00ef-Oriental", "country": "CD", "coord": {"lon": 24, "lat": -4}}, {"id": 209228, "name": "Mbuji-Mayi", "country": "CD", "coord": {"lon": 23.6, "lat": -6.15}}, {"id": 217570, "name": "Buta", "country": "CD", "coord": {"lon": 24.72998, "lat": 2.78582}}, {"id": 2441289, "name": "Maradi", "country": "NE", "coord": {"lon": 7.25, "lat": 14.25}}, {"id": 2441291, "name": "Maradi", "country": "NE", "coord": {"lon": 7.10174, "lat": 13.5}}, {"id": 2448085, "name": "Agadez", "country": "NE", "coord": {"lon": 7.99111, "lat": 16.97333}}, {"id": 2447513, "name": "Arlit", "country": "NE", "coord": {"lon": 7.38528, "lat": 18.73694}}, {"id": 2317301, "name": "Baraka", "country": "CD", "coord": {"lon": 18.6, "lat": 4.35}}, {"id": 934913, "name": "Nhlangano", "country": "SZ", "coord": {"lon": 31.200001, "lat": -27.116671}}, {"id": 934966, "name": "Mhlume", "country": "SZ", "coord": {"lon": 31.85, "lat": -26.033331}}, {"id": 935048, "name": "Lobamba", "country": "SZ", "coord": {"lon": 31.200001, "lat": -26.466669}}, {"id": 935113, "name": "Big Bend", "country": "SZ", "coord": {"lon": 31.933331, "lat": -26.816669}}, {"id": 935042, "name": "Lubombo District", "country": "SZ", "coord": {"lon": 31.75, "lat": -26.41667}}, {"id": 934851, "name": "Siteki", "country": "SZ", "coord": {"lon": 31.950001, "lat": -26.450001}}, {"id": 2365266, "name": "Lom\u00e9", "country": "TG", "coord": {"lon": 1.00667, "lat": 6.48861}}, {"id": 2364041, "name": "Tabligbo", "country": "TG", "coord": {"lon": 1.5, "lat": 6.58333}}, {"id": 2365560, "name": "Kpalime", "country": "TG", "coord": {"lon": 0.63333, "lat": 6.9}}, {"id": 2422464, "name": "Capitale d\u2019\u00c9tat-Zone Sp\u00e9ciale de Conakry", "country": "GN", "coord": {"lon": -13.64811, "lat": 9.56757}}, {"id": 2422488, "name": "Camayenne", "country": "GN", "coord": {"lon": -13.68778, "lat": 9.535}}, {"id": 2422923, "name": "Pr\u00e9fecture de Bok\u00e9", "country": "GN", "coord": {"lon": -14.41667, "lat": 11.08333}}, {"id": 2420056, "name": "Kamsar", "country": "GN", "coord": {"lon": -14.6, "lat": 10.66667}}, {"id": 2418360, "name": "Pr\u00e9fecture de Lab\u00e9", "country": "GN", "coord": {"lon": -12.25, "lat": 11.5}}, {"id": 2418362, "name": "Labe", "country": "GN", "coord": {"lon": -12.28332, "lat": 11.31823}}, {"id": 2595304, "name": "Pr\u00e9fecture de Lola", "country": "GN", "coord": {"lon": -8.33333, "lat": 7.83333}}, {"id": 2418092, "name": "Lola", "country": "GN", "coord": {"lon": -8.53333, "lat": 7.8}}, {"id": 2419991, "name": "Pr\u00e9fecture de Kankan", "country": "GN", "coord": {"lon": -9, "lat": 10}}, {"id": 2419992, "name": "Kankan", "country": "GN", "coord": {"lon": -9.30568, "lat": 10.38542}}, {"id": 2416085, "name": "Sangar\u00e9di", "country": "GN", "coord": {"lon": -13.76667, "lat": 11.1}}, {"id": 2416968, "name": "Pr\u00e9fecture de Nz\u00e9r\u00e9kor\u00e9", "country": "GN", "coord": {"lon": -8.83333, "lat": 7.83333}}, {"id": 2416969, "name": "Nzerekore", "country": "GN", "coord": {"lon": -8.8179, "lat": 7.75624}}, {"id": 2417831, "name": "Pr\u00e9fecture de Mamou", "country": "GN", "coord": {"lon": -12, "lat": 10.5}}, {"id": 2417834, "name": "Mamou", "country": "GN", "coord": {"lon": -11.95, "lat": 10.15}}, {"id": 2422924, "name": "Boke", "country": "GN", "coord": {"lon": -14.29665, "lat": 10.94094}}, {"id": 2418595, "name": "Pr\u00e9fecture de Koundara", "country": "GN", "coord": {"lon": -13.16667, "lat": 12.41667}}, {"id": 2418596, "name": "Koundara", "country": "GN", "coord": {"lon": -13.3, "lat": 12.48333}}, {"id": 2423124, "name": "Pr\u00e9fecture de Beyla", "country": "GN", "coord": {"lon": -8.41667, "lat": 8.91667}}, {"id": 2423126, "name": "Beyla", "country": "GN", "coord": {"lon": -8.63333, "lat": 8.68333}}, {"id": 2419470, "name": "Pr\u00e9fecture de Kissidougou", "country": "GN", "coord": {"lon": -9.91667, "lat": 9.25}}, {"id": 2419472, "name": "Kissidougou", "country": "GN", "coord": {"lon": -10.09987, "lat": 9.1848}}, {"id": 2420983, "name": "Pr\u00e9fecture de For\u00e9cariah", "country": "GN", "coord": {"lon": -13.1, "lat": 9.43333}}, {"id": 2420985, "name": "Forecariah", "country": "GN", "coord": {"lon": -13.08806, "lat": 9.43056}}, {"id": 2422441, "name": "Pr\u00e9fecture de Dabola", "country": "GN", "coord": {"lon": -11.11667, "lat": 10.6}}, {"id": 2422442, "name": "Dabola", "country": "GN", "coord": {"lon": -11.11667, "lat": 10.75}}, {"id": 2421533, "name": "Pr\u00e9fecture de Dubr\u00e9ka", "country": "GN", "coord": {"lon": -13.41667, "lat": 10.25}}, {"id": 2421535, "name": "Dubreka", "country": "GN", "coord": {"lon": -13.52333, "lat": 9.79111}}, {"id": 2275384, "name": "Republic of Liberia", "country": "LR", "coord": {"lon": -9.5, "lat": 6.5}}, {"id": 241131, "name": "Victoria", "country": "SC", "coord": {"lon": 55.450001, "lat": -4.61667}}, {"id": 241424, "name": "Bel Ombre", "country": "SC", "coord": {"lon": 55.404171, "lat": -4.625}}, {"id": 241423, "name": "Bel Ombre", "country": "SC", "coord": {"lon": 55.416672, "lat": -4.61667}}, {"id": 241443, "name": "Anse Royale", "country": "SC", "coord": {"lon": 55.51667, "lat": -4.73333}}, {"id": 2562055, "name": "Skhirat", "country": "MA", "coord": {"lon": -7.04037, "lat": 33.849838}}, {"id": 2565228, "name": "Kasba Skhirat", "country": "MA", "coord": {"lon": -7.06182, "lat": 33.861382}}, {"id": 2551808, "name": "Douar el Hajra", "country": "MA", "coord": {"lon": -8.30246, "lat": 31.82439}}, {"id": 2548882, "name": "R\u00e9gion de F\u00e8s-Boulemane", "country": "MA", "coord": {"lon": -4.25, "lat": 33.333328}}, {"id": 6547286, "name": "Sefrou", "country": "MA", "coord": {"lon": -4.68, "lat": 33.799789}}, {"id": 6546442, "name": "Sefrou", "country": "MA", "coord": {"lon": -4.83005, "lat": 33.822521}}, {"id": 2537545, "name": "Sefrou", "country": "MA", "coord": {"lon": -4.828, "lat": 33.83186}}, {"id": 2597549, "name": "R\u00e9gion de Doukkala-Abda", "country": "MA", "coord": {"lon": -8.75, "lat": 32.5}}, {"id": 2537878, "name": "Safi", "country": "MA", "coord": {"lon": -8.83333, "lat": 32.166672}}, {"id": 6546086, "name": "Safi", "country": "MA", "coord": {"lon": -9.23478, "lat": 32.269241}}, {"id": 2537881, "name": "Safi", "country": "MA", "coord": {"lon": -9.23718, "lat": 32.299389}}, {"id": 2562053, "name": "Skhirate-Temara", "country": "MA", "coord": {"lon": -6.98333, "lat": 33.883331}}, {"id": 6545720, "name": "Temara", "country": "MA", "coord": {"lon": -6.90704, "lat": 33.927799}}, {"id": 2529013, "name": "Temara", "country": "MA", "coord": {"lon": -6.90656, "lat": 33.928661}}, {"id": 2528907, "name": "Tetouan", "country": "MA", "coord": {"lon": -5.5, "lat": 35.583328}}, {"id": 6546337, "name": "Martil", "country": "MA", "coord": {"lon": -5.30265, "lat": 35.64341}}, {"id": 2542987, "name": "Martil", "country": "MA", "coord": {"lon": -5.27522, "lat": 35.616619}}, {"id": 2549259, "name": "Essaouira", "country": "MA", "coord": {"lon": -9.75655, "lat": 31.50675}}, {"id": 6546650, "name": "Essaouira", "country": "MA", "coord": {"lon": -9.76954, "lat": 31.44845}}, {"id": 2549263, "name": "Essaouira", "country": "MA", "coord": {"lon": -9.77, "lat": 31.512501}}, {"id": 2551043, "name": "Dou Tourga", "country": "MA", "coord": {"lon": -9.73, "lat": 29.709999}}, {"id": 2555519, "name": "Ben Slimane", "country": "MA", "coord": {"lon": -7.12079, "lat": 33.612968}}, {"id": 2529374, "name": "Tassoumat", "country": "MA", "coord": {"lon": -6.92965, "lat": 30.9212}}, {"id": 2597555, "name": "R\u00e9gion de Tadla-Azilal", "country": "MA", "coord": {"lon": -6.41667, "lat": 32.166672}}, {"id": 2555742, "name": "Beni-Mellal", "country": "MA", "coord": {"lon": -6.33333, "lat": 32.5}}, {"id": 6546831, "name": "Alkhalfia", "country": "MA", "coord": {"lon": -6.52976, "lat": 32.544239}}, {"id": 2555745, "name": "Beni Mellal", "country": "MA", "coord": {"lon": -6.34984, "lat": 32.33725}}, {"id": 2550076, "name": "El-Jadida", "country": "MA", "coord": {"lon": -8.5, "lat": 32.900002}}, {"id": 6546785, "name": "Azemmour", "country": "MA", "coord": {"lon": -8.35027, "lat": 33.295219}}, {"id": 2556657, "name": "Azemmour", "country": "MA", "coord": {"lon": -8.3425, "lat": 33.28952}}, {"id": 2544246, "name": "Khouribga", "country": "MA", "coord": {"lon": -6.6, "lat": 32.933331}}, {"id": 6546695, "name": "Khouribga", "country": "MA", "coord": {"lon": -6.91356, "lat": 32.886768}}, {"id": 2544248, "name": "Khouribga", "country": "MA", "coord": {"lon": -6.9063, "lat": 32.881081}}, {"id": 2543546, "name": "Larache", "country": "MA", "coord": {"lon": -5.83333, "lat": 35.166672}}, {"id": 6545687, "name": "Larache", "country": "MA", "coord": {"lon": -6.13848, "lat": 35.18811}}, {"id": 2543549, "name": "Larache", "country": "MA", "coord": {"lon": -6.15572, "lat": 35.193211}},