[{"id": 583803, "name": "Akhtuba", "country": "RU", "coord": {"lon": 44.38105, "lat": 51.6101}}, {"id": 583798, "name": "Akhtubinsk", "country": "RU", "coord": {"lon": 46.172169, "lat": 48.279549}}, {"id": 583794, "name": "Akhty", "country": "RU", "coord": {"lon": 47.731232, "lat": 41.459679}}, {"id": 583785, "name": "Akhtyrskiy", "country": "RU", "coord": {"lon": 38.303101, "lat": 44.854599}}, {"id": 583781, "name": "Akhunovo", "country": "RU", "coord": {"lon": 59.6017, "lat": 54.207901}}, {"id": 616989, "name": "Akhuryan", "country": "AM", "coord": {"lon": 43.900269, "lat": 40.780029}}, {"id": 146842, "name": "Akhyritou", "country": "CY", "coord": {"lon": 33.862499, "lat": 35.099998}}, {"id": 1865449, "name": "Aki", "country": "JP", "coord": {"lon": 133.899994, "lat": 33.5}}, {"id": 713746, "name": "Akikat", "country": "UA", "coord": {"lon": 35.066666, "lat": 44.916668}}, {"id": 3533117, "name": "Akil", "country": "MX", "coord": {"lon": -89.349998, "lat": 20.25}}, {"id": 1337368, "name": "Akil Iomak", "country": "PK", "coord": {"lon": 63.400833, "lat": 25.849722}}, {"id": 2296564, "name": "Akim Oda", "country": "GH", "coord": {"lon": -0.99507, "lat": 5.92313}}, {"id": 2305164, "name": "Akim Swedru", "country": "GH", "coord": {"lon": -1.01636, "lat": 5.8938}}, {"id": 6246563, "name": "Akina", "country": "NZ", "coord": {"lon": 176.84021, "lat": -39.648239}}, {"id": 752476, "name": "Akincilar", "country": "TR", "coord": {"lon": 38.348061, "lat": 40.07972}}, {"id": 2624929, "name": "Akirkeby", "country": "DK", "coord": {"lon": 14.91978, "lat": 55.070801}}, {"id": 6822131, "name": "Akiruno-shi", "country": "JP", "coord": {"lon": 139.294144, "lat": 35.728779}}, {"id": 583735, "name": "Akishino", "country": "RU", "coord": {"lon": 37, "lat": 56}}, {"id": 583744, "name": "Akis\u2019", "country": "RU", "coord": {"lon": 56.75631, "lat": 65.8386}}, {"id": 2113126, "name": "Akita", "country": "JP", "coord": {"lon": 140.116669, "lat": 39.716671}}, {"id": 2113719, "name": "Akita Shi", "country": "JP", "coord": {"lon": 140.103333, "lat": 39.71806}}, {"id": 2113124, "name": "Akita-ken", "country": "JP", "coord": {"lon": 140.40538, "lat": 39.75251}}, {"id": 1279123, "name": "Akividu", "country": "IN", "coord": {"lon": 81.383331, "lat": 16.6}}, {"id": 2381690, "name": "Akjoujt", "country": "MR", "coord": {"lon": -14.41639, "lat": 19.696939}}, {"id": 7302805, "name": "Akkarampalle", "country": "IN", "coord": {"lon": 79.419998, "lat": 13.65}}, {"id": 746527, "name": "Akkaya", "country": "TR", "coord": {"lon": 33.471169, "lat": 41.228161}}, {"id": 610768, "name": "Akkemer", "country": "KZ", "coord": {"lon": 57.34, "lat": 49.657501}}, {"id": 2130677, "name": "Akkeshi", "country": "JP", "coord": {"lon": 144.852493, "lat": 43.035561}}, {"id": 324643, "name": "Akkisla", "country": "TR", "coord": {"lon": 36.173809, "lat": 39.00222}}, {"id": 295721, "name": "Akko", "country": "IL", "coord": {"lon": 35.072781, "lat": 32.923611}}, {"id": 2351027, "name": "Akko", "country": "NG", "coord": {"lon": 10.9732, "lat": 10.28899}}, {"id": 1526797, "name": "Akkol", "country": "KZ", "coord": {"lon": 69.601112, "lat": 53.2925}}, {"id": 610764, "name": "Akkol", "country": "KZ", "coord": {"lon": 53.200001, "lat": 48.783329}}, {"id": 324630, "name": "Akkoy", "country": "TR", "coord": {"lon": 29.07814, "lat": 37.95694}}, {"id": 2759922, "name": "Akkrum", "country": "NL", "coord": {"lon": 5.83087, "lat": 53.05024}}, {"id": 752437, "name": "Akkus", "country": "TR", "coord": {"lon": 37.016392, "lat": 40.79306}}, {"id": 5882953, "name": "Aklavik", "country": "CA", "coord": {"lon": -135.010712, "lat": 68.219131}}, {"id": 1731757, "name": "Akle", "country": "PH", "coord": {"lon": 121.073303, "lat": 15.0482}}, {"id": 1279115, "name": "Aklera", "country": "IN", "coord": {"lon": 76.566673, "lat": 24.41667}}, {"id": 1732277, "name": "Akli", "country": "PH", "coord": {"lon": 120.643608, "lat": 15.12556}}, {"id": 2564788, "name": "Aklim", "country": "MA", "coord": {"lon": -2.43, "lat": 34.919998}}, {"id": 601194, "name": "Akliniai", "country": "LT", "coord": {"lon": 23.383329, "lat": 55.883331}}, {"id": 601182, "name": "Akmene", "country": "LT", "coord": {"lon": 22.75, "lat": 56.25}}, {"id": 324594, "name": "Akmezar", "country": "TR", "coord": {"lon": 34.310989, "lat": 38.462059}}, {"id": 583707, "name": "Aknada", "country": "RU", "coord": {"lon": 46.172279, "lat": 42.40155}}, {"id": 616853, "name": "Aknalich", "country": "AM", "coord": {"lon": 44.149799, "lat": 40.14315}}, {"id": 866089, "name": "Aknashen", "country": "AM", "coord": {"lon": 44.286041, "lat": 40.095509}}, {"id": 461566, "name": "Akniste", "country": "LV", "coord": {"lon": 25.747829, "lat": 56.161518}}, {"id": 2558633, "name": "Aknoul", "country": "MA", "coord": {"lon": -3.86754, "lat": 34.653709}}, {"id": 1865412, "name": "Ako", "country": "JP", "coord": {"lon": 134.399994, "lat": 34.75}}, {"id": 1279110, "name": "Akodia", "country": "IN", "coord": {"lon": 76.599998, "lat": 23.383329}}, {"id": 1279105, "name": "Akola", "country": "IN", "coord": {"lon": 77, "lat": 20.73333}}, {"id": 5857051, "name": "Akolea Plantation Estates", "country": "US", "coord": {"lon": -155.134445, "lat": 19.703329}}, {"id": 2235814, "name": "Akom II", "country": "CM", "coord": {"lon": 10.56667, "lat": 2.78333}}, {"id": 2235780, "name": "Akono", "country": "CM", "coord": {"lon": 11.33333, "lat": 3.5}}, {"id": 2235776, "name": "Akonolinga", "country": "CM", "coord": {"lon": 12.25, "lat": 3.76667}}, {"id": 1184752, "name": "Akora", "country": "PK", "coord": {"lon": 72.126106, "lat": 34.003609}}, {"id": 344426, "name": "Akordat", "country": "ER", "coord": {"lon": 37.886669, "lat": 15.54861}}, {"id": 324577, "name": "Akoren", "country": "TR", "coord": {"lon": 32.370701, "lat": 37.453449}}, {"id": 1279094, "name": "Akot", "country": "IN", "coord": {"lon": 77.058609, "lat": 21.09639}}, {"id": 2473913, "name": "Akouda", "country": "TN", "coord": {"lon": 10.5653, "lat": 35.869099}}, {"id": 2293107, "name": "Akoupe", "country": "CI", "coord": {"lon": -3.90028, "lat": 6.39}}, {"id": 324531, "name": "Akpinar", "country": "TR", "coord": {"lon": 33.96484, "lat": 39.45005}}, {"id": 752389, "name": "Akp\u0131nar", "country": "TR", "coord": {"lon": 32.073261, "lat": 41.511799}}, {"id": 265420, "name": "Akraifnia", "country": "GR", "coord": {"lon": 23.216669, "lat": 38.450001}}, {"id": 3418653, "name": "Akranes", "country": "IS", "coord": {"lon": -22.0749, "lat": 64.321793}}, {"id": 265417, "name": "Akrata", "country": "GR", "coord": {"lon": 22.316669, "lat": 38.150002}}, {"id": 3163443, "name": "Akrehamn", "country": "NO", "coord": {"lon": 5.18333, "lat": 59.26667}}, {"id": 736944, "name": "Akrini", "country": "GR", "coord": {"lon": 21.9, "lat": 40.433331}}, {"id": 733768, "name": "Akrolimni", "country": "GR", "coord": {"lon": 22.263889, "lat": 40.679169}}, {"id": 4267427, "name": "Akron", "country": "US", "coord": {"lon": -97.015038, "lat": 37.351688}}, {"id": 5145476, "name": "Akron", "country": "US", "coord": {"lon": -81.519012, "lat": 41.08144}}, {"id": 4846499, "name": "Akron", "country": "US", "coord": {"lon": -96.559479, "lat": 42.82888}}, {"id": 4917517, "name": "Akron", "country": "US", "coord": {"lon": -86.028053, "lat": 41.03838}}, {"id": 5106825, "name": "Akron", "country": "US", "coord": {"lon": -78.4953, "lat": 43.020889}}, {"id": 5177922, "name": "Akron", "country": "US", "coord": {"lon": -76.202171, "lat": 40.156761}}, {"id": 5574199, "name": "Akron", "country": "US", "coord": {"lon": -103.214378, "lat": 40.160542}}, {"id": 2305027, "name": "Akropong", "country": "GH", "coord": {"lon": -0.08542, "lat": 5.97462}}, {"id": 146839, "name": "Akrotiri", "country": "GB", "coord": {"lon": 32.958328, "lat": 34.604172}}, {"id": 583692, "name": "Aksakovo", "country": "RU", "coord": {"lon": 54.150002, "lat": 54.033329}}, {"id": 583688, "name": "Aksakovo", "country": "RU", "coord": {"lon": 42.450001, "lat": 56.066666}}, {"id": 733716, "name": "Aksakovo", "country": "BG", "coord": {"lon": 27.816669, "lat": 43.25}}, {"id": 443185, "name": "Aksaray", "country": "TR", "coord": {"lon": 33.833328, "lat": 38.5}}, {"id": 324496, "name": "Aksaray", "country": "TR", "coord": {"lon": 34.025372, "lat": 38.372551}}, {"id": 583683, "name": "Aksarayskiy", "country": "RU", "coord": {"lon": 48.011879, "lat": 46.792439}}, {"id": 1512019, "name": "Aksarka", "country": "RU", "coord": {"lon": 67.797501, "lat": 66.560562}}, {"id": 583674, "name": "Aksay", "country": "RU", "coord": {"lon": 46.444969, "lat": 43.37254}}, {"id": 610720, "name": "Aksay", "country": "KZ", "coord": {"lon": 52.433334, "lat": 50.683334}}, {"id": 583673, "name": "Aksay", "country": "RU", "coord": {"lon": 39.869999, "lat": 47.259998}}, {"id": 7626359, "name": "Aksdal", "country": "NO", "coord": {"lon": 5.44553, "lat": 59.42408}}, {"id": 324490, "name": "Aksehir", "country": "TR", "coord": {"lon": 31.416389, "lat": 38.357498}}, {"id": 324486, "name": "Akseki", "country": "TR", "coord": {"lon": 31.790001, "lat": 37.048611}}, {"id": 583664, "name": "Aksel", "country": "RU", "coord": {"lon": 43.419769, "lat": 54.598309}}, {"id": 1539964, "name": "Aksengir", "country": "KZ", "coord": {"lon": 76.826111, "lat": 43.353333}}, {"id": 1539966, "name": "Aksengir", "country": "KZ", "coord": {"lon": 76.760002, "lat": 43.359165}}, {"id": 2028028, "name": "Aksha", "country": "RU", "coord": {"lon": 113.286667, "lat": 50.281391}}, {"id": 583591, "name": "Aksin\u2019ino", "country": "RU", "coord": {"lon": 36.98, "lat": 55.73}}, {"id": 1529660, "name": "Aksu", "country": "CN", "coord": {"lon": 80.264442, "lat": 41.123058}}, {"id": 1525462, "name": "Aksu", "country": "KZ", "coord": {"lon": 69.833328, "lat": 42.416672}}, {"id": 323004, "name": "Aksu", "country": "TR", "coord": {"lon": 36.916672, "lat": 37.533329}}, {"id": 324470, "name": "Aksu", "country": "TR", "coord": {"lon": 31.07111, "lat": 37.798889}}, {"id": 752359, "name": "Aksu", "country": "TR", "coord": {"lon": 38.035229, "lat": 40.089481}}, {"id": 856938, "name": "Aksuat", "country": "KZ", "coord": {"lon": 48.94278, "lat": 49.605831}}, {"id": 1526648, "name": "Aksuat", "country": "KZ", "coord": {"lon": 83.699997, "lat": 48.716671}}, {"id": 344420, "name": "Aksum", "country": "ET", "coord": {"lon": 38.724442, "lat": 14.12448}}, {"id": 583638, "name": "Aks\u00ebnovo", "country": "RU", "coord": {"lon": 38.240002, "lat": 55.669998}}, {"id": 583635, "name": "Aks\u00ebnovo", "country": "RU", "coord": {"lon": 38.43, "lat": 56.110001}}, {"id": 7601517, "name": "Aks\u00ebnovo", "country": "RU", "coord": {"lon": 36.226002, "lat": 56.041901}}, {"id": 583578, "name": "Aktanysh", "country": "RU", "coord": {"lon": 54.08292, "lat": 55.721561}}, {"id": 583576, "name": "Aktanyshskiy Rayon", "country": "RU", "coord": {"lon": 53.833328, "lat": 55.75}}, {"id": 1511997, "name": "Aktash", "country": "RU", "coord": {"lon": 87.73333, "lat": 50.299999}}, {"id": 610612, "name": "Aktau", "country": "KZ", "coord": {"lon": 51.200001, "lat": 43.650002}}, {"id": 1526601, "name": "Aktau", "country": "KZ", "coord": {"lon": 72.833328, "lat": 48.033329}}, {"id": 1514635, "name": "Aktepa", "country": "UZ", "coord": {"lon": 69.207779, "lat": 41.305}}, {"id": 1526586, "name": "Aktobe", "country": "KZ", "coord": {"lon": 70.400002, "lat": 43.466671}}, {"id": 1526573, "name": "Aktogay", "country": "KZ", "coord": {"lon": 75.300003, "lat": 48.166672}}, {"id": 624199, "name": "Aktsyabrski", "country": "BY", "coord": {"lon": 28.8801, "lat": 52.644001}}, {"id": 7595832, "name": "Aktuba", "country": "RU", "coord": {"lon": 52.775299, "lat": 54.814999}}, {"id": 610688, "name": "Aktyubinskaya Oblast\u2019", "country": "KZ", "coord": {"lon": 58, "lat": 48}}, {"id": 583548, "name": "Aktyubinskiy", "country": "RU", "coord": {"lon": 52.805592, "lat": 54.813721}}, {"id": 2350886, "name": "Aku", "country": "NG", "coord": {"lon": 7.3167, "lat": 6.7081}}, {"id": 6324804, "name": "Akua", "country": "ES", "coord": {"lon": -2.24449, "lat": 43.23241}}, {"id": 1865404, "name": "Akuchi", "country": "JP", "coord": {"lon": 133.633331, "lat": 35.01667}}, {"id": 874469, "name": "Akui", "country": "GE", "coord": {"lon": 40.829166, "lat": 43.100834}}, {"id": 583540, "name": "Akulino", "country": "RU", "coord": {"lon": 37.73, "lat": 55.299999}}, {"id": 5882994, "name": "Akulivik", "country": "CA", "coord": {"lon": -78.199348, "lat": 60.80056}}, {"id": 583523, "name": "Akulovo", "country": "RU", "coord": {"lon": 36.68, "lat": 55.509998}}, {"id": 583526, "name": "Akulovo", "country": "RU", "coord": {"lon": 37.308895, "lat": 54.965263}}, {"id": 583513, "name": "Akulovo", "country": "RU", "coord": {"lon": 37.799999, "lat": 56}}, {"id": 3533116, "name": "Akumal", "country": "MX", "coord": {"lon": -87.314438, "lat": 20.396931}}, {"id": 1865401, "name": "Akune", "country": "JP", "coord": {"lon": 130.199997, "lat": 32.01667}}, {"id": 616981, "name": "Akunk", "country": "AM", "coord": {"lon": 44.684811, "lat": 40.268829}}, {"id": 616982, "name": "Akunk", "country": "AM", "coord": {"lon": 45.725681, "lat": 40.158859}}, {"id": 5857052, "name": "Akupu", "country": "US", "coord": {"lon": -158.103058, "lat": 21.394171}}, {"id": 2350841, "name": "Akure", "country": "NG", "coord": {"lon": 5.19312, "lat": 7.25256}}, {"id": 2633274, "name": "Akureyri", "country": "IS", "coord": {"lon": -18.087799, "lat": 65.683533}}, {"id": 583512, "name": "Akusha", "country": "RU", "coord": {"lon": 47.341141, "lat": 42.268848}}, {"id": 5879048, "name": "Akutan", "country": "US", "coord": {"lon": -165.773056, "lat": 54.135559}}, {"id": 2235748, "name": "Akwa", "country": "CM", "coord": {"lon": 9.7, "lat": 4.05}}, {"id": 2350813, "name": "Akwa Ibom State", "country": "NG", "coord": {"lon": 7.83333, "lat": 5}}, {"id": 2350806, "name": "Akwanga", "country": "NG", "coord": {"lon": 8.38333, "lat": 8.91667}}, {"id": 2304931, "name": "Akwatia", "country": "GH", "coord": {"lon": -0.80876, "lat": 6.04024}}, {"id": 2304928, "name": "Akwechi", "country": "GH", "coord": {"lon": -0.58333, "lat": 5.55}}, {"id": 752297, "name": "Akyaka", "country": "TR", "coord": {"lon": 43.626652, "lat": 40.73645}}, {"id": 752288, "name": "Akyazi", "country": "TR", "coord": {"lon": 30.622219, "lat": 40.685001}}, {"id": 752284, "name": "Akyurt", "country": "TR", "coord": {"lon": 33.08614, "lat": 40.13512}}, {"id": 1526522, "name": "Akzhal", "country": "KZ", "coord": {"lon": 75.584381, "lat": 49.69244}}, {"id": 3163410, "name": "Al", "country": "NO", "coord": {"lon": 8.56279, "lat": 60.628208}}, {"id": 6940822, "name": "Al  Hawtah", "country": "YE", "coord": {"lon": 44.881599, "lat": 13.0624}}, {"id": 74785, "name": "Al Abr", "country": "YE", "coord": {"lon": 47.23333, "lat": 16.133329}}, {"id": 89087, "name": "Al Abyar", "country": "LY", "coord": {"lon": 20.596531, "lat": 32.189999}}, {"id": 30777, "name": "Al Ahad", "country": "YE", "coord": {"lon": 43.64167, "lat": 14.25833}}, {"id": 361612, "name": "Al Alamayn", "country": "EG", "coord": {"lon": 28.955021, "lat": 30.83007}}, {"id": 2473876, "name": "Al Aliyah", "country": "TN", "coord": {"lon": 10.03478, "lat": 37.169102}}, {"id": 432887, "name": "Al Amal (Nimrah Tham\u0101niyah)", "country": "EG", "coord": {"lon": 30.603649, "lat": 28.1054}}, {"id": 99608, "name": "Al Amarah", "country": "IQ", "coord": {"lon": 47.139599, "lat": 31.840639}}, {"id": 7364546, "name": "Al Amud", "country": "YE", "coord": {"lon": 45.20676, "lat": 14.72103}}, {"id": 8056564, "name": "Al Am\u0101n", "country": "AE", "coord": {"lon": 54.423531, "lat": 24.432261}}, {"id": 70346, "name": "Al Anan", "country": "YE", "coord": {"lon": 44.312519, "lat": 16.72188}}, {"id": 174057, "name": "Al Annazah", "country": "SY", "coord": {"lon": 36.065708, "lat": 35.195019}}, {"id": 7364784, "name": "Al Aqabah", "country": "YE", "coord": {"lon": 44.786991, "lat": 14.27179}}, {"id": 79967, "name": "Al Aqir", "country": "YE", "coord": {"lon": 45.91156, "lat": 14.56816}}, {"id": 7931042, "name": "Al Aqta", "country": "YE", "coord": {"lon": 45.351231, "lat": 14.66217}}, {"id": 88834, "name": "Al Aquriyah", "country": "LY", "coord": {"lon": 20.579109, "lat": 32.534142}}, {"id": 284904, "name": "Al Araqa", "country": "PS", "coord": {"lon": 35.200272, "lat": 32.47057}}, {"id": 361546, "name": "Al Arish", "country": "EG", "coord": {"lon": 33.798439, "lat": 31.13159}}, {"id": 110031, "name": "Al Artawiyah", "country": "SA", "coord": {"lon": 45.344372, "lat": 26.50526}}, {"id": 174036, "name": "Al Asharah", "country": "SY", "coord": {"lon": 40.559502, "lat": 34.923191}}, {"id": 407024, "name": "Al Ashshah", "country": "YE", "coord": {"lon": 43.854759, "lat": 16.256519}}, {"id": 285113, "name": "Al Attarah", "country": "PS", "coord": {"lon": 35.163731, "lat": 32.32571}}, {"id": 77636, "name": "Al Awabil", "country": "YE", "coord": {"lon": 44.864311, "lat": 13.83754}}, {"id": 285112, "name": "Al Awja", "country": "PS", "coord": {"lon": 35.46756, "lat": 31.950689}}, {"id": 110107, "name": "Al Awjam", "country": "SA", "coord": {"lon": 49.94331, "lat": 26.56324}}, {"id": 292913, "name": "Al Ayn", "country": "AE", "coord": {"lon": 55.760559, "lat": 24.191669}}, {"id": 7354697, "name": "Al Ayn", "country": "YE", "coord": {"lon": 44.092079, "lat": 13.33005}}, {"id": 361495, "name": "Al Ayyat", "country": "EG", "coord": {"lon": 31.2575, "lat": 29.61972}}, {"id": 285111, "name": "Al Ayzariyah", "country": "PS", "coord": {"lon": 35.269161, "lat": 31.770781}}, {"id": 99548, "name": "Al Aziziyah", "country": "IQ", "coord": {"lon": 45.06163, "lat": 32.90583}}, {"id": 2220139, "name": "Al Aziziyah", "country": "LY", "coord": {"lon": 13.0175, "lat": 32.53194}}, {"id": 285839, "name": "Al A\u1e29mad\u012b", "country": "KW", "coord": {"lon": 48.083889, "lat": 29.076941}}, {"id": 174018, "name": "Al Bab", "country": "SY", "coord": {"lon": 37.517879, "lat": 36.369942}}, {"id": 361478, "name": "Al Badari", "country": "EG", "coord": {"lon": 31.415541, "lat": 26.992571}}, {"id": 7895641, "name": "Al Badhan", "country": "PS", "coord": {"lon": 35.33247, "lat": 32.258572}}, {"id": 109953, "name": "Al Bahah", "country": "SA", "coord": {"lon": 41.46767, "lat": 20.01288}}, {"id": 361457, "name": "Al Bajur", "country": "EG", "coord": {"lon": 31.03681, "lat": 30.43026}}, {"id": 361435, "name": "Al Balyana", "country": "EG", "coord": {"lon": 32.003471, "lat": 26.23568}}, {"id": 2473826, "name": "Al Baqalitah", "country": "TN", "coord": {"lon": 10.99466, "lat": 35.61739}}, {"id": 99536, "name": "Al Barjis\u012byah", "country": "IQ", "coord": {"lon": 47.566669, "lat": 30.35}}, {"id": 99532, "name": "Al Basrah", "country": "IQ", "coord": {"lon": 47.788849, "lat": 30.53488}}, {"id": 388349, "name": "Al Basrat al Qadimah", "country": "IQ", "coord": {"lon": 47.814911, "lat": 30.49721}}, {"id": 79845, "name": "Al Batinah", "country": "YE", "coord": {"lon": 48.433331, "lat": 15.48333}}, {"id": 109915, "name": "Al Battaliyah", "country": "SA", "coord": {"lon": 49.633331, "lat": 25.433331}}, {"id": 361394, "name": "Al Bawiti", "country": "EG", "coord": {"lon": 28.86591, "lat": 28.34919}}, {"id": 79836, "name": "Al Bayda", "country": "YE", "coord": {"lon": 45.57272, "lat": 13.98523}}, {"id": 89055, "name": "Al Bayda", "country": "LY", "coord": {"lon": 21.75506, "lat": 32.762718}}, {"id": 6940677, "name": "Al Bayda City", "country": "YE", "coord": {"lon": 45.556599, "lat": 13.9849}}, {"id": 109923, "name": "Al Ba\u015far", "country": "SA", "coord": {"lon": 43.869732, "lat": 26.285299}}, {"id": 285822, "name": "Al Bida\u2018", "country": "KW", "coord": {"lon": 48.086941, "lat": 29.3025}}, {"id": 77803, "name": "Al Bilad", "country": "YE", "coord": {"lon": 49.291672, "lat": 16.13806}}, {"id": 285108, "name": "Al Birah", "country": "PS", "coord": {"lon": 35.220612, "lat": 31.907209}}, {"id": 109878, "name": "Al Bukayriyah", "country": "SA", "coord": {"lon": 43.659328, "lat": 26.14422}}, {"id": 250738, "name": "Al Bunayyat ash Shamaliyah", "country": "JO", "coord": {"lon": 35.893139, "lat": 31.89299}}, {"id": 7890844, "name": "Al Buqah", "country": "PS", "coord": {"lon": 35.142792, "lat": 31.54199}}, {"id": 281161, "name": "Al Burayj", "country": "PS", "coord": {"lon": 34.403061, "lat": 31.43944}}, {"id": 289317, "name": "Al Buraymi", "country": "OM", "coord": {"lon": 55.793121, "lat": 24.250879}}, {"id": 2215210, "name": "Al Burayqah", "country": "LY", "coord": {"lon": 19.57386, "lat": 30.40624}}, {"id": 283176, "name": "Al Burj", "country": "PS", "coord": {"lon": 34.916969, "lat": 31.43609}}, {"id": 173927, "name": "Al Busayrah", "country": "SY", "coord": {"lon": 40.42609, "lat": 35.15538}}, {"id": 285811, "name": "Al Fahahil", "country": "KW", "coord": {"lon": 48.13028, "lat": 29.0825}}, {"id": 99454, "name": "Al Fallujah", "country": "IQ", "coord": {"lon": 43.77951, "lat": 33.353802}}, {"id": 6769334, "name": "Al Fal\u0101\u1e29\u012byah", "country": "IQ", "coord": {"lon": 45.841068, "lat": 32.508221}}, {"id": 285103, "name": "Al Fandaqumiyah", "country": "PS", "coord": {"lon": 35.203289, "lat": 32.320599}}, {"id": 285815, "name": "Al Farwaniyah", "country": "KW", "coord": {"lon": 47.958611, "lat": 29.2775}}, {"id": 7744976, "name": "Al Far\u0101firah", "country": "SY", "coord": {"lon": 37.1595, "lat": 36.202221}}, {"id": 285102, "name": "Al Fasayil", "country": "PS", "coord": {"lon": 35.443508, "lat": 32.025089}}, {"id": 361329, "name": "Al Fashn", "country": "EG", "coord": {"lon": 30.899481, "lat": 28.82431}}, {"id": 99446, "name": "Al Faw", "country": "IQ", "coord": {"lon": 48.474121, "lat": 29.977631}}, {"id": 361320, "name": "Al Fayyum", "country": "EG", "coord": {"lon": 30.841801, "lat": 29.30995}}, {"id": 400685, "name": "Al Fay\u015fal\u012byah", "country": "SA", "coord": {"lon": 46.776981, "lat": 24.64348}}, {"id": 285812, "name": "Al Fintas", "country": "KW", "coord": {"lon": 48.121109, "lat": 29.173889}}, {"id": 2473788, "name": "Al Firnanah", "country": "TN", "coord": {"lon": 8.69602, "lat": 36.655472}}, {"id": 79737, "name": "Al Fujayr", "country": "YE", "coord": {"lon": 48.799999, "lat": 15.96667}}, {"id": 292879, "name": "Al Fujayrah", "country": "AE", "coord": {"lon": 56.25, "lat": 25.133329}}, {"id": 292878, "name": "Al Fujayrah", "country": "AE", "coord": {"lon": 56.341412, "lat": 25.116409}}, {"id": 281160, "name": "Al Fukhkhari", "country": "PS", "coord": {"lon": 34.330608, "lat": 31.29278}}, {"id": 379535, "name": "Al Fulah", "country": "SD", "coord": {"lon": 28.357861, "lat": 11.73292}}, {"id": 285810, "name": "Al Funaytis", "country": "KW", "coord": {"lon": 48.101669, "lat": 29.225281}}, {"id": 2220082, "name": "Al Fuqah\u0101\u2019", "country": "LY", "coord": {"lon": 16.38492, "lat": 27.833731}}, {"id": 397513, "name": "Al Fuwayliq", "country": "SA", "coord": {"lon": 43.253399, "lat": 26.44322}}, {"id": 392343, "name": "Al F\u0101\u1e11il\u012b", "country": "SA", "coord": {"lon": 49.174511, "lat": 26.98016}}, {"id": 361291, "name": "Al Ghardaqah", "country": "EG", "coord": {"lon": 33.812908, "lat": 27.25738}}, {"id": 407049, "name": "Al Ghayl", "country": "YE", "coord": {"lon": 44.68005, "lat": 16.10774}}, {"id": 30543, "name": "Al Ghaylah", "country": "YE", "coord": {"lon": 45.583328, "lat": 14.59583}}, {"id": 79700, "name": "Al Ghayzah", "country": "YE", "coord": {"lon": 52.176048, "lat": 16.20787}}, {"id": 109771, "name": "Al Gha\u0163gha\u0163", "country": "SA", "coord": {"lon": 46.249908, "lat": 24.47649}}, {"id": 173869, "name": "Al Ghizlaniyah", "country": "SY", "coord": {"lon": 36.456169, "lat": 33.397099}}, {"id": 6691135, "name": "Al Ghuwair", "country": "AE", "coord": {"lon": 55.391911, "lat": 25.35985}}, {"id": 289993, "name": "Al Ghuwayriyah", "country": "QA", "coord": {"lon": 51.245281, "lat": 25.82972}}, {"id": 75508, "name": "Al Habilayn", "country": "YE", "coord": {"lon": 44.850761, "lat": 13.52002}}, {"id": 410084, "name": "Al Hada", "country": "SA", "coord": {"lon": 40.286942, "lat": 21.367531}}, {"id": 290363, "name": "Al Hadd", "country": "BH", "coord": {"lon": 50.654171, "lat": 26.24556}}, {"id": 401019, "name": "Al Hadiyah", "country": "YE", "coord": {"lon": 43.57045, "lat": 14.52638}}, {"id": 173856, "name": "Al Haffah", "country": "SY", "coord": {"lon": 36.03006, "lat": 35.59824}}, {"id": 77594, "name": "Al Hajab", "country": "YE", "coord": {"lon": 45.529041, "lat": 14.85192}}, {"id": 7792745, "name": "Al Hamdi", "country": "YE", "coord": {"lon": 48.779652, "lat": 15.94727}}, {"id": 2473744, "name": "Al Hammamat", "country": "TN", "coord": {"lon": 10.61667, "lat": 36.400002}}, {"id": 250697, "name": "Al Hamra", "country": "JO", "coord": {"lon": 36.151211, "lat": 32.440609}}, {"id": 361213, "name": "Al Hamul", "country": "EG", "coord": {"lon": 31.147659, "lat": 31.31146}}, {"id": 7341563, "name": "Al Harajah", "country": "YE", "coord": {"lon": 44.665352, "lat": 15.48818}}, {"id": 173819, "name": "Al Harak", "country": "SY", "coord": {"lon": 36.30994, "lat": 32.749321}}, {"id": 79531, "name": "Al Harf", "country": "YE", "coord": {"lon": 44.094212, "lat": 16.363951}}, {"id": 99369, "name": "Al Harithah", "country": "IQ", "coord": {"lon": 47.720829, "lat": 30.718611}}, {"id": 379427, "name": "Al Hasaheisa", "country": "SD", "coord": {"lon": 33.298359, "lat": 14.75264}}, {"id": 173811, "name": "Al Hasakah", "country": "SY", "coord": {"lon": 40.747719, "lat": 36.502369}}, {"id": 285091, "name": "Al Hashimiyah", "country": "PS", "coord": {"lon": 35.219379, "lat": 32.463921}}, {"id": 406635, "name": "Al Hashwah", "country": "YE", "coord": {"lon": 44.276218, "lat": 16.90641}}, {"id": 6940612, "name": "Al Hawak", "country": "YE", "coord": {"lon": 42.997799, "lat": 14.7601}}, {"id": 361179, "name": "Al Hawamidiyah", "country": "EG", "coord": {"lon": 31.25, "lat": 29.9}}, {"id": 379416, "name": "Al Hawatah", "country": "SD", "coord": {"lon": 34.633331, "lat": 13.41667}}, {"id": 404914, "name": "Al Hayfah", "country": "YE", "coord": {"lon": 44.237881, "lat": 15.73494}}, {"id": 99350, "name": "Al Hayy", "country": "IQ", "coord": {"lon": 46.043301, "lat": 32.173489}}, {"id": 79455, "name": "Al Hazm", "country": "YE", "coord": {"lon": 44.77692, "lat": 16.164061}}, {"id": 7931041, "name": "Al Hazm", "country": "YE", "coord": {"lon": 45.609619, "lat": 14.68919}}, {"id": 2565327, "name": "Al Ha\u00efmriyine", "country": "MA", "coord": {"lon": -6.01, "lat": 34.169998}}, {"id": 7345723, "name": "Al Hijrah", "country": "YE", "coord": {"lon": 43.38718, "lat": 17.29788}}, {"id": 7891142, "name": "Al Hilah", "country": "PS", "coord": {"lon": 35.107422, "lat": 31.474541}}, {"id": 379406, "name": "Al Hilaliyya", "country": "SD", "coord": {"lon": 33.234001, "lat": 14.9398}}, {"id": 99347, "name": "Al Hillah", "country": "IQ", "coord": {"lon": 44.435261, "lat": 32.480141}}, {"id": 99344, "name": "Al Hindiyah", "country": "IQ", "coord": {"lon": 44.2225, "lat": 32.543331}}, {"id": 2558545, "name": "Al Hoceima", "country": "MA", "coord": {"lon": -3.93092, "lat": 35.243328}}, {"id": 79415, "name": "Al Hudaydah", "country": "YE", "coord": {"lon": 42.954521, "lat": 14.79781}}, {"id": 109571, "name": "Al Hufuf", "country": "SA", "coord": {"lon": 49.565319, "lat": 25.364571}}, {"id": 406884, "name": "Al Humaydat", "country": "YE", "coord": {"lon": 44.430279, "lat": 16.485661}}, {"id": 79384, "name": "Al Husayn", "country": "YE", "coord": {"lon": 44.76886, "lat": 13.79199}}, {"id": 361103, "name": "Al Ibrahimiyah", "country": "EG", "coord": {"lon": 31.56299, "lat": 30.718769}}, {"id": 99250, "name": "Al Im\u0101m", "country": "IQ", "coord": {"lon": 44.583328, "lat": 32.666672}}, {"id": 284330, "name": "Al Ittihad", "country": "PS", "coord": {"lon": 35.115952, "lat": 31.975519}}, {"id": 30789, "name": "Al Jabin", "country": "YE", "coord": {"lon": 43.599041, "lat": 14.70401}}, {"id": 2219960, "name": "Al Jadid", "country": "LY", "coord": {"lon": 14.4, "lat": 27.049999}}, {"id": 250649, "name": "Al Jafr", "country": "JO", "coord": {"lon": 36.212151, "lat": 30.294559}}, {"id": 109502, "name": "Al Jafr", "country": "SA", "coord": {"lon": 49.72361, "lat": 25.37694}}, {"id": 88967, "name": "Al Jaghbub", "country": "LY", "coord": {"lon": 24.51676, "lat": 29.74262}}, {"id": 285799, "name": "Al Jahra", "country": "KW", "coord": {"lon": 47.658058, "lat": 29.3375}}, {"id": 283547, "name": "Al Jalamah", "country": "PS", "coord": {"lon": 35.313171, "lat": 32.508209}}, {"id": 361029, "name": "Al Jamaliyah", "country": "EG", "coord": {"lon": 31.865179, "lat": 31.180861}}, {"id": 407094, "name": "Al Jamimah", "country": "YE", "coord": {"lon": 43.59647, "lat": 16.01787}}, {"id": 285071, "name": "Al Janiyah", "country": "PS", "coord": {"lon": 35.121422, "lat": 31.93848}}, {"id": 361024, "name": "Al Jan\u0101dilah", "country": "EG", "coord": {"lon": 31.08333, "lat": 29.066669}}, {"id": 109481, "name": "Al Jaradiyah", "country": "SA", "coord": {"lon": 42.912399, "lat": 16.57946}}, {"id": 79284, "name": "Al Jarrahi", "country": "YE", "coord": {"lon": 43.388451, "lat": 14.13254}}, {"id": 411804, "name": "Al Jasrah", "country": "QA", "coord": {"lon": 51.534168, "lat": 25.28611}}, {"id": 173711, "name": "Al Jawadiyah", "country": "SY", "coord": {"lon": 41.82021, "lat": 36.986408}}, {"id": 88962, "name": "Al Jawf", "country": "LY", "coord": {"lon": 23.29093, "lat": 24.1989}}, {"id": 72855, "name": "Al Jawl", "country": "YE", "coord": {"lon": 48.280659, "lat": 14.45625}}, {"id": 408648, "name": "Al Jazirah State", "country": "SD", "coord": {"lon": 33.349998, "lat": 14.6}}, {"id": 292836, "name": "Al Ja\u1e29r", "country": "AE", "coord": {"lon": 55.583328, "lat": 24.25}}, {"id": 285070, "name": "Al Jib", "country": "PS", "coord": {"lon": 35.184509, "lat": 31.85203}}, {"id": 289212, "name": "Al Jib\u0101l", "country": "OM", "coord": {"lon": 56.01619, "lat": 22.14431}}, {"id": 7898046, "name": "Al Jiftlik", "country": "PS", "coord": {"lon": 35.487381, "lat": 32.140701}}, {"id": 360995, "name": "Al Jizah", "country": "EG", "coord": {"lon": 31.21093, "lat": 30.00808}}, {"id": 250639, "name": "Al Jizah", "country": "JO", "coord": {"lon": 35.957211, "lat": 31.69968}}, {"id": 250637, "name": "Al Jubayhah", "country": "JO", "coord": {"lon": 35.864578, "lat": 32.02581}}, {"id": 109435, "name": "Al Jubayl", "country": "SA", "coord": {"lon": 49.65826, "lat": 27.011221}}, {"id": 355005, "name": "Al Jubayl", "country": "EG", "coord": {"lon": 33.631371, "lat": 28.1984}}, {"id": 109436, "name": "Al Jubayl", "country": "SA", "coord": {"lon": 49.650002, "lat": 25.4}}, {"id": 285069, "name": "Al Judayrah", "country": "PS", "coord": {"lon": 35.19706, "lat": 31.855869}}, {"id": 283444, "name": "Al Judayyidah", "country": "PS", "coord": {"lon": 35.301079, "lat": 32.335411}}, {"id": 401000, "name": "Al Jumah", "country": "YE", "coord": {"lon": 43.96489, "lat": 14.73779}}, {"id": 289975, "name": "Al Jumayliyah", "country": "QA", "coord": {"lon": 51.09222, "lat": 25.60944}}, {"id": 109417, "name": "Al Jumum", "country": "SA", "coord": {"lon": 39.698059, "lat": 21.61694}}, {"id": 379302, "name": "Al Junaynah Fort", "country": "SD", "coord": {"lon": 22.466669, "lat": 13.48333}}, {"id": 79219, "name": "Al Jurbah", "country": "YE", "coord": {"lon": 45.158939, "lat": 13.7915}}, {"id": 250623, "name": "Al Karamah", "country": "JO", "coord": {"lon": 35.57917, "lat": 31.952221}}, {"id": 2473628, "name": "Al Karib", "country": "TN", "coord": {"lon": 9.13613, "lat": 36.328018}}, {"id": 2473626, "name": "Al Karm", "country": "TN", "coord": {"lon": 10.31667, "lat": 36.833328}}, {"id": 7891511, "name": "Al Karmil", "country": "PS", "coord": {"lon": 35.132778, "lat": 31.42301}}, {"id": 379272, "name": "Al Kawa", "country": "SD", "coord": {"lon": 32.499599, "lat": 13.7463}}, {"id": 289199, "name": "Al Khaburah", "country": "OM", "coord": {"lon": 57.098381, "lat": 23.98864}}, {"id": 285061, "name": "Al Khadir", "country": "PS", "coord": {"lon": 35.166851, "lat": 31.69405}}, {"id": 109380, "name": "Al Khafji", "country": "SA", "coord": {"lon": 48.491322, "lat": 28.439051}}, {"id": 402470, "name": "Al Khamis", "country": "YE", "coord": {"lon": 43.511219, "lat": 15.18533}}, {"id": 7890531, "name": "Al Khaniq", "country": "YE", "coord": {"lon": 44.18158, "lat": 15.50253}}, {"id": 360928, "name": "Al Khankah", "country": "EG", "coord": {"lon": 31.36812, "lat": 30.21035}}, {"id": 7346660, "name": "Al Kharab", "country": "YE", "coord": {"lon": 43.338879, "lat": 16.991289}}, {"id": 360923, "name": "Al Kharijah", "country": "EG", "coord": {"lon": 30.54635, "lat": 25.451401}}, {"id": 109353, "name": "Al Kharj", "country": "SA", "coord": {"lon": 47.334599, "lat": 24.15502}}, {"id": 79133, "name": "Al Khasamah", "country": "YE", "coord": {"lon": 44.102188, "lat": 15.32345}}, {"id": 79131, "name": "Al Khawkhah", "country": "YE", "coord": {"lon": 43.249298, "lat": 13.8071}}, {"id": 289962, "name": "Al Khawr", "country": "QA", "coord": {"lon": 51.505829, "lat": 25.683889}}, {"id": 406845, "name": "Al Khirab", "country": "YE", "coord": {"lon": 44.290482, "lat": 16.554399}}, {"id": 109323, "name": "Al Khubar", "country": "SA", "coord": {"lon": 50.208328, "lat": 26.27944}}, {"id": 2219905, "name": "Al Khums", "country": "LY", "coord": {"lon": 14.26191, "lat": 32.648609}}, {"id": 173601, "name": "Al Khushniyah", "country": "SY", "coord": {"lon": 35.810841, "lat": 32.999409}}, {"id": 448600, "name": "Al Kh\u0101lid\u012byah", "country": "SA", "coord": {"lon": 46.759441, "lat": 24.622219}}, {"id": 379261, "name": "Al Kiremit al Arakiyyin", "country": "SD", "coord": {"lon": 32.943699, "lat": 14.3476}}, {"id": 173598, "name": "Al Kiswah", "country": "SY", "coord": {"lon": 36.242779, "lat": 33.357201}}, {"id": 250603, "name": "Al Kittah", "country": "JO", "coord": {"lon": 35.841141, "lat": 32.276852}}, {"id": 379234, "name": "Al Kodab", "country": "SD", "coord": {"lon": 32.604172, "lat": 16.23333}}, {"id": 88930, "name": "Al Kufrah", "country": "LY", "coord": {"lon": 23.269621, "lat": 24.16667}}, {"id": 99131, "name": "Al Kut", "country": "IQ", "coord": {"lon": 45.819019, "lat": 32.514702}}, {"id": 99135, "name": "Al K\u016bfah", "country": "IQ", "coord": {"lon": 44.403332, "lat": 32.034721}}, {"id": 379198, "name": "Al Lagowa", "country": "SD", "coord": {"lon": 29.133329, "lat": 11.4}}, {"id": 289174, "name": "Al Liwa", "country": "OM", "coord": {"lon": 56.565559, "lat": 24.53611}}, {"id": 285049, "name": "Al Lubban al Gharbi", "country": "PS", "coord": {"lon": 35.03928, "lat": 32.035042}}, {"id": 282997, "name": "Al Lubban ash Sharqiyah", "country": "PS", "coord": {"lon": 35.240299, "lat": 32.07011}}, {"id": 79050, "name": "Al Luhayyah", "country": "YE", "coord": {"lon": 42.690929, "lat": 15.70309}}, {"id": 73422, "name": "Al Maalla", "country": "YE", "coord": {"lon": 45.002441, "lat": 12.78987}}, {"id": 407014, "name": "Al Madan", "country": "YE", "coord": {"lon": 43.643829, "lat": 16.224131}}, {"id": 73365, "name": "Al Madid", "country": "YE", "coord": {"lon": 44.47337, "lat": 15.64453}}, {"id": 250582, "name": "Al Mafraq", "country": "JO", "coord": {"lon": 36.208038, "lat": 32.342892}}, {"id": 73325, "name": "Al Mafud", "country": "YE", "coord": {"lon": 47.252171, "lat": 15.34264}}, {"id": 403270, "name": "Al Maghrabah", "country": "YE", "coord": {"lon": 43.666672, "lat": 15.87722}}, {"id": 79006, "name": "Al Mahabishah", "country": "YE", "coord": {"lon": 43.435871, "lat": 15.94758}}, {"id": 360829, "name": "Al Mahallah al Kubra", "country": "EG", "coord": {"lon": 31.164989, "lat": 30.974501}}, {"id": 285782, "name": "Al Mahbulah", "country": "KW", "coord": {"lon": 48.13028, "lat": 29.145}}, {"id": 6940648, "name": "Al Mahfad", "country": "YE", "coord": {"lon": 46.756001, "lat": 13.9705}}, {"id": 78991, "name": "Al Mahfid", "country": "YE", "coord": {"lon": 46.91328, "lat": 14.05847}}, {"id": 406737, "name": "Al Mahjal", "country": "YE", "coord": {"lon": 44.847691, "lat": 16.711691}}, {"id": 173550, "name": "Al Mahjar", "country": "SY", "coord": {"lon": 35.641319, "lat": 32.903999}}, {"id": 78977, "name": "Al Mahwit", "country": "YE", "coord": {"lon": 43.544811, "lat": 15.47007}}, {"id": 99097, "name": "Al Majar al Kabir", "country": "IQ", "coord": {"lon": 47.175289, "lat": 31.572321}}, {"id": 399518, "name": "Al Majaridah", "country": "SA", "coord": {"lon": 41.91111, "lat": 19.12361}}, {"id": 283159, "name": "Al Majd", "country": "PS", "coord": {"lon": 34.95108, "lat": 31.48056}}, {"id": 78966, "name": "Al Makdash", "country": "YE", "coord": {"lon": 46.650002, "lat": 14.18333}}, {"id": 78964, "name": "Al Makhadir", "country": "YE", "coord": {"lon": 44.19796, "lat": 14.12224}}, {"id": 73125, "name": "Al Malahit", "country": "YE", "coord": {"lon": 43.275822, "lat": 16.76848}}, {"id": 173530, "name": "Al Malikiyah", "country": "SY", "coord": {"lon": 42.140461, "lat": 37.178322}}, {"id": 379149, "name": "Al Manaqil", "country": "SD", "coord": {"lon": 32.989101, "lat": 14.2459}}, {"id": 285778, "name": "Al Manqaf", "country": "KW", "coord": {"lon": 48.132778, "lat": 29.096109}}, {"id": 360773, "name": "Al Manshah", "country": "EG", "coord": {"lon": 31.803499, "lat": 26.47686}}, {"id": 360761, "name": "Al Mansurah", "country": "EG", "coord": {"lon": 31.38069, "lat": 31.036369}}, {"id": 78931, "name": "Al Mansurah", "country": "YE", "coord": {"lon": 44.981659, "lat": 12.86019}}, {"id": 78929, "name": "Al Mansuriyah", "country": "YE", "coord": {"lon": 43.299221, "lat": 14.6856}}, {"id": 360754, "name": "Al Manzilah", "country": "EG", "coord": {"lon": 31.937, "lat": 31.15815}}, {"id": 410366, "name": "Al Man\u0101kh", "country": "EG", "coord": {"lon": 32.27438, "lat": 31.26573}}, {"id": 78909, "name": "Al Marawiah", "country": "YE", "coord": {"lon": 43.153912, "lat": 14.83069}}, {"id": 88903, "name": "Al Marj", "country": "LY", "coord": {"lon": 20.831739, "lat": 32.48798}}, {"id": 109165, "name": "Al Markaz", "country": "SA", "coord": {"lon": 49.73333, "lat": 25.4}}, {"id": 2473540, "name": "Al Marsa", "country": "TN", "coord": {"lon": 10.32466, "lat": 36.878181}}, {"id": 379080, "name": "Al Masallamiyya", "country": "SD", "coord": {"lon": 33.337299, "lat": 14.5748}}, {"id": 2473537, "name": "Al Masdur", "country": "TN", "coord": {"lon": 10.72746, "lat": 35.68206}}, {"id": 7346082, "name": "Al Mashaf", "country": "YE", "coord": {"lon": 43.197811, "lat": 16.85836}}, {"id": 6940641, "name": "Al Mashannah", "country": "YE", "coord": {"lon": 44.169998, "lat": 13.9573}}, {"id": 6940701, "name": "Al Maslub", "country": "YE", "coord": {"lon": 44.5667, "lat": 16.0961}}, {"id": 407048, "name": "Al Maslub", "country": "YE", "coord": {"lon": 44.626129, "lat": 16.182711}}, {"id": 360716, "name": "Al Matariyah", "country": "EG", "coord": {"lon": 32.031078, "lat": 31.182871}}, {"id": 2473533, "name": "Al Matlin", "country": "TN", "coord": {"lon": 10.05, "lat": 37.245159}}, {"id": 407042, "name": "Al Matun", "country": "YE", "coord": {"lon": 44.584759, "lat": 16.230631}}, {"id": 78713, "name": "Al Maudah", "country": "YE", "coord": {"lon": 45.387321, "lat": 14.21055}}, {"id": 99071, "name": "Al Mawsil al Jadidah", "country": "IQ", "coord": {"lon": 43.097771, "lat": 36.334641}}, {"id": 408801, "name": "Al Mayfaah", "country": "YE", "coord": {"lon": 44.54866, "lat": 14.46392}}, {"id": 250540, "name": "Al Mazar", "country": "JO", "coord": {"lon": 35.69611, "lat": 31.065559}}, {"id": 285033, "name": "Al Mazraah ash Sharqiyah", "country": "PS", "coord": {"lon": 35.281521, "lat": 32.000179}}, {"id": 2473525, "name": "Al Mazzunah", "country": "TN", "coord": {"lon": 9.84193, "lat": 34.577579}}, {"id": 2473517, "name": "Al Metlaoui", "country": "TN", "coord": {"lon": 8.40158, "lat": 34.320808}}, {"id": 285032, "name": "Al Midyah", "country": "PS", "coord": {"lon": 35.005001, "lat": 31.935921}}, {"id": 413170, "name": "Al Miftah", "country": "YE", "coord": {"lon": 43.46381, "lat": 15.97431}}, {"id": 78823, "name": "Al Mighlaf", "country": "YE", "coord": {"lon": 43.18914, "lat": 15.2871}}, {"id": 379102, "name": "Al Mijlad", "country": "SD", "coord": {"lon": 27.73333, "lat": 11.03333}}, {"id": 109122, "name": "Al Mikhl\u0101f", "country": "SA", "coord": {"lon": 44.213501, "lat": 17.53957}}, {"id": 78814, "name": "Al Milah", "country": "YE", "coord": {"lon": 44.825562, "lat": 13.42611}}, {"id": 6940725, "name": "Al Mina", "country": "YE", "coord": {"lon": 42.909901, "lat": 14.8522}}, {"id": 109118, "name": "Al Mindak", "country": "SA", "coord": {"lon": 41.283371, "lat": 20.1588}}, {"id": 360686, "name": "Al Minya", "country": "EG", "coord": {"lon": 30.750299, "lat": 28.10988}}, {"id": 411735, "name": "Al Min\u0163aqah ad D\u0101khil\u012byah", "country": "OM", "coord": {"lon": 57.533329, "lat": 22.4}}, {"id": 411737, "name": "Al Min\u0163aqah al Wus\u0163\u00e1", "country": "OM", "coord": {"lon": 56.283329, "lat": 19.950001}}, {"id": 108241, "name": "Al Min\u0163aqah ash Sharq\u012byah", "country": "SA", "coord": {"lon": 51, "lat": 22.5}}, {"id": 411738, "name": "Al Min\u0163aqah ash Sharq\u012byah", "country": "OM", "coord": {"lon": 58.549999, "lat": 22}}, {"id": 99062, "name": "Al Miqdadiyah", "country": "IQ", "coord": {"lon": 44.936939, "lat": 33.978611}}, {"id": 99060, "name": "Al Mishkhab", "country": "IQ", "coord": {"lon": 44.49107, "lat": 31.804159}}, {"id": 78776, "name": "Al Misrakh", "country": "YE", "coord": {"lon": 44.020432, "lat": 13.46059}}, {"id": 109101, "name": "Al Mubarraz", "country": "SA", "coord": {"lon": 49.58083, "lat": 25.41}}, {"id": 411338, "name": "Al Mudawwarah", "country": "SA", "coord": {"lon": 39.962681, "lat": 21.271589}}, {"id": 285023, "name": "Al Mughayyir", "country": "PS", "coord": {"lon": 35.384762, "lat": 32.422279}}, {"id": 285024, "name": "Al Mughayyir", "country": "PS", "coord": {"lon": 35.347832, "lat": 32.019199}}, {"id": 6968063, "name": "Al Mughraqah", "country": "PS", "coord": {"lon": 34.412079, "lat": 31.46587}}, {"id": 290332, "name": "Al Muharraq", "country": "BH", "coord": {"lon": 50.611938, "lat": 26.257219}}, {"id": 7642566, "name": "Al Mujtahid", "country": "SY", "coord": {"lon": 36.297699, "lat": 33.500599}}, {"id": 78754, "name": "Al Mukalla", "country": "YE", "coord": {"lon": 49.124241, "lat": 14.54248}}, {"id": 6940756, "name": "Al Mukalla City", "country": "YE", "coord": {"lon": 49.192902, "lat": 14.5396}}, {"id": 109059, "name": "Al Munayzilah", "country": "SA", "coord": {"lon": 49.666672, "lat": 25.383329}}, {"id": 78742, "name": "Al Munirah", "country": "YE", "coord": {"lon": 42.929359, "lat": 15.32024}}, {"id": 389287, "name": "Al Muqa\u0163\u0163arah", "country": "AE", "coord": {"lon": 54.561932, "lat": 24.26762}}, {"id": 6968050, "name": "Al Musaddar", "country": "PS", "coord": {"lon": 34.378021, "lat": 31.410521}}, {"id": 72430, "name": "Al Musaymir", "country": "YE", "coord": {"lon": 44.61528, "lat": 13.44389}}, {"id": 99039, "name": "Al Musayyib", "country": "IQ", "coord": {"lon": 44.282509, "lat": 32.783321}}, {"id": 173414, "name": "Al Mushannaf", "country": "SY", "coord": {"lon": 36.774731, "lat": 32.739319}}, {"id": 109008, "name": "Al Mutayrifi", "country": "SA", "coord": {"lon": 49.557629, "lat": 25.47879}}, {"id": 409993, "name": "Al Muwayh", "country": "SA", "coord": {"lon": 41.758289, "lat": 22.433331}}, {"id": 166507, "name": "Al Muzayriah", "country": "SY", "coord": {"lon": 36.07003, "lat": 35.531799}}, {"id": 406072, "name": "Al Nashmah", "country": "YE", "coord": {"lon": 43.96833, "lat": 13.39028}}, {"id": 289142, "name": "Al Qabil", "country": "OM", "coord": {"lon": 58.694721, "lat": 22.570999}}, {"id": 379062, "name": "Al Qadarif", "country": "SD", "coord": {"lon": 35.383438, "lat": 14.03493}}, {"id": 408649, "name": "Al Qadarif State", "country": "SD", "coord": {"lon": 35.349998, "lat": 14.05}}, {"id": 173389, "name": "Al Qadmus", "country": "SY", "coord": {"lon": 36.15984, "lat": 35.098541}}, {"id": 78699, "name": "Al Qaflah", "country": "YE", "coord": {"lon": 43.767921, "lat": 16.31897}}, {"id": 173377, "name": "Al Qamishli", "country": "SY", "coord": {"lon": 41.22842, "lat": 37.051411}}, {"id": 360615, "name": "Al Qanatir al Khayriyah", "country": "EG", "coord": {"lon": 31.13703, "lat": 30.19327}}, {"id": 78675, "name": "Al Qanawis", "country": "YE", "coord": {"lon": 43.134331, "lat": 15.49277}}, {"id": 360612, "name": "Al Qanayat", "country": "EG", "coord": {"lon": 31.460991, "lat": 30.618799}}, {"id": 108957, "name": "Al Qarah", "country": "SA", "coord": {"lon": 49.666672, "lat": 25.41667}}, {"id": 6967865, "name": "Al Qararah", "country": "PS", "coord": {"lon": 34.340851, "lat": 31.37389}}, {"id": 173364, "name": "Al Qardahah", "country": "SY", "coord": {"lon": 36.059078, "lat": 35.45644}}, {"id": 2473470, "name": "Al Qarmadah", "country": "TN", "coord": {"lon": 10.78333, "lat": 34.75}}, {"id": 78638, "name": "Al Qaryah", "country": "YE", "coord": {"lon": 45.680981, "lat": 13.94067}}, {"id": 6928117, "name": "Al Qaryat al \u2018A\u015fir\u012byah", "country": "IQ", "coord": {"lon": 45.101299, "lat": 34.139439}}, {"id": 173361, "name": "Al Qaryatayn", "country": "SY", "coord": {"lon": 37.240662, "lat": 34.229561}}, {"id": 250487, "name": "Al Qasr", "country": "JO", "coord": {"lon": 35.744999, "lat": 31.31444}}, {"id": 108927, "name": "Al Qatif", "country": "SA", "coord": {"lon": 50.024521, "lat": 26.5208}}, {"id": 79478, "name": "Al Qatn", "country": "YE", "coord": {"lon": 48.455559, "lat": 15.84056}}, {"id": 108918, "name": "Al Qaysumah", "country": "SA", "coord": {"lon": 46.127289, "lat": 28.311171}}, {"id": 387990, "name": "Al Qiblah", "country": "KW", "coord": {"lon": 47.971668, "lat": 29.37361}}, {"id": 379014, "name": "Al Qitena", "country": "SD", "coord": {"lon": 32.366798, "lat": 14.8648}}, {"id": 285009, "name": "Al Qubaybah", "country": "PS", "coord": {"lon": 35.13678, "lat": 31.83886}}, {"id": 88835, "name": "Al Qubbah", "country": "LY", "coord": {"lon": 22.242371, "lat": 32.76162}}, {"id": 414980, "name": "Al Quday\u1e29", "country": "SA", "coord": {"lon": 49.989441, "lat": 26.56889}}, {"id": 173334, "name": "Al Qunaytirah", "country": "SY", "coord": {"lon": 35.824612, "lat": 33.125938}}, {"id": 360542, "name": "Al Qurayn", "country": "EG", "coord": {"lon": 31.73514, "lat": 30.61618}}, {"id": 108890, "name": "Al Qurayn", "country": "SA", "coord": {"lon": 49.599998, "lat": 25.48333}}, {"id": 7364913, "name": "Al Qurayshiyah", "country": "YE", "coord": {"lon": 44.85358, "lat": 14.5122}}, {"id": 173331, "name": "Al Qurayya", "country": "SY", "coord": {"lon": 36.597759, "lat": 32.543362}}, {"id": 108648, "name": "Al Qurayyat", "country": "SA", "coord": {"lon": 37.342819, "lat": 31.33176}}, {"id": 7355357, "name": "Al Quray\u2018", "country": "YE", "coord": {"lon": 44.075668, "lat": 13.15596}}, {"id": 78566, "name": "Al Qurh", "country": "YE", "coord": {"lon": 51.48333, "lat": 16.73333}}, {"id": 360531, "name": "Al Qusayr", "country": "EG", "coord": {"lon": 34.277931, "lat": 26.104259}}, {"id": 173322, "name": "Al Qusayr", "country": "SY", "coord": {"lon": 36.57975, "lat": 34.50914}}, {"id": 360526, "name": "Al Qusiyah", "country": "EG", "coord": {"lon": 30.818411, "lat": 27.440201}}, {"id": 173312, "name": "Al Qutayfah", "country": "SY", "coord": {"lon": 36.600712, "lat": 33.73848}}, {"id": 250462, "name": "Al Quwayrah", "country": "JO", "coord": {"lon": 35.3116, "lat": 29.800449}}, {"id": 250461, "name": "Al Quwaysimah", "country": "JO", "coord": {"lon": 35.950001, "lat": 31.9167}}, {"id": 292766, "name": "Al Q\u012bm\u012b", "country": "AE", "coord": {"lon": 55.745819, "lat": 24.24914}}, {"id": 7931038, "name": "Al Shiruj", "country": "YE", "coord": {"lon": 47.76926, "lat": 14.68526}}, {"id": 286282, "name": "Al Sohar", "country": "OM", "coord": {"lon": 56.746811, "lat": 24.3643}}, {"id": 77655, "name": "Al Tuhayta", "country": "YE", "coord": {"lon": 43.226372, "lat": 14.18356}}, {"id": 7890350, "name": "Al Ubaydiyah", "country": "PS", "coord": {"lon": 35.29007, "lat": 31.71697}}, {"id": 78543, "name": "Al Udayn", "country": "YE", "coord": {"lon": 43.996731, "lat": 13.96918}}, {"id": 402753, "name": "Al Urr", "country": "YE", "coord": {"lon": 43.888359, "lat": 15.24648}}, {"id": 387897, "name": "Al Wafrah", "country": "KW", "coord": {"lon": 48.053059, "lat": 28.554171}}, {"id": 285760, "name": "Al Wafrah", "country": "KW", "coord": {"lon": 47.930561, "lat": 28.63917}}, {"id": 108773, "name": "Al Wajh", "country": "SA", "coord": {"lon": 36.45248, "lat": 26.24551}}, {"id": 289915, "name": "Al Wakrah", "country": "QA", "coord": {"lon": 51.603371, "lat": 25.171511}}, {"id": 2473420, "name": "Al Wardanin", "country": "TN", "coord": {"lon": 10.67397, "lat": 35.709148}}, {"id": 360464, "name": "Al Wasitah", "country": "EG", "coord": {"lon": 31.205561, "lat": 29.33778}}, {"id": 408911, "name": "Al Wi\u1e29dah", "country": "EG", "coord": {"lon": 30.07633, "lat": 30.581699}}, {"id": 78471, "name": "Al Wuday", "country": "YE", "coord": {"lon": 46.01786, "lat": 13.7721}}, {"id": 289913, "name": "Al Wukayr", "country": "QA", "coord": {"lon": 51.537781, "lat": 25.150829}}, {"id": 289911, "name": "Al Wusayl", "country": "QA", "coord": {"lon": 51.485279, "lat": 25.497499}}, {"id": 284999, "name": "Al Yamun", "country": "PS", "coord": {"lon": 35.2267, "lat": 32.4846}}, {"id": 383661, "name": "Al Yarubiyah", "country": "SY", "coord": {"lon": 42.062519, "lat": 36.812439}}, {"id": 411398, "name": "Al \u0100b\u0101r", "country": "SA", "coord": {"lon": 39.911419, "lat": 21.09469}}, {"id": 79657, "name": "Al \u1e28ab\u012bt", "country": "YE", "coord": {"lon": 43.799999, "lat": 14.75}}, {"id": 412516, "name": "Al \u1e28amr\u0101n\u012byah", "country": "AE", "coord": {"lon": 55.90028, "lat": 25.611389}}, {"id": 79561, "name": "Al \u1e28amz\u0101t", "country": "YE", "coord": {"lon": 43.73333, "lat": 16.966669}}, {"id": 285094, "name": "Al \u1e28aram ash Shar\u012bf", "country": "PS", "coord": {"lon": 35.23333, "lat": 31.783331}}, {"id": 361133, "name": "Al \u1e28ubayl", "country": "EG", "coord": {"lon": 32.666672, "lat": 25.66667}}, {"id": 388088, "name": "Al \u2018Abb\u0101s\u012byah", "country": "KW", "coord": {"lon": 47.93111, "lat": 29.25028}}, {"id": 110060, "name": "Al \u2018Aq\u012bq", "country": "SA", "coord": {"lon": 41.664341, "lat": 20.273581}}, {"id": 7922173, "name": "Al \u2018Atabah", "country": "EG", "coord": {"lon": 31.251961, "lat": 30.050699}}, {"id": 409515, "name": "Al \u2018Aw\u0101j\u012byah", "country": "SA", "coord": {"lon": 40.54842, "lat": 21.447689}}, {"id": 88823, "name": "Al \u2018Ur\u016bbah", "country": "LY", "coord": {"lon": 20.066669, "lat": 32.116669}}, {"id": 6824981, "name": "Ala", "country": "CN", "coord": {"lon": 102.788353, "lat": 24.99848}}, {"id": 3183374, "name": "Ala", "country": "IT", "coord": {"lon": 11.00018, "lat": 45.758999}}, {"id": 3183372, "name": "Ala dei Sardi", "country": "IT", "coord": {"lon": 9.32783, "lat": 40.65007}}, {"id": 3183371, "name": "Ala di Stura", "country": "IT", "coord": {"lon": 7.30591, "lat": 45.315151}}, {"id": 8064044, "name": "Ala-Archa Al\u2019plegri", "country": "KG", "coord": {"lon": 74.482483, "lat": 42.562351}}, {"id": 1528875, "name": "Ala-Buka", "country": "KG", "coord": {"lon": 71.486282, "lat": 41.4105}}, {"id": 4829764, "name": "Alabama", "country": "US", "coord": {"lon": -86.750259, "lat": 32.750408}}, {"id": 713724, "name": "Alabash Konrat", "country": "UA", "coord": {"lon": 34.133331, "lat": 45.26667}}, {"id": 4829762, "name": "Alabaster", "country": "US", "coord": {"lon": -86.816383, "lat": 33.244282}}, {"id": 1731749, "name": "Alabat", "country": "PH", "coord": {"lon": 122.015282, "lat": 14.10278}}, {"id": 1731744, "name": "Alabel", "country": "PH", "coord": {"lon": 125.290482, "lat": 6.10179}}, {"id": 583494, "name": "Alabino", "country": "RU", "coord": {"lon": 37.010281, "lat": 55.526791}}, {"id": 1731740, "name": "Alabug East", "country": "PH", "coord": {"lon": 121.47625, "lat": 17.727909}}, {"id": 583491, "name": "Alabushevo", "country": "RU", "coord": {"lon": 37.150002, "lat": 56.009998}}, {"id": 1731738, "name": "Alac", "country": "PH", "coord": {"lon": 120.806503, "lat": 15.9877}}, {"id": 752278, "name": "Alaca", "country": "TR", "coord": {"lon": 34.842499, "lat": 40.168331}}, {"id": 312406, "name": "Alacakaya", "country": "TR", "coord": {"lon": 39.849312, "lat": 38.45372}}, {"id": 752259, "name": "Alacam", "country": "TR", "coord": {"lon": 35.598061, "lat": 41.60556}}, {"id": 324294, "name": "Alacati", "country": "TR", "coord": {"lon": 26.37459, "lat": 38.282459}}, {"id": 1731733, "name": "Alacaygan", "country": "PH", "coord": {"lon": 123.058296, "lat": 10.84014}}, {"id": 2958774, "name": "Alach", "country": "DE", "coord": {"lon": 10.93333, "lat": 50.98333}}, {"id": 583489, "name": "Alachkovo", "country": "RU", "coord": {"lon": 37.560001, "lat": 55.200001}}, {"id": 4145719, "name": "Alachua", "country": "US", "coord": {"lon": -82.424828, "lat": 29.751631}}, {"id": 4145709, "name": "Alachua County", "country": "US", "coord": {"lon": -82.33316, "lat": 29.70858}}, {"id": 3130744, "name": "Alacon", "country": "ES", "coord": {"lon": -0.69782, "lat": 41.025742}}, {"id": 3569379, "name": "Alacranes", "country": "CU", "coord": {"lon": -81.567497, "lat": 22.7675}}, {"id": 6361432, "name": "Alac\u00f3n", "country": "ES", "coord": {"lon": -0.70769, "lat": 41.05331}}, {"id": 1731730, "name": "Alad", "country": "PH", "coord": {"lon": 122.247513, "lat": 12.61682}}, {"id": 308998, "name": "Aladag", "country": "TR", "coord": {"lon": 35.39603, "lat": 37.5485}}, {"id": 3130742, "name": "Aladren", "country": "ES", "coord": {"lon": -1.15591, "lat": 41.249168}}, {"id": 6362701, "name": "Aladr\u00e9n", "country": "ES", "coord": {"lon": -1.15487, "lat": 41.243031}}, {"id": 1731726, "name": "Alae", "country": "PH", "coord": {"lon": 124.812782, "lat": 8.42444}}, {"id": 6362132, "name": "Alaejos", "country": "ES", "coord": {"lon": -5.2175, "lat": 41.307369}}, {"id": 3130741, "name": "Alaejos", "country": "ES", "coord": {"lon": -5.21567, "lat": 41.30732}}, {"id": 6332439, "name": "Alafaya", "country": "US", "coord": {"lon": -81.211403, "lat": 28.5641}}, {"id": 2727130, "name": "Alafors", "country": "SE", "coord": {"lon": 12.07835, "lat": 57.925789}}, {"id": 1279084, "name": "Alagapuram", "country": "IN", "coord": {"lon": 78.91758, "lat": 11.88705}}, {"id": 2447938, "name": "Alaghsas", "country": "NE", "coord": {"lon": 8.0168, "lat": 17.0187}}, {"id": 802078, "name": "Alagir", "country": "RU", "coord": {"lon": 44.222221, "lat": 43.042221}}, {"id": 3183370, "name": "Alagna", "country": "IT", "coord": {"lon": 8.88985, "lat": 45.169861}}, {"id": 3183369, "name": "Alagna Valsesia", "country": "IT", "coord": {"lon": 7.93691, "lat": 45.850971}}, {"id": 2272260, "name": "Alagoa", "country": "PT", "coord": {"lon": -7.53894, "lat": 39.361252}}, {"id": 3408100, "name": "Alagoa Grande", "country": "BR", "coord": {"lon": -35.630001, "lat": -7.15833}}, {"id": 3408097, "name": "Alagoa Nova", "country": "BR", "coord": {"lon": -35.758331, "lat": -7.07083}}, {"id": 3472775, "name": "Alagoas", "country": "BR", "coord": {"lon": -47.816669, "lat": -13.8}}, {"id": 3408094, "name": "Alagoinha", "country": "BR", "coord": {"lon": -35.544998, "lat": -6.95}}, {"id": 3472766, "name": "Alagoinhas", "country": "BR", "coord": {"lon": -38.41917, "lat": -12.13556}}, {"id": 3130739, "name": "Alagon", "country": "ES", "coord": {"lon": -1.11906, "lat": 41.769642}}, {"id": 6362702, "name": "Alag\u00f3n", "country": "ES", "coord": {"lon": -1.1242, "lat": 41.76865}}, {"id": 1149107, "name": "Alah Say", "country": "AF", "coord": {"lon": 69.72049, "lat": 34.8965}}, {"id": 1651678, "name": "Alahanpanjang", "country": "ID", "coord": {"lon": 100.793541, "lat": -1.07491}}, {"id": 661601, "name": "Alaharma", "country": "FI", "coord": {"lon": 22.85, "lat": 63.23333}}, {"id": 400462, "name": "Alaili Dadda", "country": "DJ", "coord": {"lon": 42.895561, "lat": 12.42167}}, {"id": 6533928, "name": "Alaior", "country": "ES", "coord": {"lon": 4.14708, "lat": 39.91296}}, {"id": 2522259, "name": "Alaior", "country": "ES", "coord": {"lon": 4.14039, "lat": 39.93034}}, {"id": 2522294, "name": "Alajar", "country": "ES", "coord": {"lon": -6.66536, "lat": 37.874081}}, {"id": 661576, "name": "Alajarvi", "country": "FI", "coord": {"lon": 23.816669, "lat": 63}}, {"id": 6534181, "name": "Alajero", "country": "ES", "coord": {"lon": -17.245859, "lat": 28.049919}}, {"id": 2522293, "name": "Alajero", "country": "ES", "coord": {"lon": -17.24073, "lat": 28.06205}}, {"id": 3624955, "name": "Alajuela", "country": "CR", "coord": {"lon": -84.216667, "lat": 10.01667}}, {"id": 3624951, "name": "Alajuelita", "country": "CR", "coord": {"lon": -84.100418, "lat": 9.90163}}, {"id": 661594, "name": "Alaj\u00e4rvi", "country": "FI", "coord": {"lon": 24, "lat": 63}}, {"id": 324251, "name": "Alakamis", "country": "TR", "coord": {"lon": 41.788891, "lat": 37.159168}}, {"id": 583472, "name": "Alakurtti", "country": "RU", "coord": {"lon": 30.349051, "lat": 66.967201}}, {"id": 661520, "name": "Alakyl\u00e4", "country": "FI", "coord": {"lon": 24.883329, "lat": 67.349998}}, {"id": 1731694, "name": "Alamada", "country": "PH", "coord": {"lon": 124.566673, "lat": 7.33333}}, {"id": 4452290, "name": "Alamance County", "country": "US", "coord": {"lon": -79.399742, "lat": 36.03347}}, {"id": 3569370, "name": "Alamar", "country": "CU", "coord": {"lon": -82.276939, "lat": 23.158331}}, {"id": 3472758, "name": "Alambique", "country": "BR", "coord": {"lon": -41.133331, "lat": -20.08333}}, {"id": 146834, "name": "Alambra", "country": "CY", "coord": {"lon": 33.400002, "lat": 34.991669}}, {"id": 5883027, "name": "Alameda", "country": "CA", "coord": {"lon": -102.284203, "lat": 49.26675}}, {"id": 5322737, "name": "Alameda", "country": "US", "coord": {"lon": -122.241638, "lat": 37.765209}}, {"id": 6359406, "name": "Alameda", "country": "ES", "coord": {"lon": -4.66519, "lat": 37.231998}}, {"id": 2522291, "name": "Alameda", "country": "ES", "coord": {"lon": -4.6586, "lat": 37.208698}}, {"id": 5322745, "name": "Alameda County", "country": "US", "coord": {"lon": -121.884399, "lat": 37.59993}}, {"id": 6361663, "name": "Alameda de la Sagra", "country": "ES", "coord": {"lon": -3.806, "lat": 40.006691}}, {"id": 6359229, "name": "Alameda del Valle", "country": "ES", "coord": {"lon": -3.84824, "lat": 40.92046}}, {"id": 3130730, "name": "Alameda del Valle", "country": "ES", "coord": {"lon": -3.84243, "lat": 40.918701}}, {"id": 6357640, "name": "Alamedilla", "country": "ES", "coord": {"lon": -3.22353, "lat": 37.598679}}, {"id": 2522286, "name": "Alamedilla", "country": "ES", "coord": {"lon": -3.24241, "lat": 37.582321}}, {"id": 6357097, "name": "Alamillo", "country": "ES", "coord": {"lon": -4.80388, "lat": 38.687618}}, {"id": 2522284, "name": "Alamillo", "country": "ES", "coord": {"lon": -4.79008, "lat": 38.678421}}, {"id": 1731689, "name": "Alaminos", "country": "PH", "coord": {"lon": 121.25, "lat": 14.05}}, {"id": 1731686, "name": "Alaminos", "country": "PH", "coord": {"lon": 121.24649, "lat": 14.06391}}, {"id": 6357809, "name": "Alaminos", "country": "ES", "coord": {"lon": -2.72199, "lat": 40.8806}}, {"id": 3130728, "name": "Alaminos", "country": "ES", "coord": {"lon": -2.72573, "lat": 40.863029}}, {"id": 1731685, "name": "Alaminos", "country": "PH", "coord": {"lon": 119.98111, "lat": 16.156111}}, {"id": 4670074, "name": "Alamo", "country": "US", "coord": {"lon": -98.123062, "lat": 26.183689}}, {"id": 3816160, "name": "Alamo", "country": "MX", "coord": {"lon": -92.51667, "lat": 16.716669}}, {"id": 3533107, "name": "Alamo", "country": "MX", "coord": {"lon": -97.683327, "lat": 20.91667}}, {"id": 4179313, "name": "Alamo", "country": "US", "coord": {"lon": -82.777924, "lat": 32.147121}}, {"id": 4602167, "name": "Alamo", "country": "US", "coord": {"lon": -89.117287, "lat": 35.78479}}, {"id": 5322794, "name": "Alamo", "country": "US", "coord": {"lon": -122.032181, "lat": 37.850201}}, {"id": 5454546, "name": "Alamo", "country": "US", "coord": {"lon": -107.51088, "lat": 34.420891}}, {"id": 5499105, "name": "Alamo", "country": "US", "coord": {"lon": -115.164459, "lat": 37.36496}}, {"id": 4670029, "name": "Alamo Heights", "country": "US", "coord": {"lon": -98.465851, "lat": 29.484949}}, {"id": 5454627, "name": "Alamogordo", "country": "US", "coord": {"lon": -105.960258, "lat": 32.899529}}, {"id": 4018904, "name": "Alamos", "country": "MX", "coord": {"lon": -108.933327, "lat": 27.01667}}, {"id": 5411479, "name": "Alamosa", "country": "US", "coord": {"lon": -105.870018, "lat": 37.469452}}, {"id": 5550375, "name": "Alamosa County", "country": "US", "coord": {"lon": -105.800583, "lat": 37.599998}}, {"id": 7260760, "name": "Alamosa East", "country": "US", "coord": {"lon": -105.842171, "lat": 37.477348}}, {"id": 1279072, "name": "Alampur", "country": "IN", "coord": {"lon": 78.792503, "lat": 26.024441}}, {"id": 1279074, "name": "Alampur", "country": "IN", "coord": {"lon": 78.150002, "lat": 15.88333}}, {"id": 99596, "name": "Alan", "country": "IQ", "coord": {"lon": 45.776001, "lat": 35.290001}}, {"id": 1279068, "name": "Aland", "country": "IN", "coord": {"lon": 76.566673, "lat": 17.566669}}, {"id": 1279066, "name": "Alandi", "country": "IN", "coord": {"lon": 73.900002, "lat": 18.66667}}, {"id": 8010498, "name": "Alandroal", "country": "PT", "coord": {"lon": -7.36599, "lat": 38.629238}}, {"id": 2272242, "name": "Alandroal", "country": "PT", "coord": {"lon": -7.40309, "lat": 38.702}}, {"id": 8014519, "name": "Alandroal (Nossa Senhora da Concei\u00e7\u00e3o)", "country": "PT", "coord": {"lon": -7.36364, "lat": 38.634258}}, {"id": 1279064, "name": "Alandur", "country": "IN", "coord": {"lon": 80.206108, "lat": 13.0025}}, {"id": 7087314, "name": "Alanga", "country": "ID", "coord": {"lon": 119.752998, "lat": -9.5386}}, {"id": 1731676, "name": "Alangalang", "country": "PH", "coord": {"lon": 124.846672, "lat": 11.20611}}, {"id": 1279062, "name": "Alanganallur", "country": "IN", "coord": {"lon": 78.050003, "lat": 10.06667}}, {"id": 1279061, "name": "Alangayam", "country": "IN", "coord": {"lon": 78.75, "lat": 12.6}}, {"id": 2522268, "name": "Alange", "country": "ES", "coord": {"lon": -6.24574, "lat": 38.784939}}, {"id": 1731669, "name": "Alangilan", "country": "PH", "coord": {"lon": 122.878899, "lat": 9.2793}}, {"id": 1731665, "name": "Alangilanan", "country": "PH", "coord": {"lon": 123.105904, "lat": 9.642}}, {"id": 1279059, "name": "Alangudi", "country": "IN", "coord": {"lon": 78.984917, "lat": 10.3606}}, {"id": 1279058, "name": "Alangulam", "country": "IN", "coord": {"lon": 77.5, "lat": 8.86667}}, {"id": 1731661, "name": "Alanib", "country": "PH", "coord": {"lon": 124.986107, "lat": 8.02778}}, {"id": 2522267, "name": "Alanis", "country": "ES", "coord": {"lon": -5.71667, "lat": 38.033329}}, {"id": 3714939, "name": "Alanje", "country": "PA", "coord": {"lon": -82.550003, "lat": 8.4}}, {"id": 1731658, "name": "Alannay", "country": "PH", "coord": {"lon": 121.577553, "lat": 18.05739}}, {"id": 3183367, "name": "Alanno", "country": "IT", "coord": {"lon": 13.9711, "lat": 42.295441}}, {"id": 6535015, "name": "Alano di Piave", "country": "IT", "coord": {"lon": 11.9084, "lat": 45.906811}}, {"id": 324190, "name": "Alanya", "country": "TR", "coord": {"lon": 31.999821, "lat": 36.543751}}, {"id": 752188, "name": "Alanyurt", "country": "TR", "coord": {"lon": 29.518709, "lat": 40.10881}}, {"id": 6360957, "name": "Alan\u00eds", "country": "ES", "coord": {"lon": -5.64318, "lat": 38.028011}}, {"id": 3056331, "name": "Alap", "country": "HU", "coord": {"lon": 18.689381, "lat": 46.799141}}, {"id": 2350592, "name": "Alapa", "country": "NG", "coord": {"lon": 4.38333, "lat": 8.61667}}, {"id": 1511954, "name": "Alapayevsk", "country": "RU", "coord": {"lon": 61.69627, "lat": 57.851582}}, {"id": 7602506, "name": "Alapi Village", "country": "TV", "coord": {"lon": 179.196793, "lat": -8.52074}}, {"id": 752184, "name": "Alapli", "country": "TR", "coord": {"lon": 31.379169, "lat": 41.169399}}, {"id": 1279056, "name": "Alappakkam", "country": "IN", "coord": {"lon": 79.73333, "lat": 11.6}}, {"id": 1148114, "name": "Alaqahdari Atghar", "country": "AF", "coord": {"lon": 67.357399, "lat": 31.73506}}, {"id": 1149052, "name": "Alaqahdari Dishu", "country": "AF", "coord": {"lon": 63.312981, "lat": 30.43741}}, {"id": 1140919, "name": "Alaqahdari Gelan", "country": "AF", "coord": {"lon": 67.636963, "lat": 32.726921}}, {"id": 1135656, "name": "Alaqahdari Kiran wa Munjan", "country": "AF", "coord": {"lon": 70.772583, "lat": 36.02866}}, {"id": 1434016, "name": "Alaqahdari Sarobi", "country": "AF", "coord": {"lon": 69.086601, "lat": 32.793308}}, {"id": 1125962, "name": "Alaqahdari Shah Joy", "country": "AF", "coord": {"lon": 67.413147, "lat": 32.521542}}, {"id": 1149049, "name": "Alaqahdari Yosuf Khel", "country": "AF", "coord": {"lon": 68.650002, "lat": 33.051941}}, {"id": 1148863, "name": "Alaqahdari-ye Almar", "country": "AF", "coord": {"lon": 64.530739, "lat": 35.846161}}, {"id": 2522297, "name": "Alaquas", "country": "ES", "coord": {"lon": -0.461, "lat": 39.455681}}, {"id": 6361870, "name": "Alaqu\u00e0s", "country": "ES", "coord": {"lon": -0.46091, "lat": 39.456341}}, {"id": 6359983, "name": "Alar del Rey", "country": "ES", "coord": {"lon": -4.30443, "lat": 42.677101}}, {"id": 3130723, "name": "Alar del Rey", "country": "ES", "coord": {"lon": -4.31271, "lat": 42.66037}}, {"id": 6360265, "name": "Alaraz", "country": "ES", "coord": {"lon": -5.32294, "lat": 40.722431}}, {"id": 3130726, "name": "Alaraz", "country": "ES", "coord": {"lon": -5.28781, "lat": 40.748859}}, {"id": 6362703, "name": "Alarba", "country": "ES", "coord": {"lon": -1.61236, "lat": 41.205841}}, {"id": 3130725, "name": "Alarba", "country": "ES", "coord": {"lon": -1.61335, "lat": 41.204819}}, {"id": 2522265, "name": "Alarcon", "country": "ES", "coord": {"lon": -2.08333, "lat": 39.549999}}, {"id": 6357364, "name": "Alarc\u00f3n", "country": "ES", "coord": {"lon": -2.07713, "lat": 39.505699}}, {"id": 6357810, "name": "Alarilla", "country": "ES", "coord": {"lon": -3.1054, "lat": 40.84943}}, {"id": 3130721, "name": "Alarilla", "country": "ES", "coord": {"lon": -3.1031, "lat": 40.847111}}, {"id": 2522261, "name": "Alaro", "country": "ES", "coord": {"lon": 2.79181, "lat": 39.704411}}, {"id": 6533927, "name": "Alar\u00f3", "country": "ES", "coord": {"lon": 2.7898, "lat": 39.704048}}, {"id": 3130720, "name": "Alas i Cerc", "country": "ES", "coord": {"lon": 1.51667, "lat": 42.349998}}, {"id": 1651645, "name": "Alasbuluh", "country": "ID", "coord": {"lon": 114.406799, "lat": -8.0097}}, {"id": 324172, "name": "Alasehir", "country": "TR", "coord": {"lon": 28.517179, "lat": 38.35083}}, {"id": 5879092, "name": "Alaska", "country": "US", "coord": {"lon": -150.000275, "lat": 64.000282}}, {"id": 3183366, "name": "Alassio", "country": "IT", "coord": {"lon": 8.16713, "lat": 44.003929}}, {"id": 661411, "name": "Alastaro", "country": "FI", "coord": {"lon": 22.91667, "lat": 60.933331}}, {"id": 661410, "name": "Alastaro", "country": "FI", "coord": {"lon": 22.85, "lat": 60.950001}}, {"id": 3038305, "name": "Alata", "country": "FR", "coord": {"lon": 8.74232, "lat": 41.977489}}, {"id": 1526482, "name": "Alatau", "country": "KZ", "coord": {"lon": 77.14444, "lat": 43.357498}}, {"id": 6355294, "name": "Alatoz", "country": "ES", "coord": {"lon": -1.37081, "lat": 39.082001}}, {"id": 2522260, "name": "Alatoz", "country": "ES", "coord": {"lon": -1.36098, "lat": 39.094952}}, {"id": 6541894, "name": "Alatri", "country": "IT", "coord": {"lon": 13.3402, "lat": 41.730621}}, {"id": 3183365, "name": "Alatri", "country": "IT", "coord": {"lon": 13.3402, "lat": 41.730621}}, {"id": 7522440, "name": "Alatskivi vald", "country": "EE", "coord": {"lon": 27.11034, "lat": 58.609951}}, {"id": 722973, "name": "Alattyan", "country": "HU", "coord": {"lon": 20.0422, "lat": 47.427052}}, {"id": 583437, "name": "Alatyr", "country": "RU", "coord": {"lon": 46.581299, "lat": 54.842098}}, {"id": 2782844, "name": "Alauntal", "country": "AT", "coord": {"lon": 15.57587, "lat": 48.41872}}, {"id": 3660798, "name": "Alausi", "country": "EC", "coord": {"lon": -78.833328, "lat": -2.2}}, {"id": 616974, "name": "Alaverdi", "country": "AM", "coord": {"lon": 44.673161, "lat": 41.09766}}, {"id": 661364, "name": "Alavieska", "country": "FI", "coord": {"lon": 24.33333, "lat": 64.166672}}, {"id": 661363, "name": "Alavieska", "country": "FI", "coord": {"lon": 24.299999, "lat": 64.166672}}, {"id": 661353, "name": "Alavus", "country": "FI", "coord": {"lon": 23.5, "lat": 62.583328}}, {"id": 661352, "name": "Alavus", "country": "FI", "coord": {"lon": 23.616671, "lat": 62.583328}}, {"id": 1279050, "name": "Alawalpur", "country": "IN", "coord": {"lon": 75.650833, "lat": 31.432779}}, {"id": 1731628, "name": "Alayao", "country": "PH", "coord": {"lon": 122.552399, "lat": 14.2818}}, {"id": 3220786, "name": "Alb-Donau-Kreis", "country": "DE", "coord": {"lon": 9.8375, "lat": 48.417782}}, {"id": 6540671, "name": "Alba", "country": "IT", "coord": {"lon": 8.02564, "lat": 44.69154}}, {"id": 3183364, "name": "Alba", "country": "IT", "coord": {"lon": 8.0347, "lat": 44.699902}}, {"id": 6361433, "name": "Alba", "country": "ES", "coord": {"lon": -1.35822, "lat": 40.616451}}, {"id": 3130716, "name": "Alba", "country": "ES", "coord": {"lon": -1.34658, "lat": 40.618252}}, {"id": 6534273, "name": "Alba Adriatica", "country": "IT", "coord": {"lon": 13.9259, "lat": 42.83176}}, {"id": 686578, "name": "Alba Iulia", "country": "RO", "coord": {"lon": 23.58333, "lat": 46.066669}}, {"id": 3436448, "name": "Alba Posse", "country": "AR", "coord": {"lon": -54.682621, "lat": -27.56978}}, {"id": 6359984, "name": "Alba de Cerrato", "country": "ES", "coord": {"lon": -4.3597, "lat": 41.797611}}, {"id": 3130708, "name": "Alba de Cerrato", "country": "ES", "coord": {"lon": -4.3647, "lat": 41.812759}}, {"id": 6360266, "name": "Alba de Tormes", "country": "ES", "coord": {"lon": -5.5085, "lat": 40.82922}}, {"id": 3130706, "name": "Alba de Tormes", "country": "ES", "coord": {"lon": -5.51237, "lat": 40.826641}}, {"id": 6360267, "name": "Alba de Yeltes", "country": "ES", "coord": {"lon": -6.32948, "lat": 40.67458}}, {"id": 3130705, "name": "Alba de Yeltes", "country": "ES", "coord": {"lon": -6.3166, "lat": 40.671799}}, {"id": 3038302, "name": "Alba-la-Romaine", "country": "FR", "coord": {"lon": 4.59846, "lat": 44.55537}}, {"id": 686580, "name": "Albac", "country": "RO", "coord": {"lon": 22.966669, "lat": 46.450001}}, {"id": 2522258, "name": "Albacete", "country": "ES", "coord": {"lon": -1.85, "lat": 38.98333}}, {"id": 6355295, "name": "Albacete", "country": "ES", "coord": {"lon": -1.85307, "lat": 38.973862}}, {"id": 6559321, "name": "Albaching", "country": "DE", "coord": {"lon": 12.11191, "lat": 48.10701}}, {"id": 2958756, "name": "Albaching", "country": "DE", "coord": {"lon": 12.11667, "lat": 48.116669}}, {"id": 2523969, "name": "Albagiara", "country": "IT", "coord": {"lon": 8.86444, "lat": 39.786942}}, {"id": 6361871, "name": "Albaida", "country": "ES", "coord": {"lon": -0.52591, "lat": 38.853981}}, {"id": 2522253, "name": "Albaida", "country": "ES", "coord": {"lon": -0.51721, "lat": 38.837978}}, {"id": 6360958, "name": "Albaida del Aljarafe", "country": "ES", "coord": {"lon": -6.17372, "lat": 37.435879}}, {"id": 2522251, "name": "Albaida del Aljarafe", "country": "ES", "coord": {"lon": -6.16675, "lat": 37.423538}}, {"id": 6535143, "name": "Albairate", "country": "IT", "coord": {"lon": 8.93744, "lat": 45.419571}}, {"id": 6361872, "name": "Albal", "country": "ES", "coord": {"lon": -0.40736, "lat": 39.391731}}, {"id": 2522250, "name": "Albal", "country": "ES", "coord": {"lon": -0.41667, "lat": 39.400002}}, {"id": 2522249, "name": "Albala", "country": "ES", "coord": {"lon": -6.18528, "lat": 39.25592}}, {"id": 6357098, "name": "Albaladejo", "country": "ES", "coord": {"lon": -2.78961, "lat": 38.612968}}, {"id": 2522247, "name": "Albaladejo", "country": "ES", "coord": {"lon": -2.80784, "lat": 38.61887}}, {"id": 6357365, "name": "Albaladejo del Cuende", "country": "ES", "coord": {"lon": -2.24575, "lat": 39.813801}}, {"id": 2522246, "name": "Albaladejo del Cuende", "country": "ES", "coord": {"lon": -2.22903, "lat": 39.806839}}, {"id": 6361873, "name": "Albalat de la Ribera", "country": "ES", "coord": {"lon": -0.37388, "lat": 39.218479}}, {"id": 2522245, "name": "Albalat de la Ribera", "country": "ES", "coord": {"lon": -0.38333, "lat": 39.200001}}, {"id": 6361874, "name": "Albalat dels Sorells", "country": "ES", "coord": {"lon": -0.34063, "lat": 39.54599}}, {"id": 2522244, "name": "Albalat dels Sorells", "country": "ES", "coord": {"lon": -0.35, "lat": 39.533329}}, {"id": 6361875, "name": "Albalat dels Tarongers", "country": "ES", "coord": {"lon": -0.35585, "lat": 39.68288}}, {"id": 2522243, "name": "Albalat dels Tarongers", "country": "ES", "coord": {"lon": -0.33333, "lat": 39.700001}}, {"id": 6358261, "name": "Albalate de Cinca", "country": "ES", "coord": {"lon": 0.16598, "lat": 41.74086}}, {"id": 3130699, "name": "Albalate de Cinca", "country": "ES", "coord": {"lon": 0.15244, "lat": 41.725208}}, {"id": 6357811, "name": "Albalate de Zorita", "country": "ES", "coord": {"lon": -2.84742, "lat": 40.293282}}, {"id": 3130696, "name": "Albalate de Zorita", "country": "ES", "coord": {"lon": -2.84267, "lat": 40.308121}}, {"id": 6357366, "name": "Albalate de las Nogueras", "country": "ES", "coord": {"lon": -2.29145, "lat": 40.36758}}, {"id": 3130697, "name": "Albalate de las Nogueras", "country": "ES", "coord": {"lon": -2.27718, "lat": 40.366138}}, {"id": 6361434, "name": "Albalate del Arzobispo", "country": "ES", "coord": {"lon": -0.58158, "lat": 41.113628}}, {"id": 3130698, "name": "Albalate del Arzobispo", "country": "ES", "coord": {"lon": -0.51142, "lat": 41.121731}}, {"id": 6358262, "name": "Albalatillo", "country": "ES", "coord": {"lon": -0.15031, "lat": 41.737991}}, {"id": 3130695, "name": "Albalatillo", "country": "ES", "coord": {"lon": -0.15114, "lat": 41.735271}}, {"id": 6356704, "name": "Albal\u00e1", "country": "ES", "coord": {"lon": -6.21366, "lat": 39.26313}}, {"id": 3690264, "name": "Alban", "country": "CO", "coord": {"lon": -74.437683, "lat": 4.87661}}, {"id": 2522242, "name": "Albanchez", "country": "ES", "coord": {"lon": -2.18229, "lat": 37.283611}}, {"id": 5883074, "name": "Albanel", "country": "CA", "coord": {"lon": -72.448669, "lat": 48.88324}}, {"id": 3183362, "name": "Albanella", "country": "IT", "coord": {"lon": 15.11625, "lat": 40.478909}}, {"id": 3690250, "name": "Albania", "country": "CO", "coord": {"lon": -72.592377, "lat": 11.16099}}, {"id": 3690262, "name": "Albania", "country": "CO", "coord": {"lon": -75.878242, "lat": 1.32866}}, {"id": 6541651, "name": "Albano Laziale", "country": "IT", "coord": {"lon": 12.63128, "lat": 41.726021}}, {"id": 3183356, "name": "Albano Laziale", "country": "IT", "coord": {"lon": 12.6608, "lat": 41.728729}}, {"id": 3183355, "name": "Albano SantAlessandro", "country": "IT", "coord": {"lon": 9.77066, "lat": 45.686481}}, {"id": 3183354, "name": "Albano Vercellese", "country": "IT", "coord": {"lon": 8.38093, "lat": 45.426159}}, {"id": 3183357, "name": "Albano di Lucania", "country": "IT", "coord": {"lon": 16.036169, "lat": 40.584621}}, {"id": 4179320, "name": "Albany", "country": "US", "coord": {"lon": -84.155739, "lat": 31.57851}}, {"id": 5082554, "name": "Albany", "country": "US", "coord": {"lon": -71.167572, "lat": 43.957851}}, {"id": 7839657, "name": "Albany", "country": "AU", "coord": {"lon": 118.123451, "lat": -34.7099}}, {"id": 2077963, "name": "Albany", "country": "AU", "coord": {"lon": 117.89167, "lat": -35.016941}}, {"id": 5883078, "name": "Albany", "country": "CA", "coord": {"lon": -65.048798, "lat": 44.800152}}, {"id": 5106834, "name": "Albany", "country": "US", "coord": {"lon": -73.756233, "lat": 42.65258}}, {"id": 5322850, "name": "Albany", "country": "US", "coord": {"lon": -122.297752, "lat": 37.886871}}, {"id": 5710756, "name": "Albany", "country": "US", "coord": {"lon": -123.105927, "lat": 44.636509}}, {"id": 4282305, "name": "Albany", "country": "US", "coord": {"lon": -85.134682, "lat": 36.690899}}, {"id": 4314498, "name": "Albany", "country": "US", "coord": {"lon": -90.582314, "lat": 30.50436}}, {"id": 4374557, "name": "Albany", "country": "US", "coord": {"lon": -94.113281, "lat": 39.223339}}, {"id": 4670094, "name": "Albany", "country": "US", "coord": {"lon": -99.297302, "lat": 32.72345}}, {"id": 4917520, "name": "Albany", "country": "US", "coord": {"lon": -85.241913, "lat": 40.30088}}, {"id": 5016002, "name": "Albany", "country": "US", "coord": {"lon": -94.57, "lat": 45.629959}}, {"id": 5053875, "name": "Albany", "country": "US", "coord": {"lon": -94.33107, "lat": 40.248611}}, {"id": 5243653, "name": "Albany", "country": "US", "coord": {"lon": -89.437057, "lat": 42.707779}}, {"id": 5816904, "name": "Albany County", "country": "US", "coord": {"lon": -105.700546, "lat": 41.666641}}, {"id": 5106841, "name": "Albany County", "country": "US", "coord": {"lon": -73.96624, "lat": 42.600079}}, {"id": 2178208, "name": "Albany Creek", "country": "AU", "coord": {"lon": 152.983337, "lat": -27.35}}, {"id": 6534004, "name": "Albany\u00e0", "country": "ES", "coord": {"lon": 2.72135, "lat": 42.304482}}, {"id": 3130693, "name": "Albany\u00e0", "country": "ES", "coord": {"lon": 2.71995, "lat": 42.30431}}, {"id": 3866425, "name": "Albardon", "country": "AR", "coord": {"lon": -68.525558, "lat": -31.43722}}, {"id": 6534755, "name": "Albaredo Arnaboldi", "country": "IT", "coord": {"lon": 9.24296, "lat": 45.106659}}, {"id": 3183350, "name": "Albaredo dAdige", "country": "IT", "coord": {"lon": 11.2728, "lat": 45.31599}}, {"id": 3183349, "name": "Albaredo per San Marco", "country": "IT", "coord": {"lon": 9.59004, "lat": 46.103489}}, {"id": 6357812, "name": "Albares", "country": "ES", "coord": {"lon": -3.03817, "lat": 40.313992}}, {"id": 3130682, "name": "Albares", "country": "ES", "coord": {"lon": -3.00897, "lat": 40.3069}}, {"id": 6538418, "name": "Albareto", "country": "IT", "coord": {"lon": 9.69998, "lat": 44.446548}}, {"id": 3183337, "name": "Albareto", "country": "IT", "coord": {"lon": 9.69998, "lat": 44.446548}}, {"id": 6535291, "name": "Albaretto della Torre", "country": "IT", "coord": {"lon": 8.06464, "lat": 44.596241}}, {"id": 3130679, "name": "Albarracin", "country": "ES", "coord": {"lon": -1.44375, "lat": 40.40818}}, {"id": 6361435, "name": "Albarrac\u00edn", "country": "ES", "coord": {"lon": -1.54087, "lat": 40.363289}}, {"id": 6361664, "name": "Albarreal de Tajo", "country": "ES", "coord": {"lon": -4.21994, "lat": 39.88702}}, {"id": 2522231, "name": "Albarreal de Tajo", "country": "ES", "coord": {"lon": -4.22895, "lat": 39.89698}}, {"id": 6355296, "name": "Albatana", "country": "ES", "coord": {"lon": -1.50588, "lat": 38.572399}}, {"id": 2522229, "name": "Albatana", "country": "ES", "coord": {"lon": -1.5221, "lat": 38.570572}}, {"id": 6355381, "name": "Albatera", "country": "ES", "coord": {"lon": -0.89699, "lat": 38.218472}}, {"id": 2522228, "name": "Albatera", "country": "ES", "coord": {"lon": -0.87059, "lat": 38.17902}}, {"id": 5883089, "name": "Albatross", "country": "CA", "coord": {"lon": -104.667831, "lat": 50.533409}}, {"id": 2572270, "name": "Albatroz", "country": "PT", "coord": {"lon": -9.41667, "lat": 38.700001}}, {"id": 6534462, "name": "Albavilla", "country": "IT", "coord": {"lon": 9.18504, "lat": 45.800381}}, {"id": 6555905, "name": "Albbruck", "country": "DE", "coord": {"lon": 8.13333, "lat": 47.599998}}, {"id": 2958744, "name": "Albbruck", "country": "DE", "coord": {"lon": 8.12954, "lat": 47.590771}}, {"id": 6358263, "name": "Albelda", "country": "ES", "coord": {"lon": 0.49963, "lat": 41.848801}}, {"id": 3130673, "name": "Albelda", "country": "ES", "coord": {"lon": 0.45999, "lat": 41.865421}}, {"id": 6358995, "name": "Albelda de Iregua", "country": "ES", "coord": {"lon": -2.47056, "lat": 42.365211}}, {"id": 3130672, "name": "Albelda de Iregua", "country": "ES", "coord": {"lon": -2.47278, "lat": 42.358372}}, {"id": 4452303, "name": "Albemarle", "country": "US", "coord": {"lon": -80.200058, "lat": 35.35014}}, {"id": 4744031, "name": "Albemarle County", "country": "US", "coord": {"lon": -78.549744, "lat": 38.03347}}, {"id": 6357367, "name": "Albendea", "country": "ES", "coord": {"lon": -2.39655, "lat": 40.47229}}, {"id": 3130670, "name": "Albendea", "country": "ES", "coord": {"lon": -2.41747, "lat": 40.487511}}, {"id": 6357813, "name": "Albendiego", "country": "ES", "coord": {"lon": -3.0527, "lat": 41.225971}}, {"id": 3130669, "name": "Albendiego", "country": "ES", "coord": {"lon": -3.05171, "lat": 41.227421}}, {"id": 2522225, "name": "Albend\u00edn", "country": "ES", "coord": {"lon": -4.23849, "lat": 37.670319}}, {"id": 6539671, "name": "Albenga", "country": "IT", "coord": {"lon": 8.21605, "lat": 44.052929}}, {"id": 3183343, "name": "Albenga", "country": "IT", "coord": {"lon": 8.21829, "lat": 44.049969}}, {"id": 686571, "name": "Albeni", "country": "RO", "coord": {"lon": 23.6, "lat": 45.033329}}, {"id": 3038276, "name": "Albens", "country": "FR", "coord": {"lon": 5.94875, "lat": 45.78463}}, {"id": 6535528, "name": "Albera Ligure", "country": "IT", "coord": {"lon": 9.06616, "lat": 44.702351}}, {"id": 6360268, "name": "Alberca (La)", "country": "ES", "coord": {"lon": -6.12945, "lat": 40.48624}}, {"id": 6357368, "name": "Alberca de Z\u00e1ncara (La)", "country": "ES", "coord": {"lon": -2.49836, "lat": 39.512989}}, {"id": 3866418, "name": "Alberdi", "country": "AR", "coord": {"lon": -60.690578, "lat": -32.88987}}, {"id": 8012402, "name": "Albergaria Dos Doze", "country": "PT", "coord": {"lon": -8.57614, "lat": 39.800549}}, {"id": 8010414, "name": "Albergaria-A-Velha", "country": "PT", "coord": {"lon": -8.50399, "lat": 40.687061}}, {"id": 2743233, "name": "Albergaria-a-Velha", "country": "PT", "coord": {"lon": -8.47994, "lat": 40.69318}}, {"id": 3130662, "name": "Alberguer\u00eda", "country": "ES", "coord": {"lon": -7.55231, "lat": 42.12302}}, {"id": 6361876, "name": "Alberic", "country": "ES", "coord": {"lon": -0.51863, "lat": 39.11879}}, {"id": 2522222, "name": "Alberic", "country": "ES", "coord": {"lon": -0.51667, "lat": 39.116669}}, {"id": 6358996, "name": "Alberite", "country": "ES", "coord": {"lon": -2.4096, "lat": 42.400101}}, {"id": 3130660, "name": "Alberite", "country": "ES", "coord": {"lon": -2.43894, "lat": 42.40704}}, {"id": 6362704, "name": "Alberite de San Juan", "country": "ES", "coord": {"lon": -1.46084, "lat": 41.808842}}, {"id": 3130659, "name": "Alberite de San Juan", "country": "ES", "coord": {"lon": -1.47063, "lat": 41.820091}}, {"id": 2958734, "name": "Albernau", "country": "DE", "coord": {"lon": 12.65, "lat": 50.549999}}, {"id": 7873231, "name": "Alberndorf in der Riedmark", "country": "AT", "coord": {"lon": 14.41578, "lat": 48.406071}}, {"id": 2782830, "name": "Alberndorf in der Riedmark", "country": "AT", "coord": {"lon": 14.41441, "lat": 48.406071}}, {"id": 5883093, "name": "Alberni", "country": "CA", "coord": {"lon": -124.802803, "lat": 49.24963}}, {"id": 6358264, "name": "Albero Alto", "country": "ES", "coord": {"lon": -0.34627, "lat": 42.053478}}, {"id": 3130658, "name": "Albero Alto", "country": "ES", "coord": {"lon": -0.3371, "lat": 42.050308}}, {"id": 6358265, "name": "Albero Bajo", "country": "ES", "coord": {"lon": -0.38304, "lat": 42.02615}}, {"id": 3130657, "name": "Albero Bajo", "country": "ES", "coord": {"lon": -0.38018, "lat": 42.0238}}, {"id": 3183330, "name": "Alberobello", "country": "IT", "coord": {"lon": 17.2372, "lat": 40.785931}}, {"id": 3183329, "name": "Alberona", "country": "IT", "coord": {"lon": 15.12304, "lat": 41.432732}}, {"id": 4232564, "name": "Albers", "country": "US", "coord": {"lon": -89.612312, "lat": 38.543381}}, {"id": 2958723, "name": "Albersbach", "country": "DE", "coord": {"lon": 7.55, "lat": 49.5}}, {"id": 6551297, "name": "Albersdorf", "country": "DE", "coord": {"lon": 9.2783, "lat": 54.1479}}, {"id": 2958710, "name": "Albersdorf", "country": "DE", "coord": {"lon": 9.28333, "lat": 54.150002}}, {"id": 6550343, "name": "Albersdorf", "country": "DE", "coord": {"lon": 11.7667, "lat": 50.900002}}, {"id": 2958713, "name": "Albersdorf", "country": "DE", "coord": {"lon": 11.76667, "lat": 50.900002}}, {"id": 6555438, "name": "Albershausen", "country": "DE", "coord": {"lon": 9.5654, "lat": 48.691601}}, {"id": 2958707, "name": "Albershausen", "country": "DE", "coord": {"lon": 9.56493, "lat": 48.69136}}, {"id": 2958704, "name": "Albersloh", "country": "DE", "coord": {"lon": 7.75, "lat": 51.866669}}, {"id": 2958700, "name": "Albersroda", "country": "DE", "coord": {"lon": 11.71667, "lat": 51.283329}}, {"id": 2958699, "name": "Alberstedt", "country": "DE", "coord": {"lon": 11.63333, "lat": 51.450001}}, {"id": 6555163, "name": "Albersweiler", "country": "DE", "coord": {"lon": 8.03, "lat": 49.2192}}, {"id": 2958696, "name": "Albersweiler", "country": "DE", "coord": {"lon": 8.03, "lat": 49.21917}}, {"id": 7285045, "name": "Alberswil", "country": "CH", "coord": {"lon": 7.99517, "lat": 47.147411}}, {"id": 2661829, "name": "Alberswil", "country": "CH", "coord": {"lon": 8.00313, "lat": 47.149979}}, {"id": 2178199, "name": "Albert", "country": "AU", "coord": {"lon": 147.5, "lat": -32.349998}}, {"id": 3038271, "name": "Albert", "country": "FR", "coord": {"lon": 2.65096, "lat": 50.000912}}, {"id": 3491603, "name": "Albert Arms", "country": "JM", "coord": {"lon": -77.699997, "lat": 18.049999}}, {"id": 4846519, "name": "Albert City", "country": "US", "coord": {"lon": -94.948601, "lat": 42.781921}}, {"id": 1023454, "name": "Albert Falls", "country": "ZA", "coord": {"lon": 30.433439, "lat": -29.44039}}, {"id": 5016024, "name": "Albert Lea", "country": "US", "coord": {"lon": -93.368271, "lat": 43.64801}}, {"id": 3491602, "name": "Albert Town", "country": "JM", "coord": {"lon": -77.542389, "lat": 18.29434}}, {"id": 5883102, "name": "Alberta", "country": "CA", "coord": {"lon": -117.469002, "lat": 52.283329}}, {"id": 5016042, "name": "Alberta", "country": "US", "coord": {"lon": -96.047546, "lat": 45.573299}}, {"id": 2958694, "name": "Albertaich", "country": "DE", "coord": {"lon": 12.36667, "lat": 48.01667}}, {"id": 3472749, "name": "Albertina", "country": "BR", "coord": {"lon": -46.615829, "lat": -22.20083}}, {"id": 2958680, "name": "Albertinenhof", "country": "DE", "coord": {"lon": 11.00075, "lat": 53.436409}}, {"id": 3056326, "name": "Albertirsa", "country": "HU", "coord": {"lon": 19.616859, "lat": 47.243149}}, {"id": 3979497, "name": "Alberto Oviedo Mota", "country": "MX", "coord": {"lon": -115.169724, "lat": 32.227501}}, {"id": 5883166, "name": "Alberton", "country": "CA", "coord": {"lon": -64.065422, "lat": 46.816849}}, {"id": 7870390, "name": "Alberton North", "country": "ZA", "coord": {"lon": 28.132469, "lat": -26.240999}}, {"id": 5883171, "name": "Alberton South", "country": "CA", "coord": {"lon": -64.07653, "lat": 46.797352}}, {"id": 2178191, "name": "Alberton West", "country": "AU", "coord": {"lon": 146.600006, "lat": -38.599998}}, {"id": 6557008, "name": "Albertshofen", "country": "DE", "coord": {"lon": 10.1667, "lat": 49.766701}}, {"id": 2958653, "name": "Albertshofen", "country": "DE", "coord": {"lon": 10.16667, "lat": 49.76667}}, {"id": 7870410, "name": "Albertskroon", "country": "ZA", "coord": {"lon": 27.974621, "lat": -26.161449}}, {"id": 2624906, "name": "Albertslund", "country": "DK", "coord": {"lon": 12.36381, "lat": 55.65691}}, {"id": 2624905, "name": "Albertslund Kommune", "country": "DK", "coord": {"lon": 12.36667, "lat": 55.683331}}, {"id": 5106857, "name": "Albertson", "country": "US", "coord": {"lon": -73.643181, "lat": 40.77343}}, {"id": 4829791, "name": "Albertville", "country": "US", "coord": {"lon": -86.20887, "lat": 34.26759}}, {"id": 6450958, "name": "Albertville", "country": "FR", "coord": {"lon": 6.387, "lat": 45.673679}}, {"id": 5883187, "name": "Albertville", "country": "CA", "coord": {"lon": -105.550987, "lat": 53.400089}}, {"id": 3038266, "name": "Albertville", "country": "FR", "coord": {"lon": 6.39061, "lat": 45.674519}}, {"id": 5016051, "name": "Albertville", "country": "US", "coord": {"lon": -93.654411, "lat": 45.23774}}, {"id": 6358266, "name": "Alberuela de Tubo", "country": "ES", "coord": {"lon": -0.23188, "lat": 41.89716}}, {"id": 3130653, "name": "Alberuela de Tubo", "country": "ES", "coord": {"lon": -0.21418, "lat": 41.908459}}, {"id": 6358768, "name": "Albesa", "country": "ES", "coord": {"lon": 0.66986, "lat": 41.761902}}, {"id": 3130652, "name": "Albesa", "country": "ES", "coord": {"lon": 0.65936, "lat": 41.752819}}, {"id": 6534925, "name": "Albese con Cassano", "country": "IT", "coord": {"lon": 9.16364, "lat": 45.79488}}, {"id": 6555073, "name": "Albessen", "country": "DE", "coord": {"lon": 7.33333, "lat": 49.516701}}, {"id": 2958641, "name": "Albessen", "country": "DE", "coord": {"lon": 7.33333, "lat": 49.51667}}, {"id": 686561, "name": "Albesti", "country": "RO", "coord": {"lon": 24.85, "lat": 46.23333}}, {"id": 686556, "name": "Albesti", "country": "RO", "coord": {"lon": 27.066669, "lat": 47.700001}}, {"id": 686560, "name": "Albesti", "country": "RO", "coord": {"lon": 27.866671, "lat": 46.5}}, {"id": 686562, "name": "Albesti", "country": "RO", "coord": {"lon": 25, "lat": 45.316669}}, {"id": 686565, "name": "Albesti", "country": "RO", "coord": {"lon": 27.133329, "lat": 44.533329}}, {"id": 686568, "name": "Albesti", "country": "RO", "coord": {"lon": 28.41667, "lat": 43.799999}}, {"id": 686542, "name": "Albesti-Paleologu", "country": "RO", "coord": {"lon": 26.216669, "lat": 44.950001}}, {"id": 686544, "name": "Albestii Pamanteni", "country": "RO", "coord": {"lon": 24.66667, "lat": 45.216671}}, {"id": 6362705, "name": "Albeta", "country": "ES", "coord": {"lon": -1.50207, "lat": 41.825081}}, {"id": 3130650, "name": "Albeta", "country": "ES", "coord": {"lon": -1.49936, "lat": 41.826359}}, {"id": 3183325, "name": "Albettone", "country": "IT", "coord": {"lon": 11.5818, "lat": 45.356892}}, {"id": 2661828, "name": "Albeuve", "country": "CH", "coord": {"lon": 7.0567, "lat": 46.517269}}, {"id": 6452544, "name": "Albi", "country": "FR", "coord": {"lon": 2.15, "lat": 43.933331}}, {"id": 3038261, "name": "Albi", "country": "FR", "coord": {"lon": 2.148, "lat": 43.929798}}, {"id": 2525757, "name": "Albi", "country": "IT", "coord": {"lon": 16.596399, "lat": 39.02499}}, {"id": 4846529, "name": "Albia", "country": "US", "coord": {"lon": -92.805748, "lat": 41.026669}}, {"id": 3183323, "name": "Albiano", "country": "IT", "coord": {"lon": 11.19348, "lat": 46.144909}}, {"id": 3183322, "name": "Albiano dIvrea", "country": "IT", "coord": {"lon": 7.95062, "lat": 45.432961}}, {"id": 3038257, "name": "Albias", "country": "FR", "coord": {"lon": 1.44821, "lat": 44.090488}}, {"id": 3183321, "name": "Albiate", "country": "IT", "coord": {"lon": 9.25614, "lat": 45.657082}}, {"id": 2525756, "name": "Albidona", "country": "IT", "coord": {"lon": 16.47019, "lat": 39.922611}}, {"id": 6554824, "name": "Albig", "country": "DE", "coord": {"lon": 8.12139, "lat": 49.773602}}, {"id": 2958638, "name": "Albig", "country": "DE", "coord": {"lon": 8.12139, "lat": 49.773609}}, {"id": 6538325, "name": "Albignasego", "country": "IT", "coord": {"lon": 11.86721, "lat": 45.347488}}, {"id": 3183319, "name": "Albignasego", "country": "IT", "coord": {"lon": 11.86721, "lat": 45.347488}}, {"id": 3038249, "name": "Albigny-sur-Saone", "country": "FR", "coord": {"lon": 4.83333, "lat": 45.866669}}, {"id": 776759, "name": "Albigowa", "country": "PL", "coord": {"lon": 22.22414, "lat": 50.014252}}, {"id": 6356335, "name": "Albillos", "country": "ES", "coord": {"lon": -3.79045, "lat": 42.276669}}, {"id": 3130646, "name": "Albillos", "country": "ES", "coord": {"lon": -3.78908, "lat": 42.276798}}, {"id": 3218617, "name": "Albina", "country": "IT", "coord": {"lon": 12.46722, "lat": 45.832779}}, {"id": 3384792, "name": "Albina", "country": "SR", "coord": {"lon": -54.049999, "lat": 5.5}}, {"id": 6541026, "name": "Albinea", "country": "IT", "coord": {"lon": 10.60639, "lat": 44.624458}}, {"id": 3183318, "name": "Albinea", "country": "IT", "coord": {"lon": 10.60639, "lat": 44.624458}}, {"id": 7285046, "name": "Albinen", "country": "CH", "coord": {"lon": 7.64482, "lat": 46.353981}}, {"id": 2661827, "name": "Albinen", "country": "CH", "coord": {"lon": 7.63318, "lat": 46.34071}}, {"id": 2958635, "name": "Albingshausen", "country": "DE", "coord": {"lon": 10.61667, "lat": 50.283329}}, {"id": 6540342, "name": "Albino", "country": "IT", "coord": {"lon": 9.79636, "lat": 45.763779}}, {"id": 3183316, "name": "Albino", "country": "IT", "coord": {"lon": 9.79636, "lat": 45.763779}}, {"id": 6361245, "name": "Albinyana", "country": "ES", "coord": {"lon": 1.49536, "lat": 41.241879}}, {"id": 3130645, "name": "Albinyana", "country": "ES", "coord": {"lon": 1.48333, "lat": 41.25}}, {"id": 6535113, "name": "Albiolo", "country": "IT", "coord": {"lon": 8.93924, "lat": 45.80558}}, {"id": 5583814, "name": "Albion", "country": "US", "coord": {"lon": -113.578056, "lat": 42.412689}}, {"id": 934812, "name": "Albion", "country": "MU", "coord": {"lon": 57.400829, "lat": -20.21167}}, {"id": 4232568, "name": "Albion", "country": "US", "coord": {"lon": -88.056152, "lat": 38.377548}}, {"id": 4917523, "name": "Albion", "country": "US", "coord": {"lon": -85.424423, "lat": 41.395599}}, {"id": 4956545, "name": "Albion", "country": "US", "coord": {"lon": -69.442543, "lat": 44.532291}}, {"id": 4983905, "name": "Albion", "country": "US", "coord": {"lon": -84.753029, "lat": 42.243099}}, {"id": 5062806, "name": "Albion", "country": "US", "coord": {"lon": -98.00367, "lat": 41.690842}}, {"id": 5106862, "name": "Albion", "country": "US", "coord": {"lon": -78.193626, "lat": 43.246449}}, {"id": 5177944, "name": "Albion", "country": "US", "coord": {"lon": -80.366447, "lat": 41.89061}}, {"id": 5177945, "name": "Albion", "country": "US", "coord": {"lon": -78.946983, "lat": 40.95895}}, {"id": 5016060, "name": "Albion Center", "country": "US", "coord": {"lon": -94.073593, "lat": 45.17691}}, {"id": 2178179, "name": "Albion Park", "country": "AU", "coord": {"lon": 150.783325, "lat": -34.566669}}, {"id": 2958631, "name": "Albisheim", "country": "DE", "coord": {"lon": 8.09667, "lat": 49.649441}}, {"id": 3183314, "name": "Albisola Marina", "country": "IT", "coord": {"lon": 8.5096, "lat": 44.330791}}, {"id": 6534243, "name": "Albisola Superiore", "country": "IT", "coord": {"lon": 8.51046, "lat": 44.33889}}, {"id": 3038244, "name": "Albitreccia", "country": "FR", "coord": {"lon": 8.94182, "lat": 41.86248}}, {"id": 3130640, "name": "Albiz", "country": "ES", "coord": {"lon": -2.63904, "lat": 43.260471}}, {"id": 6358096, "name": "Albiztur", "country": "ES", "coord": {"lon": -2.14387, "lat": 43.128651}}, {"id": 3130639, "name": "Albiztur", "country": "ES", "coord": {"lon": -2.13649, "lat": 43.12933}}, {"id": 3183311, "name": "Albizzate", "country": "IT", "coord": {"lon": 8.80163, "lat": 45.729172}}, {"id": 2759915, "name": "Alblasserdam", "country": "NL", "coord": {"lon": 4.66111, "lat": 51.865829}}, {"id": 7285047, "name": "Albligen", "country": "CH", "coord": {"lon": 7.32288, "lat": 46.84861}}, {"id": 2661825, "name": "Albligen", "country": "CH", "coord": {"lon": 7.31814, "lat": 46.852291}}, {"id": 3130637, "name": "Albocasser", "country": "ES", "coord": {"lon": 0.03333, "lat": 40.349998}}, {"id": 6355522, "name": "Alboloduy", "country": "ES", "coord": {"lon": -2.62118, "lat": 37.065948}}, {"id": 6357641, "name": "Albolote", "country": "ES", "coord": {"lon": -3.65562, "lat": 37.293442}}, {"id": 2522208, "name": "Albolote", "country": "ES", "coord": {"lon": -3.6551, "lat": 37.230881}}, {"id": 2522207, "name": "Albondon", "country": "ES", "coord": {"lon": -3.21144, "lat": 36.827702}}, {"id": 6357642, "name": "Albond\u00f3n", "country": "ES", "coord": {"lon": -3.20996, "lat": 36.84478}}, {"id": 3183309, "name": "Albonese", "country": "IT", "coord": {"lon": 8.70664, "lat": 45.292259}}, {"id": 6534005, "name": "Albons", "country": "ES", "coord": {"lon": 3.08161, "lat": 42.110069}}, {"id": 3130634, "name": "Albons", "country": "ES", "coord": {"lon": 3.08433, "lat": 42.103889}}, {"id": 6361877, "name": "Alborache", "country": "ES", "coord": {"lon": -0.75656, "lat": 39.382198}}, {"id": 2522206, "name": "Alborache", "country": "ES", "coord": {"lon": -0.76667, "lat": 39.383331}}, {"id": 6361878, "name": "Alboraya", "country": "ES", "coord": {"lon": -0.33802, "lat": 39.504532}}, {"id": 2522203, "name": "Alboraya", "country": "ES", "coord": {"lon": -0.35, "lat": 39.5}}, {"id": 6355297, "name": "Alborea", "country": "ES", "coord": {"lon": -1.37254, "lat": 39.294769}}, {"id": 2522202, "name": "Alborea", "country": "ES", "coord": {"lon": -1.38333, "lat": 39.283329}}, {"id": 6362706, "name": "Alborge", "country": "ES", "coord": {"lon": -0.35351, "lat": 41.339512}}, {"id": 3130629, "name": "Alborge", "country": "ES", "coord": {"lon": -0.35675, "lat": 41.333672}}, {"id": 6355621, "name": "Albornos", "country": "ES", "coord": {"lon": -4.87867, "lat": 40.831551}}, {"id": 3130628, "name": "Albornos", "country": "ES", "coord": {"lon": -4.88129, "lat": 40.837952}}, {"id": 6534934, "name": "Albosaggia", "country": "IT", "coord": {"lon": 9.85405, "lat": 46.147491}}, {"id": 686524, "name": "Albota de Jos", "country": "RO", "coord": {"lon": 24.83333, "lat": 44.76667}}, {"id": 6355523, "name": "Albox", "country": "ES", "coord": {"lon": -2.13959, "lat": 37.384338}}, {"id": 2522200, "name": "Albox", "country": "ES", "coord": {"lon": -2.1495, "lat": 37.388561}}, {"id": 2522198, "name": "Alboy", "country": "ES", "coord": {"lon": -0.48838, "lat": 38.972591}}, {"id": 3079824, "name": "Albrechtice", "country": "CZ", "coord": {"lon": 18.524441, "lat": 49.786449}}, {"id": 3079817, "name": "Albrechtice nad Orlici", "country": "CZ", "coord": {"lon": 16.064369, "lat": 50.13979}}, {"id": 3079813, "name": "Albrechti\u010dky", "country": "CZ", "coord": {"lon": 18.09552, "lat": 49.701691}}, {"id": 2958613, "name": "Albrechts Teerofen", "country": "DE", "coord": {"lon": 13.16667, "lat": 52.400002}}, {"id": 2958622, "name": "Albrechtshain", "country": "DE", "coord": {"lon": 12.56527, "lat": 51.305721}}, {"id": 2657571, "name": "Albrighton", "country": "GB", "coord": {"lon": -2.26667, "lat": 52.633331}}, {"id": 5883213, "name": "Albrights Corner", "country": "CA", "coord": {"lon": -66.182182, "lat": 46.01683}}, {"id": 6551403, "name": "Albsfelde", "country": "DE", "coord": {"lon": 10.7, "lat": 53.6833}}, {"id": 2958603, "name": "Albsfelde", "country": "DE", "coord": {"lon": 10.7, "lat": 53.683331}}, {"id": 2958596, "name": "Albsheim an der Eis", "country": "DE", "coord": {"lon": 8.1825, "lat": 49.582218}}, {"id": 2958595, "name": "Albstadt", "country": "DE", "coord": {"lon": 9.02596, "lat": 48.216438}}, {"id": 2958593, "name": "Albstedt", "country": "DE", "coord": {"lon": 8.71757, "lat": 53.330029}}, {"id": 174448, "name": "Albu Kamal", "country": "SY", "coord": {"lon": 40.91861, "lat": 34.450001}}, {"id": 6359509, "name": "Albudeite", "country": "ES", "coord": {"lon": -1.37427, "lat": 38.03846}}, {"id": 2522197, "name": "Albudeite", "country": "ES", "coord": {"lon": -1.38664, "lat": 38.02895}}, {"id": 1731608, "name": "Albuera", "country": "PH", "coord": {"lon": 124.694504, "lat": 10.9158}}, {"id": 8010512, "name": "Albufeira", "country": "PT", "coord": {"lon": -8.26139, "lat": 37.083408}}, {"id": 8011969, "name": "Albufeira", "country": "PT", "coord": {"lon": -8.26606, "lat": 37.07827}}, {"id": 2272222, "name": "Albufeira", "country": "PT", "coord": {"lon": -8.2503, "lat": 37.088188}}, {"id": 6534855, "name": "Albugnano", "country": "IT", "coord": {"lon": 7.97113, "lat": 45.077549}}, {"id": 6361879, "name": "Albuixech", "country": "ES", "coord": {"lon": -0.32173, "lat": 39.544151}}, {"id": 2522191, "name": "Albuixech", "country": "ES", "coord": {"lon": -0.31667, "lat": 39.549999}}, {"id": 2522190, "name": "Albuj\u00f3n", "country": "ES", "coord": {"lon": -1.04816, "lat": 37.716648}}, {"id": 2522188, "name": "Albunan", "country": "ES", "coord": {"lon": -3.13321, "lat": 37.227081}}, {"id": 2522187, "name": "Albunol", "country": "ES", "coord": {"lon": -3.205, "lat": 36.79203}},