[{"id": 2524008, "name": "Nicotera", "country": "IT", "coord": {"lon": 15.9367, "lat": 38.554581}}, {"id": 3622716, "name": "Nicoya", "country": "CR", "coord": {"lon": -85.452011, "lat": 10.14828}}, {"id": 672240, "name": "Nicseni", "country": "RO", "coord": {"lon": 26.633329, "lat": 47.866669}}, {"id": 672229, "name": "Niculitel", "country": "RO", "coord": {"lon": 28.48333, "lat": 45.183331}}, {"id": 457138, "name": "Nida", "country": "LV", "coord": {"lon": 21.066669, "lat": 56.099998}}, {"id": 596612, "name": "Nida", "country": "LT", "coord": {"lon": 21.00667, "lat": 55.30806}}, {"id": 1261446, "name": "Nidadavole", "country": "IN", "coord": {"lon": 81.666672, "lat": 16.91667}}, {"id": 7286633, "name": "Nidau", "country": "CH", "coord": {"lon": 7.24086, "lat": 47.124352}}, {"id": 2659474, "name": "Nidau", "country": "CH", "coord": {"lon": 7.24033, "lat": 47.12545}}, {"id": 2863716, "name": "Nidda", "country": "DE", "coord": {"lon": 9, "lat": 50.416672}}, {"id": 2863712, "name": "Nidderau", "country": "DE", "coord": {"lon": 8.9, "lat": 50.25}}, {"id": 6290237, "name": "Niddrie", "country": "AU", "coord": {"lon": 144.89212, "lat": -37.737499}}, {"id": 2863711, "name": "Nideggen", "country": "DE", "coord": {"lon": 6.48333, "lat": 50.700001}}, {"id": 3091070, "name": "Nidek", "country": "PL", "coord": {"lon": 19.32461, "lat": 49.904919}}, {"id": 6437750, "name": "Niderviller", "country": "FR", "coord": {"lon": 7.10747, "lat": 48.71283}}, {"id": 2990425, "name": "Niderviller", "country": "FR", "coord": {"lon": 7.10627, "lat": 48.71294}}, {"id": 2659472, "name": "Nidfurn", "country": "CH", "coord": {"lon": 9.05468, "lat": 46.98674}}, {"id": 6692709, "name": "Nidri", "country": "GR", "coord": {"lon": 20.709829, "lat": 38.707081}}, {"id": 6458762, "name": "Nidwalden", "country": "CH", "coord": {"lon": 8.38, "lat": 46.953548}}, {"id": 7532990, "name": "Nidzica", "country": "PL", "coord": {"lon": 20.422899, "lat": 53.362999}}, {"id": 764039, "name": "Nidzica", "country": "PL", "coord": {"lon": 20.42749, "lat": 53.360519}}, {"id": 2863708, "name": "Niebede", "country": "DE", "coord": {"lon": 12.78826, "lat": 52.541698}}, {"id": 2863707, "name": "Niebel", "country": "DE", "coord": {"lon": 12.91667, "lat": 52.133331}}, {"id": 764036, "name": "Niebieszczany", "country": "PL", "coord": {"lon": 22.156509, "lat": 49.503479}}, {"id": 6358229, "name": "Niebla", "country": "ES", "coord": {"lon": -6.67988, "lat": 37.430641}}, {"id": 2513230, "name": "Niebla", "country": "ES", "coord": {"lon": -6.67894, "lat": 37.362129}}, {"id": 6551580, "name": "Nieblum", "country": "DE", "coord": {"lon": 8.489, "lat": 54.692089}}, {"id": 2863698, "name": "Nieblum", "country": "DE", "coord": {"lon": 8.49089, "lat": 54.691891}}, {"id": 764034, "name": "Niebocko", "country": "PL", "coord": {"lon": 22.104839, "lat": 49.677738}}, {"id": 764033, "name": "Nieborow", "country": "PL", "coord": {"lon": 20.069019, "lat": 52.077709}}, {"id": 2863696, "name": "Niebull", "country": "DE", "coord": {"lon": 8.82854, "lat": 54.786629}}, {"id": 6552041, "name": "Nieby", "country": "DE", "coord": {"lon": 9.93333, "lat": 54.766701}}, {"id": 2863694, "name": "Nieby", "country": "DE", "coord": {"lon": 9.93333, "lat": 54.76667}}, {"id": 764028, "name": "Niebylec", "country": "PL", "coord": {"lon": 21.903481, "lat": 49.856689}}, {"id": 3091058, "name": "Niechanowo", "country": "PL", "coord": {"lon": 17.67812, "lat": 52.465271}}, {"id": 764026, "name": "Niechobrz", "country": "PL", "coord": {"lon": 21.878241, "lat": 49.99472}}, {"id": 2863692, "name": "Nied", "country": "DE", "coord": {"lon": 8.56667, "lat": 50.099998}}, {"id": 6548471, "name": "Nieden", "country": "DE", "coord": {"lon": 13.9167, "lat": 53.4333}}, {"id": 2863686, "name": "Nieden", "country": "DE", "coord": {"lon": 13.91667, "lat": 53.433331}}, {"id": 2863685, "name": "Niedenstein", "country": "DE", "coord": {"lon": 9.31667, "lat": 51.23333}}, {"id": 6553939, "name": "Nieder Kostenz", "country": "DE", "coord": {"lon": 7.36667, "lat": 49.950001}}, {"id": 2863202, "name": "Nieder Kostenz", "country": "DE", "coord": {"lon": 7.36667, "lat": 49.950001}}, {"id": 2863143, "name": "Nieder L\u00fcdersfeld", "country": "DE", "coord": {"lon": 9.25, "lat": 52.366669}}, {"id": 2863056, "name": "Nieder Neundorf", "country": "DE", "coord": {"lon": 15, "lat": 51.316669}}, {"id": 2863016, "name": "Nieder Ohmen", "country": "DE", "coord": {"lon": 9.03333, "lat": 50.650002}}, {"id": 2862876, "name": "Nieder Seifersdorf", "country": "DE", "coord": {"lon": 14.76667, "lat": 51.216671}}, {"id": 2862739, "name": "Nieder Weisel", "country": "DE", "coord": {"lon": 8.68333, "lat": 50.416672}}, {"id": 2863619, "name": "Nieder-Beerbach", "country": "DE", "coord": {"lon": 8.67639, "lat": 49.791389}}, {"id": 2863439, "name": "Nieder-Fl\u00f6rsheim", "country": "DE", "coord": {"lon": 8.20861, "lat": 49.650558}}, {"id": 6555289, "name": "Nieder-Hilbersheim", "country": "DE", "coord": {"lon": 8.04194, "lat": 49.9133}}, {"id": 2863326, "name": "Nieder-Hilbersheim", "country": "DE", "coord": {"lon": 8.04194, "lat": 49.91333}}, {"id": 2863240, "name": "Nieder-Ingelheim", "country": "DE", "coord": {"lon": 8.07246, "lat": 49.977558}}, {"id": 2863229, "name": "Nieder-Kainsbach", "country": "DE", "coord": {"lon": 8.88167, "lat": 49.754719}}, {"id": 2863208, "name": "Nieder-Klingen", "country": "DE", "coord": {"lon": 8.88889, "lat": 49.82}}, {"id": 2863108, "name": "Nieder-Moos", "country": "DE", "coord": {"lon": 9.38284, "lat": 50.47406}}, {"id": 6555290, "name": "Nieder-Olm", "country": "DE", "coord": {"lon": 8.21333, "lat": 49.9142}}, {"id": 2863014, "name": "Nieder-Olm", "country": "DE", "coord": {"lon": 8.20533, "lat": 49.911659}}, {"id": 2862978, "name": "Nieder-Ramstadt", "country": "DE", "coord": {"lon": 8.70889, "lat": 49.83139}}, {"id": 2862757, "name": "Nieder-Waroldern", "country": "DE", "coord": {"lon": 9.00939, "lat": 51.307869}}, {"id": 6554868, "name": "Nieder-Wiesen", "country": "DE", "coord": {"lon": 7.98333, "lat": 49.733299}}, {"id": 2862723, "name": "Nieder-Wiesen", "country": "DE", "coord": {"lon": 7.98333, "lat": 49.73333}}, {"id": 6554252, "name": "Niederahr", "country": "DE", "coord": {"lon": 7.85, "lat": 50.483299}}, {"id": 2863678, "name": "Niederahr", "country": "DE", "coord": {"lon": 7.85, "lat": 50.48333}}, {"id": 6556510, "name": "Niederaichbach", "country": "DE", "coord": {"lon": 12.3167, "lat": 48.599998}}, {"id": 2863674, "name": "Niederaichbach", "country": "DE", "coord": {"lon": 12.31667, "lat": 48.599998}}, {"id": 6555128, "name": "Niederalben", "country": "DE", "coord": {"lon": 7.46667, "lat": 49.599998}}, {"id": 2863672, "name": "Niederalben", "country": "DE", "coord": {"lon": 7.46667, "lat": 49.599998}}, {"id": 6556463, "name": "Niederalteich", "country": "DE", "coord": {"lon": 13.0333, "lat": 48.766701}}, {"id": 2863667, "name": "Niederalteich", "country": "DE", "coord": {"lon": 13.02412, "lat": 48.76564}}, {"id": 6693278, "name": "Niederanven", "country": "LU", "coord": {"lon": 6.26, "lat": 49.647499}}, {"id": 2960231, "name": "Niederanven", "country": "LU", "coord": {"lon": 6.26, "lat": 49.647499}}, {"id": 2863650, "name": "Niederasphe", "country": "DE", "coord": {"lon": 8.66667, "lat": 50.933331}}, {"id": 2863649, "name": "Niederast", "country": "DE", "coord": {"lon": 12.68333, "lat": 48.833328}}, {"id": 2863645, "name": "Niederau", "country": "DE", "coord": {"lon": 13.06667, "lat": 50.633331}}, {"id": 6548631, "name": "Niederau", "country": "DE", "coord": {"lon": 13.5707, "lat": 51.144001}}, {"id": 2863643, "name": "Niederau", "country": "DE", "coord": {"lon": 13.54563, "lat": 51.177299}}, {"id": 6553258, "name": "Niederaula", "country": "DE", "coord": {"lon": 9.6, "lat": 50.799999}}, {"id": 2863638, "name": "Niederaula", "country": "DE", "coord": {"lon": 9.6, "lat": 50.799999}}, {"id": 2863635, "name": "Niederau\u00dfem", "country": "DE", "coord": {"lon": 6.66667, "lat": 50.98333}}, {"id": 2863630, "name": "Niederbachem", "country": "DE", "coord": {"lon": 7.16667, "lat": 50.650002}}, {"id": 6554070, "name": "Niederbachheim", "country": "DE", "coord": {"lon": 7.76667, "lat": 50.25}}, {"id": 2863629, "name": "Niederbachheim", "country": "DE", "coord": {"lon": 7.76667, "lat": 50.25}}, {"id": 2863618, "name": "Niederbeisheim", "country": "DE", "coord": {"lon": 9.53333, "lat": 51.033329}}, {"id": 2863609, "name": "Niederberg", "country": "DE", "coord": {"lon": 6.76667, "lat": 50.73333}}, {"id": 6556293, "name": "Niederbergkirchen", "country": "DE", "coord": {"lon": 12.5, "lat": 48.3167}}, {"id": 2863604, "name": "Niederbergkirchen", "country": "DE", "coord": {"lon": 12.5, "lat": 48.316669}}, {"id": 2863598, "name": "Niederbexbach", "country": "DE", "coord": {"lon": 7.26162, "lat": 49.331829}}, {"id": 2863597, "name": "Niederbieber", "country": "DE", "coord": {"lon": 7.48333, "lat": 50.48333}}, {"id": 2863596, "name": "Niederbieber", "country": "DE", "coord": {"lon": 9.80444, "lat": 50.579369}}, {"id": 2863593, "name": "Niederbiel", "country": "DE", "coord": {"lon": 8.39845, "lat": 50.55505}}, {"id": 7286634, "name": "Niederbipp", "country": "CH", "coord": {"lon": 7.7038, "lat": 47.266201}}, {"id": 2659470, "name": "Niederbipp", "country": "CH", "coord": {"lon": 7.69461, "lat": 47.266129}}, {"id": 2863588, "name": "Niederbobritzsch", "country": "DE", "coord": {"lon": 13.43333, "lat": 50.900002}}, {"id": 2863580, "name": "Niederbosa", "country": "DE", "coord": {"lon": 11, "lat": 51.26667}}, {"id": 2863578, "name": "Niederbrechen", "country": "DE", "coord": {"lon": 8.16667, "lat": 50.366669}}, {"id": 6553843, "name": "Niederbreitbach", "country": "DE", "coord": {"lon": 7.41667, "lat": 50.533298}}, {"id": 2863574, "name": "Niederbreitbach", "country": "DE", "coord": {"lon": 7.41667, "lat": 50.533329}}, {"id": 6553617, "name": "Niederbrombach", "country": "DE", "coord": {"lon": 7.25, "lat": 49.6833}}, {"id": 2863569, "name": "Niederbrombach", "country": "DE", "coord": {"lon": 7.25, "lat": 49.683331}}, {"id": 6441245, "name": "Niederbronn-les-Bains", "country": "FR", "coord": {"lon": 7.64194, "lat": 48.95137}}, {"id": 2990420, "name": "Niederbronn-les-Bains", "country": "FR", "coord": {"lon": 7.64271, "lat": 48.951649}}, {"id": 2659468, "name": "Niederburen", "country": "CH", "coord": {"lon": 9.20568, "lat": 47.465469}}, {"id": 6553938, "name": "Niederburg", "country": "DE", "coord": {"lon": 7.7, "lat": 50.116699}}, {"id": 2863555, "name": "Niederburg", "country": "DE", "coord": {"lon": 7.7, "lat": 50.116669}}, {"id": 2863552, "name": "Niederbusch", "country": "DE", "coord": {"lon": 6.01667, "lat": 50.966671}}, {"id": 6549976, "name": "Niederb\u00f6sa", "country": "DE", "coord": {"lon": 11, "lat": 51.266701}}, {"id": 7286636, "name": "Niederb\u00fcren", "country": "CH", "coord": {"lon": 9.21506, "lat": 47.461788}}, {"id": 2960228, "name": "Niedercorn", "country": "LU", "coord": {"lon": 5.89306, "lat": 49.53611}}, {"id": 6548680, "name": "Niedercunnersdorf", "country": "DE", "coord": {"lon": 14.6667, "lat": 51.049999}}, {"id": 2863545, "name": "Niedercunnersdorf", "country": "DE", "coord": {"lon": 14.66667, "lat": 51.049999}}, {"id": 2863537, "name": "Niederdieten", "country": "DE", "coord": {"lon": 8.43333, "lat": 50.866669}}, {"id": 2863536, "name": "Niederding", "country": "DE", "coord": {"lon": 11.85, "lat": 48.316669}}, {"id": 2863534, "name": "Niederdollendorf", "country": "DE", "coord": {"lon": 7.18333, "lat": 50.683331}}, {"id": 2863525, "name": "Niederdorf", "country": "DE", "coord": {"lon": 7.81667, "lat": 50.51667}}, {"id": 6547400, "name": "Niederdorf", "country": "DE", "coord": {"lon": 12.7833, "lat": 50.733299}}, {"id": 2863523, "name": "Niederdorf", "country": "DE", "coord": {"lon": 12.78333, "lat": 50.73333}}, {"id": 6553189, "name": "Niederdorfelden", "country": "DE", "coord": {"lon": 8.80525, "lat": 50.193352}}, {"id": 2863517, "name": "Niederdorfelden", "country": "DE", "coord": {"lon": 8.80005, "lat": 50.194149}}, {"id": 6549937, "name": "Niederdorla", "country": "DE", "coord": {"lon": 10.45, "lat": 51.150002}}, {"id": 2863516, "name": "Niederdorla", "country": "DE", "coord": {"lon": 10.45, "lat": 51.150002}}, {"id": 2863514, "name": "Niederdornberg", "country": "DE", "coord": {"lon": 8.46667, "lat": 52.066669}}, {"id": 6553422, "name": "Niederdreisbach", "country": "DE", "coord": {"lon": 7.93333, "lat": 50.75}}, {"id": 2863508, "name": "Niederdreisbach", "country": "DE", "coord": {"lon": 7.93333, "lat": 50.75}}, {"id": 2863505, "name": "Niederdurenbach", "country": "DE", "coord": {"lon": 7.18333, "lat": 50.450001}}, {"id": 6553326, "name": "Niederd\u00fcrenbach", "country": "DE", "coord": {"lon": 7.18333, "lat": 50.450001}}, {"id": 6554160, "name": "Niederelbert", "country": "DE", "coord": {"lon": 7.81667, "lat": 50.416698}}, {"id": 2863487, "name": "Niederelbert", "country": "DE", "coord": {"lon": 7.81667, "lat": 50.416672}}, {"id": 2863483, "name": "Niederelsdorf", "country": "DE", "coord": {"lon": 12.73333, "lat": 50.966671}}, {"id": 2863482, "name": "Niederelsungen", "country": "DE", "coord": {"lon": 9.19127, "lat": 51.387959}}, {"id": 2863477, "name": "Niederems", "country": "DE", "coord": {"lon": 8.36667, "lat": 50.25}}, {"id": 6554161, "name": "Niedererbach", "country": "DE", "coord": {"lon": 7.98333, "lat": 50.416698}}, {"id": 2863470, "name": "Niedererbach", "country": "DE", "coord": {"lon": 7.98333, "lat": 50.433331}}, {"id": 2659467, "name": "Niedererlinsbach", "country": "CH", "coord": {"lon": 8.00503, "lat": 47.392181}}, {"id": 6555825, "name": "Niedereschach", "country": "DE", "coord": {"lon": 8.53333, "lat": 48.133301}}, {"id": 2863457, "name": "Niedereschach", "country": "DE", "coord": {"lon": 8.53333, "lat": 48.133331}}, {"id": 6553804, "name": "Niederfell", "country": "DE", "coord": {"lon": 7.46667, "lat": 50.283298}}, {"id": 2863444, "name": "Niederfell", "country": "DE", "coord": {"lon": 7.46667, "lat": 50.283329}}, {"id": 2863443, "name": "Niederfellendorf", "country": "DE", "coord": {"lon": 11.21667, "lat": 49.799999}}, {"id": 2960577, "name": "Niederfeulen", "country": "LU", "coord": {"lon": 6.04722, "lat": 49.85556}}, {"id": 6547555, "name": "Niederfinow", "country": "DE", "coord": {"lon": 13.9333, "lat": 52.833302}}, {"id": 2863442, "name": "Niederfinow", "country": "DE", "coord": {"lon": 13.92843, "lat": 52.833679}}, {"id": 6553423, "name": "Niederfischbach", "country": "DE", "coord": {"lon": 7.8633, "lat": 50.848598}}, {"id": 2863441, "name": "Niederfischbach", "country": "DE", "coord": {"lon": 7.86667, "lat": 50.849998}}, {"id": 2863438, "name": "Niederflorstadt", "country": "DE", "coord": {"lon": 8.86667, "lat": 50.316669}}, {"id": 2863437, "name": "Niederflo\u00dfbach", "country": "DE", "coord": {"lon": 7.36667, "lat": 51.083328}}, {"id": 6548504, "name": "Niederfrohna", "country": "DE", "coord": {"lon": 12.7167, "lat": 50.900002}}, {"id": 2863429, "name": "Niederfrohna", "country": "DE", "coord": {"lon": 12.71667, "lat": 50.900002}}, {"id": 2863428, "name": "Niederfullbach", "country": "DE", "coord": {"lon": 10.98333, "lat": 50.216671}}, {"id": 6556775, "name": "Niederf\u00fcllbach", "country": "DE", "coord": {"lon": 10.9833, "lat": 50.216702}}, {"id": 2659466, "name": "Niedergampel", "country": "CH", "coord": {"lon": 7.71292, "lat": 46.312672}}, {"id": 6549848, "name": "Niedergebra", "country": "DE", "coord": {"lon": 10.6, "lat": 51.416698}}, {"id": 2863422, "name": "Niedergebra", "country": "DE", "coord": {"lon": 10.6, "lat": 51.416672}}, {"id": 6554473, "name": "Niedergeckler", "country": "DE", "coord": {"lon": 6.3, "lat": 49.966702}}, {"id": 2863419, "name": "Niedergeckler", "country": "DE", "coord": {"lon": 6.3, "lat": 49.966671}}, {"id": 7286638, "name": "Niedergesteln", "country": "CH", "coord": {"lon": 7.79232, "lat": 46.336658}}, {"id": 2659465, "name": "Niedergesteln", "country": "CH", "coord": {"lon": 7.78218, "lat": 46.31287}}, {"id": 2863408, "name": "Niedergladbach", "country": "DE", "coord": {"lon": 7.98333, "lat": 50.099998}}, {"id": 7286639, "name": "Niederglatt", "country": "CH", "coord": {"lon": 8.49879, "lat": 47.493099}}, {"id": 6295528, "name": "Niederglatt", "country": "CH", "coord": {"lon": 8.49987, "lat": 47.490662}}, {"id": 6291546, "name": "Niederglatt / Niederglatt (Dorfkern)", "country": "CH", "coord": {"lon": 8.50048, "lat": 47.49065}}, {"id": 2863401, "name": "Niedergorsdorf", "country": "DE", "coord": {"lon": 13, "lat": 51.98333}}, {"id": 2659464, "name": "Niedergosgen", "country": "CH", "coord": {"lon": 7.99122, "lat": 47.372169}}, {"id": 2863392, "name": "Niedergrunstedt", "country": "DE", "coord": {"lon": 11.28433, "lat": 50.957561}}, {"id": 2863393, "name": "Niedergr\u00fcndau", "country": "DE", "coord": {"lon": 9.10801, "lat": 50.210972}}, {"id": 2863388, "name": "Niedergurig", "country": "DE", "coord": {"lon": 14.48333, "lat": 51.23333}}, {"id": 6547727, "name": "Niederg\u00f6rsdorf", "country": "DE", "coord": {"lon": 13, "lat": 51.983299}}, {"id": 2863385, "name": "Niederhaaren", "country": "DE", "coord": {"lon": 8.2, "lat": 52.333328}}, {"id": 2863384, "name": "Niederhabscheid", "country": "DE", "coord": {"lon": 6.26667, "lat": 50.183331}}, {"id": 2863374, "name": "Niederham", "country": "DE", "coord": {"lon": 13.3, "lat": 48.666672}}, {"id": 6553618, "name": "Niederhambach", "country": "DE", "coord": {"lon": 7.2, "lat": 49.6833}}, {"id": 2863371, "name": "Niederhambach", "country": "DE", "coord": {"lon": 7.2, "lat": 49.683331}}, {"id": 6441246, "name": "Niederhaslach", "country": "FR", "coord": {"lon": 7.34144, "lat": 48.542519}}, {"id": 2990417, "name": "Niederhaslach", "country": "FR", "coord": {"lon": 7.34282, "lat": 48.542641}}, {"id": 7286641, "name": "Niederhasli", "country": "CH", "coord": {"lon": 8.49032, "lat": 47.468819}}, {"id": 6291558, "name": "Niederhasli", "country": "CH", "coord": {"lon": 8.48576, "lat": 47.480122}}, {"id": 6441247, "name": "Niederhausbergen", "country": "FR", "coord": {"lon": 7.70133, "lat": 48.623829}}, {"id": 2990416, "name": "Niederhausbergen", "country": "FR", "coord": {"lon": 7.7021, "lat": 48.624001}}, {"id": 6553520, "name": "Niederhausen", "country": "DE", "coord": {"lon": 7.78333, "lat": 49.799999}}, {"id": 2863359, "name": "Niederhausen", "country": "DE", "coord": {"lon": 7.78333, "lat": 49.799999}}, {"id": 6554970, "name": "Niederhausen an der Appel", "country": "DE", "coord": {"lon": 7.9, "lat": 49.75}}, {"id": 2863355, "name": "Niederhausen an der Appel", "country": "DE", "coord": {"lon": 7.9, "lat": 49.75}}, {"id": 6555288, "name": "Niederheimbach", "country": "DE", "coord": {"lon": 7.81667, "lat": 50.033298}}, {"id": 2863341, "name": "Niederheimbach", "country": "DE", "coord": {"lon": 7.81667, "lat": 50.033329}}, {"id": 7286642, "name": "Niederhelfenschwil", "country": "CH", "coord": {"lon": 9.16564, "lat": 47.478378}}, {"id": 2659462, "name": "Niederhelfenschwil", "country": "CH", "coord": {"lon": 9.18543, "lat": 47.474869}}, {"id": 2863304, "name": "Niederhof", "country": "DE", "coord": {"lon": 12.90876, "lat": 52.571239}}, {"id": 6553844, "name": "Niederhofen", "country": "DE", "coord": {"lon": 7.6, "lat": 50.5667}}, {"id": 2863281, "name": "Niederhofen", "country": "DE", "coord": {"lon": 7.6, "lat": 50.566669}}, {"id": 7871795, "name": "Niederhollabrunn", "country": "AT", "coord": {"lon": 16.297991, "lat": 48.46022}}, {"id": 2770576, "name": "Niederhollabrunn", "country": "AT", "coord": {"lon": 16.299999, "lat": 48.433331}}, {"id": 2863268, "name": "Niederholzhausen", "country": "DE", "coord": {"lon": 11.53333, "lat": 51.133331}}, {"id": 2863262, "name": "Niederhonnefeld", "country": "DE", "coord": {"lon": 7.5, "lat": 50.549999}}, {"id": 6555205, "name": "Niederhorbach", "country": "DE", "coord": {"lon": 8.03417, "lat": 49.115299}}, {"id": 2863259, "name": "Niederhorbach", "country": "DE", "coord": {"lon": 8.03417, "lat": 49.11528}}, {"id": 6553619, "name": "Niederhosenbach", "country": "DE", "coord": {"lon": 7.36667, "lat": 49.799999}}, {"id": 2863254, "name": "Niederhosenbach", "country": "DE", "coord": {"lon": 7.36667, "lat": 49.799999}}, {"id": 2863247, "name": "Niederhummel", "country": "DE", "coord": {"lon": 11.88333, "lat": 48.433331}}, {"id": 2863257, "name": "Niederh\u00f6rlen", "country": "DE", "coord": {"lon": 8.43333, "lat": 50.833328}}, {"id": 6553424, "name": "Niederirsen", "country": "DE", "coord": {"lon": 7.6, "lat": 50.75}}, {"id": 2863239, "name": "Niederirsen", "country": "DE", "coord": {"lon": 7.6, "lat": 50.75}}, {"id": 2863237, "name": "Niederjahna", "country": "DE", "coord": {"lon": 13.43333, "lat": 51.166672}}, {"id": 2863234, "name": "Niederjosbach", "country": "DE", "coord": {"lon": 8.35, "lat": 50.150002}}, {"id": 2863233, "name": "Niederjossa", "country": "DE", "coord": {"lon": 9.56667, "lat": 50.76667}}, {"id": 2863231, "name": "Niederkail", "country": "DE", "coord": {"lon": 6.75, "lat": 49.98333}}, {"id": 2863223, "name": "Niederkassel", "country": "DE", "coord": {"lon": 7.03333, "lat": 50.816669}}, {"id": 2863222, "name": "Niederkassel", "country": "DE", "coord": {"lon": 6.7535, "lat": 51.241718}}, {"id": 6555051, "name": "Niederkirchen", "country": "DE", "coord": {"lon": 7.7, "lat": 49.583302}}, {"id": 2863214, "name": "Niederkirchen", "country": "DE", "coord": {"lon": 7.7, "lat": 49.583328}}, {"id": 6554918, "name": "Niederkirchen bei Deidesheim", "country": "DE", "coord": {"lon": 8.21, "lat": 49.415001}}, {"id": 2863213, "name": "Niederkirchen bei Deidesheim", "country": "DE", "coord": {"lon": 8.21, "lat": 49.415001}}, {"id": 2863211, "name": "Niederkleen", "country": "DE", "coord": {"lon": 8.61706, "lat": 50.475971}}, {"id": 2863205, "name": "Niederkl\u00fctz", "country": "DE", "coord": {"lon": 11.16667, "lat": 53.966671}}, {"id": 2863199, "name": "Niederkruchten", "country": "DE", "coord": {"lon": 6.21667, "lat": 51.200001}}, {"id": 6553042, "name": "Niederkr\u00fcchten", "country": "DE", "coord": {"lon": 6.1775, "lat": 51.2108}}, {"id": 6553940, "name": "Niederkumbd", "country": "DE", "coord": {"lon": 7.53333, "lat": 50.016701}}, {"id": 2863198, "name": "Niederkumbd", "country": "DE", "coord": {"lon": 7.53333, "lat": 50.01667}}, {"id": 6552912, "name": "Niederlangen", "country": "DE", "coord": {"lon": 7.28333, "lat": 52.849998}}, {"id": 2863185, "name": "Niederlangen", "country": "DE", "coord": {"lon": 7.28333, "lat": 52.849998}}, {"id": 6554577, "name": "Niederlauch", "country": "DE", "coord": {"lon": 6.43333, "lat": 50.166698}}, {"id": 2863179, "name": "Niederlauch", "country": "DE", "coord": {"lon": 6.43333, "lat": 50.166672}}, {"id": 6556982, "name": "Niederlauer", "country": "DE", "coord": {"lon": 10.1833, "lat": 50.283298}}, {"id": 2863178, "name": "Niederlauer", "country": "DE", "coord": {"lon": 10.18333, "lat": 50.283329}}, {"id": 2863177, "name": "Niederlauken", "country": "DE", "coord": {"lon": 8.43333, "lat": 50.349998}}, {"id": 2863175, "name": "Niederlauterbach", "country": "DE", "coord": {"lon": 11.63333, "lat": 48.633331}}, {"id": 2863172, "name": "Niederlehme", "country": "DE", "coord": {"lon": 13.65, "lat": 52.316669}}, {"id": 2863171, "name": "Niederleierndorf", "country": "DE", "coord": {"lon": 12.08333, "lat": 48.833328}}, {"id": 7871845, "name": "Niederleis", "country": "AT", "coord": {"lon": 16.4067, "lat": 48.553452}}, {"id": 2770560, "name": "Niederleis", "country": "AT", "coord": {"lon": 16.4, "lat": 48.549999}}, {"id": 7286644, "name": "Niederlenz", "country": "CH", "coord": {"lon": 8.17028, "lat": 47.403599}}, {"id": 2659461, "name": "Niederlenz", "country": "CH", "coord": {"lon": 8.1764, "lat": 47.400791}}, {"id": 2863165, "name": "Niederlern", "country": "DE", "coord": {"lon": 11.93333, "lat": 48.400002}}, {"id": 2863163, "name": "Niederleupten", "country": "DE", "coord": {"lon": 12.49738, "lat": 50.970749}}, {"id": 2863156, "name": "Niederlindach", "country": "DE", "coord": {"lon": 10.89123, "lat": 49.6464}}, {"id": 2863150, "name": "Niederl\u00f6rick", "country": "DE", "coord": {"lon": 6.71667, "lat": 51.25}}, {"id": 2863148, "name": "Niederl\u00f6\u00dfnitz", "country": "DE", "coord": {"lon": 12.71667, "lat": 50.616669}}, {"id": 2863138, "name": "Niederl\u00fctzingen", "country": "DE", "coord": {"lon": 7.3, "lat": 50.48333}}, {"id": 2863136, "name": "Niedermanderscheid", "country": "DE", "coord": {"lon": 6.81667, "lat": 50.083328}}, {"id": 2863129, "name": "Niedermaulsbach", "country": "DE", "coord": {"lon": 7.48333, "lat": 50.683331}}, {"id": 2863126, "name": "Niedermeien", "country": "DE", "coord": {"lon": 8.95781, "lat": 52.069271}}, {"id": 2863125, "name": "Niedermeilingen", "country": "DE", "coord": {"lon": 7.9, "lat": 50.183331}}, {"id": 2863120, "name": "Niedermennig", "country": "DE", "coord": {"lon": 6.63333, "lat": 49.700001}}, {"id": 2863115, "name": "Niedermittlau", "country": "DE", "coord": {"lon": 9.13333, "lat": 50.166672}}, {"id": 6555052, "name": "Niedermohr", "country": "DE", "coord": {"lon": 7.46667, "lat": 49.466702}}, {"id": 2863111, "name": "Niedermohr", "country": "DE", "coord": {"lon": 7.46667, "lat": 49.466671}}, {"id": 2863107, "name": "Niedermoosen", "country": "DE", "coord": {"lon": 12.1804, "lat": 47.835739}}, {"id": 6554971, "name": "Niedermoschel", "country": "DE", "coord": {"lon": 7.8, "lat": 49.733299}}, {"id": 2863103, "name": "Niedermoschel", "country": "DE", "coord": {"lon": 7.8, "lat": 49.73333}}, {"id": 2863102, "name": "Niedermotzing", "country": "DE", "coord": {"lon": 12.5, "lat": 48.916672}}, {"id": 7286645, "name": "Niedermuhlern", "country": "CH", "coord": {"lon": 7.46178, "lat": 46.857651}}, {"id": 6556704, "name": "Niedermurach", "country": "DE", "coord": {"lon": 12.3667, "lat": 49.450001}}, {"id": 2863095, "name": "Niedermurach", "country": "DE", "coord": {"lon": 12.36667, "lat": 49.450001}}, {"id": 2863109, "name": "Niederm\u00f6llrich", "country": "DE", "coord": {"lon": 9.36667, "lat": 51.116669}}, {"id": 2863104, "name": "Niederm\u00f6rsbach", "country": "DE", "coord": {"lon": 7.78333, "lat": 50.716671}}, {"id": 2863100, "name": "Niederm\u00fclsen", "country": "DE", "coord": {"lon": 12.53333, "lat": 50.783329}}, {"id": 6441250, "name": "Niedernai", "country": "FR", "coord": {"lon": 7.51667, "lat": 48.450001}}, {"id": 2990410, "name": "Niedernai", "country": "FR", "coord": {"lon": 7.51487, "lat": 48.45134}}, {"id": 6557029, "name": "Niedernberg", "country": "DE", "coord": {"lon": 9.13694, "lat": 49.912201}}, {"id": 2863088, "name": "Niedernberg", "country": "DE", "coord": {"lon": 9.13694, "lat": 49.91222}}, {"id": 2863087, "name": "Niedernberg", "country": "DE", "coord": {"lon": 12.05, "lat": 50.299999}}, {"id": 2863083, "name": "Niederndodeleben", "country": "DE", "coord": {"lon": 11.5, "lat": 52.133331}}, {"id": 7872569, "name": "Niederndorf", "country": "AT", "coord": {"lon": 12.21201, "lat": 47.652649}}, {"id": 2770555, "name": "Niederndorf", "country": "AT", "coord": {"lon": 12.21667, "lat": 47.650002}}, {"id": 6554071, "name": "Niederneisen", "country": "DE", "coord": {"lon": 8.05, "lat": 50.333302}}, {"id": 2863065, "name": "Niederneisen", "country": "DE", "coord": {"lon": 8.05, "lat": 50.333328}}, {"id": 2863064, "name": "Niedernetphen", "country": "DE", "coord": {"lon": 8.1, "lat": 50.916672}}, {"id": 2863062, "name": "Niederneuching", "country": "DE", "coord": {"lon": 11.85, "lat": 48.25}}, {"id": 7669799, "name": "Niederneunforn", "country": "CH", "coord": {"lon": 8.78482, "lat": 47.59729}}, {"id": 2863049, "name": "Niedernhall", "country": "DE", "coord": {"lon": 9.61604, "lat": 49.295158}}, {"id": 6553201, "name": "Niedernhausen", "country": "DE", "coord": {"lon": 8.31667, "lat": 50.150002}}, {"id": 2863046, "name": "Niedernhausen", "country": "DE", "coord": {"lon": 8.31667, "lat": 50.150002}}, {"id": 2863039, "name": "Niedernissa", "country": "DE", "coord": {"lon": 11.1, "lat": 50.950001}}, {"id": 2863038, "name": "Niedernjesa", "country": "DE", "coord": {"lon": 9.91667, "lat": 51.48333}}, {"id": 7872245, "name": "Niedernsill", "country": "AT", "coord": {"lon": 12.64877, "lat": 47.263031}}, {"id": 2770544, "name": "Niedernsill", "country": "AT", "coord": {"lon": 12.65, "lat": 47.283329}}, {"id": 2863031, "name": "Niedernwohren", "country": "DE", "coord": {"lon": 9.13736, "lat": 52.354431}}, {"id": 6552545, "name": "Niedernw\u00f6hren", "country": "DE", "coord": {"lon": 9.13805, "lat": 52.351379}}, {"id": 2770543, "name": "Niederoblarn", "country": "AT", "coord": {"lon": 14.01667, "lat": 47.466671}}, {"id": 2863022, "name": "Niederoderwitz", "country": "DE", "coord": {"lon": 14.73333, "lat": 50.950001}}, {"id": 2863019, "name": "Niederofflingen", "country": "DE", "coord": {"lon": 6.88333, "lat": 50.066669}}, {"id": 6549804, "name": "Niederorschel", "country": "DE", "coord": {"lon": 10.42667, "lat": 51.369438}}, {"id": 2863012, "name": "Niederorschel", "country": "DE", "coord": {"lon": 10.43333, "lat": 51.366669}}, {"id": 6555206, "name": "Niederotterbach", "country": "DE", "coord": {"lon": 8.04556, "lat": 49.060299}}, {"id": 2863005, "name": "Niederotterbach", "country": "DE", "coord": {"lon": 8.04556, "lat": 49.06028}}, {"id": 2960226, "name": "Niederpallen", "country": "LU", "coord": {"lon": 5.91222, "lat": 49.75528}}, {"id": 2863000, "name": "Niederpesterwitz", "country": "DE", "coord": {"lon": 13.65, "lat": 51.01667}}, {"id": 6554578, "name": "Niederpierscheid", "country": "DE", "coord": {"lon": 6.36667, "lat": 50.083302}}, {"id": 2862995, "name": "Niederpierscheid", "country": "DE", "coord": {"lon": 6.36667, "lat": 50.083328}}, {"id": 2862988, "name": "Niederpoyritz", "country": "DE", "coord": {"lon": 13.84058, "lat": 51.032269}}, {"id": 2862991, "name": "Niederp\u00f6cking", "country": "DE", "coord": {"lon": 11.33333, "lat": 47.98333}}, {"id": 2862990, "name": "Niederp\u00f6llnitz", "country": "DE", "coord": {"lon": 11.96667, "lat": 50.75}}, {"id": 2862982, "name": "Niederquembach", "country": "DE", "coord": {"lon": 8.44909, "lat": 50.476238}}, {"id": 7290401, "name": "Niederrad", "country": "DE", "coord": {"lon": 8.62852, "lat": 50.083092}}, {"id": 6554474, "name": "Niederraden", "country": "DE", "coord": {"lon": 6.31667, "lat": 49.983299}}, {"id": 2862980, "name": "Niederraden", "country": "DE", "coord": {"lon": 6.31667, "lat": 49.98333}}, {"id": 2862965, "name": "Niederreissen", "country": "DE", "coord": {"lon": 11.41667, "lat": 51.099998}}, {"id": 6550266, "name": "Niederrei\u00dfen", "country": "DE", "coord": {"lon": 11.4167, "lat": 51.099998}}, {"id": 2659457, "name": "Niederried", "country": "CH", "coord": {"lon": 7.93238, "lat": 46.718739}}, {"id": 6557255, "name": "Niederrieden", "country": "DE", "coord": {"lon": 10.1833, "lat": 48.049999}}, {"id": 2862953, "name": "Niederrieden", "country": "DE", "coord": {"lon": 10.18321, "lat": 48.057598}}, {"id": 2862946, "name": "Niederroden", "country": "DE", "coord": {"lon": 10.3, "lat": 49}}, {"id": 2862944, "name": "Niederrodenbach", "country": "DE", "coord": {"lon": 9.03333, "lat": 50.150002}}, {"id": 7286650, "name": "Niederrohrdorf", "country": "CH", "coord": {"lon": 8.30133, "lat": 47.420109}}, {"id": 2659456, "name": "Niederrohrdorf", "country": "CH", "coord": {"lon": 8.3, "lat": 47.416672}}, {"id": 2862935, "name": "Niederrossbach", "country": "DE", "coord": {"lon": 8.03333, "lat": 50.650002}}, {"id": 2862933, "name": "Niederrossla", "country": "DE", "coord": {"lon": 11.48333, "lat": 51.033329}}, {"id": 6547432, "name": "Niederro\u00dfbach", "country": "DE", "coord": {"lon": 8.0843, "lat": 50.587898}}, {"id": 6550267, "name": "Niederro\u00dfla", "country": "DE", "coord": {"lon": 11.4833, "lat": 51.033298}}, {"id": 2862949, "name": "Niederr\u00f6blingen", "country": "DE", "coord": {"lon": 11.33333, "lat": 51.433331}}, {"id": 6549849, "name": "Niedersachswerfen", "country": "DE", "coord": {"lon": 10.7667, "lat": 51.5667}}, {"id": 2862925, "name": "Niedersachswerfen", "country": "DE", "coord": {"lon": 10.76667, "lat": 51.566669}}, {"id": 2862924, "name": "Niedersaida", "country": "DE", "coord": {"lon": 13.3, "lat": 50.75}}, {"id": 2862921, "name": "Niedersalwey", "country": "DE", "coord": {"lon": 8.13333, "lat": 51.25}}, {"id": 2770529, "name": "Niedersausal", "country": "AT", "coord": {"lon": 15.4, "lat": 46.799999}}, {"id": 6554253, "name": "Niedersayn", "country": "DE", "coord": {"lon": 7.83333, "lat": 50.533298}}, {"id": 2862914, "name": "Niedersayn", "country": "DE", "coord": {"lon": 7.83333, "lat": 50.533329}}, {"id": 6441251, "name": "Niederschaeffolsheim", "country": "FR", "coord": {"lon": 7.73333, "lat": 48.76667}}, {"id": 2990408, "name": "Niederschaeffolsheim", "country": "FR", "coord": {"lon": 7.73874, "lat": 48.771961}}, {"id": 6554360, "name": "Niederscheidweiler", "country": "DE", "coord": {"lon": 6.95, "lat": 50.0667}}, {"id": 2862909, "name": "Niederscheidweiler", "country": "DE", "coord": {"lon": 6.95, "lat": 50.066669}}, {"id": 2659455, "name": "Niederscherli", "country": "CH", "coord": {"lon": 7.39385, "lat": 46.885052}}, {"id": 2862903, "name": "Niederscheyern", "country": "DE", "coord": {"lon": 11.48333, "lat": 48.51667}}, {"id": 6555343, "name": "Niederschlettenbach", "country": "DE", "coord": {"lon": 7.85, "lat": 49.083302}}, {"id": 2862899, "name": "Niederschlettenbach", "country": "DE", "coord": {"lon": 7.85, "lat": 49.083328}}, {"id": 2862893, "name": "Niederschona", "country": "DE", "coord": {"lon": 13.41667, "lat": 50.966671}}, {"id": 2862891, "name": "Niederschonenfeld", "country": "DE", "coord": {"lon": 10.93333, "lat": 48.716671}}, {"id": 2862890, "name": "Niederschoneweide", "country": "DE", "coord": {"lon": 13.5, "lat": 52.450001}}, {"id": 2862888, "name": "Niederschonhausen", "country": "DE", "coord": {"lon": 13.40272, "lat": 52.584831}}, {"id": 6557294, "name": "Niedersch\u00f6nenfeld", "country": "DE", "coord": {"lon": 10.9333, "lat": 48.716702}}, {"id": 2862880, "name": "Niederseeon", "country": "DE", "coord": {"lon": 12.46667, "lat": 47.966671}}, {"id": 2862873, "name": "Niederselters", "country": "DE", "coord": {"lon": 8.23333, "lat": 50.333328}}, {"id": 2862870, "name": "Niedersfeld", "country": "DE", "coord": {"lon": 8.53333, "lat": 51.26667}}, {"id": 2862868, "name": "Niedershausen", "country": "DE", "coord": {"lon": 8.26172, "lat": 50.53722}}, {"id": 2862867, "name": "Niedersickte", "country": "DE", "coord": {"lon": 10.637, "lat": 52.212341}}, {"id": 2862866, "name": "Niedersimten", "country": "DE", "coord": {"lon": 7.6, "lat": 49.183331}}, {"id": 6553941, "name": "Niedersohren", "country": "DE", "coord": {"lon": 7.33333, "lat": 49.9333}}, {"id": 2862862, "name": "Niedersohren", "country": "DE", "coord": {"lon": 7.33333, "lat": 49.933331}}, {"id": 2659453, "name": "Niedersommeri", "country": "CH", "coord": {"lon": 9.28919, "lat": 47.567501}}, {"id": 2862854, "name": "Niederspaar", "country": "DE", "coord": {"lon": 13.48333, "lat": 51.150002}}, {"id": 2862852, "name": "Niederspier", "country": "DE", "coord": {"lon": 10.85, "lat": 51.283329}}, {"id": 6554654, "name": "Niederstadtfeld", "country": "DE", "coord": {"lon": 6.76667, "lat": 50.166698}}, {"id": 2862849, "name": "Niederstadtfeld", "country": "DE", "coord": {"lon": 6.76667, "lat": 50.166672}}, {"id": 6555129, "name": "Niederstaufenbach", "country": "DE", "coord": {"lon": 7.51667, "lat": 49.533298}}, {"id": 2862845, "name": "Niederstaufenbach", "country": "DE", "coord": {"lon": 7.51667, "lat": 49.533329}}, {"id": 6554475, "name": "Niederstedem", "country": "DE", "coord": {"lon": 6.5, "lat": 49.9333}}, {"id": 2862842, "name": "Niederstedem", "country": "DE", "coord": {"lon": 6.5, "lat": 49.933331}}, {"id": 6441253, "name": "Niedersteinbach", "country": "FR", "coord": {"lon": 7.71667, "lat": 49.033329}}, {"id": 2990405, "name": "Niedersteinbach", "country": "FR", "coord": {"lon": 7.71232, "lat": 49.0303}}, {"id": 6553425, "name": "Niedersteinebach", "country": "DE", "coord": {"lon": 7.5, "lat": 50.599998}}, {"id": 2862833, "name": "Niedersteinebach", "country": "DE", "coord": {"lon": 7.50692, "lat": 50.600182}}, {"id": 2862831, "name": "Niederstetten", "country": "DE", "coord": {"lon": 9.91944, "lat": 49.400002}}, {"id": 2862825, "name": "Niederstotzingen", "country": "DE", "coord": {"lon": 10.23505, "lat": 48.541271}}, {"id": 6548754, "name": "Niederstriegis", "country": "DE", "coord": {"lon": 13.15, "lat": 51.083302}}, {"id": 2862818, "name": "Niederstriegis", "country": "DE", "coord": {"lon": 13.15, "lat": 51.083328}}, {"id": 2862815, "name": "Niedersunzing", "country": "DE", "coord": {"lon": 12.55, "lat": 48.799999}}, {"id": 6553942, "name": "Niedert", "country": "DE", "coord": {"lon": 7.53333, "lat": 50.133301}}, {"id": 2862811, "name": "Niedert", "country": "DE", "coord": {"lon": 7.53333, "lat": 50.133331}}, {"id": 6556294, "name": "Niedertaufkirchen", "country": "DE", "coord": {"lon": 12.55, "lat": 48.333302}}, {"id": 2862809, "name": "Niedertaufkirchen", "country": "DE", "coord": {"lon": 12.55, "lat": 48.333328}}, {"id": 7872161, "name": "Niederthalheim", "country": "AT", "coord": {"lon": 13.75343, "lat": 48.099751}}, {"id": 2770514, "name": "Niederthalheim", "country": "AT", "coord": {"lon": 13.75, "lat": 48.099998}}, {"id": 2770513, "name": "Niederthan", "country": "AT", "coord": {"lon": 14, "lat": 48.183331}}, {"id": 6554072, "name": "Niedertiefenbach", "country": "DE", "coord": {"lon": 7.9, "lat": 50.266701}}, {"id": 2862802, "name": "Niedertiefenbach", "country": "DE", "coord": {"lon": 7.9, "lat": 50.26667}}, {"id": 2862800, "name": "Niedertopfstedt", "country": "DE", "coord": {"lon": 10.96667, "lat": 51.25}}, {"id": 2862799, "name": "Niedertraubling", "country": "DE", "coord": {"lon": 12.18333, "lat": 48.966671}}, {"id": 2862798, "name": "Niedertreba", "country": "DE", "coord": {"lon": 11.58333, "lat": 51.066669}}, {"id": 7286652, "name": "Niederurnen", "country": "CH", "coord": {"lon": 9.0232, "lat": 47.126869}}, {"id": 2659451, "name": "Niederurnen", "country": "CH", "coord": {"lon": 9.05428, "lat": 47.12598}}, {"id": 2862787, "name": "Niedervellmar", "country": "DE", "coord": {"lon": 9.47863, "lat": 51.351089}}, {"id": 6556609, "name": "Niederviehbach", "country": "DE", "coord": {"lon": 12.3833, "lat": 48.616699}}, {"id": 2862785, "name": "Niederviehbach", "country": "DE", "coord": {"lon": 12.38333, "lat": 48.616669}}, {"id": 2862782, "name": "Niederviehbig", "country": "DE", "coord": {"lon": 14.76667, "lat": 50.916672}}, {"id": 2862765, "name": "Niederwalgern", "country": "DE", "coord": {"lon": 8.7, "lat": 50.73333}}, {"id": 6554073, "name": "Niederwallmenach", "country": "DE", "coord": {"lon": 7.81667, "lat": 50.166698}}, {"id": 2862763, "name": "Niederwallmenach", "country": "DE", "coord": {"lon": 7.81667, "lat": 50.166672}}, {"id": 6553845, "name": "Niederwambach", "country": "DE", "coord": {"lon": 7.6, "lat": 50.633301}}, {"id": 2862760, "name": "Niederwambach", "country": "DE", "coord": {"lon": 7.6, "lat": 50.633331}}, {"id": 2960223, "name": "Niederwampach", "country": "LU", "coord": {"lon": 5.84361, "lat": 50.011669}}, {"id": 7669801, "name": "Niederwangen", "country": "CH", "coord": {"lon": 7.37298, "lat": 46.927021}}, {"id": 2862753, "name": "Niederweidbach", "country": "DE", "coord": {"lon": 8.48333, "lat": 50.700001}}, {"id": 2862747, "name": "Niederweiler", "country": "DE", "coord": {"lon": 9.41667, "lat": 47.866669}}, {"id": 6554476, "name": "Niederweiler", "country": "DE", "coord": {"lon": 6.45, "lat": 50.033298}}, {"id": 2862743, "name": "Niederweiler", "country": "DE", "coord": {"lon": 6.45, "lat": 50.033329}}, {"id": 6553943, "name": "Niederweiler", "country": "DE", "coord": {"lon": 7.28333, "lat": 49.900002}}, {"id": 2862744, "name": "Niederweiler", "country": "DE", "coord": {"lon": 7.28333, "lat": 49.900002}}, {"id": 2862742, "name": "Niederweimar", "country": "DE", "coord": {"lon": 8.73327, "lat": 50.76252}}, {"id": 6554477, "name": "Niederweis", "country": "DE", "coord": {"lon": 6.46667, "lat": 49.866699}}, {"id": 2862741, "name": "Niederweis", "country": "DE", "coord": {"lon": 6.46717, "lat": 49.869968}}, {"id": 6557064, "name": "Niederwerrn", "country": "DE", "coord": {"lon": 10.1833, "lat": 50.0667}}, {"id": 2862733, "name": "Niederwerrn", "country": "DE", "coord": {"lon": 10.1827, "lat": 50.061489}}, {"id": 6553805, "name": "Niederwerth", "country": "DE", "coord": {"lon": 7.61667, "lat": 50.400002}}, {"id": 2862731, "name": "Niederwerth", "country": "DE", "coord": {"lon": 7.61667, "lat": 50.400002}}, {"id": 2862728, "name": "Niederwetz", "country": "DE", "coord": {"lon": 8.49861, "lat": 50.48962}}, {"id": 2862727, "name": "Niederweyer", "country": "DE", "coord": {"lon": 8.06667, "lat": 50.450001}}, {"id": 2659447, "name": "Niederwichtrach", "country": "CH", "coord": {"lon": 7.57748, "lat": 46.850101}}, {"id": 6548522, "name": "Niederwiesa", "country": "DE", "coord": {"lon": 13.0033, "lat": 50.8624}}, {"id": 2862724, "name": "Niederwiesa", "country": "DE", "coord": {"lon": 13.01667, "lat": 50.866669}}, {"id": 7669803, "name": "Niederwil", "country": "CH", "coord": {"lon": 9.19917, "lat": 47.439571}}, {"id": 7286655, "name": "Niederwil (AG)", "country": "CH", "coord": {"lon": 8.2923, "lat": 47.38039}}, {"id": 2862720, "name": "Niederwillingen", "country": "DE", "coord": {"lon": 11.03333, "lat": 50.783329}}, {"id": 6556589, "name": "Niederwinkling", "country": "DE", "coord": {"lon": 12.7985, "lat": 48.888199}}, {"id": 2862713, "name": "Niederwinkling", "country": "DE", "coord": {"lon": 12.8, "lat": 48.883331}}, {"id": 2770496, "name": "Niederwolz", "country": "AT", "coord": {"lon": 14.36667, "lat": 47.150002}}, {"id": 2862708, "name": "Niederworresbach", "country": "DE", "coord": {"lon": 7.33333, "lat": 49.76667}}, {"id": 2862710, "name": "Niederw\u00f6hr", "country": "DE", "coord": {"lon": 11.66667, "lat": 48.76667}}, {"id": 7873524, "name": "Niederw\u00f6lz", "country": "AT", "coord": {"lon": 14.36273, "lat": 47.15427}}, {"id": 6553620, "name": "Niederw\u00f6rresbach", "country": "DE", "coord": {"lon": 7.33333, "lat": 49.766701}}, {"id": 2862706, "name": "Niederw\u00fcnsch", "country": "DE", "coord": {"lon": 11.8, "lat": 51.349998}}, {"id": 2862701, "name": "Niederzerf", "country": "DE", "coord": {"lon": 6.68333, "lat": 49.599998}}, {"id": 2862700, "name": "Niederzeuzheim", "country": "DE", "coord": {"lon": 8.03333, "lat": 50.466671}}, {"id": 6553059, "name": "Niederzier", "country": "DE", "coord": {"lon": 6.4346, "lat": 50.866001}}, {"id": 2862698, "name": "Niederzier", "country": "DE", "coord": {"lon": 6.46667, "lat": 50.883331}}, {"id": 6550269, "name": "Niederzimmern", "country": "DE", "coord": {"lon": 11.1833, "lat": 51}}, {"id": 2862697, "name": "Niederzimmern", "country": "DE", "coord": {"lon": 11.18333, "lat": 51}}, {"id": 6553327, "name": "Niederzissen", "country": "DE", "coord": {"lon": 7.23333, "lat": 50.466702}}, {"id": 2862696, "name": "Niederzissen", "country": "DE", "coord": {"lon": 7.23333, "lat": 50.466671}}, {"id": 7872443, "name": "Nieder\u00f6blarn", "country": "AT", "coord": {"lon": 14.04652, "lat": 47.463379}}, {"id": 6554359, "name": "Nieder\u00f6fflingen", "country": "DE", "coord": {"lon": 6.88333, "lat": 50.0667}}, {"id": 7286647, "name": "Nieder\u00f6sch", "country": "CH", "coord": {"lon": 7.61587, "lat": 47.115761}}, {"id": 2770542, "name": "Nieder\u00f6sterreich", "country": "AT", "coord": {"lon": 15.75, "lat": 48.333328}}, {"id": 3091031, "name": "Niedobczyce", "country": "PL", "coord": {"lon": 18.49531, "lat": 50.065399}}, {"id": 764002, "name": "Niedomice", "country": "PL", "coord": {"lon": 20.895479, "lat": 50.107368}}, {"id": 764000, "name": "Niedrzwica Duza", "country": "PL", "coord": {"lon": 22.389111, "lat": 51.11462}}, {"id": 763992, "name": "Niedzica", "country": "PL", "coord": {"lon": 20.302731, "lat": 49.41008}}, {"id": 763987, "name": "Niedzwiada", "country": "PL", "coord": {"lon": 22.691401, "lat": 51.54409}}, {"id": 763989, "name": "Niedzwiada", "country": "PL", "coord": {"lon": 21.52162, "lat": 49.989368}}, {"id": 763982, "name": "Niedzwiedz", "country": "PL", "coord": {"lon": 20.07794, "lat": 49.620998}}, {"id": 763981, "name": "Nied\u017awied\u017a", "country": "PL", "coord": {"lon": 20.093559, "lat": 50.224041}}, {"id": 2862686, "name": "Niefern", "country": "DE", "coord": {"lon": 8.78333, "lat": 48.916672}}, {"id": 3206254, "name": "Niefern-Oschelbronn", "country": "DE", "coord": {"lon": 8.78333, "lat": 48.916672}}, {"id": 6555708, "name": "Niefern-\u00d6schelbronn", "country": "DE", "coord": {"lon": 8.78333, "lat": 48.916698}}, {"id": 2862685, "name": "Niefernheim", "country": "DE", "coord": {"lon": 8.14917, "lat": 49.64333}}, {"id": 3090990, "name": "Niegowonice", "country": "PL", "coord": {"lon": 19.42263, "lat": 50.389091}}, {"id": 2862682, "name": "Niegripp", "country": "DE", "coord": {"lon": 11.76667, "lat": 52.26667}}, {"id": 2862679, "name": "Niehagen", "country": "DE", "coord": {"lon": 12.41163, "lat": 54.363461}}, {"id": 2862675, "name": "Nieheim", "country": "DE", "coord": {"lon": 9.11667, "lat": 51.799999}}, {"id": 6554478, "name": "Niehl", "country": "DE", "coord": {"lon": 6.36667, "lat": 49.950001}}, {"id": 2862674, "name": "Niehl", "country": "DE", "coord": {"lon": 6.35525, "lat": 49.957741}}, {"id": 1799418, "name": "Niejiahe", "country": "CN", "coord": {"lon": 111.295792, "lat": 30.304741}}, {"id": 2862654, "name": "Niekrenz", "country": "DE", "coord": {"lon": 12.36503, "lat": 54.045681}}, {"id": 2790225, "name": "Niel", "country": "BE", "coord": {"lon": 4.33428, "lat": 51.110958}}, {"id": 2790226, "name": "Niel", "country": "BE", "coord": {"lon": 4.33617, "lat": 51.109989}}, {"id": 2862651, "name": "Nielebock", "country": "DE", "coord": {"lon": 12.06667, "lat": 52.433331}}, {"id": 763946, "name": "Nielisz", "country": "PL", "coord": {"lon": 23.04451, "lat": 50.800671}}, {"id": 3172262, "name": "Niella Belbo", "country": "IT", "coord": {"lon": 8.07934, "lat": 44.512741}}, {"id": 6534365, "name": "Niella Tanaro", "country": "IT", "coord": {"lon": 7.92794, "lat": 44.405731}}, {"id": 3878678, "name": "Nielol", "country": "CL", "coord": {"lon": -72.716667, "lat": -38.466671}}, {"id": 2862643, "name": "Niemberg", "country": "DE", "coord": {"lon": 12.08333, "lat": 51.549999}}, {"id": 763945, "name": "Niemce", "country": "PL", "coord": {"lon": 22.639391, "lat": 51.361549}}, {"id": 3090967, "name": "Niemcza", "country": "PL", "coord": {"lon": 16.83573, "lat": 50.72007}}, {"id": 2862640, "name": "Niemegk", "country": "DE", "coord": {"lon": 12.7, "lat": 52.083328}}, {"id": 644790, "name": "Niemist\u00f6", "country": "FI", "coord": {"lon": 22.799999, "lat": 62.799999}}, {"id": 3090951, "name": "Niemodlin", "country": "PL", "coord": {"lon": 17.61932, "lat": 50.641998}}, {"id": 763914, "name": "Nienadowa", "country": "PL", "coord": {"lon": 22.42704, "lat": 49.82901}}, {"id": 2862632, "name": "Nienberge", "country": "DE", "coord": {"lon": 7.56667, "lat": 52}}, {"id": 2862627, "name": "Nienborg", "country": "DE", "coord": {"lon": 7.1, "lat": 52.133331}}, {"id": 6551891, "name": "Nienborstel", "country": "DE", "coord": {"lon": 9.61667, "lat": 54.133301}}, {"id": 2862625, "name": "Nienborstel", "country": "DE", "coord": {"lon": 9.61667, "lat": 54.133331}}, {"id": 2862620, "name": "Nienburg", "country": "DE", "coord": {"lon": 9.21667, "lat": 52.633331}}, {"id": 2862621, "name": "Nienburg", "country": "DE", "coord": {"lon": 11.75, "lat": 51.833328}}, {"id": 2862615, "name": "Nienbuttel", "country": "DE", "coord": {"lon": 9.41451, "lat": 54.02969}}, {"id": 6552224, "name": "Nienb\u00fcttel", "country": "DE", "coord": {"lon": 9.41473, "lat": 54.029701}}, {"id": 2862592, "name": "Niendorf", "country": "DE", "coord": {"lon": 11.21667, "lat": 54.466671}}, {"id": 6548207, "name": "Niendorf", "country": "DE", "coord": {"lon": 10.9, "lat": 53.8167}}, {"id": 2862601, "name": "Niendorf", "country": "DE", "coord": {"lon": 10.9, "lat": 53.816669}}, {"id": 2862591, "name": "Niendorf an der Stecknitz", "country": "DE", "coord": {"lon": 10.6, "lat": 53.583328}}, {"id": 6552564, "name": "Nienhagen", "country": "DE", "coord": {"lon": 10.1, "lat": 52.549999}}, {"id": 2862576, "name": "Nienhagen", "country": "DE", "coord": {"lon": 10.1021, "lat": 52.557049}}, {"id": 2862571, "name": "Nienhagen", "country": "DE", "coord": {"lon": 12.18333, "lat": 54.150002}}, {"id": 3208614, "name": "Nienhorst", "country": "DE", "coord": {"lon": 10.05781, "lat": 52.546921}}, {"id": 2862552, "name": "Nienhusen", "country": "DE", "coord": {"lon": 12.03333, "lat": 54}}, {"id": 2862541, "name": "Nienstadt", "country": "DE", "coord": {"lon": 9.16667, "lat": 52.299999}}, {"id": 2862534, "name": "Nienstedten", "country": "DE", "coord": {"lon": 9.85, "lat": 53.549999}}, {"id": 2862540, "name": "Nienst\u00e4dt", "country": "DE", "coord": {"lon": 9.16667, "lat": 52.299999}}, {"id": 2862531, "name": "Nienwalde", "country": "DE", "coord": {"lon": 11.48333, "lat": 53.01667}}, {"id": 6552283, "name": "Nienwohld", "country": "DE", "coord": {"lon": 10.2, "lat": 53.783298}}, {"id": 3204977, "name": "Nienwohld", "country": "DE", "coord": {"lon": 10.19444, "lat": 53.786942}}, {"id": 2862528, "name": "Nienwohlde", "country": "DE", "coord": {"lon": 10.56667, "lat": 52.849998}}, {"id": 6548132, "name": "Niepars", "country": "DE", "coord": {"lon": 12.9333, "lat": 54.3167}}, {"id": 2862525, "name": "Niepars", "country": "DE", "coord": {"lon": 12.92447, "lat": 54.314468}}, {"id": 763903, "name": "Niepolomice", "country": "PL", "coord": {"lon": 20.22257, "lat": 50.040661}}, {"id": 763901, "name": "Nieporet", "country": "PL", "coord": {"lon": 21.03212, "lat": 52.431519}}, {"id": 7531481, "name": "Niepor\u0119t", "country": "PL", "coord": {"lon": 21.039909, "lat": 52.407749}}, {"id": 6438386, "name": "Nieppe", "country": "FR", "coord": {"lon": 2.83333, "lat": 50.700001}}, {"id": 2990392, "name": "Nieppe", "country": "FR", "coord": {"lon": 2.83506, "lat": 50.70425}}, {"id": 1799416, "name": "Nieqiao", "country": "CN", "coord": {"lon": 115.65255, "lat": 29.39237}}, {"id": 6554392, "name": "Niersbach", "country": "DE", "coord": {"lon": 6.75, "lat": 49.9333}}, {"id": 2862494, "name": "Niersbach", "country": "DE", "coord": {"lon": 6.75, "lat": 49.933331}}, {"id": 2862487, "name": "Nierst", "country": "DE", "coord": {"lon": 6.71667, "lat": 51.316669}}, {"id": 6555291, "name": "Nierstein", "country": "DE", "coord": {"lon": 8.3497, "lat": 49.8671}}, {"id": 2862485, "name": "Nierstein", "country": "DE", "coord": {"lon": 8.34667, "lat": 49.875278}}, {"id": 2862477, "name": "Niesau", "country": "DE", "coord": {"lon": 12.28333, "lat": 51.75}}, {"id": 2862472, "name": "Niesch\u00fctz", "country": "DE", "coord": {"lon": 13.43333, "lat": 51.23333}}, {"id": 2862471, "name": "Niese", "country": "DE", "coord": {"lon": 9.29289, "lat": 51.859852}}, {"id": 3209121, "name": "Niesen", "country": "DE", "coord": {"lon": 9.13333, "lat": 51.616669}}, {"id": 6552042, "name": "Niesgrau", "country": "DE", "coord": {"lon": 9.81667, "lat": 54.75}}, {"id": 2862465, "name": "Niesgrau", "country": "DE", "coord": {"lon": 9.81667, "lat": 54.75}}, {"id": 2862461, "name": "Nieska", "country": "DE", "coord": {"lon": 13.36667, "lat": 51.433331}}, {"id": 2862460, "name": "Niesky", "country": "DE", "coord": {"lon": 14.82107, "lat": 51.292412}}, {"id": 6553270, "name": "Nieste", "country": "DE", "coord": {"lon": 9.66667, "lat": 51.3167}}, {"id": 2862458, "name": "Nieste", "country": "DE", "coord": {"lon": 9.66667, "lat": 51.316669}}, {"id": 3090907, "name": "Nieszawa", "country": "PL", "coord": {"lon": 18.89921, "lat": 52.834518}}, {"id": 2862449, "name": "Nietleben", "country": "DE", "coord": {"lon": 11.9, "lat": 51.48333}}, {"id": 2155339, "name": "Nietta", "country": "AU", "coord": {"lon": 146.066666, "lat": -41.349998}}, {"id": 2862446, "name": "Nieukerk", "country": "DE", "coord": {"lon": 6.37319, "lat": 51.45652}}, {"id": 6445402, "name": "Nieul", "country": "FR", "coord": {"lon": 1.18333, "lat": 45.933331}}, {"id": 2990384, "name": "Nieul", "country": "FR", "coord": {"lon": 1.17494, "lat": 45.926682}}, {"id": 6445158, "name": "Nieul-le-Dolent", "country": "FR", "coord": {"lon": -1.51667, "lat": 46.583328}}, {"id": 2990382, "name": "Nieul-le-Dolent", "country": "FR", "coord": {"lon": -1.50808, "lat": 46.573792}}, {"id": 2990381, "name": "Nieul-les-Saintes", "country": "FR", "coord": {"lon": -0.73137, "lat": 45.760208}}, {"id": 6428020, "name": "Nieul-l\u00e8s-Saintes", "country": "FR", "coord": {"lon": -0.73333, "lat": 45.76667}}, {"id": 6428022, "name": "Nieul-sur-Mer", "country": "FR", "coord": {"lon": -1.16667, "lat": 46.200001}}, {"id": 2990377, "name": "Nieul-sur-Mer", "country": "FR", "coord": {"lon": -1.16449, "lat": 46.20583}}, {"id": 3383434, "name": "Nieuw Amsterdam", "country": "SR", "coord": {"lon": -55.083328, "lat": 5.88333}}, {"id": 3383427, "name": "Nieuw Nickerie", "country": "SR", "coord": {"lon": -56.98333, "lat": 5.95}}, {"id": 2750194, "name": "Nieuw-Helvoet", "country": "NL", "coord": {"lon": 4.12897, "lat": 51.838428}}, {"id": 2750163, "name": "Nieuw-Lekkerland", "country": "NL", "coord": {"lon": 4.68653, "lat": 51.889149}}, {"id": 2750158, "name": "Nieuw-Loosdrecht", "country": "NL", "coord": {"lon": 5.13889, "lat": 52.199169}}, {"id": 2750157, "name": "Nieuw-Lotbroek", "country": "NL", "coord": {"lon": 5.92798, "lat": 50.91283}}, {"id": 2750117, "name": "Nieuw-Vossemeer", "country": "NL", "coord": {"lon": 4.21806, "lat": 51.59}}, {"id": 2790212, "name": "Nieuwdak", "country": "BE", "coord": {"lon": 5.48132, "lat": 50.960701}}, {"id": 2750325, "name": "Nieuwegein", "country": "NL", "coord": {"lon": 5.08056, "lat": 52.029171}}, {"id": 2750310, "name": "Nieuwehorne", "country": "NL", "coord": {"lon": 6.06342, "lat": 52.95113}}, {"id": 2750280, "name": "Nieuwenhoorn", "country": "NL", "coord": {"lon": 4.14306, "lat": 51.854172}}, {"id": 2790179, "name": "Nieuwerkerken", "country": "BE", "coord": {"lon": 5.19467, "lat": 50.8638}}, {"id": 2790181, "name": "Nieuwerkerken", "country": "BE", "coord": {"lon": 5.19173, "lat": 50.865238}}, {"id": 2750187, "name": "Nieuwkoop", "country": "NL", "coord": {"lon": 4.77639, "lat": 52.150829}}, {"id": 2750175, "name": "Nieuwland", "country": "NL", "coord": {"lon": 5.38333, "lat": 52.200001}}, {"id": 3363675, "name": "Nieuwoudtville", "country": "ZA", "coord": {"lon": 19.1122, "lat": -31.37656}}, {"id": 2790153, "name": "Nieuwpoort", "country": "BE", "coord": {"lon": 2.77352, "lat": 51.124359}}, {"id": 2790150, "name": "Nieuwpoort", "country": "BE", "coord": {"lon": 2.75134, "lat": 51.130081}}, {"id": 3115471, "name": "Nieva", "country": "ES", "coord": {"lon": -5.92954, "lat": 43.595409}}, {"id": 6360874, "name": "Nieva", "country": "ES", "coord": {"lon": -4.45246, "lat": 41.092331}}, {"id": 3115473, "name": "Nieva", "country": "ES", "coord": {"lon": -4.42501, "lat": 41.081909}}, {"id": 6359094, "name": "Nieva de Cameros", "country": "ES", "coord": {"lon": -2.6705, "lat": 42.2201}}, {"id": 3115469, "name": "Nieva de Cameros", "country": "ES", "coord": {"lon": -2.667, "lat": 42.218349}}, {"id": 2862443, "name": "Nievelstein", "country": "DE", "coord": {"lon": 6.06667, "lat": 50.883331}}, {"id": 6554074, "name": "Nievern", "country": "DE", "coord": {"lon": 7.68333, "lat": 50.333302}}, {"id": 2862440, "name": "Nievern", "country": "DE", "coord": {"lon": 7.68333, "lat": 50.333328}}, {"id": 3994939, "name": "Nieves", "country": "MX", "coord": {"lon": -103.01667, "lat": 24}}, {"id": 1697696, "name": "Nieves", "country": "PH", "coord": {"lon": 120.948502, "lat": 15.3274}}, {"id": 2990369, "name": "Nievroz", "country": "FR", "coord": {"lon": 5.06667, "lat": 45.833328}}, {"id": 2862433, "name": "Niex", "country": "DE", "coord": {"lon": 12.15, "lat": 54.033329}}, {"id": 1799413, "name": "Nieying", "country": "CN", "coord": {"lon": 113.133057, "lat": 39.126389}}, {"id": 303827, "name": "Nigde", "country": "TR", "coord": {"lon": 34.679352, "lat": 37.965832}}, {"id": 970566, "name": "Nigel", "country": "ZA", "coord": {"lon": 28.477131, "lat": -26.431379}}, {"id": 2328925, "name": "Niger State", "country": "NG", "coord": {"lon": 6, "lat": 10}}, {"id": 2079696, "name": "Nightcliff", "country": "AU", "coord": {"lon": 130.853897, "lat": -12.38056}}, {"id": 1336379, "name": "Nigor", "country": "PK", "coord": {"lon": 62.239445, "lat": 25.281944}}, {"id": 3115463, "name": "Nigran", "country": "ES", "coord": {"lon": -8.80656, "lat": 42.141529}}, {"id": 734924, "name": "Nigrita", "country": "GR", "coord": {"lon": 23.499439, "lat": 40.905281}}, {"id": 6360235, "name": "Nigr\u00e1n", "country": "ES", "coord": {"lon": -8.82104, "lat": 42.145981}}, {"id": 2513223, "name": "Niguelas", "country": "ES", "coord": {"lon": -3.53949, "lat": 36.9776}}, {"id": 3115461, "name": "Niguella", "country": "ES", "coord": {"lon": -1.5245, "lat": 41.536209}}, {"id": 6357751, "name": "Nig\u00fcelas", "country": "ES", "coord": {"lon": -3.48555, "lat": 36.996319}}, {"id": 6362874, "name": "Nig\u00fcella", "country": "ES", "coord": {"lon": -1.50842, "lat": 41.55558}}, {"id": 6355772, "name": "Niharra", "country": "ES", "coord": {"lon": -4.84284, "lat": 40.59248}}, {"id": 3115459, "name": "Niharra", "country": "ES", "coord": {"lon": -4.83895, "lat": 40.589451}}, {"id": 6432932, "name": "Niherne", "country": "FR", "coord": {"lon": 1.56667, "lat": 46.833328}}, {"id": 2990367, "name": "Niherne", "country": "FR", "coord": {"lon": 1.56384, "lat": 46.827679}}, {"id": 2111656, "name": "Nihommatsu", "country": "JP", "coord": {"lon": 140.433334, "lat": 37.583328}}, {"id": 1855444, "name": "Nihon\u2019\u014dd\u014dri", "country": "JP", "coord": {"lon": 139.649994, "lat": 35.450001}}, {"id": 1261415, "name": "Nihtaur", "country": "IN", "coord": {"lon": 78.383331, "lat": 29.33333}}, {"id": 1855429, "name": "Niigata-ken", "country": "JP", "coord": {"lon": 138.91748, "lat": 37.52343}}, {"id": 1855431, "name": "Niigata-shi", "country": "JP", "coord": {"lon": 139.023605, "lat": 37.902222}}, {"id": 1855425, "name": "Niihama", "country": "JP", "coord": {"lon": 133.316727, "lat": 33.959332}}, {"id": 1855416, "name": "Niimi", "country": "JP", "coord": {"lon": 133.466675, "lat": 34.98333}}, {"id": 1855410, "name": "Niitsu", "country": "JP", "coord": {"lon": 139.116669, "lat": 37.799999}}, {"id": 2513222, "name": "Nijar", "country": "ES", "coord": {"lon": -2.20595, "lat": 36.966549}}, {"id": 3194499, "name": "Nijemci", "country": "HR", "coord": {"lon": 19.035561, "lat": 45.140282}}, {"id": 2750065, "name": "Nijkerk", "country": "NL", "coord": {"lon": 5.48611, "lat": 52.220001}}, {"id": 2790136, "name": "Nijlen", "country": "BE", "coord": {"lon": 4.67091, "lat": 51.162708}}, {"id": 2790135, "name": "Nijlen", "country": "BE", "coord": {"lon": 4.67008, "lat": 51.160961}}, {"id": 2750053, "name": "Nijmegen", "country": "NL", "coord": {"lon": 5.85278, "lat": 51.842499}}, {"id": 256429, "name": "Nikaia", "country": "GR", "coord": {"lon": 23.65, "lat": 37.966671}}, {"id": 256428, "name": "Nikaia", "country": "GR", "coord": {"lon": 22.466669, "lat": 39.566669}}, {"id": 4036495, "name": "Nikao", "country": "CK", "coord": {"lon": -159.809433, "lat": -21.206671}}, {"id": 1132465, "name": "Nikeh", "country": "AF", "coord": {"lon": 69.27179, "lat": 33.189339}}, {"id": 522260, "name": "Nikel", "country": "RU", "coord": {"lon": 30.221979, "lat": 69.412849}}, {"id": 3058533, "name": "Nikelberg", "country": "SK", "coord": {"lon": 19.066669, "lat": 48.383331}}, {"id": 839859, "name": "Nikel\u2019", "country": "RU", "coord": {"lon": 40.155834, "lat": 44.177502}}, {"id": 2155329, "name": "Nikenbah", "country": "AU", "coord": {"lon": 152.800003, "lat": -25.316669}}, {"id": 320177, "name": "Nikfer", "country": "TR", "coord": {"lon": 29.13727, "lat": 37.405418}}, {"id": 1608382, "name": "Nikhom Kham Soi", "country": "TH", "coord": {"lon": 104.551468, "lat": 16.37167}}, {"id": 1608381, "name": "Nikhom Nam Un", "country": "TH", "coord": {"lon": 103.718422, "lat": 17.18314}}, {"id": 7510920, "name": "Nikhom Phattana", "country": "TH", "coord": {"lon": 101.202728, "lat": 12.82736}}, {"id": 522241, "name": "Nikiforovo", "country": "RU", "coord": {"lon": 38.087502, "lat": 55.843613}}, {"id": 522239, "name": "Nikiforovo", "country": "RU", "coord": {"lon": 38.950001, "lat": 56.049999}}, {"id": 522243, "name": "Nikiforovo", "country": "RU", "coord": {"lon": 37.746761, "lat": 54.855179}}, {"id": 700201, "name": "Nikiforovskiy", "country": "UA", "coord": {"lon": 35.366669, "lat": 47.916672}}, {"id": 3194498, "name": "Nikinci", "country": "RS", "coord": {"lon": 19.821939, "lat": 44.851669}}, {"id": 734919, "name": "Nikisiani", "country": "GR", "coord": {"lon": 24.15, "lat": 40.950001}}, {"id": 5869956, "name": "Nikiski", "country": "US", "coord": {"lon": -151.288895, "lat": 60.690281}}, {"id": 711527, "name": "Nikita", "country": "UA", "coord": {"lon": 34.233334, "lat": 44.533333}}, {"id": 1497749, "name": "Nikita", "country": "RU", "coord": {"lon": 63.783329, "lat": 67.050003}}, {"id": 817538, "name": "Nikitino", "country": "RU", "coord": {"lon": 35.149441, "lat": 54.803612}}, {"id": 522163, "name": "Nikitino", "country": "RU", "coord": {"lon": 44.433334, "lat": 58.166668}}, {"id": 522170, "name": "Nikitino", "country": "RU", "coord": {"lon": 40.599998, "lat": 56.616669}}, {"id": 816435, "name": "Nikitinskaya", "country": "RU", "coord": {"lon": 36.68528, "lat": 55.191944}}, {"id": 1497736, "name": "Nikitinskiy", "country": "RU", "coord": {"lon": 86.011497, "lat": 54.584499}}, {"id": 7872731, "name": "Nikitsch", "country": "AT", "coord": {"lon": 16.647869, "lat": 47.526031}}, {"id": 2770487, "name": "Nikitsch", "country": "AT", "coord": {"lon": 16.66667, "lat": 47.533329}}, {"id": 522103, "name": "Nikitskoye", "country": "RU", "coord": {"lon": 36.716667, "lat": 56.083332}}, {"id": 522104, "name": "Nikitskoye", "country": "RU", "coord": {"lon": 39.133331, "lat": 55.533333}}, {"id": 522106, "name": "Nikitskoye", "country": "RU", "coord": {"lon": 38.465, "lat": 55.301666}}, {"id": 522212, "name": "Nikity", "country": "RU", "coord": {"lon": 36.200001, "lat": 56.066666}}, {"id": 2392505, "name": "Nikki", "country": "BJ", "coord": {"lon": 3.21075, "lat": 9.94009}}, {"id": 644671, "name": "Nikkil\u00e4", "country": "FI", "coord": {"lon": 25.683331, "lat": 60.950001}}, {"id": 1855395, "name": "Nikko", "country": "JP", "coord": {"lon": 139.616669, "lat": 36.75}}, {"id": 2770482, "name": "Niklasdorf", "country": "AT", "coord": {"lon": 15.15, "lat": 47.383331}}, {"id": 7873485, "name": "Niklasdorf", "country": "AT", "coord": {"lon": 15.17304, "lat": 47.383011}}, {"id": 734915, "name": "Nikoklia", "country": "GR", "coord": {"lon": 23.433331, "lat": 40.933331}}, {"id": 522072, "name": "Nikola-Trostino", "country": "RU", "coord": {"lon": 41.066666, "lat": 57.716667}}, {"id": 728792, "name": "Nikolaevo", "country": "BG", "coord": {"lon": 25.98333, "lat": 43.316669}}, {"id": 728795, "name": "Nikolaevo", "country": "BG", "coord": {"lon": 25.799999, "lat": 42.633331}}, {"id": 2862415, "name": "Nikolausrieth", "country": "DE", "coord": {"lon": 11.36667, "lat": 51.383331}}, {"id": 521966, "name": "Nikolayevka", "country": "RU", "coord": {"lon": 47.204102, "lat": 53.125702}}, {"id": 521901, "name": "Nikolayevka", "country": "RU", "coord": {"lon": 37.933334, "lat": 55.799999}}, {"id": 522021, "name": "Nikolayevka", "country": "RU", "coord": {"lon": 56.017776, "lat": 51.989723}}, {"id": 521913, "name": "Nikolayevka", "country": "RU", "coord": {"lon": 41.700001, "lat": 55.066666}}, {"id": 700151, "name": "Nikolayevka", "country": "UA", "coord": {"lon": 35.200001, "lat": 47.783333}}, {"id": 2019266, "name": "Nikolayevka", "country": "RU", "coord": {"lon": 134.785553, "lat": 48.554722}}, {"id": 521931, "name": "Nikolayevka", "country": "RU", "coord": {"lon": 45.144402, "lat": 54.1451}}, {"id": 521874, "name": "Nikolayevsk", "country": "RU", "coord": {"lon": 45.45953, "lat": 50.02824}}, {"id": 2122850, "name": "Nikolayevsk-na-Amure", "country": "RU", "coord": {"lon": 140.729996, "lat": 53.14056}}, {"id": 521870, "name": "Nikolayevskaya", "country": "RU", "coord": {"lon": 41.5023, "lat": 47.613911}}, {"id": 700079, "name": "Nikolaypol\u2019ye", "country": "UA", "coord": {"lon": 37.558739, "lat": 48.526958}}, {"id": 6461235, "name": "Nikolichevci", "country": "BG", "coord": {"lon": 22.716669, "lat": 42.316669}}, {"id": 728787, "name": "Nikolichevtsi", "country": "BG", "coord": {"lon": 22.716669, "lat": 42.316669}}, {"id": 521821, "name": "Nikolina Gora", "country": "RU", "coord": {"lon": 37.041389, "lat": 55.734444}}, {"id": 787663, "name": "Nikolinci", "country": "RS", "coord": {"lon": 21.067221, "lat": 45.049438}}, {"id": 2019246, "name": "Nikolo-Aleksandravskaya", "country": "RU", "coord": {"lon": 135.083328, "lat": 48.400002}}, {"id": 521814, "name": "Nikolo-Berezovka", "country": "RU", "coord": {"lon": 54.155731, "lat": 56.124222}}, {"id": 522080, "name": "Nikolo-Lenivets", "country": "RU", "coord": {"lon": 35.60133, "lat": 54.749432}}, {"id": 521801, "name": "Nikolo-Makarovo", "country": "RU", "coord": {"lon": 43.58139, "lat": 57.655277}}, {"id": 1497654, "name": "Nikolo-Pavlovskoye", "country": "RU", "coord": {"lon": 60.057781, "lat": 57.783058}}, {"id": 521488, "name": "Nikolo-Uryupino", "country": "RU", "coord": {"lon": 37.203609, "lat": 55.798328}}, {"id": 521807, "name": "Nikologory", "country": "RU", "coord": {"lon": 41.99218, "lat": 56.1413}}, {"id": 6460191, "name": "Nikolovo", "country": "BG", "coord": {"lon": 26.1, "lat": 43.849998}}, {"id": 728784, "name": "Nikolovo", "country": "BG", "coord": {"lon": 26.1, "lat": 43.849998}}, {"id": 7873679, "name": "Nikolsdorf", "country": "AT", "coord": {"lon": 12.91259, "lat": 46.79121}}, {"id": 2770479, "name": "Nikolsdorf", "country": "AT", "coord": {"lon": 12.91333, "lat": 46.785831}}, {"id": 521773, "name": "Nikolsk", "country": "RU", "coord": {"lon": 45.457432, "lat": 59.53532}}, {"id": 521776, "name": "Nikolsk", "country": "RU", "coord": {"lon": 46.071178, "lat": 53.718861}}, {"id": 700072, "name": "Nikol\u2019skaya", "country": "UA", "coord": {"lon": 30.583332, "lat": 50.450001}}, {"id": 521715, "name": "Nikol\u2019skiye Vyselki", "country": "RU", "coord": {"lon": 38.733334, "lat": 55.366669}}, {"id": 521700, "name": "Nikol\u2019sko-Arkhangel\u2019skoye", "country": "RU", "coord": {"lon": 37.899166, "lat": 55.753613}}, {"id": 521569, "name": "Nikol\u2019sko-Trubetskoye", "country": "RU", "coord": {"lon": 37.965, "lat": 55.835556}}, {"id": 521561, "name": "Nikol\u2019skoye", "country": "RU", "coord": {"lon": 36.716667, "lat": 56.150002}}, {"id": 820138, "name": "Nikol\u2019skoye", "country": "RU", "coord": {"lon": 36.899166, "lat": 55.965557}}, {"id": 521513, "name": "Nikol\u2019skoye", "country": "RU", "coord": {"lon": 42.524445, "lat": 59.493057}}, {"id": 6417604, "name": "Nikol\u2019skoye", "country": "RU", "coord": {"lon": 37.150002, "lat": 55.669998}}, {"id": 521739, "name": "Nikol\u2019skoye", "country": "RU", "coord": {"lon": 55.28397, "lat": 53.477211}}, {"id": 521460, "name": "Nikonovskoye", "country": "RU", "coord": {"lon": 38.162777, "lat": 55.279167}}, {"id": 700051, "name": "Nikopol", "country": "UA", "coord": {"lon": 34.39637, "lat": 47.57119}}, {"id": 728782, "name": "Nikopol", "country": "BG", "coord": {"lon": 24.9, "lat": 43.700001}}, {"id": 741304, "name": "Niksar", "country": "TR", "coord": {"lon": 36.951672, "lat": 40.591671}}, {"id": 3194494, "name": "Niksic", "country": "ME", "coord": {"lon": 18.94446, "lat": 42.773102}}, {"id": 820133, "name": "Nikulina", "country": "RU", "coord": {"lon": 36.842777, "lat": 55.935001}}, {"id": 521421, "name": "Nikulino", "country": "RU", "coord": {"lon": 38.225555, "lat": 55.326111}}, {"id": 521420, "name": "Nikulino", "country": "RU", "coord": {"lon": 37.435001, "lat": 55.343613}}, {"id": 521413, "name": "Nikulino", "country": "RU", "coord": {"lon": 38.633331, "lat": 56.116669}}, {"id": 521402, "name": "Nikulino", "country": "RU", "coord": {"lon": 44.232777, "lat": 58.093334}}, {"id": 521428, "name": "Nikulino", "country": "RU", "coord": {"lon": 31.533333, "lat": 54.599998}}, {"id": 521374, "name": "Nikul\u2019skoye", "country": "RU", "coord": {"lon": 37.683334, "lat": 56.016666}}, {"id": 521375, "name": "Nikul\u2019skoye", "country": "RU", "coord": {"lon": 38.687222, "lat": 55.169724}}, {"id": 7611471, "name": "Nila Dua", "country": "ID", "coord": {"lon": 121.279297, "lat": -8.5106}}, {"id": 1261401, "name": "Nilakottai", "country": "IN", "coord": {"lon": 77.866669, "lat": 10.16667}}, {"id": 5377032, "name": "Niland", "country": "US", "coord": {"lon": -115.518883, "lat": 33.24004}}, {"id": 1261396, "name": "Nilanga", "country": "IN", "coord": {"lon": 76.76667, "lat": 18.1}}, {"id": 2064701, "name": "Nildottie", "country": "AU", "coord": {"lon": 139.649994, "lat": -34.683331}}, {"id": 2155328, "name": "Nile", "country": "AU", "coord": {"lon": 147.333328, "lat": -41.633331}}, {"id": 4903730, "name": "Niles", "country": "US", "coord": {"lon": -87.802841, "lat": 42.018921}}, {"id": 5164582, "name": "Niles", "country": "US", "coord": {"lon": -80.765358, "lat": 41.182838}}, {"id": 5003514, "name": "Niles", "country": "US", "coord": {"lon": -86.254181, "lat": 41.829769}}, {"id": 1261394, "name": "Nileshwar", "country": "IN", "coord": {"lon": 75.099998, "lat": 12.25}}, {"id": 1261402, "name": "Nilgiri", "country": "IN", "coord": {"lon": 86.766937, "lat": 21.458059}}, {"id": 1131833, "name": "Nili", "country": "AF", "coord": {"lon": 66.130234, "lat": 33.721779}}, {"id": 282529, "name": "Nilin", "country": "PS", "coord": {"lon": 35.020309, "lat": 31.94746}}, {"id": 7839817, "name": "Nillumbik", "country": "AU", "coord": {"lon": 145.217056, "lat": -37.614738}}, {"id": 2155324, "name": "Nilma", "country": "AU", "coord": {"lon": 145.966675, "lat": -38.183331}}, {"id": 2155323, "name": "Nilma North", "country": "AU", "coord": {"lon": 145.983337, "lat": -38.150002}}, {"id": 3673849, "name": "Nilo", "country": "CO", "coord": {"lon": -74.620827, "lat": 4.30604}}, {"id": 1261382, "name": "Nilokheri", "country": "IN", "coord": {"lon": 76.916672, "lat": 29.83333}}, {"id": 1697675, "name": "Nilombot Golden", "country": "PH", "coord": {"lon": 120.437202, "lat": 16.0308}}, {"id": 3456290, "name": "Nilopolis", "country": "BR", "coord": {"lon": -43.413891, "lat": -22.807501}}, {"id": 644632, "name": "Nilsia", "country": "FI", "coord": {"lon": 28.08333, "lat": 63.200001}}, {"id": 644633, "name": "Nilsi\u00e4", "country": "FI", "coord": {"lon": 28.16667, "lat": 63.25}}, {"id": 3522728, "name": "Niltepec", "country": "MX", "coord": {"lon": -94.616669, "lat": 16.566669}}, {"id": 6437753, "name": "Nilvange", "country": "FR", "coord": {"lon": 6.05, "lat": 49.349998}}, {"id": 2990364, "name": "Nilvange", "country": "FR", "coord": {"lon": 6.05483, "lat": 49.339951}}, {"id": 7384069, "name": "Nimai", "country": "CN", "coord": {"lon": 100.070862, "lat": 35.279968}}, {"id": 1261378, "name": "Nimaj", "country": "IN", "coord": {"lon": 74, "lat": 26.149719}}, {"id": 1261375, "name": "Nimaparha", "country": "IN", "coord": {"lon": 86.01667, "lat": 20.066669}}, {"id": 2274688, "name": "Nimba County", "country": "LR", "coord": {"lon": -8.75, "lat": 6.75}}, {"id": 1261369, "name": "Nimbahera", "country": "IN", "coord": {"lon": 74.683327, "lat": 24.616671}}, {"id": 2155321, "name": "Nimbin", "country": "AU", "coord": {"lon": 153.222534, "lat": -28.59726}}, {"id": 2990363, "name": "Nimes", "country": "FR", "coord": {"lon": 4.35, "lat": 43.833328}}, {"id": 672216, "name": "Nimigea de Sus", "country": "RO", "coord": {"lon": 24.316669, "lat": 47.283329}}, {"id": 3172259, "name": "Nimis", "country": "IT", "coord": {"lon": 13.26333, "lat": 46.2075}}, {"id": 2155315, "name": "Nimmitabel", "country": "AU", "coord": {"lon": 149.283325, "lat": -36.51667}}, {"id": 7330083, "name": "Nimrah Khamsah", "country": "IQ", "coord": {"lon": 45.24926, "lat": 35.315411}}, {"id": 6550457, "name": "Nimritz", "country": "DE", "coord": {"lon": 11.65, "lat": 50.700001}}, {"id": 2862406, "name": "Nimritz", "country": "DE", "coord": {"lon": 11.65, "lat": 50.700001}}, {"id": 103533, "name": "Nimr\u0101n", "country": "SA", "coord": {"lon": 42.599998, "lat": 20}}, {"id": 6554579, "name": "Nimshuscheid", "country": "DE", "coord": {"lon": 6.48333, "lat": 50.099998}}, {"id": 2862403, "name": "Nimshuscheid", "country": "DE", "coord": {"lon": 6.48333, "lat": 50.099998}}, {"id": 6554580, "name": "Nimsreuland", "country": "DE", "coord": {"lon": 6.45, "lat": 50.133301}}, {"id": 2862402, "name": "Nimsreuland", "country": "DE", "coord": {"lon": 6.45, "lat": 50.133331}}, {"id": 3194492, "name": "Nin", "country": "HR", "coord": {"lon": 15.18333, "lat": 44.23333}}, {"id": 2155308, "name": "Nindaroo", "country": "AU", "coord": {"lon": 149.149994, "lat": -21.08333}}, {"id": 3617473, "name": "Nindiri", "country": "NI", "coord": {"lon": -86.121277, "lat": 12.00386}}, {"id": 6551892, "name": "Nindorf", "country": "DE", "coord": {"lon": 9.7, "lat": 54.133301}}, {"id": 2862388, "name": "Nindorf", "country": "DE", "coord": {"lon": 9.7, "lat": 54.133331}}, {"id": 6551355, "name": "Nindorf", "country": "DE", "coord": {"lon": 9.11667, "lat": 54.083302}}, {"id": 2862389, "name": "Nindorf", "country": "DE", "coord": {"lon": 9.11667, "lat": 54.083328}}, {"id": 8011321, "name": "Nine", "country": "PT", "coord": {"lon": -8.54437, "lat": 41.46468}}, {"id": 2737165, "name": "Nine", "country": "PT", "coord": {"lon": -8.54598, "lat": 41.458832}}, {"id": 4924187, "name": "Nine Mile", "country": "US", "coord": {"lon": -85.224968, "lat": 40.975052}}, {"id": 6088434, "name": "Ninette", "country": "CA", "coord": {"lon": -99.629433, "lat": 49.400021}}, {"id": 4589300, "name": "Ninety Six", "country": "US", "coord": {"lon": -82.02401, "lat": 34.175129}}, {"id": 1799397, "name": "Ningbo", "country": "CN", "coord": {"lon": 121.549454, "lat": 29.878189}}, {"id": 1799393, "name": "Ningchegu", "country": "CN", "coord": {"lon": 117.662498, "lat": 39.15889}}, {"id": 1806097, "name": "Ningde", "country": "CN", "coord": {"lon": 119.522781, "lat": 26.661671}}, {"id": 1799391, "name": "Ningdun", "country": "CN", "coord": {"lon": 119.10833, "lat": 30.458891}}, {"id": 1799389, "name": "Ninger", "country": "CN", "coord": {"lon": 101.036827, "lat": 23.040529}}, {"id": 1799383, "name": "Ninghai", "country": "CN", "coord": {"lon": 121.583328, "lat": 37.383331}}, {"id": 1799384, "name": "Ninghai", "country": "CN", "coord": {"lon": 121.424721, "lat": 29.289169}}, {"id": 1799379, "name": "Ninghe", "country": "CN", "coord": {"lon": 117.762497, "lat": 39.461941}}, {"id": 1304138, "name": "Ninglum", "country": "MM", "coord": {"lon": 97.23333, "lat": 25.216669}}, {"id": 7735184, "name": "Ningwei", "country": "CN", "coord": {"lon": 120.27652, "lat": 30.215191}}, {"id": 1916895, "name": "Ningxi", "country": "CN", "coord": {"lon": 113.654892, "lat": 23.21722}}, {"id": 1799355, "name": "Ningxia Huizu Zizhiqu", "country": "CN", "coord": {"lon": 106, "lat": 37}}, {"id": 1784239, "name": "Ningxiang", "country": "CN", "coord": {"lon": 111.205231, "lat": 37.34}}, {"id": 1919450, "name": "Ningxin", "country": "CN", "coord": {"lon": 115.744469, "lat": 24.13497}}, {"id": 1799348, "name": "Ningyang", "country": "CN", "coord": {"lon": 116.791389, "lat": 35.764172}}, {"id": 7630134, "name": "Ningyuan", "country": "CN", "coord": {"lon": 127.916199, "lat": 45.730869}}, {"id": 6680101, "name": "Ningzhong", "country": "CN", "coord": {"lon": 115.743759, "lat": 24.158501}}, {"id": 1799341, "name": "Ningzhou", "country": "CN", "coord": {"lon": 102.927048, "lat": 24.196079}}, {"id": 2035588, "name": "Ning\u2019an", "country": "CN", "coord": {"lon": 129.433334, "lat": 44.383331}}, {"id": 1571968, "name": "Ninh Binh", "country": "VN", "coord": {"lon": 105.974998, "lat": 20.253889}}, {"id": 2864402, "name": "Ninive", "country": "DE", "coord": {"lon": 14.71667, "lat": 51}}, {"id": 4543724, "name": "Ninnekah", "country": "US", "coord": {"lon": -97.923927, "lat": 34.947849}}, {"id": 1855380, "name": "Ninomiya", "country": "JP", "coord": {"lon": 139.253326, "lat": 35.303329}}, {"id": 612691, "name": "Ninotsminda", "country": "GE", "coord": {"lon": 43.591599, "lat": 41.26458}}, {"id": 2790115, "name": "Ninove", "country": "BE", "coord": {"lon": 4.00465, "lat": 50.828449}}, {"id": 2790114, "name": "Ninove", "country": "BE", "coord": {"lon": 4.02657, "lat": 50.827759}}, {"id": 1697663, "name": "Ninoy", "country": "PH", "coord": {"lon": 120.247803, "lat": 15.8596}}, {"id": 3843059, "name": "Ninte", "country": "AR", "coord": {"lon": -63.817059, "lat": -30.93609}}, {"id": 2155241, "name": "Nintingbool", "country": "AU", "coord": {"lon": 143.716675, "lat": -37.616669}}, {"id": 521316, "name": "Niny", "country": "RU", "coord": {"lon": 43.948891, "lat": 44.487782}}, {"id": 3456288, "name": "Nioaque", "country": "BR", "coord": {"lon": -55.830002, "lat": -21.135281}}, {"id": 2311968, "name": "Nioki", "country": "CD", "coord": {"lon": 17.683331, "lat": -2.71667}}, {"id": 2452655, "name": "Niono", "country": "ML", "coord": {"lon": -5.993, "lat": 14.2526}}, {"id": 7380619, "name": "Niopanda", "country": "ID", "coord": {"lon": 121.904198, "lat": -8.5513}}, {"id": 2412408, "name": "Nioro", "country": "GM", "coord": {"lon": -15.75, "lat": 13.35}}, {"id": 6759824, "name": "Nioro Rufis", "country": "ML", "coord": {"lon": -9.58726, "lat": 15.24074}}, {"id": 2247157, "name": "Nioro du Rip", "country": "SN", "coord": {"lon": -15.8, "lat": 13.75}}, {"id": 2990355, "name": "Niort", "country": "FR", "coord": {"lon": -0.45877, "lat": 46.323132}}, {"id": 6454744, "name": "Niort", "country": "FR", "coord": {"lon": -0.46667, "lat": 46.316669}}, {"id": 921745, "name": "Nioumachoua", "country": "KM", "coord": {"lon": 43.715279, "lat": -12.36139}}, {"id": 1092529, "name": "Nioumamilima", "country": "KM", "coord": {"lon": 43.437222, "lat": -11.85111}}, {"id": 1261309, "name": "Nipani", "country": "IN", "coord": {"lon": 74.383331, "lat": 16.4}}, {"id": 6088469, "name": "Nipawin", "country": "CA", "coord": {"lon": -104.000923, "lat": 53.366779}}, {"id": 6088485, "name": "Nipigon", "country": "CA", "coord": {"lon": -88.266731, "lat": 49.016811}}, {"id": 6088508, "name": "Nipissing Ouest", "country": "CA", "coord": {"lon": -79.982964, "lat": 46.41679}}, {"id": 2862381, "name": "Nipkendey", "country": "DE", "coord": {"lon": 10.93333, "lat": 52.799999}}, {"id": 5377100, "name": "Nipomo", "country": "US", "coord": {"lon": -120.475998, "lat": 35.042751}}, {"id": 3456286, "name": "Nipo\u00e3", "country": "BR", "coord": {"lon": -49.777779, "lat": -20.91333}}, {"id": 6088521, "name": "Nippers Harbour", "country": "CA", "coord": {"lon": -55.864849, "lat": 49.799961}}, {"id": 2862375, "name": "Nippes", "country": "DE", "coord": {"lon": 6.95314, "lat": 50.96545}}, {"id": 3456285, "name": "Niquelandia", "country": "BR", "coord": {"lon": -48.459721, "lat": -14.47389}}, {"id": 3545981, "name": "Niquero", "country": "CU", "coord": {"lon": -77.582779, "lat": 20.04306}}, {"id": 3617470, "name": "Niquinohomo", "country": "NI", "coord": {"lon": -86.09446, "lat": 11.90518}}, {"id": 7426744, "name": "Nirangkliung", "country": "ID", "coord": {"lon": 122.094002, "lat": -8.655}}, {"id": 1855363, "name": "Nirasaki", "country": "JP", "coord": {"lon": 138.449997, "lat": 35.700001}}, {"id": 3631507, "name": "Nirgua", "country": "VE", "coord": {"lon": -68.566299, "lat": 10.15526}}, {"id": 294027, "name": "Nirim", "country": "IL", "coord": {"lon": 34.395069, "lat": 31.33559}}, {"id": 8199421, "name": "Nirit", "country": "IL", "coord": {"lon": 34.986221, "lat": 32.14677}}, {"id": 2035583, "name": "Nirji", "country": "CN", "coord": {"lon": 124.48333, "lat": 48.48333}}, {"id": 1261288, "name": "Nirmal", "country": "IN", "coord": {"lon": 78.349998, "lat": 19.1}}, {"id": 7801091, "name": "Nirmalbasti", "country": "NP", "coord": {"lon": 84.671509, "lat": 27.30599}}, {"id": 1261285, "name": "Nirmali", "country": "IN", "coord": {"lon": 86.583328, "lat": 26.316669}}, {"id": 6550270, "name": "Nirmsdorf", "country": "DE", "coord": {"lon": 11.4667, "lat": 51.099998}}, {"id": 2862372, "name": "Nirmsdorf", "country": "DE", "coord": {"lon": 11.46667, "lat": 51.099998}}, {"id": 2862371, "name": "Nirnharting", "country": "DE", "coord": {"lon": 12.76667, "lat": 47.916672}}, {"id": 2155238, "name": "Nirranda", "country": "AU", "coord": {"lon": 142.783325, "lat": -38.5}}, {"id": 1261283, "name": "Nirsa", "country": "IN", "coord": {"lon": 86.716667, "lat": 23.783331}}, {"id": 2862369, "name": "Nirschlkofen", "country": "DE", "coord": {"lon": 12.26667, "lat": 48.549999}}, {"id": 294035, "name": "Nir\u2018am", "country": "IL", "coord": {"lon": 34.580059, "lat": 31.51959}}, {"id": 787657, "name": "Nis", "country": "RS", "coord": {"lon": 21.90333, "lat": 43.324718}}, {"id": 72181, "name": "Nisab", "country": "YE", "coord": {"lon": 46.5, "lat": 14.51667}}, {"id": 6539180, "name": "Niscemi", "country": "IT", "coord": {"lon": 14.39128, "lat": 37.14864}}, {"id": 2524006, "name": "Niscemi", "country": "IT", "coord": {"lon": 14.39128, "lat": 37.14864}}, {"id": 2862365, "name": "Nischwitz", "country": "DE", "coord": {"lon": 12.70929, "lat": 51.393639}}, {"id": 6941783, "name": "Niseko Town", "country": "JP", "coord": {"lon": 140.669037, "lat": 42.778709}}, {"id": 1855357, "name": "Nishi", "country": "JP", "coord": {"lon": 127.23333, "lat": 26.58333}}, {"id": 1799337, "name": "Nishi", "country": "CN", "coord": {"lon": 110.778229, "lat": 29.93552}}, {"id": 1850692, "name": "Nishi-Tokyo-shi", "country": "JP", "coord": {"lon": 139.5383, "lat": 35.725262}}, {"id": 1855301, "name": "Nishi-hanawa", "country": "JP", "coord": {"lon": 138.533325, "lat": 35.583328}}, {"id": 2128925, "name": "Nishi-kagura", "country": "JP", "coord": {"lon": 142.399994, "lat": 43.683331}}, {"id": 1855309, "name": "Nishigoch\u014d", "country": "JP", "coord": {"lon": 138.183334, "lat": 36.650002}}, {"id": 1855342, "name": "Nishihara", "country": "JP", "coord": {"lon": 127.755829, "lat": 26.18417}}, {"id": 2114009, "name": "Nishikawa", "country": "JP", "coord": {"lon": 140.176392, "lat": 38.926109}}, {"id": 1855265, "name": "Nishikich\u014d", "country": "JP", "coord": {"lon": 138.566666, "lat": 35.650002}}, {"id": 2128922, "name": "Nishikioka", "country": "JP", "coord": {"lon": 141.483337, "lat": 42.599998}}, {"id": 1855207, "name": "Nishinomiya", "country": "JP", "coord": {"lon": 135.333328, "lat": 34.716671}}, {"id": 1855203, "name": "Nishinoomote", "country": "JP", "coord": {"lon": 131, "lat": 30.73333}}, {"id": 1855189, "name": "Nishio", "country": "JP", "coord": {"lon": 137.050003, "lat": 34.866669}}, {"id": 1855134, "name": "Nishiwaki", "country": "JP", "coord": {"lon": 134.966675, "lat": 34.98333}}, {"id": 1855114, "name": "Nishizu", "country": "JP", "coord": {"lon": 135.752304, "lat": 35.516472}}, {"id": 1215736, "name": "Nishon Tumani", "country": "UZ", "coord": {"lon": 65.675117, "lat": 38.693951}}, {"id": 787650, "name": "Nishor", "country": "XK", "coord": {"lon": 20.80167, "lat": 42.423889}}, {"id": 3393922, "name": "Nisia Floresta", "country": "BR", "coord": {"lon": -35.208611, "lat": -6.09111}}, {"id": 734906, "name": "Nision", "country": "GR", "coord": {"lon": 22.387779, "lat": 40.63694}}, {"id": 834855, "name": "Niska Banja", "country": "RS", "coord": {"lon": 22.005699, "lat": 43.295071}}, {"id": 92873, "name": "Niskah Jaw", "country": "IQ", "coord": {"lon": 45.648056, "lat": 35.353333}}, {"id": 5128824, "name": "Niskayuna", "country": "US", "coord": {"lon": -73.84568, "lat": 42.7798}}, {"id": 7533317, "name": "Nisko", "country": "PL", "coord": {"lon": 22.129, "lat": 50.503201}}, {"id": 763829, "name": "Nisko", "country": "PL", "coord": {"lon": 22.139681, "lat": 50.519871}}, {"id": 6088579, "name": "Nisku", "country": "CA", "coord": {"lon": -113.535309, "lat": 53.333431}}, {"id": 617753, "name": "Nisporeni", "country": "MD", "coord": {"lon": 28.178329, "lat": 47.08139}}, {"id": 6432569, "name": "Nissan-lez-Enserune", "country": "FR", "coord": {"lon": 3.13333, "lat": 43.283329}}, {"id": 2990344, "name": "Nissan-lez-Enserune", "country": "FR", "coord": {"lon": 3.12705, "lat": 43.289619}}, {"id": 2862363, "name": "Nisselsbach", "country": "DE", "coord": {"lon": 11.11667, "lat": 48.433331}}, {"id": 5128827, "name": "Nissequogue", "country": "US", "coord": {"lon": -73.197891, "lat": 40.903992}}, {"id": 6822209, "name": "Nisshin", "country": "JP", "coord": {"lon": 136.963974, "lat": 35.165829}}, {"id": 7522359, "name": "Nissi vald", "country": "EE", "coord": {"lon": 24.2558, "lat": 59.1063}}, {"id": 2524004, "name": "Nissoria", "country": "IT", "coord": {"lon": 14.44737, "lat": 37.655151}}, {"id": 5039332, "name": "Nisswa", "country": "US", "coord": {"lon": -94.288612, "lat": 46.520519}}, {"id": 6554254, "name": "Nister", "country": "DE", "coord": {"lon": 7.83333, "lat": 50.6833}}, {"id": 2862357, "name": "Nister", "country": "DE", "coord": {"lon": 7.83333, "lat": 50.683331}}, {"id": 6553426, "name": "Nisterberg", "country": "DE", "coord": {"lon": 7.98333, "lat": 50.6833}}, {"id": 2862355, "name": "Nisterberg", "country": "DE", "coord": {"lon": 7.98333, "lat": 50.683331}}, {"id": 672192, "name": "Nistoresti", "country": "RO", "coord": {"lon": 26.73333, "lat": 45.833328}}, {"id": 1633922, "name": "Nita", "country": "ID", "coord": {"lon": 122.170601, "lat": -8.6782}}, {"id": 7429783, "name": "Nitakloang", "country": "ID", "coord": {"lon": 122.163597, "lat": -8.6698}}, {"id": 7574291, "name": "Nitakloang", "country": "ID", "coord": {"lon": 122.291496, "lat": -8.6622}}, {"id": 672185, "name": "Nitchidorf", "country": "RO", "coord": {"lon": 21.533331, "lat": 45.583328}}, {"id": 3456283, "name": "Niteroi", "country": "BR", "coord": {"lon": -43.103611, "lat": -22.883329}}, {"id": 3456282, "name": "Niter\u00f3i", "country": "BR", "coord": {"lon": -51.166672, "lat": -29.950001}}, {"id": 2641480, "name": "Niton", "country": "GB", "coord": {"lon": -1.28489, "lat": 50.587021}}, {"id": 3058531, "name": "Nitra", "country": "SK", "coord": {"lon": 18.08453, "lat": 48.307629}}, {"id": 3343956, "name": "Nitriansky Kraj", "country": "SK", "coord": {"lon": 18.33333, "lat": 48.166672}}, {"id": 4816665, "name": "Nitro", "country": "US", "coord": {"lon": -81.844017, "lat": 38.41481}}, {"id": 7872516, "name": "Nitscha", "country": "AT", "coord": {"lon": 15.74667, "lat": 47.11599}}, {"id": 2770477, "name": "Nitscha", "country": "AT", "coord": {"lon": 15.75, "lat": 47.116669}}, {"id": 2862352, "name": "Nitschareuth", "country": "DE", "coord": {"lon": 12.15, "lat": 50.700001}}, {"id": 6554773, "name": "Nittel", "country": "DE", "coord": {"lon": 6.45, "lat": 49.650002}}, {"id": 2862351, "name": "Nittel", "country": "DE", "coord": {"lon": 6.45, "lat": 49.650002}}, {"id": 2862348, "name": "Nittenau", "country": "DE", "coord": {"lon": 12.2725, "lat": 49.199169}}, {"id": 2862347, "name": "Nittendorf", "country": "DE", "coord": {"lon": 11.96111, "lat": 49.02528}}, {"id": 6554704, "name": "Nitz", "country": "DE", "coord": {"lon": 7.01667, "lat": 50.333302}}, {"id": 2862344, "name": "Nitz", "country": "DE", "coord": {"lon": 7.01667, "lat": 50.333328}}, {"id": 2862343, "name": "Nitzahn", "country": "DE", "coord": {"lon": 12.36667, "lat": 52.466671}}, {"id": 2862334, "name": "Nitzow", "country": "DE", "coord": {"lon": 12.05, "lat": 52.883331}}, {"id": 1799330, "name": "Niubitan", "country": "CN", "coord": {"lon": 111.860237, "lat": 29.008619}}, {"id": 1799319, "name": "Niuchehe", "country": "CN", "coord": {"lon": 110.974968, "lat": 29.048491}}, {"id": 1799312, "name": "Niudaokou", "country": "CN", "coord": {"lon": 117.25222, "lat": 39.78611}}, {"id": 4036232, "name": "Niue", "country": "NU", "coord": {"lon": -169.866669, "lat": -19.033331}}, {"id": 1697622, "name": "Niugan", "country": "PH", "coord": {"lon": 120.966667, "lat": 14.95}}, {"id": 1697624, "name": "Niugan", "country": "PH", "coord": {"lon": 120.955276, "lat": 14.66444}}, {"id": 1799279, "name": "Niujiapai", "country": "CN", "coord": {"lon": 117.289436, "lat": 39.522221}}, {"id": 1799242, "name": "Niutian", "country": "CN", "coord": {"lon": 115.723183, "lat": 27.30125}}, {"id": 2035572, "name": "Niuxinbao", "country": "CN", "coord": {"lon": 112.522881, "lat": 40.0522}}, {"id": 2616450, "name": "Niva", "country": "DK", "coord": {"lon": 12.50485, "lat": 55.934052}}, {"id": 3421522, "name": "Nivaaq", "country": "GL", "coord": {"lon": -52.416672, "lat": 68.616669}}, {"id": 644509, "name": "Nivala", "country": "FI", "coord": {"lon": 25, "lat": 63.916672}}, {"id": 644499, "name": "Nivala", "country": "FI", "coord": {"lon": 24.966669, "lat": 63.916672}}, {"id": 2513218, "name": "Nivar", "country": "ES", "coord": {"lon": -3.57768, "lat": 37.25909}}, {"id": 2790102, "name": "Nivelles", "country": "BE", "coord": {"lon": 4.32733, "lat": 50.59877}}, {"id": 2790101, "name": "Nivelles", "country": "BE", "coord": {"lon": 4.32848, "lat": 50.598331}}, {"id": 6088677, "name": "Niverville", "country": "CA", "coord": {"lon": -97.042343, "lat": 49.605591}}, {"id": 5128833, "name": "Niverville", "country": "US", "coord": {"lon": -73.66095, "lat": 42.440922}}, {"id": 6437322, "name": "Nivillac", "country": "FR", "coord": {"lon": -2.28333, "lat": 47.533329}}, {"id": 2990331, "name": "Nivillac", "country": "FR", "coord": {"lon": -2.28298, "lat": 47.53371}}, {"id": 3069744, "name": "Nivnice", "country": "CZ", "coord": {"lon": 17.64757, "lat": 48.974651}}, {"id": 6433264, "name": "Nivolas-Vermelle", "country": "FR", "coord": {"lon": 5.3, "lat": 45.549999}}, {"id": 2990329, "name": "Nivolas-Vermelle", "country": "FR", "coord": {"lon": 5.30682, "lat": 45.55518}}, {"id": 1261614, "name": "Niwai", "country": "IN", "coord": {"lon": 75.916672, "lat": 26.35}}, {"id": 1261262, "name": "Niwari", "country": "IN", "coord": {"lon": 77.533333, "lat": 28.883329}}, {"id": 7036823, "name": "Niwen", "country": "ID", "coord": {"lon": 112.595497, "lat": -8.0003}}, {"id": 7532377, "name": "Niwiska", "country": "PL", "coord": {"lon": 21.630301, "lat": 50.2388}}, {"id": 763823, "name": "Niwiska", "country": "PL", "coord": {"lon": 21.63036, "lat": 50.224918}}, {"id": 5580305, "name": "Niwot", "country": "US", "coord": {"lon": -105.170822, "lat": 40.10387}}, {"id": 4400648, "name": "Nixa", "country": "US", "coord": {"lon": -93.29435, "lat": 37.043388}}, {"id": 1799209, "name": "Nixi", "country": "CN", "coord": {"lon": 116.864059, "lat": 29.79221}}, {"id": 6643965, "name": "Nixi", "country": "CN", "coord": {"lon": 99.576401, "lat": 28.02422}}, {"id": 4714829, "name": "Nixon", "country": "US", "coord": {"lon": -97.764442, "lat": 29.26746}}, {"id": 5203468, "name": "Nixon", "country": "US", "coord": {"lon": -79.929497, "lat": 40.783401}}, {"id": 1799206, "name": "Niyang", "country": "CN", "coord": {"lon": 105.821388, "lat": 33.819439}}, {"id": 1261258, "name": "Nizamabad", "country": "IN", "coord": {"lon": 78.116669, "lat": 18.66667}}, {"id": 1261257, "name": "Nizamabad", "country": "IN", "coord": {"lon": 83.058891, "lat": 26.05056}}, {"id": 823813, "name": "Nizami", "country": "AM", "coord": {"lon": 44.40453, "lat": 40.091141}}, {"id": 3495811, "name": "Nizao", "country": "DO", "coord": {"lon": -70.199997, "lat": 18.25}}, {"id": 3069738, "name": "Nizbor", "country": "CZ", "coord": {"lon": 14.00237, "lat": 49.99995}}, {"id": 6425424, "name": "Nizerolles", "country": "FR", "coord": {"lon": 3.63333, "lat": 46.099998}}, {"id": 2990319, "name": "Nizerolles", "country": "FR", "coord": {"lon": 3.63823, "lat": 46.098141}}, {"id": 521192, "name": "Nizhegorodskaya", "country": "RU", "coord": {"lon": 39.923401, "lat": 44.269199}}, {"id": 559838, "name": "Nizhegorodskaya Oblast\u2019", "country": "RU", "coord": {"lon": 45, "lat": 56}}, {"id": 1898681, "name": "Nizhi", "country": "CN", "coord": {"lon": 122.17556, "lat": 30.304171}}, {"id": 521149, "name": "Nizhne-Derevyannoye", "country": "RU", "coord": {"lon": 34.633331, "lat": 61.616669}}, {"id": 608740, "name": "Nizhne-Gremyachiy", "country": "KZ", "coord": {"lon": 50.950001, "lat": 51.349998}}, {"id": 521054, "name": "Nizhne-Romashkovo", "country": "RU", "coord": {"lon": 37.333332, "lat": 55.733334}}, {"id": 2019199, "name": "Nizhneangarsk", "country": "RU", "coord": {"lon": 109.550003, "lat": 55.783329}}, {"id": 2019180, "name": "Nizhnechirkina", "country": "RU", "coord": {"lon": 102.143799, "lat": 53.901299}}, {"id": 521148, "name": "Nizhnedevitsk", "country": "RU", "coord": {"lon": 38.3657, "lat": 51.541901}}, {"id": 700022, "name": "Nizhnedneprovsk", "country": "UA", "coord": {"lon": 35.066666, "lat": 48.5}}, {"id": 521136, "name": "Nizhneglebovka", "country": "RU", "coord": {"lon": 39.943611, "lat": 46.645832}}, {"id": 520627, "name": "Nizhnegoveynyy", "country": "RU", "coord": {"lon": 40.34211, "lat": 48.28447}}, {"id": 521123, "name": "Nizhneivkino", "country": "RU", "coord": {"lon": 49.52137, "lat": 58.193981}}, {"id": 520372, "name": "Nizhnekalinovskiy", "country": "RU", "coord": {"lon": 42.789165, "lat": 48.59222}}, {"id": 521118, "name": "Nizhnekamsk", "country": "RU", "coord": {"lon": 51.824471, "lat": 55.63657}}, {"id": 521072, "name": "Nizhneosinovskiy", "country": "RU", "coord": {"lon": 42.784721, "lat": 48.625557}}, {"id": 520278, "name": "Nizhnepavlovka", "country": "RU", "coord": {"lon": 54.80146, "lat": 51.713242}}, {"id": 7287775, "name": "Nizhnesortymskiy", "country": "RU", "coord": {"lon": 71.760292, "lat": 62.439651}}, {"id": 521031, "name": "Nizhnetroitskiy", "country": "RU", "coord": {"lon": 53.683289, "lat": 54.33852}}, {"id": 1497549, "name": "Nizhneudinsk", "country": "RU", "coord": {"lon": 99.027603, "lat": 54.9076}}, {"id": 1497543, "name": "Nizhnevartovsk", "country": "RU", "coord": {"lon": 76.553101, "lat": 60.934399}}, {"id": 521020, "name": "Nizhnevo", "country": "RU", "coord": {"lon": 37.099998, "lat": 56.533329}}, {"id": 521002, "name": "Nizhneye Akcherino", "country": "RU", "coord": {"lon": 46.283333, "lat": 56.216667}}, {"id": 823895, "name": "Nizhneye Armyanskoye Ushchel\u2019ye", "country": "GE", "coord": {"lon": 40.791943, "lat": 43.084167}}, {"id": 520977, "name": "Nizhneye Dzhemete", "country": "RU", "coord": {"lon": 37.32111, "lat": 44.921391}}, {"id": 520955, "name": "Nizhneye Kazanishche", "country": "RU", "coord": {"lon": 47.160271, "lat": 42.763691}}, {"id": 520948, "name": "Nizhneye Khoroshovo", "country": "RU", "coord": {"lon": 38.793331, "lat": 55.144444}}, {"id": 520907, "name": "Nizhneye Myachkovo", "country": "RU", "coord": {"lon": 37.973331, "lat": 55.541111}}, {"id": 805616, "name": "Nizhneye Orekhovo", "country": "RU", "coord": {"lon": 39.7775, "lat": 43.707222}}, {"id": 520865, "name": "Nizhneye Shakhlovo", "country": "RU", "coord": {"lon": 37.264999, "lat": 55.019722}}, {"id": 816234, "name": "Nizhneye Somovo", "country": "RU", "coord": {"lon": 35.694443, "lat": 54.354168}}, {"id": 520841, "name": "Nizhneye Velino", "country": "RU", "coord": {"lon": 38.211388, "lat": 55.433887}}, {"id": 699996, "name": "Nizhniy Airgul\u2019", "country": "UA", "coord": {"lon": 33.950001, "lat": 44.599998}}, {"id": 520806, "name": "Nizhniy Arkhyz", "country": "RU", "coord": {"lon": 41.455559, "lat": 43.676331}}, {"id": 520798, "name": "Nizhniy Baskunchak", "country": "RU", "coord": {"lon": 46.831051, "lat": 48.21978}}, {"id": 520794, "name": "Nizhniy Bessovets", "country": "RU", "coord": {"lon": 34.166672, "lat": 61.883331}}, {"id": 2019167, "name": "Nizhniy Bestyakh", "country": "RU", "coord": {"lon": 129.908615, "lat": 61.959438}}, {"id": 520784, "name": "Nizhniy Cherek", "country": "RU", "coord": {"lon": 43.913891, "lat": 43.513062}}, {"id": 520783, "name": "Nizhniy Chir", "country": "RU", "coord": {"lon": 43.086498, "lat": 48.35973}}, {"id": 699992, "name": "Nizhniy Chorgun\u2019", "country": "UA", "coord": {"lon": 33.683334, "lat": 44.533333}}, {"id": 520775, "name": "Nizhniy Dzhengutay", "country": "RU", "coord": {"lon": 47.244881, "lat": 42.700081}}, {"id": 1497497, "name": "Nizhniy Ingash", "country": "RU", "coord": {"lon": 96.529999, "lat": 56.200001}}, {"id": 520599, "name": "Nizhniy Kislyay", "country": "RU", "coord": {"lon": 40.171902, "lat": 50.849701}}, {"id": 520588, "name": "Nizhniy Krasnyy Yar", "country": "RU", "coord": {"lon": 45.302776, "lat": 56.150833}}, {"id": 2019135, "name": "Nizhniy Kuranakh", "country": "RU", "coord": {"lon": 125.486938, "lat": 58.835281}}, {"id": 538711, "name": "Nizhniy Kurkuzhin", "country": "RU", "coord": {"lon": 43.34972, "lat": 43.748329}}, {"id": 520574, "name": "Nizhniy Lomov", "country": "RU", "coord": {"lon": 43.67664, "lat": 53.530411}}, {"id": 520564, "name": "Nizhniy Mamon", "country": "RU", "coord": {"lon": 40.508301, "lat": 50.193699}}, {"id": 520555, "name": "Nizhniy Novgorod", "country": "RU", "coord": {"lon": 44.002048, "lat": 56.328674}}, {"id": 520552, "name": "Nizhniy Odes", "country": "RU", "coord": {"lon": 54.85598, "lat": 63.644508}}, {"id": 520494, "name": "Nizhniy Tagil", "country": "RU", "coord": {"lon": 59.965, "lat": 57.919441}}, {"id": 2019118, "name": "Nizhniy Tsasuchey", "country": "RU", "coord": {"lon": 115.133331, "lat": 50.51667}}, {"id": 520473, "name": "Nizhniy Ufaley", "country": "RU", "coord": {"lon": 59.984169, "lat": 55.915279}}, {"id": 520769, "name": "Nizhniye Achaluki", "country": "RU", "coord": {"lon": 44.759079, "lat": 43.402802}}, {"id": 520718, "name": "Nizhniye Kotly", "country": "RU", "coord": {"lon": 37.611668, "lat": 55.68639}}, {"id": 827556, "name": "Nizhniye Pam\u201dyaly", "country": "RU", "coord": {"lon": 48.040558, "lat": 56.104443}}, {"id": 699989, "name": "Nizhniye Partizany", "country": "UA", "coord": {"lon": 34.083328, "lat": 44.833328}}, {"id": 520667, "name": "Nizhniye Sergi", "country": "RU", "coord": {"lon": 59.303329, "lat": 56.661388}}, {"id": 6415490, "name": "Nizhniye Velemi", "country": "RU", "coord": {"lon": 37.357498, "lat": 55.028057}}, {"id": 520642, "name": "Nizhniye Vyazovyye", "country": "RU", "coord": {"lon": 48.524761, "lat": 55.798771}}, {"id": 699967, "name": "Nizhnyanka", "country": "UA", "coord": {"lon": 35.916672, "lat": 48.666672}}, {"id": 699956, "name": "Nizhnyaya Krynka", "country": "UA", "coord": {"lon": 38.160641, "lat": 48.113499}}, {"id": 483044, "name": "Nizhnyaya Maktama", "country": "RU", "coord": {"lon": 52.433334, "lat": 54.849998}}, {"id": 520318, "name": "Nizhnyaya Maktama", "country": "RU", "coord": {"lon": 52.428101, "lat": 54.86356}}, {"id": 1497406, "name": "Nizhnyaya Omka", "country": "RU", "coord": {"lon": 74.942558, "lat": 55.433762}}, {"id": 520273, "name": "Nizhnyaya Pel\u2019shma", "country": "RU", "coord": {"lon": 43.24778, "lat": 60.144169}}, {"id": 1497397, "name": "Nizhnyaya Poyma", "country": "RU", "coord": {"lon": 97.193329, "lat": 56.16222}}, {"id": 1497393, "name": "Nizhnyaya Salda", "country": "RU", "coord": {"lon": 60.7202, "lat": 58.07756}}, {"id": 1497376, "name": "Nizhnyaya Tavda", "country": "RU", "coord": {"lon": 66.172501, "lat": 57.673061}}, {"id": 520209, "name": "Nizhnyaya Toz\u2019ma", "country": "RU", "coord": {"lon": 45.316666, "lat": 60.599998}}, {"id": 520204, "name": "Nizhnyaya Tura", "country": "RU", "coord": {"lon": 59.811798, "lat": 58.629299}}, {"id": 699942, "name": "Nizhyn", "country": "UA", "coord": {"lon": 31.886881, "lat": 51.048012}}, {"id": 303798, "name": "Nizip", "country": "TR", "coord": {"lon": 37.79417, "lat": 37.00972}}, {"id": 812490, "name": "Nizovtsy", "country": "BY", "coord": {"lon": 30.239721, "lat": 54.25111}}, {"id": 286987, "name": "Nizwa", "country": "OM", "coord": {"lon": 57.533329, "lat": 22.933331}}, {"id": 3172253, "name": "Nizza Monferrato", "country": "IT", "coord": {"lon": 8.35394, "lat": 44.773849}}, {"id": 2524003, "name": "Nizza di Sicilia", "country": "IT", "coord": {"lon": 15.41189, "lat": 37.994961}}, {"id": 2862360, "name": "Ni\u00dfma", "country": "DE", "coord": {"lon": 12.27765, "lat": 51.01759}}, {"id": 2862359, "name": "Ni\u00dfmitz", "country": "DE", "coord": {"lon": 11.76667, "lat": 51.200001}}, {"id": 6618060, "name": "Ni\u00e9vroz", "country": "FR", "coord": {"lon": 5.0642, "lat": 45.826199}}, {"id": 1336846, "name": "Ni\u0101mi Kalag", "country": "PK", "coord": {"lon": 63.461388, "lat": 25.853611}},