[{"id": 2973727, "name": "Suhescun", "country": "FR", "coord": {"lon": -1.2, "lat": 43.23333}}, {"id": 6456115, "name": "Le Guislain", "country": "FR", "coord": {"lon": -1.23333, "lat": 48.966671}}, {"id": 3003861, "name": "Le Guislain", "country": "FR", "coord": {"lon": -1.22905, "lat": 48.971779}}, {"id": 6427470, "name": "Saint-Martin-de-Mieux", "country": "FR", "coord": {"lon": -0.23333, "lat": 48.866669}}, {"id": 2978366, "name": "Saint-Martin-de-Mieux", "country": "FR", "coord": {"lon": -0.22967, "lat": 48.87114}}, {"id": 3018815, "name": "Fayolle", "country": "FR", "coord": {"lon": 0.33333, "lat": 45.283329}}, {"id": 6439155, "name": "M\u00e9nil-Froger", "country": "FR", "coord": {"lon": 0.26667, "lat": 48.73333}}, {"id": 2994552, "name": "M\u00e9nil-Froger", "country": "FR", "coord": {"lon": 0.26997, "lat": 48.730919}}, {"id": 6435648, "name": "Saint-S\u00e9bastien-de-Raids", "country": "FR", "coord": {"lon": -1.36667, "lat": 49.183331}}, {"id": 2976985, "name": "Saint-S\u00e9bastien-de-Raids", "country": "FR", "coord": {"lon": -1.37119, "lat": 49.190239}}, {"id": 6432379, "name": "Saint-Cibard", "country": "FR", "coord": {"lon": -0.01667, "lat": 44.933331}}, {"id": 2981126, "name": "Saint-Cibard", "country": "FR", "coord": {"lon": -0.01667, "lat": 44.933331}}, {"id": 3173435, "name": "Milano", "country": "IT", "coord": {"lon": 9.18951, "lat": 45.464272}}, {"id": 3169070, "name": "Roma", "country": "IT", "coord": {"lon": 12.4839, "lat": 41.894741}}, {"id": 3166598, "name": "Sesto San Giovanni", "country": "IT", "coord": {"lon": 9.23401, "lat": 45.534489}}, {"id": 6542152, "name": "Ascoli Piceno", "country": "IT", "coord": {"lon": 13.57395, "lat": 42.858929}}, {"id": 3182749, "name": "Ascoli Piceno", "country": "IT", "coord": {"lon": 13.5749, "lat": 42.854832}}, {"id": 6542119, "name": "Novara", "country": "IT", "coord": {"lon": 8.61684, "lat": 45.440559}}, {"id": 3177700, "name": "Cuneo", "country": "IT", "coord": {"lon": 7.54453, "lat": 44.397331}}, {"id": 2524907, "name": "Cosenza", "country": "IT", "coord": {"lon": 16.250191, "lat": 39.30999}}, {"id": 3165926, "name": "Taranto", "country": "IT", "coord": {"lon": 17.229719, "lat": 40.476109}}, {"id": 3180445, "name": "Carpi", "country": "IT", "coord": {"lon": 10.8777, "lat": 44.782372}}, {"id": 3176513, "name": "Provincia di Frosinone", "country": "IT", "coord": {"lon": 13.45, "lat": 41.616669}}, {"id": 3166387, "name": "Sora", "country": "IT", "coord": {"lon": 13.6141, "lat": 41.715721}}, {"id": 3177337, "name": "Este", "country": "IT", "coord": {"lon": 11.65871, "lat": 45.222889}}, {"id": 3172629, "name": "Monza", "country": "IT", "coord": {"lon": 9.27485, "lat": 45.582481}}, {"id": 3175081, "name": "La Spezia", "country": "IT", "coord": {"lon": 9.84339, "lat": 44.110538}}, {"id": 3166706, "name": "Seriate", "country": "IT", "coord": {"lon": 9.72286, "lat": 45.68338}}, {"id": 2522713, "name": "Vittoria", "country": "IT", "coord": {"lon": 14.53318, "lat": 36.953739}}, {"id": 6541996, "name": "Ragusa", "country": "IT", "coord": {"lon": 14.71719, "lat": 36.928242}}, {"id": 7288008, "name": "Ragusa Ibla", "country": "IT", "coord": {"lon": 14.72795, "lat": 36.92561}}, {"id": 3167094, "name": "Provincia di Sassari", "country": "IT", "coord": {"lon": 8.75885, "lat": 40.770142}}, {"id": 6540111, "name": "Sassari", "country": "IT", "coord": {"lon": 8.55091, "lat": 40.729561}}, {"id": 3167096, "name": "Sassari", "country": "IT", "coord": {"lon": 8.56028, "lat": 40.727219}}, {"id": 3171163, "name": "Provincia di Pescara", "country": "IT", "coord": {"lon": 13.95, "lat": 42.333328}}, {"id": 6540108, "name": "Pescara", "country": "IT", "coord": {"lon": 14.21021, "lat": 42.460239}}, {"id": 3171168, "name": "Pescara", "country": "IT", "coord": {"lon": 14.21021, "lat": 42.460239}}, {"id": 6540126, "name": "Forl\u00ec", "country": "IT", "coord": {"lon": 12.05273, "lat": 44.22187}}, {"id": 3176746, "name": "Forli", "country": "IT", "coord": {"lon": 12.05278, "lat": 44.22361}}, {"id": 3182714, "name": "Asti", "country": "IT", "coord": {"lon": 8.20684, "lat": 44.897949}}, {"id": 3181554, "name": "Brescia", "country": "IT", "coord": {"lon": 10.22727, "lat": 45.52478}}, {"id": 3165243, "name": "Trento", "country": "IT", "coord": {"lon": 11.12108, "lat": 46.067871}}, {"id": 3174335, "name": "Madonna della Quercia", "country": "IT", "coord": {"lon": 12.1, "lat": 42.416672}}, {"id": 3166548, "name": "Siena", "country": "IT", "coord": {"lon": 11.33283, "lat": 43.320042}}, {"id": 6540118, "name": "Treviso", "country": "IT", "coord": {"lon": 12.24121, "lat": 45.671398}}, {"id": 3165201, "name": "Treviso", "country": "IT", "coord": {"lon": 12.245, "lat": 45.666672}}, {"id": 3172297, "name": "Nerviano", "country": "IT", "coord": {"lon": 8.97774, "lat": 45.556671}}, {"id": 3179684, "name": "Castelfranco Veneto", "country": "IT", "coord": {"lon": 11.926, "lat": 45.676102}}, {"id": 3166601, "name": "Sesto Fiorentino", "country": "IT", "coord": {"lon": 11.19522, "lat": 43.834549}}, {"id": 6534253, "name": "San Nicola la Strada", "country": "IT", "coord": {"lon": 14.33133, "lat": 41.051811}}, {"id": 3174659, "name": "Livorno", "country": "IT", "coord": {"lon": 10.316, "lat": 43.542641}}, {"id": 3168843, "name": "Rovigo", "country": "IT", "coord": {"lon": 11.79301, "lat": 45.079979}}, {"id": 3173529, "name": "Mestre", "country": "IT", "coord": {"lon": 12.2425, "lat": 45.49028}}, {"id": 3171173, "name": "Pesaro", "country": "IT", "coord": {"lon": 12.89026, "lat": 43.903568}}, {"id": 3175687, "name": "Gubbio", "country": "IT", "coord": {"lon": 12.57246, "lat": 43.35445}}, {"id": 3177300, "name": "Faenza", "country": "IT", "coord": {"lon": 11.88334, "lat": 44.285702}}, {"id": 3166740, "name": "Senigallia", "country": "IT", "coord": {"lon": 13.21667, "lat": 43.709259}}, {"id": 3182722, "name": "Assisi", "country": "IT", "coord": {"lon": 12.61646, "lat": 43.069141}}, {"id": 3164419, "name": "Vicenza", "country": "IT", "coord": {"lon": 11.5409, "lat": 45.557289}}, {"id": 3170147, "name": "Pordenone", "country": "IT", "coord": {"lon": 12.6575, "lat": 45.96389}}, {"id": 3182297, "name": "Bassano del Grappa", "country": "IT", "coord": {"lon": 11.7357, "lat": 45.767601}}, {"id": 3174494, "name": "Lugo", "country": "IT", "coord": {"lon": 11.90763, "lat": 44.427071}}, {"id": 3165072, "name": "Udine", "country": "IT", "coord": {"lon": 13.24222, "lat": 46.061939}}, {"id": 3173314, "name": "Mogliano Veneto", "country": "IT", "coord": {"lon": 12.235, "lat": 45.564999}}, {"id": 3164028, "name": "Vittorio Veneto", "country": "IT", "coord": {"lon": 12.30333, "lat": 45.976669}}, {"id": 3169561, "name": "Ravenna", "country": "IT", "coord": {"lon": 12.20111, "lat": 44.4175}}, {"id": 3169361, "name": "Rimini", "country": "IT", "coord": {"lon": 12.58083, "lat": 44.063332}}, {"id": 3182043, "name": "Biella", "country": "IT", "coord": {"lon": 8.05002, "lat": 45.55986}}, {"id": 3170504, "name": "Poggibonsi", "country": "IT", "coord": {"lon": 11.14562, "lat": 43.472439}}, {"id": 3178197, "name": "Conegliano", "country": "IT", "coord": {"lon": 12.2925, "lat": 45.89056}}, {"id": 3182210, "name": "Belluno", "country": "IT", "coord": {"lon": 12.22139, "lat": 46.145}}, {"id": 6540113, "name": "Isernia", "country": "IT", "coord": {"lon": 14.23822, "lat": 41.60022}}, {"id": 3175445, "name": "Isernia", "country": "IT", "coord": {"lon": 14.23822, "lat": 41.60022}}, {"id": 3178283, "name": "Cologno Monzese", "country": "IT", "coord": {"lon": 9.27795, "lat": 45.530041}}, {"id": 3169921, "name": "Prato", "country": "IT", "coord": {"lon": 11.09092, "lat": 43.884251}}, {"id": 6541038, "name": "Cento", "country": "IT", "coord": {"lon": 11.28821, "lat": 44.725971}}, {"id": 3179162, "name": "Cento", "country": "IT", "coord": {"lon": 11.28821, "lat": 44.725971}}, {"id": 6541930, "name": "Lanciano", "country": "IT", "coord": {"lon": 14.38822, "lat": 42.21674}}, {"id": 3175173, "name": "Lanciano", "country": "IT", "coord": {"lon": 14.38822, "lat": 42.21674}}, {"id": 6541348, "name": "Giarre", "country": "IT", "coord": {"lon": 15.18769, "lat": 37.72686}}, {"id": 2524618, "name": "Giarre", "country": "IT", "coord": {"lon": 15.18769, "lat": 37.72686}}, {"id": 3173370, "name": "Mirandola", "country": "IT", "coord": {"lon": 11.0662, "lat": 44.886768}}, {"id": 3181526, "name": "Provincia di Brindisi", "country": "IT", "coord": {"lon": 17.66667, "lat": 40.583328}}, {"id": 6540109, "name": "Brindisi", "country": "IT", "coord": {"lon": 17.936819, "lat": 40.627731}}, {"id": 3181528, "name": "Brindisi", "country": "IT", "coord": {"lon": 17.936819, "lat": 40.627731}}, {"id": 6537341, "name": "Frattaminore", "country": "IT", "coord": {"lon": 14.27273, "lat": 40.955509}}, {"id": 3176560, "name": "Frattaminore", "country": "IT", "coord": {"lon": 14.27273, "lat": 40.955509}}, {"id": 2524606, "name": "Gioia Tauro", "country": "IT", "coord": {"lon": 15.899, "lat": 38.423969}}, {"id": 3176203, "name": "Genzano di Roma", "country": "IT", "coord": {"lon": 12.69178, "lat": 41.701321}}, {"id": 3176923, "name": "Fiumicino", "country": "IT", "coord": {"lon": 12.22907, "lat": 41.767471}}, {"id": 6539773, "name": "Valenza", "country": "IT", "coord": {"lon": 8.64144, "lat": 45.014061}}, {"id": 3164920, "name": "Valenza", "country": "IT", "coord": {"lon": 8.64144, "lat": 45.014061}}, {"id": 6540087, "name": "Omegna", "country": "IT", "coord": {"lon": 8.40802, "lat": 45.879768}}, {"id": 3177532, "name": "Domodossola", "country": "IT", "coord": {"lon": 8.29313, "lat": 46.116501}}, {"id": 3173721, "name": "Matera", "country": "IT", "coord": {"lon": 16.60158, "lat": 40.668522}}, {"id": 6537563, "name": "Grottaglie", "country": "IT", "coord": {"lon": 17.433701, "lat": 40.53923}}, {"id": 3175773, "name": "Grottaglie", "country": "IT", "coord": {"lon": 17.433701, "lat": 40.53923}}, {"id": 6539960, "name": "Pietrasanta", "country": "IT", "coord": {"lon": 10.2248, "lat": 43.95224}}, {"id": 3170778, "name": "Pietrasanta", "country": "IT", "coord": {"lon": 10.2248, "lat": 43.95224}}, {"id": 3180172, "name": "Casalnuovo di Napoli", "country": "IT", "coord": {"lon": 14.34573, "lat": 40.90921}}, {"id": 3169742, "name": "Putignano", "country": "IT", "coord": {"lon": 17.12129, "lat": 40.85183}}, {"id": 3175860, "name": "Gravina in Puglia", "country": "IT", "coord": {"lon": 16.422779, "lat": 40.819721}}, {"id": 6536041, "name": "Canelli", "country": "IT", "coord": {"lon": 8.29244, "lat": 44.721539}}, {"id": 3180850, "name": "Canelli", "country": "IT", "coord": {"lon": 8.29244, "lat": 44.721539}}, {"id": 2525772, "name": "Acri", "country": "IT", "coord": {"lon": 16.383789, "lat": 39.492901}}, {"id": 6541995, "name": "Orbassano", "country": "IT", "coord": {"lon": 7.53992, "lat": 45.003841}}, {"id": 3171986, "name": "Orbassano", "country": "IT", "coord": {"lon": 7.53992, "lat": 45.003841}}, {"id": 6536176, "name": "Desenzano del Garda", "country": "IT", "coord": {"lon": 10.53398, "lat": 45.467979}}, {"id": 3177610, "name": "Desenzano del Garda", "country": "IT", "coord": {"lon": 10.53398, "lat": 45.467979}}, {"id": 3183364, "name": "Alba", "country": "IT", "coord": {"lon": 8.0347, "lat": 44.699902}}, {"id": 3172154, "name": "Nuoro", "country": "IT", "coord": {"lon": 9.32973, "lat": 40.32106}}, {"id": 6541632, "name": "Fabbrico", "country": "IT", "coord": {"lon": 10.81159, "lat": 44.869469}}, {"id": 3176851, "name": "Follona", "country": "IT", "coord": {"lon": 10.81667, "lat": 44.866669}}, {"id": 6539708, "name": "Finale Emilia", "country": "IT", "coord": {"lon": 11.2939, "lat": 44.834572}}, {"id": 3176983, "name": "Finale Emilia", "country": "IT", "coord": {"lon": 11.2939, "lat": 44.834572}}, {"id": 6541846, "name": "Recanati", "country": "IT", "coord": {"lon": 13.55978, "lat": 43.403858}}, {"id": 3175677, "name": "Guidonia Montecelio", "country": "IT", "coord": {"lon": 12.73333, "lat": 42.01667}}, {"id": 3175678, "name": "Guidonia", "country": "IT", "coord": {"lon": 12.75, "lat": 42.01667}}, {"id": 3177219, "name": "Fano", "country": "IT", "coord": {"lon": 13.01206, "lat": 43.820358}}, {"id": 3172718, "name": "Montevarchi", "country": "IT", "coord": {"lon": 11.56893, "lat": 43.527649}}, {"id": 3175537, "name": "Imola", "country": "IT", "coord": {"lon": 11.71582, "lat": 44.352268}}, {"id": 3180208, "name": "Casale Monferrato", "country": "IT", "coord": {"lon": 8.45714, "lat": 45.133362}}, {"id": 3177009, "name": "Figline Valdarno", "country": "IT", "coord": {"lon": 11.46933, "lat": 43.619549}}, {"id": 6539046, "name": "Montalto Uffugo", "country": "IT", "coord": {"lon": 16.15799, "lat": 39.4048}}, {"id": 2524076, "name": "Montalto Uffugo", "country": "IT", "coord": {"lon": 16.15799, "lat": 39.4048}}, {"id": 6539111, "name": "Castelvetrano", "country": "IT", "coord": {"lon": 12.79164, "lat": 37.68264}}, {"id": 2525083, "name": "Castelvetrano", "country": "IT", "coord": {"lon": 12.79164, "lat": 37.68264}}, {"id": 6536541, "name": "Dalmine", "country": "IT", "coord": {"lon": 9.60395, "lat": 45.649281}}, {"id": 3166569, "name": "Sforzatica", "country": "IT", "coord": {"lon": 9.6, "lat": 45.650002}}, {"id": 6541734, "name": "Modugno", "country": "IT", "coord": {"lon": 16.777981, "lat": 41.097431}}, {"id": 3173326, "name": "Modugno", "country": "IT", "coord": {"lon": 16.777981, "lat": 41.097431}}, {"id": 6457400, "name": "Provincia di Carbonia-Iglesias", "country": "IT", "coord": {"lon": 8.58032, "lat": 39.325802}}, {"id": 6539583, "name": "Carbonia", "country": "IT", "coord": {"lon": 8.52783, "lat": 39.165329}}, {"id": 2525362, "name": "Carbonia", "country": "IT", "coord": {"lon": 8.52222, "lat": 39.167221}}, {"id": 3175384, "name": "Ivrea", "country": "IT", "coord": {"lon": 7.87617, "lat": 45.467232}}, {"id": 3163995, "name": "Voghera", "country": "IT", "coord": {"lon": 9.00862, "lat": 44.994671}}, {"id": 2524410, "name": "Lentini", "country": "IT", "coord": {"lon": 14.99959, "lat": 37.28545}}, {"id": 3168703, "name": "Sala Baganza", "country": "IT", "coord": {"lon": 10.23178, "lat": 44.720261}}, {"id": 6536272, "name": "Feltre", "country": "IT", "coord": {"lon": 11.907, "lat": 46.02351}}, {"id": 3177120, "name": "Feltre", "country": "IT", "coord": {"lon": 11.907, "lat": 46.02351}}, {"id": 3170116, "name": "Portici", "country": "IT", "coord": {"lon": 14.33716, "lat": 40.815632}}, {"id": 6955699, "name": "Provincia di Barletta - Andria - Trani", "country": "IT", "coord": {"lon": 16.175989, "lat": 41.250969}}, {"id": 6537546, "name": "Barletta", "country": "IT", "coord": {"lon": 16.29077, "lat": 41.311829}}, {"id": 3182340, "name": "Barletta", "country": "IT", "coord": {"lon": 16.29077, "lat": 41.311829}}, {"id": 6535985, "name": "Montecatini-Terme", "country": "IT", "coord": {"lon": 10.77361, "lat": 43.883549}}, {"id": 3172996, "name": "Montecatini Terme", "country": "IT", "coord": {"lon": 10.77361, "lat": 43.883549}}, {"id": 3172979, "name": "Montecchio Maggiore", "country": "IT", "coord": {"lon": 11.412, "lat": 45.503689}}, {"id": 3168414, "name": "San Donato Milanese", "country": "IT", "coord": {"lon": 9.26628, "lat": 45.419899}}, {"id": 3166917, "name": "Schio", "country": "IT", "coord": {"lon": 11.35739, "lat": 45.712399}}, {"id": 3179447, "name": "Castelvetro di Modena", "country": "IT", "coord": {"lon": 10.9464, "lat": 44.50576}}, {"id": 6536825, "name": "Reggello", "country": "IT", "coord": {"lon": 11.52933, "lat": 43.680149}}, {"id": 3169526, "name": "Reggello", "country": "IT", "coord": {"lon": 11.52933, "lat": 43.680149}}, {"id": 6535887, "name": "Bressanone - Brixen", "country": "IT", "coord": {"lon": 11.65638, "lat": 46.70892}}, {"id": 3181550, "name": "Bressanone", "country": "IT", "coord": {"lon": 11.65598, "lat": 46.715031}}, {"id": 6538558, "name": "Empoli", "country": "IT", "coord": {"lon": 10.94142, "lat": 43.717541}}, {"id": 3177400, "name": "Empoli", "country": "IT", "coord": {"lon": 10.94142, "lat": 43.717541}}, {"id": 3177315, "name": "Fabriano", "country": "IT", "coord": {"lon": 12.90726, "lat": 43.340649}}, {"id": 3170694, "name": "Pinerolo", "country": "IT", "coord": {"lon": 7.35, "lat": 44.883331}}, {"id": 3172170, "name": "Novi Ligure", "country": "IT", "coord": {"lon": 8.78955, "lat": 44.760849}}, {"id": 3178019, "name": "Correggio", "country": "IT", "coord": {"lon": 10.7823, "lat": 44.769772}}, {"id": 3165698, "name": "Thiene", "country": "IT", "coord": {"lon": 11.47959, "lat": 45.708801}}, {"id": 3166866, "name": "Scorze", "country": "IT", "coord": {"lon": 12.10611, "lat": 45.573608}}, {"id": 3165475, "name": "Torre Annunziata", "country": "IT", "coord": {"lon": 14.46464, "lat": 40.74971}}, {"id": 3177617, "name": "Deruta", "country": "IT", "coord": {"lon": 12.41506, "lat": 42.980438}}, {"id": 6539876, "name": "Siniscola", "country": "IT", "coord": {"lon": 9.69224, "lat": 40.571869}}, {"id": 3166509, "name": "Siniscola", "country": "IT", "coord": {"lon": 9.69224, "lat": 40.571869}}, {"id": 6541710, "name": "Cazzago San Martino", "country": "IT", "coord": {"lon": 10.04186, "lat": 45.593781}}, {"id": 3179249, "name": "Cazzago San Martino", "country": "IT", "coord": {"lon": 10.04186, "lat": 45.593781}}, {"id": 6541001, "name": "Abano Terme", "country": "IT", "coord": {"lon": 11.79141, "lat": 45.360989}}, {"id": 3183587, "name": "Abano Terme", "country": "IT", "coord": {"lon": 11.79141, "lat": 45.360989}}, {"id": 6540896, "name": "Cattolica", "country": "IT", "coord": {"lon": 12.73755, "lat": 43.95747}}, {"id": 3179347, "name": "Cattolica", "country": "IT", "coord": {"lon": 12.73755, "lat": 43.95747}}, {"id": 3173153, "name": "Monfalcone", "country": "IT", "coord": {"lon": 13.53417, "lat": 45.80722}}, {"id": 3178085, "name": "Cormons", "country": "IT", "coord": {"lon": 13.47222, "lat": 45.96056}}, {"id": 3164441, "name": "Viadana", "country": "IT", "coord": {"lon": 10.53333, "lat": 44.933331}}, {"id": 3178474, "name": "Cogozzo", "country": "IT", "coord": {"lon": 10.51667, "lat": 44.933331}}, {"id": 6539488, "name": "Caravaggio", "country": "IT", "coord": {"lon": 9.64046, "lat": 45.498878}}, {"id": 3180580, "name": "Caravaggio", "country": "IT", "coord": {"lon": 9.64046, "lat": 45.498878}}, {"id": 6541972, "name": "Modica", "country": "IT", "coord": {"lon": 14.77399, "lat": 36.84594}}, {"id": 2524119, "name": "Modica", "country": "IT", "coord": {"lon": 14.77399, "lat": 36.84594}}, {"id": 6537494, "name": "San Salvo", "country": "IT", "coord": {"lon": 14.72722, "lat": 42.043339}}, {"id": 3167751, "name": "San Salvo", "country": "IT", "coord": {"lon": 14.72722, "lat": 42.043339}}, {"id": 6539738, "name": "Volterra", "country": "IT", "coord": {"lon": 10.86002, "lat": 43.400341}}, {"id": 3163962, "name": "Volterra", "country": "IT", "coord": {"lon": 10.86002, "lat": 43.400341}}, {"id": 6539916, "name": "Rovereto", "country": "IT", "coord": {"lon": 11.03868, "lat": 45.889599}}, {"id": 7870238, "name": "Lizzanella", "country": "IT", "coord": {"lon": 11.03585, "lat": 45.877522}}, {"id": 6538364, "name": "Cividale del Friuli", "country": "IT", "coord": {"lon": 13.43403, "lat": 46.089619}}, {"id": 3178605, "name": "Cividale del Friuli", "country": "IT", "coord": {"lon": 13.4275, "lat": 46.09306}}, {"id": 6535957, "name": "Merano", "country": "IT", "coord": {"lon": 11.16127, "lat": 46.668121}}, {"id": 3173577, "name": "Merano", "country": "IT", "coord": {"lon": 11.15953, "lat": 46.668171}}, {"id": 6540143, "name": "Mondov\u00ec", "country": "IT", "coord": {"lon": 7.81764, "lat": 44.39603}}, {"id": 3173162, "name": "Mondovi", "country": "IT", "coord": {"lon": 7.81764, "lat": 44.39603}}, {"id": 3167034, "name": "Savigliano", "country": "IT", "coord": {"lon": 7.65593, "lat": 44.644039}}, {"id": 6540634, "name": "Vigevano", "country": "IT", "coord": {"lon": 8.86114, "lat": 45.311661}}, {"id": 3164376, "name": "Vigevano", "country": "IT", "coord": {"lon": 8.86114, "lat": 45.311661}}, {"id": 6536945, "name": "Civitavecchia", "country": "IT", "coord": {"lon": 11.80706, "lat": 42.093121}}, {"id": 3178587, "name": "Civitavecchia", "country": "IT", "coord": {"lon": 11.79674, "lat": 42.09325}}, {"id": 6540003, "name": "Campagna", "country": "IT", "coord": {"lon": 15.10585, "lat": 40.66531}}, {"id": 3181066, "name": "Campagna", "country": "IT", "coord": {"lon": 15.10585, "lat": 40.66531}}, {"id": 6541683, "name": "Terzigno", "country": "IT", "coord": {"lon": 14.49644, "lat": 40.81221}}, {"id": 3180357, "name": "Casa Balzano", "country": "IT", "coord": {"lon": 14.46667, "lat": 40.799999}}, {"id": 6536564, "name": "Mortara", "country": "IT", "coord": {"lon": 8.73554, "lat": 45.247261}}, {"id": 3172557, "name": "Mortara", "country": "IT", "coord": {"lon": 8.73554, "lat": 45.247261}}, {"id": 6537080, "name": "Induno Olona", "country": "IT", "coord": {"lon": 8.83663, "lat": 45.84798}}, {"id": 3175521, "name": "Induno Olona", "country": "IT", "coord": {"lon": 8.83663, "lat": 45.84798}}, {"id": 6542292, "name": "Silvi", "country": "IT", "coord": {"lon": 14.122, "lat": 42.545639}}, {"id": 3166519, "name": "Silvi Marina", "country": "IT", "coord": {"lon": 14.1, "lat": 42.566669}}, {"id": 6539929, "name": "Adria", "country": "IT", "coord": {"lon": 12.05492, "lat": 45.056492}}, {"id": 3183466, "name": "Adria", "country": "IT", "coord": {"lon": 12.05778, "lat": 45.056389}}, {"id": 3178087, "name": "Cormano", "country": "IT", "coord": {"lon": 9.17094, "lat": 45.53957}}, {"id": 6539644, "name": "Portogruaro", "country": "IT", "coord": {"lon": 12.83662, "lat": 45.779308}}, {"id": 3170086, "name": "Portogruaro", "country": "IT", "coord": {"lon": 12.83861, "lat": 45.77528}}, {"id": 3168599, "name": "Samarate", "country": "IT", "coord": {"lon": 8.78344, "lat": 45.62537}}, {"id": 3182697, "name": "Atri", "country": "IT", "coord": {"lon": 13.9848, "lat": 42.577839}}, {"id": 6536414, "name": "Valmadrera", "country": "IT", "coord": {"lon": 9.35824, "lat": 45.846279}}, {"id": 3164782, "name": "Valmadrera", "country": "IT", "coord": {"lon": 9.35824, "lat": 45.846279}}, {"id": 3165370, "name": "Tortona", "country": "IT", "coord": {"lon": 8.86374, "lat": 44.897839}}, {"id": 3166013, "name": "Susegana", "country": "IT", "coord": {"lon": 12.24833, "lat": 45.851391}}, {"id": 6539736, "name": "Cecina", "country": "IT", "coord": {"lon": 10.52401, "lat": 43.312832}}, {"id": 3179235, "name": "Cecina", "country": "IT", "coord": {"lon": 10.52401, "lat": 43.312832}}, {"id": 6540468, "name": "Quarrata", "country": "IT", "coord": {"lon": 10.98072, "lat": 43.84985}}, {"id": 3169713, "name": "Quarrata", "country": "IT", "coord": {"lon": 10.98072, "lat": 43.84985}}, {"id": 6539153, "name": "Lipari", "country": "IT", "coord": {"lon": 14.95348, "lat": 38.463772}}, {"id": 2524274, "name": "Marina", "country": "IT", "coord": {"lon": 14.95, "lat": 38.466671}}, {"id": 6540298, "name": "Aviano", "country": "IT", "coord": {"lon": 12.58491, "lat": 46.078918}}, {"id": 3182635, "name": "Aviano", "country": "IT", "coord": {"lon": 12.59472, "lat": 46.07056}}, {"id": 6538563, "name": "Montelupo Fiorentino", "country": "IT", "coord": {"lon": 11.01962, "lat": 43.730751}}, {"id": 3183116, "name": "Ambrogiana", "country": "IT", "coord": {"lon": 11.01667, "lat": 43.73333}}, {"id": 6539709, "name": "Maranello", "country": "IT", "coord": {"lon": 10.8655, "lat": 44.524761}}, {"id": 3174032, "name": "Maranello", "country": "IT", "coord": {"lon": 10.8655, "lat": 44.524761}}, {"id": 3181169, "name": "Caltana", "country": "IT", "coord": {"lon": 12.03, "lat": 45.480282}}, {"id": 6539979, "name": "Segni", "country": "IT", "coord": {"lon": 13.01519, "lat": 41.687222}}, {"id": 3166813, "name": "Segni", "country": "IT", "coord": {"lon": 13.01519, "lat": 41.687222}}, {"id": 6539333, "name": "Spilimbergo", "country": "IT", "coord": {"lon": 12.89272, "lat": 46.109219}}, {"id": 3166262, "name": "Spilimbergo", "country": "IT", "coord": {"lon": 12.89694, "lat": 46.112499}}, {"id": 6538618, "name": "Umbertide", "country": "IT", "coord": {"lon": 12.33655, "lat": 43.30555}}, {"id": 3165052, "name": "Umbertide", "country": "IT", "coord": {"lon": 12.33655, "lat": 43.30555}}, {"id": 3183063, "name": "Angri", "country": "IT", "coord": {"lon": 14.57144, "lat": 40.74271}}, {"id": 6538584, "name": "Bibbiena", "country": "IT", "coord": {"lon": 11.81354, "lat": 43.696548}}, {"id": 3182059, "name": "Bibbiena", "country": "IT", "coord": {"lon": 11.81354, "lat": 43.696548}}, {"id": 6536746, "name": "Argenta", "country": "IT", "coord": {"lon": 11.83562, "lat": 44.61237}}, {"id": 3182878, "name": "Argenta", "country": "IT", "coord": {"lon": 11.83562, "lat": 44.61237}}, {"id": 3177650, "name": "Dalmine", "country": "IT", "coord": {"lon": 9.60395, "lat": 45.649281}}, {"id": 6538942, "name": "Casamassima", "country": "IT", "coord": {"lon": 16.920389, "lat": 40.95713}}, {"id": 3180133, "name": "Casamassima", "country": "IT", "coord": {"lon": 16.920389, "lat": 40.95713}}, {"id": 6542148, "name": "Marsala", "country": "IT", "coord": {"lon": 12.4379, "lat": 37.803551}}, {"id": 2524245, "name": "Marsala", "country": "IT", "coord": {"lon": 12.43518, "lat": 37.796638}}, {"id": 6540007, "name": "Sarno", "country": "IT", "coord": {"lon": 14.61984, "lat": 40.81081}}, {"id": 3167116, "name": "Sarno", "country": "IT", "coord": {"lon": 14.61984, "lat": 40.81081}}, {"id": 6536282, "name": "Pieve di Soligo", "country": "IT", "coord": {"lon": 12.17451, "lat": 45.896709}}, {"id": 3170744, "name": "Pieve di Soligo", "country": "IT", "coord": {"lon": 12.17722, "lat": 45.9025}}, {"id": 6541597, "name": "Noventa Vicentina", "country": "IT", "coord": {"lon": 11.5469, "lat": 45.295689}}, {"id": 3172173, "name": "Noventa Vicentina", "country": "IT", "coord": {"lon": 11.5469, "lat": 45.295689}}, {"id": 6542084, "name": "Pianoro", "country": "IT", "coord": {"lon": 11.34231, "lat": 44.39296}}, {"id": 6538487, "name": "Cesenatico", "country": "IT", "coord": {"lon": 12.40064, "lat": 44.198971}}, {"id": 3178956, "name": "Cesenatico", "country": "IT", "coord": {"lon": 12.3991, "lat": 44.199871}}, {"id": 3172499, "name": "Mottola", "country": "IT", "coord": {"lon": 17.03528, "lat": 40.635281}}, {"id": 6540741, "name": "Manfredonia", "country": "IT", "coord": {"lon": 15.90936, "lat": 41.625938}}, {"id": 3174092, "name": "Manfredonia", "country": "IT", "coord": {"lon": 15.90936, "lat": 41.625938}}, {"id": 6540749, "name": "Cassano delle Murge", "country": "IT", "coord": {"lon": 16.76778, "lat": 40.89283}}, {"id": 3179794, "name": "Cassano delle Murge", "country": "IT", "coord": {"lon": 16.76778, "lat": 40.89283}}, {"id": 6540336, "name": "Garbagnate Milanese", "country": "IT", "coord": {"lon": 9.07174, "lat": 45.576469}}, {"id": 3176322, "name": "Garbagnate Milanese", "country": "IT", "coord": {"lon": 9.07174, "lat": 45.576469}}, {"id": 3169015, "name": "Ronchi dei Legionari", "country": "IT", "coord": {"lon": 13.50972, "lat": 45.823608}}, {"id": 6538303, "name": "Motta di Livenza", "country": "IT", "coord": {"lon": 12.60772, "lat": 45.776611}}, {"id": 3172508, "name": "Motta di Livenza", "country": "IT", "coord": {"lon": 12.60278, "lat": 45.778061}}, {"id": 6541961, "name": "Patti", "country": "IT", "coord": {"lon": 14.96958, "lat": 38.146759}}, {"id": 2523864, "name": "Patti", "country": "IT", "coord": {"lon": 14.96958, "lat": 38.146759}}, {"id": 6536551, "name": "Castenedolo", "country": "IT", "coord": {"lon": 10.29567, "lat": 45.469479}}, {"id": 3179440, "name": "Castenedolo", "country": "IT", "coord": {"lon": 10.29567, "lat": 45.469479}}, {"id": 6538510, "name": "Castelfidardo", "country": "IT", "coord": {"lon": 13.54518, "lat": 43.463161}}, {"id": 3179697, "name": "Castelfidardo", "country": "IT", "coord": {"lon": 13.54518, "lat": 43.463161}}, {"id": 6539985, "name": "Aversa", "country": "IT", "coord": {"lon": 14.20493, "lat": 40.973209}}, {"id": 3182640, "name": "Aversa", "country": "IT", "coord": {"lon": 14.20493, "lat": 40.973209}}, {"id": 3181569, "name": "Breno", "country": "IT", "coord": {"lon": 10.30476, "lat": 45.95779}}, {"id": 6538425, "name": "Montechiarugolo", "country": "IT", "coord": {"lon": 10.42219, "lat": 44.69326}}, {"id": 3172973, "name": "Montechiarugolo", "country": "IT", "coord": {"lon": 10.42219, "lat": 44.69326}}, {"id": 6538422, "name": "Felino", "country": "IT", "coord": {"lon": 10.24108, "lat": 44.695759}}, {"id": 3177125, "name": "Felino", "country": "IT", "coord": {"lon": 10.24108, "lat": 44.695759}}, {"id": 3178677, "name": "Cinecitt\u00e0", "country": "IT", "coord": {"lon": 12.56667, "lat": 41.849998}}, {"id": 6536496, "name": "Fino Mornasco", "country": "IT", "coord": {"lon": 9.04764, "lat": 45.742882}}, {"id": 3176976, "name": "Fino Mornasco", "country": "IT", "coord": {"lon": 9.04764, "lat": 45.742882}}, {"id": 6539140, "name": "Termini Imerese", "country": "IT", "coord": {"lon": 13.69555, "lat": 37.98365}}, {"id": 2522960, "name": "Termini Imerese", "country": "IT", "coord": {"lon": 13.69555, "lat": 37.98365}}, {"id": 6541088, "name": "Fiesole", "country": "IT", "coord": {"lon": 11.29412, "lat": 43.804852}}, {"id": 3177019, "name": "Fiesole", "country": "IT", "coord": {"lon": 11.29412, "lat": 43.804852}}, {"id": 6538756, "name": "Calvizzano", "country": "IT", "coord": {"lon": 14.18543, "lat": 40.90551}}, {"id": 3181140, "name": "Calvizzano", "country": "IT", "coord": {"lon": 14.18543, "lat": 40.90551}}, {"id": 6540359, "name": "Lungavilla", "country": "IT", "coord": {"lon": 9.08135, "lat": 45.040661}}, {"id": 3174463, "name": "Lungavilla", "country": "IT", "coord": {"lon": 9.08135, "lat": 45.040661}}, {"id": 6538309, "name": "Sarmede", "country": "IT", "coord": {"lon": 12.38421, "lat": 45.976711}}, {"id": 3167122, "name": "Sarmede", "country": "IT", "coord": {"lon": 12.38556, "lat": 45.979439}}, {"id": 6539764, "name": "Tivoli", "country": "IT", "coord": {"lon": 12.79888, "lat": 41.960918}}, {"id": 3165624, "name": "Tivoli", "country": "IT", "coord": {"lon": 12.79888, "lat": 41.960918}}, {"id": 2525498, "name": "Bronte", "country": "IT", "coord": {"lon": 14.83418, "lat": 37.789459}}, {"id": 3166409, "name": "Somma Lombardo", "country": "IT", "coord": {"lon": 8.70873, "lat": 45.682968}}, {"id": 2524155, "name": "Milazzo", "country": "IT", "coord": {"lon": 15.23828, "lat": 38.221169}}, {"id": 6536951, "name": "Grottaferrata", "country": "IT", "coord": {"lon": 12.67568, "lat": 41.783619}}, {"id": 3175775, "name": "Grottaferrata", "country": "IT", "coord": {"lon": 12.67568, "lat": 41.783619}}, {"id": 6536720, "name": "Ramiseto", "country": "IT", "coord": {"lon": 10.27719, "lat": 44.412159}}, {"id": 3170018, "name": "Poviglio", "country": "IT", "coord": {"lon": 10.23333, "lat": 44.383331}}, {"id": 6538441, "name": "Guastalla", "country": "IT", "coord": {"lon": 10.66089, "lat": 44.91317}}, {"id": 3175693, "name": "Guastalla", "country": "IT", "coord": {"lon": 10.66089, "lat": 44.91317}}, {"id": 6541567, "name": "Casalmaggiore", "country": "IT", "coord": {"lon": 10.41888, "lat": 44.99387}}, {"id": 3180177, "name": "Casalmaggiore", "country": "IT", "coord": {"lon": 10.41888, "lat": 44.99387}}, {"id": 6540860, "name": "Porto Torres", "country": "IT", "coord": {"lon": 8.40901, "lat": 40.833462}}, {"id": 3170069, "name": "Porto Torres", "country": "IT", "coord": {"lon": 8.39722, "lat": 40.834999}}, {"id": 6537624, "name": "Melfi", "country": "IT", "coord": {"lon": 15.65136, "lat": 40.996521}}, {"id": 3173615, "name": "Melfi", "country": "IT", "coord": {"lon": 15.65136, "lat": 40.996521}}, {"id": 6537730, "name": "Paceco", "country": "IT", "coord": {"lon": 12.55663, "lat": 37.978741}}, {"id": 2522700, "name": "Xitta", "country": "IT", "coord": {"lon": 12.55, "lat": 37.98333}}, {"id": 6536788, "name": "Monte San Giusto", "country": "IT", "coord": {"lon": 13.59528, "lat": 43.23576}}, {"id": 3172756, "name": "Monte San Giusto", "country": "IT", "coord": {"lon": 13.59528, "lat": 43.23576}}, {"id": 6539651, "name": "Grado", "country": "IT", "coord": {"lon": 13.39484, "lat": 45.67741}}, {"id": 3175960, "name": "Grado", "country": "IT", "coord": {"lon": 13.38694, "lat": 45.678612}}, {"id": 6542137, "name": "Camaiore", "country": "IT", "coord": {"lon": 10.2419, "lat": 43.90974}}, {"id": 6544089, "name": "Pedona", "country": "IT", "coord": {"lon": 10.29516, "lat": 43.92268}}, {"id": 6536874, "name": "Marsciano", "country": "IT", "coord": {"lon": 12.33586, "lat": 42.905941}}, {"id": 3173870, "name": "Marsciano", "country": "IT", "coord": {"lon": 12.33586, "lat": 42.905941}}, {"id": 3177450, "name": "Duino Aurisina", "country": "IT", "coord": {"lon": 13.6, "lat": 45.76667}}, {"id": 3177451, "name": "Duino", "country": "IT", "coord": {"lon": 13.60436, "lat": 45.773418}}, {"id": 6539872, "name": "Patern\u00f2", "country": "IT", "coord": {"lon": 14.90268, "lat": 37.57095}}, {"id": 2523866, "name": "Paterno", "country": "IT", "coord": {"lon": 14.90268, "lat": 37.57095}}, {"id": 6540093, "name": "Chiavenna", "country": "IT", "coord": {"lon": 9.39864, "lat": 46.32159}}, {"id": 3178829, "name": "Chiavenna", "country": "IT", "coord": {"lon": 9.39864, "lat": 46.32159}}, {"id": 6540471, "name": "Montespertoli", "country": "IT", "coord": {"lon": 11.07372, "lat": 43.644241}}, {"id": 3176119, "name": "Gigliola", "country": "IT", "coord": {"lon": 11.08333, "lat": 43.633331}}, {"id": 6541085, "name": "Serravalle Pistoiese", "country": "IT", "coord": {"lon": 10.83271, "lat": 43.906052}}, {"id": 3166638, "name": "Serravalle Pistoiese", "country": "IT", "coord": {"lon": 10.83271, "lat": 43.906052}}, {"id": 6536557, "name": "Garlasco", "country": "IT", "coord": {"lon": 8.92375, "lat": 45.197361}}, {"id": 3176299, "name": "Garlasco", "country": "IT", "coord": {"lon": 8.92375, "lat": 45.197361}}, {"id": 3169940, "name": "Prata", "country": "IT", "coord": {"lon": 10.98547, "lat": 43.083118}}, {"id": 6536152, "name": "San Pellegrino Terme", "country": "IT", "coord": {"lon": 9.66455, "lat": 45.838379}}, {"id": 3170888, "name": "Piazzo Basso", "country": "IT", "coord": {"lon": 9.66667, "lat": 45.833328}}, {"id": 6540153, "name": "Sestri Levante", "country": "IT", "coord": {"lon": 9.41277, "lat": 44.271439}}, {"id": 3166595, "name": "Sestri Levante", "country": "IT", "coord": {"lon": 9.39683, "lat": 44.27317}}, {"id": 3168514, "name": "San Bonifacio", "country": "IT", "coord": {"lon": 11.2844, "lat": 45.396889}}, {"id": 6539830, "name": "Ortona", "country": "IT", "coord": {"lon": 14.40391, "lat": 42.34964}}, {"id": 3171886, "name": "Ortona", "country": "IT", "coord": {"lon": 14.40391, "lat": 42.34964}}, {"id": 6539457, "name": "Mondragone", "country": "IT", "coord": {"lon": 13.89352, "lat": 41.114109}}, {"id": 3173160, "name": "Mondragone", "country": "IT", "coord": {"lon": 13.89352, "lat": 41.114109}}, {"id": 6539388, "name": "Candelo", "country": "IT", "coord": {"lon": 8.10572, "lat": 45.546959}}, {"id": 3180871, "name": "Candelo", "country": "IT", "coord": {"lon": 8.10572, "lat": 45.546959}}, {"id": 6541137, "name": "Sabaudia", "country": "IT", "coord": {"lon": 13.0308, "lat": 41.29911}}, {"id": 3168764, "name": "Sabaudia", "country": "IT", "coord": {"lon": 13.02815, "lat": 41.300251}}, {"id": 3164867, "name": "Vallecchia", "country": "IT", "coord": {"lon": 10.21667, "lat": 43.98333}}, {"id": 6537816, "name": "Scicli", "country": "IT", "coord": {"lon": 14.70139, "lat": 36.790241}}, {"id": 2523192, "name": "Scicli", "country": "IT", "coord": {"lon": 14.70139, "lat": 36.790241}}, {"id": 6539217, "name": "Priolo Gargallo", "country": "IT", "coord": {"lon": 15.18019, "lat": 37.157249}}, {"id": 2523679, "name": "Priolo Gargallo", "country": "IT", "coord": {"lon": 15.18019, "lat": 37.157249}}, {"id": 6536055, "name": "Casalnoceto", "country": "IT", "coord": {"lon": 8.98215, "lat": 44.913059}}, {"id": 3180173, "name": "Casalnoceto", "country": "IT", "coord": {"lon": 8.98215, "lat": 44.913059}}, {"id": 6540446, "name": "Pergola", "country": "IT", "coord": {"lon": 12.83486, "lat": 43.556561}}, {"id": 3171212, "name": "Pergola", "country": "IT", "coord": {"lon": 12.83486, "lat": 43.556561}}, {"id": 6542099, "name": "Carini", "country": "IT", "coord": {"lon": 13.17764, "lat": 38.156651}}, {"id": 2525350, "name": "Carini", "country": "IT", "coord": {"lon": 13.17764, "lat": 38.156651}}, {"id": 6542093, "name": "Ardea", "country": "IT", "coord": {"lon": 12.51938, "lat": 41.608711}}, {"id": 3182897, "name": "Ardea", "country": "IT", "coord": {"lon": 12.51433, "lat": 41.612301}}, {"id": 3169056, "name": "Romano di Lombardia", "country": "IT", "coord": {"lon": 9.74836, "lat": 45.524578}}, {"id": 6539189, "name": "Nicosia", "country": "IT", "coord": {"lon": 14.39727, "lat": 37.747452}}, {"id": 2524009, "name": "Nicosia", "country": "IT", "coord": {"lon": 14.39727, "lat": 37.747452}}, {"id": 6537797, "name": "Piazza Armerina", "country": "IT", "coord": {"lon": 14.36717, "lat": 37.385948}}, {"id": 2523796, "name": "Piazza Armerina", "country": "IT", "coord": {"lon": 14.36717, "lat": 37.385948}}, {"id": 6540783, "name": "Bisignano", "country": "IT", "coord": {"lon": 16.277189, "lat": 39.505901}}, {"id": 2523167, "name": "Selamo", "country": "IT", "coord": {"lon": 16.283331, "lat": 39.51667}}, {"id": 6536179, "name": "Ghedi", "country": "IT", "coord": {"lon": 10.27927, "lat": 45.401081}}, {"id": 3176177, "name": "Ghedi", "country": "IT", "coord": {"lon": 10.27927, "lat": 45.401081}}, {"id": 2522857, "name": "Tricase", "country": "IT", "coord": {"lon": 18.35533, "lat": 39.93042}}, {"id": 6540819, "name": "Siderno", "country": "IT", "coord": {"lon": 16.302, "lat": 38.277882}}, {"id": 6542041, "name": "Capannori", "country": "IT", "coord": {"lon": 10.5728, "lat": 43.874741}}, {"id": 3168319, "name": "San Ginese", "country": "IT", "coord": {"lon": 10.58333, "lat": 43.816669}}, {"id": 6540488, "name": "Gavorrano", "country": "IT", "coord": {"lon": 10.90923, "lat": 42.924229}}, {"id": 3176259, "name": "Gavorrano", "country": "IT", "coord": {"lon": 10.90681, "lat": 42.925259}}, {"id": 6538562, "name": "Montaione", "country": "IT", "coord": {"lon": 10.91072, "lat": 43.55254}}, {"id": 3173103, "name": "Montaione", "country": "IT", "coord": {"lon": 10.91072, "lat": 43.55254}}, {"id": 6539857, "name": "Ardore", "country": "IT", "coord": {"lon": 16.167999, "lat": 38.191368}}, {"id": 2525512, "name": "Bovalino Superiore", "country": "IT", "coord": {"lon": 16.16667, "lat": 38.183331}}, {"id": 6541985, "name": "Capua", "country": "IT", "coord": {"lon": 14.22013, "lat": 41.099709}}, {"id": 3180601, "name": "Capua", "country": "IT", "coord": {"lon": 14.22013, "lat": 41.099709}}, {"id": 6540022, "name": "San Severo", "country": "IT", "coord": {"lon": 15.37604, "lat": 41.689739}}, {"id": 3167731, "name": "San Severo", "country": "IT", "coord": {"lon": 15.37604, "lat": 41.689739}}, {"id": 6539425, "name": "Cir\u00f2 Marina", "country": "IT", "coord": {"lon": 17.126011, "lat": 39.373199}}, {"id": 2524979, "name": "Ciro Marina", "country": "IT", "coord": {"lon": 17.126011, "lat": 39.373199}}, {"id": 6539098, "name": "Caulonia", "country": "IT", "coord": {"lon": 16.40901, "lat": 38.381378}}, {"id": 2525053, "name": "Caulonia", "country": "IT", "coord": {"lon": 16.40901, "lat": 38.381378}}, {"id": 6536694, "name": "Tarcento", "country": "IT", "coord": {"lon": 13.21392, "lat": 46.214321}}, {"id": 3165923, "name": "Tarcento", "country": "IT", "coord": {"lon": 13.22583, "lat": 46.212219}}, {"id": 6539812, "name": "Pompei", "country": "IT", "coord": {"lon": 14.49734, "lat": 40.746109}}, {"id": 3170335, "name": "Pompei", "country": "IT", "coord": {"lon": 14.49734, "lat": 40.746109}}, {"id": 2525480, "name": "Butera", "country": "IT", "coord": {"lon": 14.18367, "lat": 37.19104}}, {"id": 6538288, "name": "Sedico", "country": "IT", "coord": {"lon": 12.0954, "lat": 46.108212}}, {"id": 3166826, "name": "Sedico", "country": "IT", "coord": {"lon": 12.10028, "lat": 46.111111}}, {"id": 6536265, "name": "Peschiera del Garda", "country": "IT", "coord": {"lon": 10.68908, "lat": 45.437778}}, {"id": 3171152, "name": "Peschiera del Garda", "country": "IT", "coord": {"lon": 10.68908, "lat": 45.437778}}, {"id": 6539201, "name": "Randazzo", "country": "IT", "coord": {"lon": 14.94968, "lat": 37.87606}}, {"id": 2523641, "name": "Randazzo", "country": "IT", "coord": {"lon": 14.95012, "lat": 37.877361}}, {"id": 6539679, "name": "Moglia", "country": "IT", "coord": {"lon": 10.9134, "lat": 44.937168}}, {"id": 3173317, "name": "Moglia", "country": "IT", "coord": {"lon": 10.9134, "lat": 44.937168}}, {"id": 6540027, "name": "Novoli", "country": "IT", "coord": {"lon": 18.049219, "lat": 40.378529}}, {"id": 3172168, "name": "Novoli", "country": "IT", "coord": {"lon": 18.049219, "lat": 40.378529}}, {"id": 6540099, "name": "Mori", "country": "IT", "coord": {"lon": 10.98068, "lat": 45.850399}}, {"id": 3172598, "name": "Mori", "country": "IT", "coord": {"lon": 10.98068, "lat": 45.850399}}, {"id": 6537726, "name": "Stilo", "country": "IT", "coord": {"lon": 16.46841, "lat": 38.477081}}, {"id": 2522997, "name": "Stilo", "country": "IT", "coord": {"lon": 16.46841, "lat": 38.477081}}, {"id": 6538973, "name": "Martano", "country": "IT", "coord": {"lon": 18.30283, "lat": 40.203419}}, {"id": 3173857, "name": "Martano", "country": "IT", "coord": {"lon": 18.30283, "lat": 40.203419}}, {"id": 6541669, "name": "Sorisole", "country": "IT", "coord": {"lon": 9.65505, "lat": 45.736279}}, {"id": 3166356, "name": "Sorisole", "country": "IT", "coord": {"lon": 9.65505, "lat": 45.736279}}, {"id": 6540617, "name": "Sal\u00f2", "country": "IT", "coord": {"lon": 10.53097, "lat": 45.608589}}, {"id": 3168633, "name": "Salo", "country": "IT", "coord": {"lon": 10.53097, "lat": 45.608589}}, {"id": 6536878, "name": "Panicale", "country": "IT", "coord": {"lon": 12.09935, "lat": 43.029541}}, {"id": 3171523, "name": "Panicale", "country": "IT", "coord": {"lon": 12.09935, "lat": 43.029541}}, {"id": 6540230, "name": "Mezzolombardo", "country": "IT", "coord": {"lon": 11.09678, "lat": 46.209011}}, {"id": 3173480, "name": "Mezzolombardo", "country": "IT", "coord": {"lon": 11.09678, "lat": 46.209011}}, {"id": 6541096, "name": "Vicopisano", "country": "IT", "coord": {"lon": 10.58111, "lat": 43.687241}}, {"id": 3164396, "name": "Vicopisano", "country": "IT", "coord": {"lon": 10.58111, "lat": 43.687241}}, {"id": 6539041, "name": "Longobucco", "country": "IT", "coord": {"lon": 16.6105, "lat": 39.448299}}, {"id": 2524367, "name": "Longobucco", "country": "IT", "coord": {"lon": 16.6105, "lat": 39.448299}}, {"id": 6541345, "name": "San Cataldo", "country": "IT", "coord": {"lon": 13.99306, "lat": 37.488441}}, {"id": 2523513, "name": "San Cataldo", "country": "IT", "coord": {"lon": 13.98542, "lat": 37.484119}}, {"id": 6537767, "name": "Naso", "country": "IT", "coord": {"lon": 14.78688, "lat": 38.123058}}, {"id": 2524020, "name": "Naso", "country": "IT", "coord": {"lon": 14.78688, "lat": 38.123058}}, {"id": 6538448, "name": "Bomporto", "country": "IT", "coord": {"lon": 11.0384, "lat": 44.729771}}, {"id": 3181903, "name": "Bomporto", "country": "IT", "coord": {"lon": 11.0384, "lat": 44.729771}}, {"id": 6540853, "name": "Santa Croce Camerina", "country": "IT", "coord": {"lon": 14.52678, "lat": 36.828941}}, {"id": 2523362, "name": "Santa Croce Camerina", "country": "IT", "coord": {"lon": 14.52678, "lat": 36.828941}}, {"id": 6542213, "name": "Greve in Chianti", "country": "IT", "coord": {"lon": 11.31633, "lat": 43.58654}}, {"id": 3175833, "name": "Greve", "country": "IT", "coord": {"lon": 11.31633, "lat": 43.58654}}, {"id": 6539175, "name": "Sambuca di Sicilia", "country": "IT", "coord": {"lon": 13.11094, "lat": 37.649441}}, {"id": 2523533, "name": "Sambuca di Sicilia", "country": "IT", "coord": {"lon": 13.11094, "lat": 37.649441}}, {"id": 3166424, "name": "Solignano Nuovo", "country": "IT", "coord": {"lon": 10.91667, "lat": 44.533329}}, {"id": 6537752, "name": "Terrasini", "country": "IT", "coord": {"lon": 13.08444, "lat": 38.14595}}, {"id": 2522952, "name": "Terrasini Favarotta", "country": "IT", "coord": {"lon": 13.08444, "lat": 38.14595}}, {"id": 6537807, "name": "Nicolosi", "country": "IT", "coord": {"lon": 15.02549, "lat": 37.615952}}, {"id": 2524010, "name": "Nicolosi", "country": "IT", "coord": {"lon": 15.02549, "lat": 37.615952}}, {"id": 6541831, "name": "Noceto", "country": "IT", "coord": {"lon": 10.17128, "lat": 44.811359}}, {"id": 3182235, "name": "Belicchi", "country": "IT", "coord": {"lon": 10.18333, "lat": 44.799999}}, {"id": 6541026, "name": "Albinea", "country": "IT", "coord": {"lon": 10.60639, "lat": 44.624458}}, {"id": 3183318, "name": "Albinea", "country": "IT", "coord": {"lon": 10.60639, "lat": 44.624458}}, {"id": 6536348, "name": "Gattatico", "country": "IT", "coord": {"lon": 10.44339, "lat": 44.796169}}, {"id": 3177017, "name": "Fiesso", "country": "IT", "coord": {"lon": 10.45, "lat": 44.816669}}, {"id": 2523762, "name": "Pizzo", "country": "IT", "coord": {"lon": 16.1658, "lat": 38.73838}}, {"id": 3171148, "name": "Pescia", "country": "IT", "coord": {"lon": 10.69041, "lat": 43.897049}}, {"id": 2525218, "name": "Casa Petrusa", "country": "IT", "coord": {"lon": 16.549999, "lat": 38.450001}}, {"id": 6538944, "name": "Locorotondo", "country": "IT", "coord": {"lon": 17.3265, "lat": 40.75523}}, {"id": 3174641, "name": "Locorotondo", "country": "IT", "coord": {"lon": 17.3265, "lat": 40.75523}}, {"id": 6540025, "name": "Fasano", "country": "IT", "coord": {"lon": 17.3584, "lat": 40.834431}}, {"id": 3177171, "name": "Fasano", "country": "IT", "coord": {"lon": 17.3584, "lat": 40.834431}}, {"id": 6541125, "name": "Borgorose", "country": "IT", "coord": {"lon": 13.23399, "lat": 42.18903}}, {"id": 3181760, "name": "Borgorose", "country": "IT", "coord": {"lon": 13.23399, "lat": 42.18903}}, {"id": 6541308, "name": "Tiriolo", "country": "IT", "coord": {"lon": 16.508301, "lat": 38.943291}}, {"id": 2522930, "name": "Tiriolo", "country": "IT", "coord": {"lon": 16.508301, "lat": 38.943291}}, {"id": 6539741, "name": "San Gimignano", "country": "IT", "coord": {"lon": 11.04272, "lat": 43.469238}}, {"id": 3168320, "name": "San Gimignano", "country": "IT", "coord": {"lon": 11.04272, "lat": 43.469238}}, {"id": 6538175, "name": "Costigliole d'Asti", "country": "IT", "coord": {"lon": 8.18094, "lat": 44.783939}}, {"id": 3177881, "name": "Costigliole dAsti", "country": "IT", "coord": {"lon": 8.18094, "lat": 44.783939}}, {"id": 6536976, "name": "Sermoneta", "country": "IT", "coord": {"lon": 12.98489, "lat": 41.549309}}, {"id": 3166695, "name": "Sermoneta", "country": "IT", "coord": {"lon": 12.98481, "lat": 41.549191}}, {"id": 6537352, "name": "Striano", "country": "IT", "coord": {"lon": 14.57654, "lat": 40.81591}}, {"id": 3166096, "name": "Striano", "country": "IT", "coord": {"lon": 14.57654, "lat": 40.81591}}, {"id": 6537345, "name": "Palma Campania", "country": "IT", "coord": {"lon": 14.54874, "lat": 40.86491}}, {"id": 3171576, "name": "Palma Campania", "country": "IT", "coord": {"lon": 14.54874, "lat": 40.86491}}, {"id": 6541109, "name": "Castiglione del Lago", "country": "IT", "coord": {"lon": 12.04525, "lat": 43.12714}}, {"id": 3179419, "name": "Castiglione del Lago", "country": "IT", "coord": {"lon": 12.04525, "lat": 43.12714}}, {"id": 6539702, "name": "Medesano", "country": "IT", "coord": {"lon": 10.13978, "lat": 44.757561}}, {"id": 3173664, "name": "Medesano", "country": "IT", "coord": {"lon": 10.13978, "lat": 44.757561}}, {"id": 6542281, "name": "Padova", "country": "IT", "coord": {"lon": 11.88181, "lat": 45.415192}}, {"id": 3171728, "name": "Padova", "country": "IT", "coord": {"lon": 11.88181, "lat": 45.415192}}, {"id": 6537733, "name": "Alia", "country": "IT", "coord": {"lon": 13.71386, "lat": 37.779949}}, {"id": 2525746, "name": "Alia", "country": "IT", "coord": {"lon": 13.71386, "lat": 37.779949}}, {"id": 6538960, "name": "Francavilla Fontana", "country": "IT", "coord": {"lon": 17.585211, "lat": 40.530628}}, {"id": 3176603, "name": "Francavilla Fontana", "country": "IT", "coord": {"lon": 17.585211, "lat": 40.530628}}, {"id": 6955471, "name": "Province of Fermo", "country": "IT", "coord": {"lon": 13.72424, "lat": 43.165371}}, {"id": 6539731, "name": "Monte Urano", "country": "IT", "coord": {"lon": 13.67288, "lat": 43.20266}}, {"id": 3172720, "name": "Monte Urano", "country": "IT", "coord": {"lon": 13.67288, "lat": 43.20266}}, {"id": 6538486, "name": "Russi", "country": "IT", "coord": {"lon": 12.03003, "lat": 44.376171}}, {"id": 3168784, "name": "Russi", "country": "IT", "coord": {"lon": 12.03222, "lat": 44.372501}}, {"id": 6537818, "name": "Buscemi", "country": "IT", "coord": {"lon": 14.88389, "lat": 37.086842}}, {"id": 2525483, "name": "Buscemi", "country": "IT", "coord": {"lon": 14.88389, "lat": 37.086842}}, {"id": 6541107, "name": "Orbetello", "country": "IT", "coord": {"lon": 11.22394, "lat": 42.441921}}, {"id": 3171985, "name": "Orbetello", "country": "IT", "coord": {"lon": 11.21962, "lat": 42.440811}}, {"id": 3178285, "name": "Cologno al Serio", "country": "IT", "coord": {"lon": 9.70876, "lat": 45.582081}}, {"id": 6540062, "name": "Riposto", "country": "IT", "coord": {"lon": 15.20089, "lat": 37.73056}}, {"id": 2523612, "name": "Riposto", "country": "IT", "coord": {"lon": 15.20089, "lat": 37.73056}}, {"id": 6537626, "name": "Muro Lucano", "country": "IT", "coord": {"lon": 15.48576, "lat": 40.752522}}, {"id": 3180691, "name": "Capodigiano", "country": "IT", "coord": {"lon": 15.48333, "lat": 40.75}}, {"id": 6539940, "name": "Castel San Giovanni", "country": "IT", "coord": {"lon": 9.43346, "lat": 45.058262}}, {"id": 3179485, "name": "Castel San Giovanni", "country": "IT", "coord": {"lon": 9.43346, "lat": 45.058262}}, {"id": 6542742, "name": "Isola del Giglio", "country": "IT", "coord": {"lon": 10.90728, "lat": 42.35791}}, {"id": 3176120, "name": "Giglio Castello", "country": "IT", "coord": {"lon": 10.9, "lat": 42.366669}}, {"id": 6541140, "name": "Aquino", "country": "IT", "coord": {"lon": 13.70471, "lat": 41.491119}}, {"id": 3182937, "name": "Aquino", "country": "IT", "coord": {"lon": 13.70471, "lat": 41.491119}}, {"id": 3173977, "name": "Marebbe", "country": "IT", "coord": {"lon": 11.93333, "lat": 46.666672}}, {"id": 3174596, "name": "Longega", "country": "IT", "coord": {"lon": 11.89176, "lat": 46.722031}}, {"id": 6537776, "name": "Cammarata", "country": "IT", "coord": {"lon": 13.63146, "lat": 37.62994}}, {"id": 2525433, "name": "Cammarata", "country": "IT", "coord": {"lon": 13.63146, "lat": 37.62994}}, {"id": 6539900, "name": "Montanaro", "country": "IT", "coord": {"lon": 7.85332, "lat": 45.233551}}, {"id": 3173074, "name": "Montanaro", "country": "IT", "coord": {"lon": 7.85332, "lat": 45.233551}}, {"id": 6540672, "name": "San Prisco", "country": "IT", "coord": {"lon": 14.27823, "lat": 41.08712}}, {"id": 3167793, "name": "San Prisco", "country": "IT", "coord": {"lon": 14.27823, "lat": 41.08712}}, {"id": 6541883, "name": "Poppi", "country": "IT", "coord": {"lon": 11.76073, "lat": 43.734852}}, {"id": 3170172, "name": "Poppi", "country": "IT", "coord": {"lon": 11.76073, "lat": 43.734852}}, {"id": 6536332, "name": "Borgonovo Val Tidone", "country": "IT", "coord": {"lon": 9.44346, "lat": 45.014359}}, {"id": 3181779, "name": "Borgonovo Val Tidone", "country": "IT", "coord": {"lon": 9.44346, "lat": 45.014359}}, {"id": 6537480, "name": "Francavilla al Mare", "country": "IT", "coord": {"lon": 14.28701, "lat": 42.420639}}, {"id": 3176605, "name": "Francavilla al Mare", "country": "IT", "coord": {"lon": 14.28701, "lat": 42.420639}}, {"id": 6536605, "name": "Valeggio sul Mincio", "country": "IT", "coord": {"lon": 10.73668, "lat": 45.35228}}, {"id": 3164924, "name": "Valeggio sul Mincio", "country": "IT", "coord": {"lon": 10.73668, "lat": 45.35228}}, {"id": 6542346, "name": "Gravina di Catania", "country": "IT", "coord": {"lon": 15.06299, "lat": 37.55555}}, {"id": 6534275, "name": "Gravina di Catania", "country": "IT", "coord": {"lon": 15.06299, "lat": 37.55555}}, {"id": 6540613, "name": "Paratico", "country": "IT", "coord": {"lon": 9.95956, "lat": 45.656879}}, {"id": 3171471, "name": "Paratico", "country": "IT", "coord": {"lon": 9.95956, "lat": 45.656879}}, {"id": 6538920, "name": "Candela", "country": "IT", "coord": {"lon": 15.51465, "lat": 41.13792}}, {"id": 3180874, "name": "Candela", "country": "IT", "coord": {"lon": 15.51465, "lat": 41.13792}}, {"id": 6541807, "name": "Eboli", "country": "IT", "coord": {"lon": 15.05785, "lat": 40.614208}}, {"id": 3177438, "name": "Eboli", "country": "IT", "coord": {"lon": 15.05785, "lat": 40.614208}}, {"id": 3178999, "name": "Cerveteri", "country": "IT", "coord": {"lon": 12.09237, "lat": 41.992619}}, {"id": 6539622, "name": "Ponte San Pietro", "country": "IT", "coord": {"lon": 9.58485, "lat": 45.696281}}, {"id": 3170218, "name": "Ponte San Pietro", "country": "IT", "coord": {"lon": 9.58485, "lat": 45.696281}}, {"id": 6541123, "name": "Civita Castellana", "country": "IT", "coord": {"lon": 12.40917, "lat": 42.295231}}, {"id": 3178595, "name": "Civita Castellana", "country": "IT", "coord": {"lon": 12.40917, "lat": 42.295231}}, {"id": 3173110, "name": "Montagnana", "country": "IT", "coord": {"lon": 11.4635, "lat": 45.22868}}, {"id": 6538353, "name": "Lendinara", "country": "IT", "coord": {"lon": 11.59971, "lat": 45.084278}}, {"id": 3174896, "name": "Lendinara", "country": "IT", "coord": {"lon": 11.59971, "lat": 45.084278}}, {"id": 6538581, "name": "San Giuliano Terme", "country": "IT", "coord": {"lon": 10.4404, "lat": 43.761639}}, {"id": 3168221, "name": "San Giuliano Terme", "country": "IT", "coord": {"lon": 10.4404, "lat": 43.761639}}, {"id": 6538049, "name": "Castellamonte", "country": "IT", "coord": {"lon": 7.71212, "lat": 45.381962}}, {"id": 3179659, "name": "Castellamonte", "country": "IT", "coord": {"lon": 7.71212, "lat": 45.381962}}, {"id": 6538556, "name": "Certaldo", "country": "IT", "coord": {"lon": 11.04022, "lat": 43.547039}}, {"id": 3179024, "name": "Certaldo", "country": "IT", "coord": {"lon": 11.04022, "lat": 43.547039}}, {"id": 3179656, "name": "Castellana Grotte", "country": "IT", "coord": {"lon": 17.165501, "lat": 40.886429}}, {"id": 3180413, "name": "Carro", "country": "IT", "coord": {"lon": 9.60888, "lat": 44.272148}}, {"id": 6538764, "name": "Monte di Procida", "country": "IT", "coord": {"lon": 14.05183, "lat": 40.800911}}, {"id": 3172946, "name": "Monte di Procida", "country": "IT", "coord": {"lon": 14.05023, "lat": 40.798092}}, {"id": 6536710, "name": "Salsomaggiore Terme", "country": "IT", "coord": {"lon": 9.97958, "lat": 44.814758}}, {"id": 3168627, "name": "Salsomaggiore Terme", "country": "IT", "coord": {"lon": 9.97958, "lat": 44.814758}}, {"id": 6536292, "name": "San Michele al Tagliamento", "country": "IT", "coord": {"lon": 12.99323, "lat": 45.767609}}, {"id": 6540043, "name": "Satriano", "country": "IT", "coord": {"lon": 16.481199, "lat": 38.666882}}, {"id": 2523217, "name": "Satriano", "country": "IT", "coord": {"lon": 16.481199, "lat": 38.666882}}, {"id": 6536701, "name": "Rolo", "country": "IT", "coord": {"lon": 10.8602, "lat": 44.88567}}, {"id": 3169072, "name": "Rolo", "country": "IT", "coord": {"lon": 10.8602, "lat": 44.88567}}, {"id": 6540658, "name": "Caluso", "country": "IT", "coord": {"lon": 7.89572, "lat": 45.304958}}, {"id": 3181164, "name": "Caluso", "country": "IT", "coord": {"lon": 7.89572, "lat": 45.304958}}, {"id": 6537549, "name": "Gioia del Colle", "country": "IT", "coord": {"lon": 16.92359, "lat": 40.79673}}, {"id": 3176090, "name": "Gioia del Colle", "country": "IT", "coord": {"lon": 16.92359, "lat": 40.79673}}, {"id": 6541873, "name": "Cupra Marittima", "country": "IT", "coord": {"lon": 13.85789, "lat": 43.029949}}, {"id": 3177685, "name": "Cupra Marittima", "country": "IT", "coord": {"lon": 13.85789, "lat": 43.029949}}, {"id": 6539836, "name": "Ginosa", "country": "IT", "coord": {"lon": 16.75609, "lat": 40.58012}}, {"id": 3176097, "name": "Ginosa", "country": "IT", "coord": {"lon": 16.75609, "lat": 40.58012}}, {"id": 3175163, "name": "Langhirano", "country": "IT", "coord": {"lon": 10.26559, "lat": 44.612659}}, {"id": 6536815, "name": "Pescaglia", "country": "IT", "coord": {"lon": 10.4111, "lat": 43.966251}}, {"id": 3171171, "name": "Pescaglia", "country": "IT", "coord": {"lon": 10.4111, "lat": 43.966251}}, {"id": 6537424, "name": "Vallo della Lucania", "country": "IT", "coord": {"lon": 15.26576, "lat": 40.229698}}, {"id": 3164794, "name": "Vallo della Lucania", "country": "IT", "coord": {"lon": 15.26576, "lat": 40.229698}}, {"id": 6538480, "name": "Comacchio", "country": "IT", "coord": {"lon": 12.18043, "lat": 44.696381}}, {"id": 3178245, "name": "Comacchio", "country": "IT", "coord": {"lon": 12.18583, "lat": 44.697498}}, {"id": 6535752, "name": "Ronago", "country": "IT", "coord": {"lon": 8.98364, "lat": 45.832279}}, {"id": 3180322, "name": "Casa Castellani", "country": "IT", "coord": {"lon": 13.1, "lat": 43.75}}, {"id": 6540418, "name": "Rio Saliceto", "country": "IT", "coord": {"lon": 10.8026, "lat": 44.811569}}, {"id": 3169324, "name": "Rio Saliceto", "country": "IT", "coord": {"lon": 10.8026, "lat": 44.811569}}, {"id": 6540604, "name": "Bagnolo Mella", "country": "IT", "coord": {"lon": 10.18437, "lat": 45.429081}}, {"id": 3182500, "name": "Bagnolo Mella", "country": "IT", "coord": {"lon": 10.18437, "lat": 45.429081}}, {"id": 6536089, "name": "Varazze", "country": "IT", "coord": {"lon": 8.57405, "lat": 44.359539}}, {"id": 3164709, "name": "Varazze", "country": "IT", "coord": {"lon": 8.57405, "lat": 44.359539}}, {"id": 6541624, "name": "Cicagna", "country": "IT", "coord": {"lon": 9.24637, "lat": 44.404049}}, {"id": 3183537, "name": "Acqua", "country": "IT", "coord": {"lon": 9.25, "lat": 44.416672}}, {"id": 6537675, "name": "Mangone", "country": "IT", "coord": {"lon": 16.332001, "lat": 39.205589}}, {"id": 2524300, "name": "Mangone", "country": "IT", "coord": {"lon": 16.332001, "lat": 39.205589}}, {"id": 3182178, "name": "Provincia di Benevento", "country": "IT", "coord": {"lon": 14.7464, "lat": 41.217918}}, {"id": 6542190, "name": "Telese Terme", "country": "IT", "coord": {"lon": 14.52773, "lat": 41.217319}}, {"id": 3165842, "name": "Telese Terme", "country": "IT", "coord": {"lon": 14.52773, "lat": 41.217319}}, {"id": 6539112, "name": "Erice", "country": "IT", "coord": {"lon": 12.58653, "lat": 38.037041}}, {"id": 2524815, "name": "Erice", "country": "IT", "coord": {"lon": 12.58653, "lat": 38.037041}}, {"id": 6537561, "name": "Castellaneta", "country": "IT", "coord": {"lon": 16.93689, "lat": 40.62722}}, {"id": 3179655, "name": "Castellaneta", "country": "IT", "coord": {"lon": 16.93689, "lat": 40.62722}}, {"id": 2525769, "name": "Adrano", "country": "IT", "coord": {"lon": 14.83478, "lat": 37.661751}}, {"id": 6541713, "name": "Gambol\u00f2", "country": "IT", "coord": {"lon": 8.85724, "lat": 45.26416}}, {"id": 3176333, "name": "Gambolo", "country": "IT", "coord": {"lon": 8.85724, "lat": 45.26416}}, {"id": 6539562, "name": "Busca", "country": "IT", "coord": {"lon": 7.47433, "lat": 44.518131}}, {"id": 3181380, "name": "Busca", "country": "IT", "coord": {"lon": 7.47433, "lat": 44.518131}}, {"id": 6538120, "name": "Trino", "country": "IT", "coord": {"lon": 8.29613, "lat": 45.192059}}, {"id": 3165165, "name": "Trino", "country": "IT", "coord": {"lon": 8.29613, "lat": 45.192059}}, {"id": 6539109, "name": "Campobello di Mazara", "country": "IT", "coord": {"lon": 12.74434, "lat": 37.635841}}, {"id": 2525425, "name": "Campobello di Mazara", "country": "IT", "coord": {"lon": 12.74434, "lat": 37.635841}}, {"id": 6537812, "name": "Trecastagni", "country": "IT", "coord": {"lon": 15.07799, "lat": 37.618561}}, {"id": 2522865, "name": "Trecastagni", "country": "IT", "coord": {"lon": 15.07799, "lat": 37.618561}}, {"id": 6537695, "name": "Gasperina", "country": "IT", "coord": {"lon": 16.5061, "lat": 38.740879}}, {"id": 2524656, "name": "Gasperina", "country": "IT", "coord": {"lon": 16.5061, "lat": 38.740879}}, {"id": 6538956, "name": "Monteiasi", "country": "IT", "coord": {"lon": 17.382601, "lat": 40.49992}}, {"id": 3172886, "name": "Monteiasi", "country": "IT", "coord": {"lon": 17.382601, "lat": 40.49992}}, {"id": 3173038, "name": "Monte Argentario", "country": "IT", "coord": {"lon": 11.16667, "lat": 42.416672}}, {"id": 3170119, "name": "Porto Ercole", "country": "IT", "coord": {"lon": 11.20369, "lat": 42.393581}}, {"id": 6539824, "name": "Celano", "country": "IT", "coord": {"lon": 13.5398, "lat": 42.085529}}, {"id": 3179216, "name": "Celano", "country": "IT", "coord": {"lon": 13.5398, "lat": 42.085529}}, {"id": 6536017, "name": "San Martino in Badia - St. Martin in Thurn", "country": "IT", "coord": {"lon": 11.89809, "lat": 46.68153}}, {"id": 3176540, "name": "Frena", "country": "IT", "coord": {"lon": 11.86667, "lat": 46.633331}}, {"id": 6539205, "name": "Zafferana Etnea", "country": "IT", "coord": {"lon": 15.10799, "lat": 37.682159}}, {"id": 2522696, "name": "Zafferana Etnea", "country": "IT", "coord": {"lon": 15.10799, "lat": 37.682159}}, {"id": 6540041, "name": "Cropani", "country": "IT", "coord": {"lon": 16.781309, "lat": 38.967789}}, {"id": 2524883, "name": "Cropani", "country": "IT", "coord": {"lon": 16.781309, "lat": 38.967789}}, {"id": 6540620, "name": "Verolavecchia", "country": "IT", "coord": {"lon": 10.05717, "lat": 45.32708}}, {"id": 3164530, "name": "Verolavecchia", "country": "IT", "coord": {"lon": 10.05717, "lat": 45.32708}}, {"id": 6540770, "name": "Porto Cesareo", "country": "IT", "coord": {"lon": 17.89842, "lat": 40.262821}}, {"id": 3178968, "name": "Porto Cesareo", "country": "IT", "coord": {"lon": 17.89842, "lat": 40.262821}}, {"id": 6540504, "name": "Amatrice", "country": "IT", "coord": {"lon": 13.29508, "lat": 42.62664}}, {"id": 3171108, "name": "Petrana", "country": "IT", "coord": {"lon": 13.28333, "lat": 42.633331}}, {"id": 6538814, "name": "Cava de' Tirreni", "country": "IT", "coord": {"lon": 14.70564, "lat": 40.700909}}, {"id": 3179337, "name": "Cava deTirreni", "country": "IT", "coord": {"lon": 14.70564, "lat": 40.700909}}, {"id": 6537718, "name": "Plat\u00ec", "country": "IT", "coord": {"lon": 16.046499, "lat": 38.219971}}, {"id": 2523749, "name": "Plati", "country": "IT", "coord": {"lon": 16.046499, "lat": 38.219971}}, {"id": 6539578, "name": "Boscotrecase", "country": "IT", "coord": {"lon": 14.46204, "lat": 40.774311}}, {"id": 3181680, "name": "Boscotrecase", "country": "IT", "coord": {"lon": 14.46204, "lat": 40.774311}}, {"id": 6537595, "name": "Ruffano", "country": "IT", "coord": {"lon": 18.246429, "lat": 39.982922}}, {"id": 2523569, "name": "Ruffano", "country": "IT", "coord": {"lon": 18.246429, "lat": 39.982922}}, {"id": 6538021, "name": "Strongoli", "country": "IT", "coord": {"lon": 17.054411, "lat": 39.266499}}, {"id": 2522990, "name": "Strongoli", "country": "IT", "coord": {"lon": 17.054411, "lat": 39.266499}}, {"id": 6538969, "name": "Copertino", "country": "IT", "coord": {"lon": 18.05652, "lat": 40.271519}}, {"id": 3178141, "name": "Copertino", "country": "IT", "coord": {"lon": 18.05652, "lat": 40.271519}}, {"id": 6540183, "name": "Bagolino", "country": "IT", "coord": {"lon": 10.45947, "lat": 45.825191}}, {"id": 3182490, "name": "Bagolino", "country": "IT", "coord": {"lon": 10.45947, "lat": 45.825191}}, {"id": 2522958, "name": "Terralba", "country": "IT", "coord": {"lon": 8.63917, "lat": 39.71917}}, {"id": 6535871, "name": "Toscolano-Maderno", "country": "IT", "coord": {"lon": 10.60838, "lat": 45.634491}}, {"id": 3165356, "name": "Toscolano-Maderno", "country": "IT", "coord": {"lon": 10.60838, "lat": 45.634491}}, {"id": 6537653, "name": "Tricarico", "country": "IT", "coord": {"lon": 16.146481, "lat": 40.617619}}, {"id": 3165191, "name": "Tricarico", "country": "IT", "coord": {"lon": 16.146481, "lat": 40.617619}}, {"id": 6537813, "name": "Chiaramonte Gulfi", "country": "IT", "coord": {"lon": 14.70128, "lat": 37.031342}}, {"id": 2525010, "name": "Chiaramonte Gulfi", "country": "IT", "coord": {"lon": 14.70128, "lat": 37.031342}}, {"id": 6542278, "name": "Caiazzo", "country": "IT", "coord": {"lon": 14.36223, "lat": 41.178719}}, {"id": 3181267, "name": "Caiazzo", "country": "IT", "coord": {"lon": 14.36223, "lat": 41.178719}}, {"id": 6539614, "name": "Mezzanego", "country": "IT", "coord": {"lon": 9.37667, "lat": 44.382751}}, {"id": 3181781, "name": "Borgonovo", "country": "IT", "coord": {"lon": 9.38333, "lat": 44.383331}}, {"id": 6542031, "name": "Serra Ricc\u00f2", "country": "IT", "coord": {"lon": 8.93726, "lat": 44.509251}}, {"id": 3173070, "name": "Montanesi", "country": "IT", "coord": {"lon": 8.95, "lat": 44.533329}}, {"id": 6537353, "name": "Tufino", "country": "IT", "coord": {"lon": 14.56594, "lat": 40.954109}}, {"id": 3165120, "name": "Tufino", "country": "IT", "coord": {"lon": 14.56594, "lat": 40.954109}}, {"id": 6540415, "name": "Campagnola Emilia", "country": "IT", "coord": {"lon": 10.75709, "lat": 44.839272}}, {"id": 3181056, "name": "Campagnola Emilia", "country": "IT", "coord": {"lon": 10.75709, "lat": 44.839272}}, {"id": 6540235, "name": "Taio", "country": "IT", "coord": {"lon": 11.07207, "lat": 46.32251}}, {"id": 3177618, "name": "Dermulo", "country": "IT", "coord": {"lon": 11.06426, "lat": 46.334599}}, {"id": 6537105, "name": "Sondalo", "country": "IT", "coord": {"lon": 10.32476, "lat": 46.330101}}, {"id": 3166398, "name": "Sondalo", "country": "IT", "coord": {"lon": 10.32476, "lat": 46.330101}}, {"id": 6537571, "name": "Sava", "country": "IT", "coord": {"lon": 17.558411, "lat": 40.403419}}, {"id": 3167044, "name": "Sava", "country": "IT", "coord": {"lon": 17.558411, "lat": 40.403419}}, {"id": 6540816, "name": "Rosarno", "country": "IT", "coord": {"lon": 15.979, "lat": 38.484081}}, {"id": 2523585, "name": "Rosarno", "country": "IT", "coord": {"lon": 15.979, "lat": 38.484081}}, {"id": 6540045, "name": "Cittanova", "country": "IT", "coord": {"lon": 16.0798, "lat": 38.355171}}, {"id": 2524976, "name": "Cittanova", "country": "IT", "coord": {"lon": 16.0798, "lat": 38.355171}}, {"id": 6539036, "name": "Celico", "country": "IT", "coord": {"lon": 16.339899, "lat": 39.310089}}, {"id": 2525038, "name": "Celico", "country": "IT", "coord": {"lon": 16.339899, "lat": 39.310089}}, {"id": 6538964, "name": "Alessano", "country": "IT", "coord": {"lon": 18.33103, "lat": 39.888618}}, {"id": 2524062, "name": "Montesardo", "country": "IT", "coord": {"lon": 18.33333, "lat": 39.883331}}, {"id": 3176818, "name": "Fontanarosa", "country": "IT", "coord": {"lon": 15.02054, "lat": 41.01812}}, {"id": 6540842, "name": "Naro", "country": "IT", "coord": {"lon": 13.79356, "lat": 37.293541}}, {"id": 2524022, "name": "Naro", "country": "IT", "coord": {"lon": 13.79356, "lat": 37.293541}}, {"id": 6541108, "name": "Roccastrada", "country": "IT", "coord": {"lon": 11.16653, "lat": 43.00993}}, {"id": 3169128, "name": "Roccastrada", "country": "IT", "coord": {"lon": 11.16653, "lat": 43.00993}}, {"id": 3166751, "name": "Comune di Senales", "country": "IT", "coord": {"lon": 10.88333, "lat": 46.700001}}, {"id": 3173783, "name": "Maso Corto", "country": "IT", "coord": {"lon": 10.76667, "lat": 46.75}}, {"id": 6538579, "name": "Pomarance", "country": "IT", "coord": {"lon": 10.87282, "lat": 43.298939}}, {"id": 3170352, "name": "Pomarance", "country": "IT", "coord": {"lon": 10.87282, "lat": 43.298939}}, {"id": 6536879, "name": "Piegaro", "country": "IT", "coord": {"lon": 12.08345, "lat": 42.966942}}, {"id": 3170837, "name": "Piegaro", "country": "IT", "coord": {"lon": 12.08345, "lat": 42.966942}}, {"id": 6537745, "name": "Corleone", "country": "IT", "coord": {"lon": 13.29935, "lat": 37.816639}}, {"id": 2524928, "name": "Corleone", "country": "IT", "coord": {"lon": 13.3017, "lat": 37.813381}}, {"id": 6539134, "name": "Palazzo Adriano", "country": "IT", "coord": {"lon": 13.37905, "lat": 37.681042}}, {"id": 2523925, "name": "Palazzo Adriano", "country": "IT", "coord": {"lon": 13.37905, "lat": 37.681042}}, {"id": 6537738, "name": "Campofelice di Roccella", "country": "IT", "coord": {"lon": 13.88536, "lat": 37.99015}}, {"id": 2525423, "name": "Campofelice di Roccella", "country": "IT", "coord": {"lon": 13.88536, "lat": 37.99015}}, {"id": 6539458, "name": "Pignataro Maggiore", "country": "IT", "coord": {"lon": 14.17232, "lat": 41.190819}}, {"id": 3170718, "name": "Pignataro Maggiore", "country": "IT", "coord": {"lon": 14.17232, "lat": 41.190819}}, {"id": 6538025, "name": "Filadelfia", "country": "IT", "coord": {"lon": 16.292, "lat": 38.784679}}, {"id": 2524758, "name": "Filadelfia", "country": "IT", "coord": {"lon": 16.292, "lat": 38.784679}}, {"id": 6536473, "name": "Lerici", "country": "IT", "coord": {"lon": 9.91469, "lat": 44.07444}}, {"id": 6544066, "name": "Tellaro", "country": "IT", "coord": {"lon": 9.9458, "lat": 44.056808}}, {"id": 6542004, "name": "Verbania", "country": "IT", "coord": {"lon": 8.57372, "lat": 45.94128}}, {"id": 6457398, "name": "Verbania", "country": "IT", "coord": {"lon": 8.55183, "lat": 45.92136}}, {"id": 6541139, "name": "Sezze", "country": "IT", "coord": {"lon": 13.0641, "lat": 41.503311}}, {"id": 3166571, "name": "Sezze", "country": "IT", "coord": {"lon": 13.0641, "lat": 41.503311}}, {"id": 3173767, "name": "Provincia di Massa-Carrara", "country": "IT", "coord": {"lon": 10.05, "lat": 44.25}}, {"id": 3176919, "name": "Fivizzano", "country": "IT", "coord": {"lon": 10.12599, "lat": 44.23835}}, {"id": 6541954, "name": "Nocera Terinese", "country": "IT", "coord": {"lon": 16.168591, "lat": 39.034389}}, {"id": 2524696, "name": "Fronte Aguglieri", "country": "IT", "coord": {"lon": 16.15, "lat": 39.033329}}, {"id": 6536911, "name": "Tuscania", "country": "IT", "coord": {"lon": 11.87116, "lat": 42.42062}}, {"id": 3165083, "name": "Tuscania", "country": "IT", "coord": {"lon": 11.87116, "lat": 42.42062}}, {"id": 6538965, "name": "Andrano", "country": "IT", "coord": {"lon": 18.38253, "lat": 39.983219}}, {"id": 2525714, "name": "Andrano", "country": "IT", "coord": {"lon": 18.38253, "lat": 39.983219}}, {"id": 6537833, "name": "Ossi", "country": "IT", "coord": {"lon": 8.59171, "lat": 40.674858}}, {"id": 3171814, "name": "Ossi", "country": "IT", "coord": {"lon": 8.59278, "lat": 40.677219}}, {"id": 6542027, "name": "Castel Focognano", "country": "IT", "coord": {"lon": 11.78774, "lat": 43.653648}}, {"id": 3169580, "name": "Rassina", "country": "IT", "coord": {"lon": 11.83333, "lat": 43.650002}}, {"id": 6538190, "name": "Cassano Spinola", "country": "IT", "coord": {"lon": 8.86505, "lat": 44.766949}}, {"id": 3179793, "name": "Cassano Spinola", "country": "IT", "coord": {"lon": 8.86228, "lat": 44.765572}}, {"id": 6541959, "name": "Petrosino", "country": "IT", "coord": {"lon": 12.49993, "lat": 37.707741}}, {"id": 2523816, "name": "Petrosino", "country": "IT", "coord": {"lon": 12.49993, "lat": 37.707741}}, {"id": 6537302, "name": "Fara Novarese", "country": "IT", "coord": {"lon": 8.45863, "lat": 45.551769}}, {"id": 3177204, "name": "Fara Novarese", "country": "IT", "coord": {"lon": 8.45863, "lat": 45.551769}}, {"id": 6536402, "name": "Stalett\u00ec", "country": "IT", "coord": {"lon": 16.5376, "lat": 38.76548}}, {"id": 2525248, "name": "Casa Maio", "country": "IT", "coord": {"lon": 16.533331, "lat": 38.76667}}, {"id": 6539964, "name": "Rufina", "country": "IT", "coord": {"lon": 11.48503, "lat": 43.824249}}, {"id": 3168813, "name": "Rufina", "country": "IT", "coord": {"lon": 11.48503, "lat": 43.824249}}, {"id": 6537587, "name": "Corsano", "country": "IT", "coord": {"lon": 18.369329, "lat": 39.889221}}, {"id": 2524918, "name": "Corsano", "country": "IT", "coord": {"lon": 18.369329, "lat": 39.889221}}, {"id": 3175190, "name": "Lamole", "country": "IT", "coord": {"lon": 11.35, "lat": 43.549999}}, {"id": 6539078, "name": "Falerna", "country": "IT", "coord": {"lon": 16.1707, "lat": 39.002491}}, {"id": 2524800, "name": "Falerna", "country": "IT", "coord": {"lon": 16.1707, "lat": 39.002491}}, {"id": 6540002, "name": "Camerota", "country": "IT", "coord": {"lon": 15.37276, "lat": 40.032501}}, {"id": 3181091, "name": "Camerota", "country": "IT", "coord": {"lon": 15.37276, "lat": 40.032501}}, {"id": 6539008, "name": "Pietragalla", "country": "IT", "coord": {"lon": 15.87937, "lat": 40.746819}}, {"id": 3170801, "name": "Pietragalla", "country": "IT", "coord": {"lon": 15.87937, "lat": 40.746819}}, {"id": 6535921, "name": "Prato allo Stelvio - Prad am Stilfser Joch", "country": "IT", "coord": {"lon": 10.59136, "lat": 46.619011}}, {"id": 3172975, "name": "Montechiaro", "country": "IT", "coord": {"lon": 10.56667, "lat": 46.633331}}, {"id": 6538555, "name": "Borgo San Lorenzo", "country": "IT", "coord": {"lon": 11.38352, "lat": 43.955349}}, {"id": 3181754, "name": "Borgo San Lorenzo", "country": "IT", "coord": {"lon": 11.38352, "lat": 43.955349}}, {"id": 6540268, "name": "Stazzema", "country": "IT", "coord": {"lon": 10.3109, "lat": 43.99345}}, {"id": 3166180, "name": "Stazzema", "country": "IT", "coord": {"lon": 10.3109, "lat": 43.99345}}, {"id": 6541073, "name": "Massignano", "country": "IT", "coord": {"lon": 13.79719, "lat": 43.050751}}, {"id": 3173736, "name": "Massignano", "country": "IT", "coord": {"lon": 13.79719, "lat": 43.050751}}, {"id": 6540058, "name": "San Teodoro", "country": "IT", "coord": {"lon": 14.69828, "lat": 37.84866}}, {"id": 2523271, "name": "San Teodoro", "country": "IT", "coord": {"lon": 14.69828, "lat": 37.84866}}, {"id": 6542632, "name": "Sant'Alessio con Vialone", "country": "IT", "coord": {"lon": 9.22605, "lat": 45.222359}}, {"id": 6534583, "name": "SantAlessio con Vialone", "country": "IT", "coord": {"lon": 9.22605, "lat": 45.222359}}, {"id": 7669365, "name": "Ledro", "country": "IT", "coord": {"lon": 10.73558, "lat": 45.88678}}, {"id": 6640027, "name": "Lenzumo", "country": "IT", "coord": {"lon": 10.72918, "lat": 45.911991}}, {"id": 6539386, "name": "Borriana", "country": "IT", "coord": {"lon": 8.03862, "lat": 45.506161}}, {"id": 3181720, "name": "Borriana", "country": "IT", "coord": {"lon": 8.03862, "lat": 45.506161}}, {"id": 6538479, "name": "Codigoro", "country": "IT", "coord": {"lon": 12.10952, "lat": 44.831581}}, {"id": 3170330, "name": "Pomposa", "country": "IT", "coord": {"lon": 12.18278, "lat": 44.834721}}, {"id": 6541890, "name": "Santa Marinella", "country": "IT", "coord": {"lon": 11.87376, "lat": 42.038422}}, {"id": 3167520, "name": "Santa Marinella", "country": "IT", "coord": {"lon": 11.85356, "lat": 42.0345}}, {"id": 6537771, "name": "Santa Lucia del Mela", "country": "IT", "coord": {"lon": 15.28228, "lat": 38.142761}}, {"id": 2523333, "name": "Santa Lucia del Mela", "country": "IT", "coord": {"lon": 15.28228, "lat": 38.142761}}, {"id": 3182775, "name": "Artimino", "country": "IT", "coord": {"lon": 11.03541, "lat": 43.783741}}, {"id": 6541461, "name": "Modena", "country": "IT", "coord": {"lon": 10.9192, "lat": 44.655869}}, {"id": 3168488, "name": "San Cataldo", "country": "IT", "coord": {"lon": 10.9, "lat": 44.666672}}, {"id": 3165770, "name": "Province of Terni", "country": "IT", "coord": {"lon": 12.31667, "lat": 42.683331}}, {"id": 6536887, "name": "Baschi", "country": "IT", "coord": {"lon": 12.21796, "lat": 42.672829}}, {"id": 3182317, "name": "Baschi", "country": "IT", "coord": {"lon": 12.21796, "lat": 42.672829}}, {"id": 6541105, "name": "Cinigiano", "country": "IT", "coord": {"lon": 11.39174, "lat": 42.890331}}, {"id": 3179438, "name": "Castiglioncello Bandini", "country": "IT", "coord": {"lon": 11.44175, "lat": 42.874989}}, {"id": 6541016, "name": "Villanova Marchesana", "country": "IT", "coord": {"lon": 11.96472, "lat": 44.992279}}, {"id": 3164180, "name": "Villanova Marchesana", "country": "IT", "coord": {"lon": 11.96472, "lat": 44.992279}}, {"id": 6540702, "name": "Sassano", "country": "IT", "coord": {"lon": 15.56307, "lat": 40.337711}}, {"id": 3167097, "name": "Sassano", "country": "IT", "coord": {"lon": 15.56307, "lat": 40.337711}}, {"id": 2525029, "name": "Cerasi", "country": "IT", "coord": {"lon": 15.75, "lat": 38.166672}}, {"id": 6536502, "name": "Castano Primo", "country": "IT", "coord": {"lon": 8.77544, "lat": 45.55357}}, {"id": 3179749, "name": "Castano Primo", "country": "IT", "coord": {"lon": 8.77544, "lat": 45.55357}}, {"id": 6536015, "name": "Renon - Ritten", "country": "IT", "coord": {"lon": 11.45728, "lat": 46.541519}}, {"id": 3178447, "name": "Collalbo", "country": "IT", "coord": {"lon": 11.46667, "lat": 46.533329}}, {"id": 3178062, "name": "Corniglio", "country": "IT", "coord": {"lon": 10.09008, "lat": 44.474258}}, {"id": 6537619, "name": "Genzano di Lucania", "country": "IT", "coord": {"lon": 16.030769, "lat": 40.847919}}, {"id": 3176204, "name": "Genzano di Lucania", "country": "IT", "coord": {"lon": 16.030769, "lat": 40.847919}}, {"id": 6542490, "name": "Champorcher", "country": "IT", "coord": {"lon": 7.62151, "lat": 45.62376}}, {"id": 3177529, "name": "Dondena", "country": "IT", "coord": {"lon": 7.55, "lat": 45.616669}}, {"id": 6535962, "name": "Cavallino-Treporti", "country": "IT", "coord": {"lon": 12.56192, "lat": 45.481602}}, {"id": 3218172, "name": "Treporti", "country": "IT", "coord": {"lon": 12.45644, "lat": 45.465248}}, {"id": 3178183, "name": "Consandolo", "country": "IT", "coord": {"lon": 11.76667, "lat": 44.650002}}, {"id": 6537696, "name": "Guardavalle", "country": "IT", "coord": {"lon": 16.50351, "lat": 38.504978}}, {"id": 2524557, "name": "Guardavalle", "country": "IT", "coord": {"lon": 16.50351, "lat": 38.504978}}, {"id": 6538302, "name": "Moriago della Battaglia", "country": "IT", "coord": {"lon": 12.1036, "lat": 45.866611}}, {"id": 3172528, "name": "Mosnigo", "country": "IT", "coord": {"lon": 12.07722, "lat": 45.873329}}, {"id": 6535967, "name": "Badia - Abtei", "country": "IT", "coord": {"lon": 11.89349, "lat": 46.610119}}, {"id": 3171334, "name": "Pedraces", "country": "IT", "coord": {"lon": 11.88333, "lat": 46.599998}}, {"id": 6536090, "name": "Bargagli", "country": "IT", "coord": {"lon": 9.09176, "lat": 44.44725}}, {"id": 3182357, "name": "Bargagli", "country": "IT", "coord": {"lon": 9.09176, "lat": 44.44725}}, {"id": 2524258, "name": "Marina Schiavonia", "country": "IT", "coord": {"lon": 16.533331, "lat": 39.650002}}, {"id": 6537011, "name": "Baldissero Torinese", "country": "IT", "coord": {"lon": 7.81162, "lat": 45.067951}}, {"id": 3182461, "name": "Baldissero Torinese", "country": "IT", "coord": {"lon": 7.81162, "lat": 45.067951}}, {"id": 6540423, "name": "Montese", "country": "IT", "coord": {"lon": 10.94401, "lat": 44.271961}}, {"id": 3172735, "name": "Montese", "country": "IT", "coord": {"lon": 10.94401, "lat": 44.271961}}, {"id": 6536520, "name": "San Giuliano Milanese", "country": "IT", "coord": {"lon": 9.29185, "lat": 45.394272}}, {"id": 3168222, "name": "San Giuliano Milanese", "country": "IT", "coord": {"lon": 9.28757, "lat": 45.395741}}, {"id": 3165198, "name": "Trezzano sul Naviglio", "country": "IT", "coord": {"lon": 9.06644, "lat": 45.423069}}, {"id": 3164241, "name": "Villafranca di Verona", "country": "IT", "coord": {"lon": 10.84019, "lat": 45.352379}}, {"id": 6538467, "name": "Castel San Pietro Terme", "country": "IT", "coord": {"lon": 11.58482, "lat": 44.398571}}, {"id": 3179479, "name": "Castel San Pietro Terme", "country": "IT", "coord": {"lon": 11.58482, "lat": 44.398571}}, {"id": 3170341, "name": "Pomigliano dArco", "country": "IT", "coord": {"lon": 14.38623, "lat": 40.907909}}, {"id": 3167239, "name": "Santo Stino di Livenza", "country": "IT", "coord": {"lon": 12.68083, "lat": 45.735001}}, {"id": 6538930, "name": "San Ferdinando di Puglia", "country": "IT", "coord": {"lon": 16.070459, "lat": 41.302631}}, {"id": 3168388, "name": "San Ferdinando di Puglia", "country": "IT", "coord": {"lon": 16.070459, "lat": 41.302631}}, {"id": 6540753, "name": "San Vito dei Normanni", "country": "IT", "coord": {"lon": 17.707211, "lat": 40.65733}}, {"id": 3167184, "name": "San Vito dei Normanni", "country": "IT", "coord": {"lon": 17.707211, "lat": 40.65733}}, {"id": 6538728, "name": "Santa Maria Capua Vetere", "country": "IT", "coord": {"lon": 14.25653, "lat": 41.080212}}, {"id": 3167561, "name": "Santa Maria Capua Vetere", "country": "IT", "coord": {"lon": 14.25653, "lat": 41.080212}}, {"id": 6541903, "name": "Castellammare di Stabia", "country": "IT", "coord": {"lon": 14.48914, "lat": 40.715511}}, {"id": 3179661, "name": "Castellammare di Stabia", "country": "IT", "coord": {"lon": 14.48914, "lat": 40.715511}}, {"id": 3168231, "name": "San Giovanni Valdarno", "country": "IT", "coord": {"lon": 11.53333, "lat": 43.566669}}, {"id": 2525095, "name": "Castellammare del Golfo", "country": "IT", "coord": {"lon": 12.88584, "lat": 38.018848}}, {"id": 6537349, "name": "San Giuseppe Vesuviano", "country": "IT", "coord": {"lon": 14.50444, "lat": 40.829811}}, {"id": 3168209, "name": "San Giuseppe Vesuviano", "country": "IT", "coord": {"lon": 14.50444, "lat": 40.829811}}, {"id": 2523994, "name": "Novara di Sicilia", "country": "IT", "coord": {"lon": 15.13188, "lat": 38.015961}}, {"id": 6538573, "name": "Castelfranco di Sotto", "country": "IT", "coord": {"lon": 10.74551, "lat": 43.701542}}, {"id": 3179687, "name": "Castelfranco di Sotto", "country": "IT", "coord": {"lon": 10.74551, "lat": 43.701542}}, {"id": 6538831, "name": "San Marzano sul Sarno", "country": "IT", "coord": {"lon": 14.58174, "lat": 40.77491}}, {"id": 3167996, "name": "San Marzano sul Sarno", "country": "IT", "coord": {"lon": 14.58174, "lat": 40.77491}}, {"id": 6539332, "name": "San Vito al Tagliamento", "country": "IT", "coord": {"lon": 12.86002, "lat": 45.912922}}, {"id": 3167186, "name": "San Vito al Tagliamento", "country": "IT", "coord": {"lon": 12.85, "lat": 45.91444}}, {"id": 6536790, "name": "Porto Recanati", "country": "IT", "coord": {"lon": 13.66128, "lat": 43.436459}}, {"id": 3170075, "name": "Porto Recanati", "country": "IT", "coord": {"lon": 13.66128, "lat": 43.436459}}, {"id": 6537572, "name": "Ceglie Messapica", "country": "IT", "coord": {"lon": 17.515499, "lat": 40.643929}}, {"id": 3179218, "name": "Ceglie Messapico", "country": "IT", "coord": {"lon": 17.515499, "lat": 40.643929}}, {"id": 6536858, "name": "Castiglione della Pescaia", "country": "IT", "coord": {"lon": 10.88013, "lat": 42.764721}}, {"id": 3179418, "name": "Castiglione della Pescaia", "country": "IT", "coord": {"lon": 10.88093, "lat": 42.763458}}, {"id": 6541102, "name": "Colle di Val d'Elsa", "country": "IT", "coord": {"lon": 11.13142, "lat": 43.415138}}, {"id": 7118068, "name": "Colle di Val d\u2019Elsa", "country": "IT", "coord": {"lon": 11.13018, "lat": 43.418522}}, {"id": 6536732, "name": "San Felice sul Panaro", "country": "IT", "coord": {"lon": 11.1426, "lat": 44.833172}}, {"id": 3168389, "name": "San Felice sul Panaro", "country": "IT", "coord": {"lon": 11.1426, "lat": 44.833172}}, {"id": 6536796, "name": "Arquata del Tronto", "country": "IT", "coord": {"lon": 13.29628, "lat": 42.77264}}, {"id": 3164454, "name": "Vezzano", "country": "IT", "coord": {"lon": 13.26667, "lat": 42.75}}, {"id": 6536462, "name": "Morgex", "country": "IT", "coord": {"lon": 7.037, "lat": 45.756962}}, {"id": 3178911, "name": "Chanton", "country": "IT", "coord": {"lon": 7.05, "lat": 45.783329}}, {"id": 6536798, "name": "Monsampolo del Tronto", "country": "IT", "coord": {"lon": 13.79389, "lat": 42.89695}}, {"id": 3173126, "name": "Monsampolo del Tronto", "country": "IT", "coord": {"lon": 13.79389, "lat": 42.89695}}, {"id": 6535982, "name": "Termeno sulla strada del vino - Tramin an der Weinstrasse", "country": "IT", "coord": {"lon": 11.24228, "lat": 46.341511}}, {"id": 3165783, "name": "Termeno sulla strada del vino", "country": "IT", "coord": {"lon": 11.24228, "lat": 46.341511}}, {"id": 6535930, "name": "Silandro - Schlanders", "country": "IT", "coord": {"lon": 10.77116, "lat": 46.628422}}, {"id": 3177935, "name": "Corzes", "country": "IT", "coord": {"lon": 10.75, "lat": 46.633331}}, {"id": 6538445, "name": "Sant'Ilario d'Enza", "country": "IT", "coord": {"lon": 10.44809, "lat": 44.762459}}, {"id": 3167304, "name": "SantIlario dEnza", "country": "IT", "coord": {"lon": 10.44809, "lat": 44.762459}}, {"id": 6536009, "name": "Cornedo all'Isarco - Karneid", "country": "IT", "coord": {"lon": 11.39218, "lat": 46.493519}}, {"id": 3181538, "name": "Brie", "country": "IT", "coord": {"lon": 11.48333, "lat": 46.48333}}, {"id": 6537844, "name": "Uri", "country": "IT", "coord": {"lon": 8.48541, "lat": 40.639462}}, {"id": 3165030, "name": "Uri", "country": "IT", "coord": {"lon": 8.48833, "lat": 40.637218}}, {"id": 6537398, "name": "Montecorice", "country": "IT", "coord": {"lon": 14.98615, "lat": 40.234901}}, {"id": 3172967, "name": "Montecorice", "country": "IT", "coord": {"lon": 14.98615, "lat": 40.234901}}, {"id": 6542210, "name": "Granarolo dell'Emilia", "country": "IT", "coord": {"lon": 11.44291, "lat": 44.553268}}, {"id": 3163830, "name": "Granarolo del lEmilia", "country": "IT", "coord": {"lon": 11.44291, "lat": 44.553268}}, {"id": 6541464, "name": "Alessandria", "country": "IT", "coord": {"lon": 8.61894, "lat": 44.912449}}, {"id": 3183299, "name": "Alessandria", "country": "IT", "coord": {"lon": 8.61894, "lat": 44.912449}}, {"id": 6536393, "name": "Saviore dell'Adamello", "country": "IT", "coord": {"lon": 10.39966, "lat": 46.080502}}, {"id": 3167025, "name": "Saviore dellAdamello", "country": "IT", "coord": {"lon": 10.39966, "lat": 46.080502}}, {"id": 6541425, "name": "Palazzolo sull'Oglio", "country": "IT", "coord": {"lon": 9.89716, "lat": 45.60368}}, {"id": 3171586, "name": "Pallazzolo sullOglio", "country": "IT", "coord": {"lon": 9.89716, "lat": 45.60368}}, {"id": 3168498, "name": "San Casciano in Val di Pesa", "country": "IT", "coord": {"lon": 11.18952, "lat": 43.65905}}, {"id": 3167024, "name": "Savogna dIsonzo", "country": "IT", "coord": {"lon": 13.57583, "lat": 45.902222}}, {"id": 6535928, "name": "Sarentino - Sarntal", "country": "IT", "coord": {"lon": 11.35577, "lat": 46.64352}}, {"id": 3164926, "name": "Valdurna", "country": "IT", "coord": {"lon": 11.43788, "lat": 46.739151}}, {"id": 6539102, "name": "Montebello Ionico", "country": "IT", "coord": {"lon": 15.758, "lat": 37.982769}}, {"id": 2524072, "name": "Montebello Ionico", "country": "IT", "coord": {"lon": 15.758, "lat": 37.982769}}, {"id": 6540270, "name": "Bagno di Romagna", "country": "IT", "coord": {"lon": 11.96104, "lat": 43.837761}}, {"id": 3167868, "name": "San Piero in Bagno", "country": "IT", "coord": {"lon": 11.97716, "lat": 43.857929}}, {"id": 3175531, "name": "Provincia di Imperia", "country": "IT", "coord": {"lon": 7.78333, "lat": 43.966671}}, {"id": 6536071, "name": "Cipressa", "country": "IT", "coord": {"lon": 7.93225, "lat": 43.852921}}, {"id": 3178658, "name": "Cipressa", "country": "IT", "coord": {"lon": 7.93144, "lat": 43.852051}}, {"id": 3168165, "name": "San Leonardo", "country": "IT", "coord": {"lon": 11.9006, "lat": 46.611481}}, {"id": 6539665, "name": "Vernio", "country": "IT", "coord": {"lon": 11.15052, "lat": 44.04755}}, {"id": 3164533, "name": "Vernio", "country": "IT", "coord": {"lon": 11.15052, "lat": 44.04755}}, {"id": 6537032, "name": "La Thuile", "country": "IT", "coord": {"lon": 6.95099, "lat": 45.713661}}, {"id": 3175062, "name": "La Thuile", "country": "IT", "coord": {"lon": 6.95099, "lat": 45.713661}}, {"id": 6539815, "name": "Baiano", "country": "IT", "coord": {"lon": 14.61674, "lat": 40.952511}}, {"id": 3182484, "name": "Baiano", "country": "IT", "coord": {"lon": 14.61674, "lat": 40.952511}}, {"id": 6537775, "name": "Alessandria della Rocca", "country": "IT", "coord": {"lon": 13.45335, "lat": 37.566441}}, {"id": 2525749, "name": "Alessandria della Rocca", "country": "IT", "coord": {"lon": 13.45335, "lat": 37.566441}}, {"id": 6536181, "name": "San Genesio ed Uniti", "country": "IT", "coord": {"lon": 9.17855, "lat": 45.23476}}, {"id": 3168344, "name": "San Genesio ed Uniti", "country": "IT", "coord": {"lon": 9.17855, "lat": 45.23476}}, {"id": 3212526, "name": "Sapello", "country": "IT", "coord": {"lon": 8.78271, "lat": 44.428452}}, {"id": 6542001, "name": "Bari", "country": "IT", "coord": {"lon": 16.851179, "lat": 41.117729}}, {"id": 3180571, "name": "Carbonara di Bari", "country": "IT", "coord": {"lon": 16.866671, "lat": 41.066669}}, {"id": 6540419, "name": "San Polo d'Enza", "country": "IT", "coord": {"lon": 10.42399, "lat": 44.627159}}, {"id": 3164294, "name": "Villa Bonini", "country": "IT", "coord": {"lon": 10.43333, "lat": 44.633331}}, {"id": 6541749, "name": "Rogliano", "country": "IT", "coord": {"lon": 16.320999, "lat": 39.18119}}, {"id": 2523589, "name": "Rogliano", "country": "IT", "coord": {"lon": 16.320999, "lat": 39.18119}}, {"id": 6536972, "name": "Monte San Biagio", "country": "IT", "coord": {"lon": 13.3522, "lat": 41.352509}}, {"id": 3172760, "name": "Monte San Biagio", "country": "IT", "coord": {"lon": 13.3522, "lat": 41.352509}}, {"id": 6536379, "name": "Vairano Patenora", "country": "IT", "coord": {"lon": 14.13112, "lat": 41.337021}}, {"id": 3175848, "name": "Greci", "country": "IT", "coord": {"lon": 14.13333, "lat": 41.333328}}, {"id": 6541128, "name": "Contigliano", "country": "IT", "coord": {"lon": 12.76788, "lat": 42.41153}}, {"id": 3178169, "name": "Contigliano", "country": "IT", "coord": {"lon": 12.76788, "lat": 42.41153}}, {"id": 6539007, "name": "Palazzo San Gervasio", "country": "IT", "coord": {"lon": 15.98077, "lat": 40.93132}}, {"id": 3171619, "name": "Palazzo San Gervasio", "country": "IT", "coord": {"lon": 15.98077, "lat": 40.93132}}, {"id": 6534227, "name": "Monte Argentario", "country": "IT", "coord": {"lon": 11.11954, "lat": 42.434521}}, {"id": 6457403, "name": "Provincia di Ogliastra", "country": "IT", "coord": {"lon": 9.44481, "lat": 39.80814}}, {"id": 6537885, "name": "Villagrande Strisaili", "country": "IT", "coord": {"lon": 9.50754, "lat": 39.961262}}, {"id": 2522757, "name": "Villagrande Strisaili", "country": "IT", "coord": {"lon": 9.50556, "lat": 39.962219}}, {"id": 3164460, "name": "Vetulonia", "country": "IT", "coord": {"lon": 10.96667, "lat": 42.849998}}, {"id": 6542141, "name": "Quartu Sant'Elena", "country": "IT", "coord": {"lon": 9.1832, "lat": 39.242001}}, {"id": 2523665, "name": "Quartu SantElena", "country": "IT", "coord": {"lon": 9.18389, "lat": 39.24194}}, {"id": 6541731, "name": "Monte Sant'Angelo", "country": "IT", "coord": {"lon": 15.96766, "lat": 41.705441}}, {"id": 3172747, "name": "Monte SantAngelo", "country": "IT", "coord": {"lon": 15.96766, "lat": 41.705441}}, {"id": 2524850, "name": "Dipignano", "country": "IT", "coord": {"lon": 16.25, "lat": 39.25}}, {"id": 2525385, "name": "Dipignano", "country": "IT", "coord": {"lon": 16.25309, "lat": 39.237492}}, {"id": 3171243, "name": "Pennes", "country": "IT", "coord": {"lon": 11.41488, "lat": 46.780312}}, {"id": 6537410, "name": "Roccagloriosa", "country": "IT", "coord": {"lon": 15.43557, "lat": 40.106998}}, {"id": 3169173, "name": "Roccagloriosa", "country": "IT", "coord": {"lon": 15.43557, "lat": 40.106998}}, {"id": 3165691, "name": "Tiarno di Sopra", "country": "IT", "coord": {"lon": 10.66947, "lat": 45.888401}}, {"id": 6538035, "name": "Santa Maria Maggiore", "country": "IT", "coord": {"lon": 8.46232, "lat": 46.135078}}, {"id": 3167528, "name": "Santa Maria Maggiore", "country": "IT", "coord": {"lon": 8.46232, "lat": 46.135078}}, {"id": 6536841, "name": "Badia Tedalda", "country": "IT", "coord": {"lon": 12.18644, "lat": 43.70726}}, {"id": 3182574, "name": "Badia Tedalda", "country": "IT", "coord": {"lon": 12.18644, "lat": 43.70726}}, {"id": 3175077, "name": "Laste", "country": "IT", "coord": {"lon": 11.45, "lat": 46.799999}}, {"id": 6538426, "name": "Neviano degli Arduini", "country": "IT", "coord": {"lon": 10.31569, "lat": 44.582359}}, {"id": 3172282, "name": "Neviano degli Arduini", "country": "IT", "coord": {"lon": 10.31569, "lat": 44.582359}}, {"id": 6543415, "name": "Riva Valdobbia", "country": "IT", "coord": {"lon": 7.95661, "lat": 45.830971}}, {"id": 3171353, "name": "Peccia", "country": "IT", "coord": {"lon": 7.9, "lat": 45.799999}}, {"id": 6537413, "name": "San Giovanni a Piro", "country": "IT", "coord": {"lon": 15.45097, "lat": 40.050301}}, {"id": 3168258, "name": "San Giovanni a Piro", "country": "IT", "coord": {"lon": 15.45097, "lat": 40.050301}}, {"id": 6540910, "name": "Cintano", "country": "IT", "coord": {"lon": 7.68812, "lat": 45.428558}}, {"id": 3178666, "name": "Cintano", "country": "IT", "coord": {"lon": 7.68812, "lat": 45.428558}}, {"id": 6535934, "name": "Terlano - Terlan", "country": "IT", "coord": {"lon": 11.24537, "lat": 46.532421}}, {"id": 3166582, "name": "Settequerce", "country": "IT", "coord": {"lon": 11.26667, "lat": 46.51667}}, {"id": 6542791, "name": "Valtournenche", "country": "IT", "coord": {"lon": 7.6243, "lat": 45.876068}}, {"id": 3177834, "name": "Cr\u00e9pin", "country": "IT", "coord": {"lon": 7.63333, "lat": 45.883331}}, {"id": 6535984, "name": "Vipiteno - Sterzing", "country": "IT", "coord": {"lon": 11.43007, "lat": 46.892529}}, {"id": 3178386, "name": "Colle Isarco", "country": "IT", "coord": {"lon": 11.43333, "lat": 46.933331}}, {"id": 6539934, "name": "Latisana", "country": "IT", "coord": {"lon": 12.99943, "lat": 45.782009}}, {"id": 3217612, "name": "Pertegada", "country": "IT", "coord": {"lon": 13.04778, "lat": 45.722221}}, {"id": 6540698, "name": "Montesano sulla Marcellana", "country": "IT", "coord": {"lon": 15.70467, "lat": 40.276009}}, {"id": 3172753, "name": "Montesano sulla Marcellana", "country": "IT", "coord": {"lon": 15.70467, "lat": 40.276009}}, {"id": 3168034, "name": "San Martino al Cimino", "country": "IT", "coord": {"lon": 12.11667, "lat": 42.366669}}, {"id": 6536562, "name": "Mezzana Bigli", "country": "IT", "coord": {"lon": 8.84845, "lat": 45.05986}}, {"id": 3173507, "name": "Mezzana Bigli", "country": "IT", "coord": {"lon": 8.84845, "lat": 45.05986}}, {"id": 6536813, "name": "Massarosa", "country": "IT", "coord": {"lon": 10.3397, "lat": 43.867641}}, {"id": 3169671, "name": "Quiesa", "country": "IT", "coord": {"lon": 10.36667, "lat": 43.849998}}, {"id": 6538537, "name": "Montedinove", "country": "IT", "coord": {"lon": 13.58849, "lat": 42.97155}}, {"id": 3172947, "name": "Montedinove", "country": "IT", "coord": {"lon": 13.58849, "lat": 42.97155}}, {"id": 6539176, "name": "Villafranca Sicula", "country": "IT", "coord": {"lon": 13.28925, "lat": 37.588139}}, {"id": 2522762, "name": "Villafranca Sicula", "country": "IT", "coord": {"lon": 13.28925, "lat": 37.588139}}, {"id": 6537689, "name": "Santa Domenica Talao", "country": "IT", "coord": {"lon": 15.85458, "lat": 39.8195}}, {"id": 2523355, "name": "Santa Domenica Talao", "country": "IT", "coord": {"lon": 15.85458, "lat": 39.8195}}, {"id": 6541372, "name": "Castelpetroso", "country": "IT", "coord": {"lon": 14.34502, "lat": 41.559422}}, {"id": 3175603, "name": "Il Casale", "country": "IT", "coord": {"lon": 14.35, "lat": 41.566669}}, {"id": 3174588, "name": "Longostagno", "country": "IT", "coord": {"lon": 11.48333, "lat": 46.549999}}, {"id": 6542252, "name": "Casalfiumanese", "country": "IT", "coord": {"lon": 11.62402, "lat": 44.29686}}, {"id": 3180192, "name": "Casal Fiumanese", "country": "IT", "coord": {"lon": 11.62402, "lat": 44.29686}}, {"id": 6537751, "name": "Santa Cristina Gela", "country": "IT", "coord": {"lon": 13.32815, "lat": 37.984249}}, {"id": 2523364, "name": "Santa Cristina Gela", "country": "IT", "coord": {"lon": 13.32815, "lat": 37.984249}}, {"id": 6535893, "name": "Chiusa - Klausen", "country": "IT", "coord": {"lon": 11.57198, "lat": 46.642521}}, {"id": 3174978, "name": "Lazfons", "country": "IT", "coord": {"lon": 11.55, "lat": 46.666672}}, {"id": 6542280, "name": "Montiglio Monferrato", "country": "IT", "coord": {"lon": 8.09723, "lat": 45.06525}}, {"id": 3166990, "name": "Scandeluzza", "country": "IT", "coord": {"lon": 8.13333, "lat": 45.049999}}, {"id": 6535935, "name": "Tesimo - Tisens", "country": "IT", "coord": {"lon": 11.16937, "lat": 46.565418}}, {"id": 3170560, "name": "Plazzoles", "country": "IT", "coord": {"lon": 11.11667, "lat": 46.533329}}, {"id": 6537957, "name": "Scapoli", "country": "IT", "coord": {"lon": 14.05872, "lat": 41.61552}}, {"id": 3179545, "name": "Castelnuovo", "country": "IT", "coord": {"lon": 14.05, "lat": 41.616669}}, {"id": 6538860, "name": "Pietracamela", "country": "IT", "coord": {"lon": 13.55539, "lat": 42.52354}}, {"id": 3170817, "name": "Pietracamela", "country": "IT", "coord": {"lon": 13.55539, "lat": 42.52354}}, {"id": 6541550, "name": "Montesilvano", "country": "IT", "coord": {"lon": 14.138, "lat": 42.503941}}, {"id": 3172729, "name": "Montesilvano Marina", "country": "IT", "coord": {"lon": 14.15, "lat": 42.51667}}, {"id": 3182587, "name": "Badia", "country": "IT", "coord": {"lon": 12, "lat": 43.083328}}, {"id": 6537103, "name": "Rasura", "country": "IT", "coord": {"lon": 9.55274, "lat": 46.10059}}, {"id": 3169573, "name": "Rasura", "country": "IT", "coord": {"lon": 9.55274, "lat": 46.10059}}, {"id": 6542182, "name": "Montopoli di Sabina", "country": "IT", "coord": {"lon": 12.69208, "lat": 42.24593}}, {"id": 3172651, "name": "Montopoli in Sabina", "country": "IT", "coord": {"lon": 12.69208, "lat": 42.24593}}, {"id": 6538657, "name": "Pescorocchiano", "country": "IT", "coord": {"lon": 13.14619, "lat": 42.206429}}, {"id": 3178304, "name": "Collipace", "country": "IT", "coord": {"lon": 13.1, "lat": 42.216671}}, {"id": 3214791, "name": "Ravaldino", "country": "IT", "coord": {"lon": 12.04083, "lat": 44.145828}}, {"id": 292673, "name": "Ash Sh\u0101riqah", "country": "AE", "coord": {"lon": 55.75, "lat": 25}}, {"id": 292672, "name": "Sharjah", "country": "AE", "coord": {"lon": 55.403301, "lat": 25.357309}}, {"id": 6691135, "name": "Al Ghuwair", "country": "AE", "coord": {"lon": 55.391911, "lat": 25.35985}}, {"id": 292224, "name": "Dubayy", "country": "AE", "coord": {"lon": 55.333328, "lat": 25}}, {"id": 292223, "name": "Dubai", "country": "AE", "coord": {"lon": 55.304722, "lat": 25.258169}}, {"id": 290845, "name": "Shandaghah", "country": "AE", "coord": {"lon": 55.283329, "lat": 25.258329}}, {"id": 292913, "name": "Al Ayn", "country": "AE", "coord": {"lon": 55.760559, "lat": 24.191669}}, {"id": 292879, "name": "Al Fujayrah", "country": "AE", "coord": {"lon": 56.25, "lat": 25.133329}}, {"id": 292878, "name": "Al Fujayrah", "country": "AE", "coord": {"lon": 56.341412, "lat": 25.116409}}, {"id": 291110, "name": "Raf\u0101\u2018", "country": "AE", "coord": {"lon": 56.35014, "lat": 25.34701}}, {"id": 2698691, "name": "Kungsholmen", "country": "SE", "coord": {"lon": 18.04118, "lat": 59.331829}}, {"id": 2688368, "name": "Norrkoping", "country": "SE", "coord": {"lon": 16.1826, "lat": 58.594189}}, {"id": 2692965, "name": "Malm\u00f6 Kommun", "country": "SE", "coord": {"lon": 13, "lat": 55.583328}}, {"id": 2692969, "name": "Malmoe", "country": "SE", "coord": {"lon": 13.00073, "lat": 55.605869}}, {"id": 2715953, "name": "Eskilstuna", "country": "SE", "coord": {"lon": 16.5077, "lat": 59.366611}}, {"id": 602912, "name": "Skellefte\u00e5 Kommun", "country": "SE", "coord": {"lon": 21.133329, "lat": 64.75}}, {"id": 7304459, "name": "Erikslid", "country": "SE", "coord": {"lon": 20.95676, "lat": 64.76033}}, {"id": 2706767, "name": "Helsingborg", "country": "SE", "coord": {"lon": 12.69437, "lat": 56.04673}}, {"id": 2711533, "name": "G\u00f6teborgs Kommun", "country": "SE", "coord": {"lon": 11.91667, "lat": 57.700001}}, {"id": 2711537, "name": "Goeteborg", "country": "SE", "coord": {"lon": 11.96679, "lat": 57.707161}}, {"id": 2696329, "name": "Lidkoping", "country": "SE", "coord": {"lon": 13.15765, "lat": 58.505169}}, {"id": 2666219, "name": "Uppsala Kommun", "country": "SE", "coord": {"lon": 17.6, "lat": 59.866669}}, {"id": 2666199, "name": "Uppsala", "country": "SE", "coord": {"lon": 17.64543, "lat": 59.858501}}, {"id": 2716080, "name": "Eriksberg", "country": "SE", "coord": {"lon": 17.616671, "lat": 59.849998}}, {"id": 2681587, "name": "Rosenlund", "country": "SE", "coord": {"lon": 14.2, "lat": 57.783329}}, {"id": 2680068, "name": "Sandvikens Kommun", "country": "SE", "coord": {"lon": 16.66667, "lat": 60.616669}}, {"id": 2680075, "name": "Sandviken", "country": "SE", "coord": {"lon": 16.76667, "lat": 60.616669}}, {"id": 2670878, "name": "Sundbybergs Kommun", "country": "SE", "coord": {"lon": 17.94067, "lat": 59.365391}},