[{"id": 1790148, "name": "Xiaojian", "country": "CN", "coord": {"lon": 119.650002, "lat": 34.133331}}, {"id": 1790157, "name": "Xiaojiang", "country": "CN", "coord": {"lon": 121.115433, "lat": 29.383261}}, {"id": 1790160, "name": "Xiaojiang", "country": "CN", "coord": {"lon": 109.529343, "lat": 22.28146}}, {"id": 1920464, "name": "Xiaojiang", "country": "CN", "coord": {"lon": 112.592667, "lat": 24.616131}}, {"id": 1552729, "name": "Xiaojiangba", "country": "CN", "coord": {"lon": 118.062134, "lat": 31.28495}}, {"id": 6823779, "name": "Xiaojie", "country": "CN", "coord": {"lon": 102.135048, "lat": 24.864559}}, {"id": 6824063, "name": "Xiaojie", "country": "CN", "coord": {"lon": 102.461197, "lat": 24.1581}}, {"id": 6824635, "name": "Xiaojie", "country": "CN", "coord": {"lon": 102.931427, "lat": 24.64393}}, {"id": 1901903, "name": "Xiaojiezi", "country": "CN", "coord": {"lon": 102.8638, "lat": 24.344761}}, {"id": 1998308, "name": "Xiaojin", "country": "CN", "coord": {"lon": 109.41349, "lat": 34.339512}}, {"id": 1790124, "name": "Xiaojingzhuang", "country": "CN", "coord": {"lon": 112.651649, "lat": 39.886398}}, {"id": 1916883, "name": "Xiaojinkou", "country": "CN", "coord": {"lon": 114.404221, "lat": 23.18894}}, {"id": 1790116, "name": "Xiaokeng", "country": "CN", "coord": {"lon": 113.800003, "lat": 24.66667}}, {"id": 1790104, "name": "Xiaolin", "country": "CN", "coord": {"lon": 121.305878, "lat": 30.172741}}, {"id": 2033952, "name": "Xiaoling", "country": "CN", "coord": {"lon": 127.305389, "lat": 45.336369}}, {"id": 7413861, "name": "Xiaoling", "country": "CN", "coord": {"lon": 102.995621, "lat": 35.89484}}, {"id": 1790100, "name": "Xiaolingwei", "country": "CN", "coord": {"lon": 118.849998, "lat": 32.033329}}, {"id": 1790098, "name": "Xiaolipu", "country": "CN", "coord": {"lon": 116.584717, "lat": 36.400829}}, {"id": 1790090, "name": "Xiaolong", "country": "CN", "coord": {"lon": 115.254753, "lat": 26.68182}}, {"id": 1790091, "name": "Xiaolong", "country": "CN", "coord": {"lon": 115.544838, "lat": 25.54138}}, {"id": 1790088, "name": "Xiaolongmen", "country": "CN", "coord": {"lon": 110.160561, "lat": 27.801941}}, {"id": 1790085, "name": "Xiaolou", "country": "CN", "coord": {"lon": 113.828178, "lat": 23.384439}}, {"id": 1790081, "name": "Xiaolukou", "country": "CN", "coord": {"lon": 117.607697, "lat": 29.8615}}, {"id": 7904808, "name": "Xiaoluojiazui", "country": "CN", "coord": {"lon": 114.15934, "lat": 30.536751}}, {"id": 1790064, "name": "Xiaomei", "country": "CN", "coord": {"lon": 118.972221, "lat": 27.82583}}, {"id": 1923473, "name": "Xiaomi", "country": "CN", "coord": {"lon": 115.706398, "lat": 25.876591}}, {"id": 7032140, "name": "Xiaomo", "country": "CN", "coord": {"lon": 115.033798, "lat": 22.776899}}, {"id": 1790052, "name": "Xiaonangou", "country": "CN", "coord": {"lon": 106.818092, "lat": 36.624352}}, {"id": 7904020, "name": "Xiaonanhu", "country": "CN", "coord": {"lon": 114.349243, "lat": 30.695971}}, {"id": 1790037, "name": "Xiaopingyi", "country": "CN", "coord": {"lon": 112.481354, "lat": 39.384739}}, {"id": 1790034, "name": "Xiaopu", "country": "CN", "coord": {"lon": 119.829582, "lat": 31.029551}}, {"id": 1806209, "name": "Xiaopu", "country": "CN", "coord": {"lon": 111.316643, "lat": 25.23917}}, {"id": 6422958, "name": "Xiaopu", "country": "CN", "coord": {"lon": 111.344437, "lat": 25.28083}}, {"id": 1910191, "name": "Xiaoqi", "country": "CN", "coord": {"lon": 113.060562, "lat": 33.916359}}, {"id": 1790029, "name": "Xiaoqiao", "country": "CN", "coord": {"lon": 118.466072, "lat": 26.95384}}, {"id": 1790017, "name": "Xiaoqiu", "country": "CN", "coord": {"lon": 108.771393, "lat": 34.909439}}, {"id": 1790007, "name": "Xiaosanjiang", "country": "CN", "coord": {"lon": 112.132957, "lat": 24.28196}}, {"id": 1881568, "name": "Xiaosha", "country": "CN", "coord": {"lon": 122.057793, "lat": 30.10779}}, {"id": 2046561, "name": "Xiaoshahe", "country": "CN", "coord": {"lon": 128.29361, "lat": 42.639439}}, {"id": 1790001, "name": "Xiaoshajiang", "country": "CN", "coord": {"lon": 110.748062, "lat": 27.521391}}, {"id": 1789998, "name": "Xiaoshan", "country": "CN", "coord": {"lon": 120.258827, "lat": 30.167459}}, {"id": 7630128, "name": "Xiaoshanzi", "country": "CN", "coord": {"lon": 127.602402, "lat": 44.90712}}, {"id": 1548958, "name": "Xiaoshi", "country": "CN", "coord": {"lon": 118.781479, "lat": 32.096531}}, {"id": 2033934, "name": "Xiaoshi", "country": "CN", "coord": {"lon": 124.120918, "lat": 41.297112}}, {"id": 1789985, "name": "Xiaoshidian", "country": "CN", "coord": {"lon": 113.320099, "lat": 33.155121}}, {"id": 6825439, "name": "Xiaoshiqiao", "country": "CN", "coord": {"lon": 102.617531, "lat": 24.4468}}, {"id": 2046429, "name": "Xiaosiping", "country": "CN", "coord": {"lon": 125.129723, "lat": 42.53611}}, {"id": 1789973, "name": "Xiaosong", "country": "CN", "coord": {"lon": 116.305496, "lat": 26.442419}}, {"id": 1925325, "name": "Xiaotang", "country": "CN", "coord": {"lon": 115.912018, "lat": 28.208521}}, {"id": 1789963, "name": "Xiaotian", "country": "CN", "coord": {"lon": 116.092506, "lat": 27.04204}}, {"id": 1930342, "name": "Xiaotian", "country": "CN", "coord": {"lon": 113.836937, "lat": 26.85972}}, {"id": 6824989, "name": "Xiaowangjiaying", "country": "CN", "coord": {"lon": 102.791557, "lat": 24.912649}}, {"id": 1789951, "name": "Xiaowangmiao", "country": "CN", "coord": {"lon": 121.355827, "lat": 29.701389}}, {"id": 1789945, "name": "Xiaoweizhai", "country": "CN", "coord": {"lon": 107.512497, "lat": 26.190281}}, {"id": 1789935, "name": "Xiaoxi", "country": "CN", "coord": {"lon": 115.329903, "lat": 25.770399}}, {"id": 1789937, "name": "Xiaoxi", "country": "CN", "coord": {"lon": 117.29071, "lat": 24.352489}}, {"id": 1815504, "name": "Xiaoxi", "country": "CN", "coord": {"lon": 116.712852, "lat": 25.950609}}, {"id": 1789918, "name": "Xiaoxita", "country": "CN", "coord": {"lon": 111.321457, "lat": 30.771351}}, {"id": 2033915, "name": "Xiaoyangqi", "country": "CN", "coord": {"lon": 124.283333, "lat": 50.799999}}, {"id": 1789898, "name": "Xiaoyi", "country": "CN", "coord": {"lon": 109.703011, "lat": 34.617779}}, {"id": 7659437, "name": "Xiaoying", "country": "CN", "coord": {"lon": 129.52066, "lat": 42.91206}}, {"id": 1789877, "name": "Xiaoyue", "country": "CN", "coord": {"lon": 120.927963, "lat": 30.07122}}, {"id": 7059662, "name": "Xiaoyuwan", "country": "CN", "coord": {"lon": 110.419891, "lat": 29.27384}}, {"id": 1789873, "name": "Xiaozhai", "country": "CN", "coord": {"lon": 109.28714, "lat": 34.045658}}, {"id": 7446319, "name": "Xiaozhai", "country": "CN", "coord": {"lon": 104.013077, "lat": 34.639141}}, {"id": 1917124, "name": "Xiaozhen", "country": "CN", "coord": {"lon": 114.025978, "lat": 23.98542}}, {"id": 6643966, "name": "Xiaozhongdian", "country": "CN", "coord": {"lon": 99.875259, "lat": 27.561701}}, {"id": 2033909, "name": "Xiaozhuangzi", "country": "CN", "coord": {"lon": 120.42997, "lat": 40.270779}}, {"id": 1789832, "name": "Xiapu", "country": "CN", "coord": {"lon": 114.464233, "lat": 29.51441}}, {"id": 1789833, "name": "Xiapu", "country": "CN", "coord": {"lon": 114.443161, "lat": 27.796419}}, {"id": 1887772, "name": "Xiapu", "country": "CN", "coord": {"lon": 121.880302, "lat": 29.889021}}, {"id": 1789823, "name": "Xiaqu", "country": "CN", "coord": {"lon": 117.15654, "lat": 26.8237}}, {"id": 1915379, "name": "Xiaren", "country": "CN", "coord": {"lon": 121.026756, "lat": 29.5704}}, {"id": 6643964, "name": "Xiaruo", "country": "CN", "coord": {"lon": 99.357597, "lat": 27.808969}}, {"id": 1789819, "name": "Xiaruyue", "country": "CN", "coord": {"lon": 113.357407, "lat": 39.212002}}, {"id": 1791782, "name": "Xiasanhe", "country": "CN", "coord": {"lon": 121.419289, "lat": 31.982281}}, {"id": 7735255, "name": "Xiasha", "country": "CN", "coord": {"lon": 120.317177, "lat": 30.31023}}, {"id": 1789810, "name": "Xiashan", "country": "CN", "coord": {"lon": 121.530502, "lat": 29.464769}}, {"id": 1789812, "name": "Xiashan", "country": "CN", "coord": {"lon": 116.427116, "lat": 23.249809}}, {"id": 1916778, "name": "Xiashan", "country": "CN", "coord": {"lon": 118.406174, "lat": 29.3339}}, {"id": 1789803, "name": "Xiashe", "country": "CN", "coord": {"lon": 113.29306, "lat": 39.514172}}, {"id": 1789799, "name": "Xiashi", "country": "CN", "coord": {"lon": 120.686378, "lat": 30.536289}}, {"id": 7367793, "name": "Xiashixiang", "country": "CN", "coord": {"lon": 107.068428, "lat": 34.38002}}, {"id": 1920396, "name": "Xiashuai", "country": "CN", "coord": {"lon": 112.085411, "lat": 24.21418}}, {"id": 1789789, "name": "Xiashuitou", "country": "CN", "coord": {"lon": 112.081863, "lat": 39.527729}}, {"id": 1914158, "name": "Xiasi", "country": "CN", "coord": {"lon": 105.51326, "lat": 32.289982}}, {"id": 1789780, "name": "Xiatang", "country": "CN", "coord": {"lon": 112.679802, "lat": 33.719872}}, {"id": 7066221, "name": "Xiatang", "country": "CN", "coord": {"lon": 118.099152, "lat": 28.615311}}, {"id": 1930346, "name": "Xiatangyunxiang", "country": "CN", "coord": {"lon": 111.234718, "lat": 27.027781}}, {"id": 1789776, "name": "Xiatuanpu", "country": "CN", "coord": {"lon": 112.376671, "lat": 39.360279}}, {"id": 1791874, "name": "Xiawangwa", "country": "CN", "coord": {"lon": 106.636093, "lat": 36.106022}}, {"id": 1789759, "name": "Xiawuqi", "country": "CN", "coord": {"lon": 117.053329, "lat": 39.613609}}, {"id": 1553794, "name": "Xiaxi", "country": "CN", "coord": {"lon": 118.933327, "lat": 30.5}}, {"id": 7066245, "name": "Xiaxi", "country": "CN", "coord": {"lon": 118.186691, "lat": 28.459789}}, {"id": 1529061, "name": "Xiaxihao", "country": "CN", "coord": {"lon": 97.166672, "lat": 40.299999}}, {"id": 7640667, "name": "Xiaxin", "country": "CN", "coord": {"lon": 116.006737, "lat": 29.98971}}, {"id": 1789745, "name": "Xiayang", "country": "CN", "coord": {"lon": 117.45417, "lat": 26.428761}}, {"id": 1803438, "name": "Xiayang", "country": "CN", "coord": {"lon": 113.798027, "lat": 26.481359}}, {"id": 6971678, "name": "Xiayang", "country": "CN", "coord": {"lon": 119.80468, "lat": 27.87768}}, {"id": 7845495, "name": "Xiayang", "country": "CN", "coord": {"lon": 121.115883, "lat": 31.14967}}, {"id": 1887078, "name": "Xiaying", "country": "CN", "coord": {"lon": 121.591393, "lat": 29.80472}}, {"id": 2033894, "name": "Xiayingzi", "country": "CN", "coord": {"lon": 124.552139, "lat": 41.723179}}, {"id": 1789727, "name": "Xiayong", "country": "CN", "coord": {"lon": 114.650787, "lat": 22.77355}}, {"id": 1983877, "name": "Xiayuan", "country": "CN", "coord": {"lon": 119.061943, "lat": 27.282499}}, {"id": 1790691, "name": "Xiayuan", "country": "CN", "coord": {"lon": 120.641388, "lat": 32.23167}}, {"id": 1789709, "name": "Xiazhai", "country": "CN", "coord": {"lon": 109.765053, "lat": 34.714531}}, {"id": 1789703, "name": "Xiazhen", "country": "CN", "coord": {"lon": 117.111671, "lat": 34.802219}}, {"id": 1789705, "name": "Xiazhen", "country": "CN", "coord": {"lon": 118.402443, "lat": 28.646099}}, {"id": 1814635, "name": "Xiazhi", "country": "CN", "coord": {"lon": 122.235718, "lat": 29.75621}}, {"id": 1789693, "name": "Xiazhuang", "country": "CN", "coord": {"lon": 118.638893, "lat": 34.916111}}, {"id": 7413345, "name": "Xiazhuang", "country": "CN", "coord": {"lon": 102.295624, "lat": 35.851501}}, {"id": 6969808, "name": "Xibian", "country": "CN", "coord": {"lon": 118.93766, "lat": 27.764589}}, {"id": 1922257, "name": "Xibin", "country": "CN", "coord": {"lon": 118.374687, "lat": 26.36832}}, {"id": 1789659, "name": "Xibing", "country": "CN", "coord": {"lon": 119.724716, "lat": 26.98139}}, {"id": 1789657, "name": "Xibu", "country": "CN", "coord": {"lon": 118.28492, "lat": 31.77837}}, {"id": 1789658, "name": "Xibu", "country": "CN", "coord": {"lon": 117.42511, "lat": 23.69906}}, {"id": 1936475, "name": "Xicao", "country": "CN", "coord": {"lon": 103.633331, "lat": 36.49472}}, {"id": 1789647, "name": "Xichang", "country": "CN", "coord": {"lon": 102.26342, "lat": 27.89642}}, {"id": 1548514, "name": "Xichang", "country": "CN", "coord": {"lon": 120.591667, "lat": 32.525002}}, {"id": 1917107, "name": "Xichang", "country": "CN", "coord": {"lon": 114.452667, "lat": 23.929501}}, {"id": 1789643, "name": "Xichehe", "country": "CN", "coord": {"lon": 109.533211, "lat": 29.071119}}, {"id": 1810240, "name": "Xicheng", "country": "CN", "coord": {"lon": 103.163513, "lat": 23.306021}}, {"id": 1922260, "name": "Xicheng", "country": "CN", "coord": {"lon": 118.14193, "lat": 26.163019}}, {"id": 7063942, "name": "Xicheng", "country": "CN", "coord": {"lon": 108.441681, "lat": 34.308048}}, {"id": 7661858, "name": "Xicheng", "country": "CN", "coord": {"lon": 112.18026, "lat": 30.359039}}, {"id": 1918764, "name": "Xichou", "country": "CN", "coord": {"lon": 120.437698, "lat": 29.24407}}, {"id": 7518595, "name": "Xichuan", "country": "CN", "coord": {"lon": 107.150078, "lat": 36.495621}}, {"id": 3514518, "name": "Xico", "country": "MX", "coord": {"lon": -97, "lat": 19.41667}}, {"id": 3815363, "name": "Xicohtzinco", "country": "MX", "coord": {"lon": -98.23333, "lat": 19.173611}}, {"id": 3483063, "name": "Xicotencatl", "country": "MX", "coord": {"lon": -98.883331, "lat": 23.01667}}, {"id": 3514510, "name": "Xicotepec de Juarez", "country": "MX", "coord": {"lon": -97.966667, "lat": 20.299999}}, {"id": 1785483, "name": "Xicun", "country": "CN", "coord": {"lon": 113.115448, "lat": 39.15139}}, {"id": 1789622, "name": "Xicun", "country": "CN", "coord": {"lon": 114.21788, "lat": 27.755119}}, {"id": 7739108, "name": "Xidajie", "country": "CN", "coord": {"lon": 116.352898, "lat": 27.99662}}, {"id": 1789601, "name": "Xidi", "country": "CN", "coord": {"lon": 117.992409, "lat": 29.907221}}, {"id": 1789600, "name": "Xidian", "country": "CN", "coord": {"lon": 121.433029, "lat": 29.490511}}, {"id": 2053426, "name": "Xidianzi", "country": "CN", "coord": {"lon": 119.936073, "lat": 40.08807}}, {"id": 1789597, "name": "Xiditou", "country": "CN", "coord": {"lon": 117.34639, "lat": 39.25222}}, {"id": 1279716, "name": "Xidong", "country": "CN", "coord": {"lon": 98.400002, "lat": 39.599998}}, {"id": 1789593, "name": "Xidu", "country": "CN", "coord": {"lon": 112.368279, "lat": 26.956289}}, {"id": 1789586, "name": "Xiedian", "country": "CN", "coord": {"lon": 110.811813, "lat": 35.428162}}, {"id": 1789584, "name": "Xiefang", "country": "CN", "coord": {"lon": 115.865623, "lat": 25.706539}}, {"id": 7001716, "name": "Xiegang", "country": "CN", "coord": {"lon": 114.140579, "lat": 22.9611}}, {"id": 1789575, "name": "Xiehu", "country": "CN", "coord": {"lon": 109.245613, "lat": 34.204182}}, {"id": 1548832, "name": "Xiejia", "country": "CN", "coord": {"lon": 119.596939, "lat": 32.75972}}, {"id": 1910527, "name": "Xiejiaping", "country": "CN", "coord": {"lon": 111.366478, "lat": 30.04044}}, {"id": 1789554, "name": "Xiejiatan", "country": "CN", "coord": {"lon": 116.711952, "lat": 29.48765}}, {"id": 1789553, "name": "Xiejiaya", "country": "CN", "coord": {"lon": 110.666672, "lat": 28.98333}}, {"id": 1789550, "name": "Xiekou", "country": "CN", "coord": {"lon": 109.153084, "lat": 34.360889}}, {"id": 1789540, "name": "Xiepu", "country": "CN", "coord": {"lon": 121.605827, "lat": 30.035561}}, {"id": 1789537, "name": "Xieqiao", "country": "CN", "coord": {"lon": 120.383629, "lat": 32.061691}}, {"id": 1789538, "name": "Xieqiao", "country": "CN", "coord": {"lon": 120.568047, "lat": 30.488729}}, {"id": 7408027, "name": "Xieshui", "country": "CN", "coord": {"lon": 106.909317, "lat": 33.004299}}, {"id": 1789526, "name": "Xietang", "country": "CN", "coord": {"lon": 120.9011, "lat": 30.121901}}, {"id": 7047778, "name": "Xiexiang", "country": "CN", "coord": {"lon": 118.045372, "lat": 31.82469}}, {"id": 1279746, "name": "Xiexiong", "country": "CN", "coord": {"lon": 95.620003, "lat": 31.41}}, {"id": 1908867, "name": "Xiezhuang", "country": "CN", "coord": {"lon": 112.435623, "lat": 33.14954}}, {"id": 1789512, "name": "Xifangcheng", "country": "CN", "coord": {"lon": 113.481392, "lat": 39.612171}}, {"id": 2033866, "name": "Xifeng", "country": "CN", "coord": {"lon": 124.722221, "lat": 42.737221}}, {"id": 1789499, "name": "Xigang", "country": "CN", "coord": {"lon": 114.401787, "lat": 29.0921}}, {"id": 7373329, "name": "Xigaoshan", "country": "CN", "coord": {"lon": 105.388168, "lat": 33.734749}}, {"id": 7012544, "name": "Xiguantun Muguzu Manzuxiang", "country": "CN", "coord": {"lon": 123.165253, "lat": 42.574951}}, {"id": 1675247, "name": "Xiguoshan", "country": "TW", "coord": {"lon": 118.349998, "lat": 24.425831}}, {"id": 2033854, "name": "Xihai", "country": "CN", "coord": {"lon": 122.31321, "lat": 40.43396}}, {"id": 2033853, "name": "Xihanling", "country": "CN", "coord": {"lon": 113.239967, "lat": 40.01469}}, {"id": 1789462, "name": "Xihe", "country": "CN", "coord": {"lon": 113.465851, "lat": 31.686359}}, {"id": 1789463, "name": "Xihe", "country": "CN", "coord": {"lon": 118.474663, "lat": 30.991751}}, {"id": 7653982, "name": "Xihe", "country": "CN", "coord": {"lon": 114.009598, "lat": 31.00843}}, {"id": 7060470, "name": "Xiheshan", "country": "CN", "coord": {"lon": 118.34893, "lat": 31.44302}}, {"id": 1789428, "name": "Xihu", "country": "CN", "coord": {"lon": 117.179176, "lat": 29.849489}}, {"id": 1789427, "name": "Xihua", "country": "CN", "coord": {"lon": 114.51667, "lat": 33.783329}}, {"id": 1789425, "name": "Xihuaiba", "country": "CN", "coord": {"lon": 105.918541, "lat": 33.525749}}, {"id": 7352543, "name": "Xiji", "country": "CN", "coord": {"lon": 105.276268, "lat": 33.781979}}, {"id": 1789410, "name": "Xijia", "country": "CN", "coord": {"lon": 111.325218, "lat": 35.808601}}, {"id": 1789404, "name": "Xijiang", "country": "CN", "coord": {"lon": 115.780563, "lat": 25.837311}}, {"id": 1789405, "name": "Xijiang", "country": "CN", "coord": {"lon": 112.593712, "lat": 24.75882}}, {"id": 7446294, "name": "Xijiang", "country": "CN", "coord": {"lon": 104.003403, "lat": 34.565899}}, {"id": 1789399, "name": "Xijiao", "country": "CN", "coord": {"lon": 106.276138, "lat": 36.009579}}, {"id": 7508990, "name": "Xijiazhai", "country": "CN", "coord": {"lon": 112.44767, "lat": 39.462952}}, {"id": 1910348, "name": "Xijing", "country": "CN", "coord": {"lon": 109.818161, "lat": 34.048561}}, {"id": 1905307, "name": "Xikengkou", "country": "CN", "coord": {"lon": 118.315277, "lat": 29.432699}}, {"id": 1789355, "name": "Xikou", "country": "CN", "coord": {"lon": 121.274406, "lat": 29.68524}}, {"id": 1789356, "name": "Xikou", "country": "CN", "coord": {"lon": 118.009521, "lat": 29.68626}}, {"id": 1789357, "name": "Xikou", "country": "CN", "coord": {"lon": 110.758202, "lat": 29.225639}}, {"id": 1789358, "name": "Xikou", "country": "CN", "coord": {"lon": 114.375763, "lat": 29.16312}}, {"id": 1789362, "name": "Xikou", "country": "CN", "coord": {"lon": 116.832329, "lat": 26.84556}}, {"id": 1921721, "name": "Xikou", "country": "CN", "coord": {"lon": 116.675041, "lat": 25.06415}}, {"id": 7090494, "name": "Xikou", "country": "CN", "coord": {"lon": 118.497147, "lat": 29.14624}}, {"id": 733831, "name": "Xilagani", "country": "GR", "coord": {"lon": 25.41667, "lat": 40.98333}}, {"id": 1789345, "name": "Xilai", "country": "CN", "coord": {"lon": 120.427567, "lat": 32.118488}}, {"id": 2053179, "name": "Xilanqi", "country": "CN", "coord": {"lon": 122.145149, "lat": 40.223259}}, {"id": 7050615, "name": "Xilian", "country": "CN", "coord": {"lon": 110.7286, "lat": 29.67918}}, {"id": 1901233, "name": "Xiliguantun", "country": "CN", "coord": {"lon": 115.941391, "lat": 37.078331}}, {"id": 2033824, "name": "Xilin Hot", "country": "CN", "coord": {"lon": 116.033333, "lat": 43.966671}}, {"id": 1789329, "name": "Xiling", "country": "CN", "coord": {"lon": 119.047218, "lat": 26.81444}}, {"id": 6642273, "name": "Xiling", "country": "CN", "coord": {"lon": 111.283897, "lat": 30.716061}}, {"id": 2033826, "name": "Xilinhe", "country": "CN", "coord": {"lon": 129.158051, "lat": 42.836472}}, {"id": 6958004, "name": "Xilinji", "country": "CN", "coord": {"lon": 123.235222, "lat": 52.990631}}, {"id": 3514502, "name": "Xilitla", "country": "MX", "coord": {"lon": -98.966667, "lat": 21.33333}}, {"id": 1789318, "name": "Xiliu", "country": "CN", "coord": {"lon": 113.540833, "lat": 39.683182}}, {"id": 1910225, "name": "Xiliu", "country": "CN", "coord": {"lon": 108.791107, "lat": 34.15028}}, {"id": 2033819, "name": "Xiliu", "country": "CN", "coord": {"lon": 122.624168, "lat": 40.848579}}, {"id": 147784, "name": "Xilli", "country": "AZ", "coord": {"lon": 49.101662, "lat": 39.430119}}, {"id": 6825080, "name": "Xilong", "country": "CN", "coord": {"lon": 103.177261, "lat": 24.42086}}, {"id": 733828, "name": "Xilopolis", "country": "GR", "coord": {"lon": 23.17944, "lat": 40.927132}}, {"id": 3516763, "name": "Xiloxoxtla", "country": "MX", "coord": {"lon": -98.199997, "lat": 19.26667}}, {"id": 1919742, "name": "Xilu", "country": "CN", "coord": {"lon": 116.504539, "lat": 23.38114}}, {"id": 1927931, "name": "Xiluo", "country": "CN", "coord": {"lon": 109.466469, "lat": 29.408661}}, {"id": 1805565, "name": "Xiluodu", "country": "CN", "coord": {"lon": 103.58226, "lat": 28.20063}}, {"id": 1789300, "name": "Xima", "country": "CN", "coord": {"lon": 115.474213, "lat": 30.47052}}, {"id": 1789298, "name": "Ximafang", "country": "CN", "coord": {"lon": 112.017097, "lat": 38.663799}}, {"id": 1789289, "name": "Ximei", "country": "CN", "coord": {"lon": 118.37944, "lat": 24.96389}}, {"id": 8016493, "name": "Ximi", "country": "CN", "coord": {"lon": 110.006859, "lat": 28.91235}}, {"id": 1919224, "name": "Ximu", "country": "CN", "coord": {"lon": 119.584549, "lat": 30.74168}}, {"id": 2033808, "name": "Ximu", "country": "CN", "coord": {"lon": 122.907433, "lat": 40.699699}}, {"id": 2033791, "name": "Xin Bulag", "country": "CN", "coord": {"lon": 113.836388, "lat": 42.237499}}, {"id": 1789234, "name": "Xinan", "country": "CN", "coord": {"lon": 117.28038, "lat": 29.88755}}, {"id": 1789237, "name": "Xinan", "country": "CN", "coord": {"lon": 121.780853, "lat": 31.797859}}, {"id": 1789265, "name": "Xinan", "country": "CN", "coord": {"lon": 118.408882, "lat": 32.437988}}, {"id": 1789269, "name": "Xinan", "country": "CN", "coord": {"lon": 111.5, "lat": 29.65}}, {"id": 1789271, "name": "Xinan", "country": "CN", "coord": {"lon": 119.85556, "lat": 26.719999}}, {"id": 1789274, "name": "Xinan", "country": "CN", "coord": {"lon": 115.190903, "lat": 23.120859}}, {"id": 1910117, "name": "Xinan", "country": "CN", "coord": {"lon": 113.678589, "lat": 33.445881}}, {"id": 1919852, "name": "Xinan", "country": "CN", "coord": {"lon": 115.546768, "lat": 23.06451}}, {"id": 1998143, "name": "Xinan", "country": "CN", "coord": {"lon": 116.810669, "lat": 23.550529}}, {"id": 6920719, "name": "Xinan", "country": "CN", "coord": {"lon": 112.89344, "lat": 23.154461}}, {"id": 7735123, "name": "Xinan", "country": "CN", "coord": {"lon": 120.21904, "lat": 30.53373}}, {"id": 1924204, "name": "Xinanbu", "country": "CN", "coord": {"lon": 117.594299, "lat": 28.26701}}, {"id": 1789229, "name": "Xinba", "country": "CN", "coord": {"lon": 119.131111, "lat": 34.440281}}, {"id": 1789228, "name": "Xinbang", "country": "CN", "coord": {"lon": 121.06147, "lat": 30.934669}}, {"id": 1789227, "name": "Xinbao", "country": "CN", "coord": {"lon": 103.615303, "lat": 34.574181}}, {"id": 1919448, "name": "Xinbei", "country": "CN", "coord": {"lon": 115.688293, "lat": 24.1579}}, {"id": 1923470, "name": "Xinbei", "country": "CN", "coord": {"lon": 115.347572, "lat": 25.873831}}, {"id": 1789219, "name": "Xinbu", "country": "CN", "coord": {"lon": 111.939102, "lat": 38.605}}, {"id": 1789218, "name": "Xinbuzi", "country": "CN", "coord": {"lon": 108.086456, "lat": 34.985989}}, {"id": 1789213, "name": "Xincang", "country": "CN", "coord": {"lon": 121.175774, "lat": 30.73151}}, {"id": 1916734, "name": "Xinchang", "country": "CN", "coord": {"lon": 118.58979, "lat": 29.074209}}, {"id": 1927940, "name": "Xinchang", "country": "CN", "coord": {"lon": 109.730453, "lat": 29.258101}}, {"id": 1789201, "name": "Xinchang Chengguanzhen", "country": "CN", "coord": {"lon": 120.900169, "lat": 29.50528}}, {"id": 1927927, "name": "Xinchangao", "country": "CN", "coord": {"lon": 109.647476, "lat": 29.44541}}, {"id": 6422373, "name": "Xinche", "country": "CN", "coord": {"lon": 111.492783, "lat": 25.41444}}, {"id": 6643057, "name": "Xincheng", "country": "TW", "coord": {"lon": 121.605988, "lat": 24.03334}}, {"id": 1788567, "name": "Xincheng", "country": "CN", "coord": {"lon": 112.224068, "lat": 22.70014}}, {"id": 1789180, "name": "Xincheng", "country": "CN", "coord": {"lon": 111.664169, "lat": 35.299999}}, {"id": 1789181, "name": "Xincheng", "country": "CN", "coord": {"lon": 103.5868, "lat": 34.674309}}, {"id": 1789186, "name": "Xincheng", "country": "CN", "coord": {"lon": 102.842331, "lat": 28.01512}}, {"id": 1795437, "name": "Xincheng", "country": "CN", "coord": {"lon": 111.43528, "lat": 35.875}}, {"id": 1804009, "name": "Xincheng", "country": "CN", "coord": {"lon": 112.461349, "lat": 39.986771}}, {"id": 1927926, "name": "Xincheng", "country": "CN", "coord": {"lon": 109.45826, "lat": 29.46207}}, {"id": 7063962, "name": "Xincheng", "country": "CN", "coord": {"lon": 108.949539, "lat": 34.26321}}, {"id": 1789190, "name": "Xincheng Chengguanzhen", "country": "CN", "coord": {"lon": 108.652611, "lat": 24.08613}}, {"id": 7845524, "name": "Xinchenglu", "country": "CN", "coord": {"lon": 121.263046, "lat": 31.388639}}, {"id": 1789166, "name": "Xinchengpu", "country": "CN", "coord": {"lon": 114.683327, "lat": 38.26667}}, {"id": 7326317, "name": "Xinchengzi", "country": "CN", "coord": {"lon": 104.442261, "lat": 34.016628}}, {"id": 1789161, "name": "Xinchong", "country": "CN", "coord": {"lon": 114.815437, "lat": 30.77474}}, {"id": 1789159, "name": "Xincun", "country": "CN", "coord": {"lon": 109.963959, "lat": 18.416121}}, {"id": 1789143, "name": "Xindai", "country": "CN", "coord": {"lon": 121.082428, "lat": 30.82303}}, {"id": 1789139, "name": "Xindeng", "country": "CN", "coord": {"lon": 119.726669, "lat": 29.975281}}, {"id": 1789137, "name": "Xindi", "country": "CN", "coord": {"lon": 113.466667, "lat": 29.816669}}, {"id": 1789118, "name": "Xindian", "country": "CN", "coord": {"lon": 118.294441, "lat": 36.797501}}, {"id": 1789124, "name": "Xindian", "country": "CN", "coord": {"lon": 113.372093, "lat": 33.413589}}, {"id": 1789127, "name": "Xindian", "country": "CN", "coord": {"lon": 120.916481, "lat": 32.268608}}, {"id": 1789132, "name": "Xindian", "country": "CN", "coord": {"lon": 119.30687, "lat": 26.1306}}, {"id": 1789134, "name": "Xindian", "country": "CN", "coord": {"lon": 118.241051, "lat": 24.593769}}, {"id": 1813303, "name": "Xindian", "country": "CN", "coord": {"lon": 113.850456, "lat": 33.618488}}, {"id": 1899301, "name": "Xindian", "country": "CN", "coord": {"lon": 105.518066, "lat": 35.352219}}, {"id": 2033781, "name": "Xindian", "country": "CN", "coord": {"lon": 127.825981, "lat": 45.917961}}, {"id": 2033782, "name": "Xindian", "country": "CN", "coord": {"lon": 123.123688, "lat": 40.092979}}, {"id": 7735235, "name": "Xindong", "country": "CN", "coord": {"lon": 120.172722, "lat": 30.306459}}, {"id": 1789098, "name": "Xindou", "country": "CN", "coord": {"lon": 100.67778, "lat": 31.39587}}, {"id": 1547621, "name": "Xindu", "country": "CN", "coord": {"lon": 120.133331, "lat": 33.341671}}, {"id": 1789095, "name": "Xindu", "country": "CN", "coord": {"lon": 104.157417, "lat": 30.822359}}, {"id": 6924979, "name": "Xinfa", "country": "CN", "coord": {"lon": 104.32077, "lat": 28.830709}}, {"id": 1789088, "name": "Xinfang", "country": "CN", "coord": {"lon": 114.469917, "lat": 27.70047}}, {"id": 2052323, "name": "Xinfangzi", "country": "CN", "coord": {"lon": 127.360382, "lat": 41.555161}}, {"id": 1553878, "name": "Xinfeng", "country": "CN", "coord": {"lon": 118.077782, "lat": 30.50419}}, {"id": 1789068, "name": "Xinfeng", "country": "CN", "coord": {"lon": 109.263641, "lat": 34.42664}}, {"id": 1789075, "name": "Xinfeng", "country": "CN", "coord": {"lon": 120.45356, "lat": 33.268311}}, {"id": 1789079, "name": "Xinfeng", "country": "CN", "coord": {"lon": 120.91835, "lat": 30.709}}, {"id": 1789081, "name": "Xinfeng", "country": "CN", "coord": {"lon": 116.213158, "lat": 27.1089}}, {"id": 1789080, "name": "Xinfengjie", "country": "CN", "coord": {"lon": 116.589333, "lat": 27.4268}}, {"id": 1789066, "name": "Xingan", "country": "CN", "coord": {"lon": 110.642479, "lat": 25.61964}}, {"id": 1789062, "name": "Xingang", "country": "CN", "coord": {"lon": 116.097214, "lat": 29.7542}}, {"id": 1917061, "name": "Xingang", "country": "CN", "coord": {"lon": 114.633011, "lat": 23.7843}}, {"id": 7844140, "name": "Xingang", "country": "CN", "coord": {"lon": 120.927116, "lat": 31.72048}}, {"id": 7651294, "name": "Xingangshan", "country": "CN", "coord": {"lon": 117.942978, "lat": 29.10486}}, {"id": 1789053, "name": "Xingao", "country": "CN", "coord": {"lon": 112.961609, "lat": 39.02607}}, {"id": 2033724, "name": "Xingcan", "country": "CN", "coord": {"lon": 127.220451, "lat": 42.477951}}, {"id": 2033766, "name": "Xingcheng", "country": "CN", "coord": {"lon": 120.716667, "lat": 40.616669}}, {"id": 6957994, "name": "Xingdian", "country": "CN", "coord": {"lon": 118.435112, "lat": 32.039589}}, {"id": 1885709, "name": "Xingdong", "country": "CN", "coord": {"lon": 120.968277, "lat": 32.082649}}, {"id": 1818032, "name": "Xinggongxia", "country": "CN", "coord": {"lon": 116.733849, "lat": 26.11232}}, {"id": 1789030, "name": "Xingguo", "country": "CN", "coord": {"lon": 105.66861, "lat": 34.858608}}, {"id": 1789031, "name": "Xingguo", "country": "CN", "coord": {"lon": 115.302078, "lat": 29.92252}}, {"id": 7752468, "name": "Xingguo", "country": "CN", "coord": {"lon": 115.208656, "lat": 29.83375}}, {"id": 7886729, "name": "Xinghai", "country": "CN", "coord": {"lon": 122.728088, "lat": 40.861591}}, {"id": 2033759, "name": "Xinghe Chengguanzhen", "country": "CN", "coord": {"lon": 113.883888, "lat": 40.875561}}, {"id": 1784820, "name": "Xinghua", "country": "CN", "coord": {"lon": 119.834167, "lat": 32.939171}}, {"id": 7326325, "name": "Xinghua", "country": "CN", "coord": {"lon": 104.584023, "lat": 34.080261}}, {"id": 7407787, "name": "Xinghua", "country": "CN", "coord": {"lon": 106.361763, "lat": 33.861511}}, {"id": 8054803, "name": "Xinghua", "country": "CN", "coord": {"lon": 122.698387, "lat": 48.014488}}, {"id": 7506701, "name": "Xingjiang", "country": "CN", "coord": {"lon": 115.771767, "lat": 26.49095}}, {"id": 1789001, "name": "Xingkou", "country": "CN", "coord": {"lon": 118.299843, "lat": 29.08448}}, {"id": 1788997, "name": "Xinglin", "country": "CN", "coord": {"lon": 107.990417, "lat": 34.344181}}, {"id": 7048263, "name": "Xinglin", "country": "CN", "coord": {"lon": 109.760696, "lat": 34.49371}}, {"id": 1788963, "name": "Xinglong", "country": "CN", "coord": {"lon": 105.809891, "lat": 35.703789}}, {"id": 1788981, "name": "Xinglong", "country": "CN", "coord": {"lon": 113.610641, "lat": 31.71365}}, {"id": 1788985, "name": "Xinglong", "country": "CN", "coord": {"lon": 118.341232, "lat": 30.356911}}, {"id": 1788988, "name": "Xinglong", "country": "CN", "coord": {"lon": 109.03714, "lat": 29.25841}}, {"id": 1908010, "name": "Xinglong", "country": "CN", "coord": {"lon": 105.344223, "lat": 34.038212}}, {"id": 1910263, "name": "Xinglong", "country": "CN", "coord": {"lon": 108.69278, "lat": 34.64806}}, {"id": 1998326, "name": "Xinglong", "country": "CN", "coord": {"lon": 108.816803, "lat": 34.12468}}, {"id": 2033747, "name": "Xinglong", "country": "CN", "coord": {"lon": 126.900002, "lat": 45.299999}}, {"id": 2053105, "name": "Xinglong", "country": "CN", "coord": {"lon": 127.386108, "lat": 42.261669}}, {"id": 7404455, "name": "Xinglong", "country": "CN", "coord": {"lon": 123.285492, "lat": 40.305939}}, {"id": 1941088, "name": "Xinglongjie", "country": "CN", "coord": {"lon": 109.530167, "lat": 29.454981}}, {"id": 2033739, "name": "Xinglongshan", "country": "CN", "coord": {"lon": 125.46611, "lat": 43.956108}}, {"id": 7020074, "name": "Xingma", "country": "CN", "coord": {"lon": 106.971329, "lat": 32.247849}}, {"id": 8054801, "name": "Xingong", "country": "CN", "coord": {"lon": 120.706093, "lat": 49.29031}}, {"id": 1788955, "name": "Xingou", "country": "CN", "coord": {"lon": 112.952919, "lat": 30.13179}}, {"id": 1788948, "name": "Xingping", "country": "CN", "coord": {"lon": 105.660309, "lat": 35.841251}}, {"id": 1788949, "name": "Xingping", "country": "CN", "coord": {"lon": 108.486938, "lat": 34.299999}}, {"id": 7658285, "name": "Xingqiao", "country": "CN", "coord": {"lon": 114.87426, "lat": 27.140169}}, {"id": 7735165, "name": "Xingqiao", "country": "CN", "coord": {"lon": 120.251709, "lat": 30.399429}}, {"id": 1788941, "name": "Xingren", "country": "CN", "coord": {"lon": 120.937897, "lat": 32.06625}}, {"id": 1927332, "name": "Xingsha", "country": "CN", "coord": {"lon": 113.087784, "lat": 28.239719}}, {"id": 1788933, "name": "Xingsheng", "country": "CN", "coord": {"lon": 106.333328, "lat": 35.450001}}, {"id": 1788927, "name": "Xingtai", "country": "CN", "coord": {"lon": 114.494171, "lat": 37.063061}}, {"id": 1548555, "name": "Xingtai", "country": "CN", "coord": {"lon": 120.074997, "lat": 32.686111}}, {"id": 1788919, "name": "Xingtian", "country": "CN", "coord": {"lon": 118.066673, "lat": 27.5}}, {"id": 1798889, "name": "Xinguan", "country": "CN", "coord": {"lon": 111.530006, "lat": 39.455269}}, {"id": 1928145, "name": "Xinguan", "country": "CN", "coord": {"lon": 111.307327, "lat": 29.61969}}, {"id": 1917867, "name": "Xingxi", "country": "CN", "coord": {"lon": 117.190712, "lat": 23.704981}}, {"id": 7520383, "name": "Xingyuan", "country": "CN", "coord": {"lon": 113.268837, "lat": 39.16927}}, {"id": 2001738, "name": "Xingzhe", "country": "CN", "coord": {"lon": 109.19693, "lat": 34.405231}}, {"id": 1788932, "name": "Xingzhen", "country": "CN", "coord": {"lon": 109.448738, "lat": 34.932171}}, {"id": 1788899, "name": "Xingzi", "country": "CN", "coord": {"lon": 112.554001, "lat": 25.001381}}, {"id": 1552510, "name": "Xinhang", "country": "CN", "coord": {"lon": 119.556961, "lat": 31.073059}}, {"id": 1788879, "name": "Xinhe", "country": "CN", "coord": {"lon": 121.34687, "lat": 31.98358}}, {"id": 1998313, "name": "Xinhe", "country": "CN", "coord": {"lon": 109.099739, "lat": 34.419041}}, {"id": 7643671, "name": "Xinhe", "country": "CN", "coord": {"lon": 115.769058, "lat": 29.61964}}, {"id": 1553870, "name": "Xinhua", "country": "CN", "coord": {"lon": 118.039299, "lat": 30.448231}}, {"id": 1788871, "name": "Xinhua", "country": "CN", "coord": {"lon": 102.933243, "lat": 26.88838}}, {"id": 1788875, "name": "Xinhua", "country": "CN", "coord": {"lon": 105.653168, "lat": 23.643101}}, {"id": 1788862, "name": "Xinhuang", "country": "CN", "coord": {"lon": 120.914864, "lat": 30.62121}}, {"id": 1788863, "name": "Xinhuang", "country": "CN", "coord": {"lon": 109.133759, "lat": 27.37359}}, {"id": 7064799, "name": "Xinhuang", "country": "CN", "coord": {"lon": 117.601379, "lat": 28.713539}}, {"id": 1806882, "name": "Xinhui", "country": "CN", "coord": {"lon": 113.048203, "lat": 22.455999}}, {"id": 2033707, "name": "Xinhui", "country": "CN", "coord": {"lon": 119.898331, "lat": 42.28389}}, {"id": 1788852, "name": "Xining", "country": "CN", "coord": {"lon": 101.76667, "lat": 36.616669}}, {"id": 1788849, "name": "Xiniu", "country": "CN", "coord": {"lon": 113.110779, "lat": 24.16419}}, {"id": 1788816, "name": "Xinji", "country": "CN", "coord": {"lon": 115.203613, "lat": 37.902779}}, {"id": 1788830, "name": "Xinji", "country": "CN", "coord": {"lon": 113.000252, "lat": 33.789299}}, {"id": 1788836, "name": "Xinji", "country": "CN", "coord": {"lon": 106.821114, "lat": 33.00806}}, {"id": 1805912, "name": "Xinji", "country": "CN", "coord": {"lon": 116.555153, "lat": 26.338079}}, {"id": 7413516, "name": "Xinjia", "country": "CN", "coord": {"lon": 102.839546, "lat": 35.876999}}, {"id": 7063941, "name": "Xinjiamiao", "country": "CN", "coord": {"lon": 108.988319, "lat": 34.3055}}, {"id": 1788807, "name": "Xinjian", "country": "CN", "coord": {"lon": 117.934853, "lat": 29.124981}}, {"id": 7886741, "name": "Xinjian", "country": "CN", "coord": {"lon": 122.359123, "lat": 40.850288}}, {"id": 1788802, "name": "Xinjiang", "country": "CN", "coord": {"lon": 113.833328, "lat": 24.466669}}, {"id": 1529047, "name": "Xinjiang Uygur Zizhiqu", "country": "CN", "coord": {"lon": 85.456108, "lat": 42.569172}}, {"id": 1788793, "name": "Xinjiayuan", "country": "CN", "coord": {"lon": 112.985832, "lat": 39.753239}}, {"id": 1799406, "name": "Xinjie", "country": "CN", "coord": {"lon": 120.110168, "lat": 32.336552}}, {"id": 1885912, "name": "Xinjie", "country": "CN", "coord": {"lon": 120.773422, "lat": 32.679531}}, {"id": 6824405, "name": "Xinjie", "country": "CN", "coord": {"lon": 102.721062, "lat": 24.74449}}, {"id": 7653979, "name": "Xinjie", "country": "CN", "coord": {"lon": 113.211761, "lat": 31.818541}}, {"id": 7735241, "name": "Xinjie", "country": "CN", "coord": {"lon": 120.333069, "lat": 30.19183}}, {"id": 1805906, "name": "Xinjiebu", "country": "CN", "coord": {"lon": 115.057404, "lat": 28.225981}}, {"id": 7328942, "name": "Xinjiezhen", "country": "CN", "coord": {"lon": 115.408409, "lat": 28.232651}}, {"id": 6824148, "name": "Xinjiezi", "country": "CN", "coord": {"lon": 102.182037, "lat": 24.61688}}, {"id": 7408353, "name": "Xinjiezi", "country": "CN", "coord": {"lon": 106.825058, "lat": 33.160919}}, {"id": 1788772, "name": "Xinjing", "country": "CN", "coord": {"lon": 106.382072, "lat": 23.20252}}, {"id": 1788763, "name": "Xinkai", "country": "CN", "coord": {"lon": 120.939728, "lat": 31.90999}}, {"id": 7644500, "name": "Xinkai", "country": "CN", "coord": {"lon": 115.810463, "lat": 29.81246}}, {"id": 1788760, "name": "Xinkaikou", "country": "CN", "coord": {"lon": 117.190277, "lat": 39.67889}}, {"id": 1789278, "name": "Xinli", "country": "CN", "coord": {"lon": 108.734718, "lat": 39.84417}}, {"id": 1788747, "name": "Xinlicun", "country": "CN", "coord": {"lon": 117.335564, "lat": 39.084721}}, {"id": 1788745, "name": "Xinling", "country": "CN", "coord": {"lon": 110.318161, "lat": 31.025299}}, {"id": 1788736, "name": "Xinlong", "country": "CN", "coord": {"lon": 114.599998, "lat": 25.200001}}, {"id": 6422100, "name": "Xinlong", "country": "CN", "coord": {"lon": 112.35083, "lat": 25.786671}}, {"id": 7650840, "name": "Xinlong", "country": "CN", "coord": {"lon": 115.326767, "lat": 25.145149}}, {"id": 1805879, "name": "Xinmen", "country": "CN", "coord": {"lon": 118.723778, "lat": 29.751841}}, {"id": 1788730, "name": "Xinmian", "country": "CN", "coord": {"lon": 102.372078, "lat": 29.23992}}, {"id": 7905356, "name": "Xinmiao", "country": "CN", "coord": {"lon": 114.926064, "lat": 30.387859}}, {"id": 6921472, "name": "Xinmin", "country": "CN", "coord": {"lon": 104.777428, "lat": 29.40107}}, {"id": 2033675, "name": "Xinmin", "country": "CN", "coord": {"lon": 122.825279, "lat": 41.990829}}, {"id": 1553849, "name": "Xinming", "country": "CN", "coord": {"lon": 118.244247, "lat": 30.336}}, {"id": 7328936, "name": "Xinminxiang", "country": "CN", "coord": {"lon": 115.558289, "lat": 28.93325}}, {"id": 1788707, "name": "Xinning", "country": "CN", "coord": {"lon": 115.097366, "lat": 29.23922}}, {"id": 1788708, "name": "Xinning", "country": "CN", "coord": {"lon": 107.889122, "lat": 22.670799}}, {"id": 1804869, "name": "Xinning", "country": "CN", "coord": {"lon": 107.865082, "lat": 31.08515}}, {"id": 733827, "name": "Xinon Neron", "country": "GR", "coord": {"lon": 21.616671, "lat": 40.683331}}, {"id": 1788701, "name": "Xinpeicun", "country": "CN", "coord": {"lon": 113.52935, "lat": 39.61755}}, {"id": 1894017, "name": "Xinpo", "country": "CN", "coord": {"lon": 110.365463, "lat": 19.77165}}, {"id": 1788694, "name": "Xinpu", "country": "CN", "coord": {"lon": 119.159439, "lat": 34.59972}}, {"id": 1788691, "name": "Xinpu", "country": "CN", "coord": {"lon": 121.364189, "lat": 30.24367}}, {"id": 1788696, "name": "Xinpu", "country": "CN", "coord": {"lon": 106.449997, "lat": 33.099998}}, {"id": 1788697, "name": "Xinpu", "country": "CN", "coord": {"lon": 111.378151, "lat": 29.681351}}, {"id": 1788669, "name": "Xinqiao", "country": "CN", "coord": {"lon": 121.307503, "lat": 31.065001}}, {"id": 1788673, "name": "Xinqiao", "country": "CN", "coord": {"lon": 110.506218, "lat": 29.18947}}, {"id": 1788680, "name": "Xinqiao", "country": "CN", "coord": {"lon": 116.451637, "lat": 25.88096}}, {"id": 1887681, "name": "Xinqiao", "country": "CN", "coord": {"lon": 121.861671, "lat": 29.31778}}, {"id": 1898446, "name": "Xinqiao", "country": "CN", "coord": {"lon": 120.504784, "lat": 31.802509}}, {"id": 1919031, "name": "Xinqiao", "country": "CN", "coord": {"lon": 118.931938, "lat": 30.25083}}, {"id": 7527663, "name": "Xinqiao", "country": "CN", "coord": {"lon": 120.793358, "lat": 32.945702}}, {"id": 2033667, "name": "Xinqing", "country": "CN", "coord": {"lon": 129.5, "lat": 48.23333}}, {"id": 1788657, "name": "Xinquan", "country": "CN", "coord": {"lon": 116.612091, "lat": 25.35483}}, {"id": 7658381, "name": "Xinquan", "country": "CN", "coord": {"lon": 114.069267, "lat": 27.52173}}, {"id": 2033665, "name": "Xinrong", "country": "CN", "coord": {"lon": 113.150002, "lat": 40.26667}}, {"id": 1788652, "name": "Xinshan", "country": "CN", "coord": {"lon": 115.387199, "lat": 25.13732}}, {"id": 7516122, "name": "Xinshan", "country": "CN", "coord": {"lon": 106.378593, "lat": 36.35487}}, {"id": 8235911, "name": "Xinshao", "country": "CN", "coord": {"lon": 113.606911, "lat": 24.808929}}, {"id": 1927826, "name": "Xinshazhou", "country": "CN", "coord": {"lon": 112.875832, "lat": 29.76333}}, {"id": 1788638, "name": "Xinshi", "country": "CN", "coord": {"lon": 113.140984, "lat": 31.047041}}, {"id": 1788632, "name": "Xinshi", "country": "CN", "coord": {"lon": 109.524696, "lat": 34.572578}}, {"id": 1788636, "name": "Xinshi", "country": "CN", "coord": {"lon": 118.732941, "lat": 31.576731}}, {"id": 1788640, "name": "Xinshi", "country": "CN", "coord": {"lon": 120.284073, "lat": 30.61738}}, {"id": 1910306, "name": "Xinshi", "country": "CN", "coord": {"lon": 109.180054, "lat": 34.538342}}, {"id": 1922338, "name": "Xinshi", "country": "CN", "coord": {"lon": 116.514198, "lat": 26.24859}}, {"id": 1998768, "name": "Xinshi", "country": "CN", "coord": {"lon": 108.422218, "lat": 34.43972}}, {"id": 1788630, "name": "Xinshiba", "country": "CN", "coord": {"lon": 102.771263, "lat": 28.970909}}, {"id": 1806810, "name": "Xinshichang", "country": "CN", "coord": {"lon": 120.80674, "lat": 29.27986}}, {"id": 1918793, "name": "Xinshichang", "country": "CN", "coord": {"lon": 120.839363, "lat": 29.323669}}, {"id": 1813839, "name": "Xinshui", "country": "CN", "coord": {"lon": 110.755219, "lat": 36.47839}}, {"id": 7517296, "name": "Xinsi Zhen", "country": "CN", "coord": {"lon": 104.629883, "lat": 34.649559}}, {"id": 1788618, "name": "Xintai", "country": "CN", "coord": {"lon": 117.751938, "lat": 35.900558}}, {"id": 2033661, "name": "Xintaimen", "country": "CN", "coord": {"lon": 120.417809, "lat": 40.834641}}, {"id": 1553369, "name": "Xintan", "country": "CN", "coord": {"lon": 118.280853, "lat": 29.736099}}, {"id": 7064803, "name": "Xintan", "country": "CN", "coord": {"lon": 117.679413, "lat": 28.333179}}, {"id": 1788606, "name": "Xintang", "country": "CN", "coord": {"lon": 115.713577, "lat": 29.61879}}, {"id": 1788611, "name": "Xintang", "country": "CN", "coord": {"lon": 113.609169, "lat": 23.122379}}, {"id": 1919511, "name": "Xintang", "country": "CN", "coord": {"lon": 116.784958, "lat": 23.94323}}, {"id": 7735416, "name": "Xintang", "country": "CN", "coord": {"lon": 120.304337, "lat": 30.1507}}, {"id": 1918314, "name": "Xintangbian", "country": "CN", "coord": {"lon": 118.451523, "lat": 28.621611}}, {"id": 1788593, "name": "Xintian", "country": "CN", "coord": {"lon": 118.76947, "lat": 30.75531}}, {"id": 1788600, "name": "Xintian", "country": "CN", "coord": {"lon": 114.258003, "lat": 27.824949}}, {"id": 1788602, "name": "Xintian", "country": "CN", "coord": {"lon": 115.245506, "lat": 25.361771}}, {"id": 1807818, "name": "Xintian", "country": "CN", "coord": {"lon": 111.356598, "lat": 35.613579}}, {"id": 1919816, "name": "Xintian", "country": "CN", "coord": {"lon": 115.548851, "lat": 23.18821}}, {"id": 7685749, "name": "Xintong", "country": "CN", "coord": {"lon": 119.814743, "lat": 29.906639}}, {"id": 1881852, "name": "Xinwan", "country": "CN", "coord": {"lon": 120.538567, "lat": 30.278891}}, {"id": 1913172, "name": "Xinwan", "country": "CN", "coord": {"lon": 113.667999, "lat": 22.786619}}, {"id": 7745040, "name": "Xinwan", "country": "CN", "coord": {"lon": 114.453529, "lat": 29.19331}}, {"id": 1913863, "name": "Xinwu", "country": "CN", "coord": {"lon": 110.187431, "lat": 19.649361}}, {"id": 1919732, "name": "Xinxi", "country": "CN", "coord": {"lon": 116.766922, "lat": 23.401279}}, {"id": 7685359, "name": "Xinxi", "country": "CN", "coord": {"lon": 115.32666, "lat": 27.8687}}, {"id": 7652402, "name": "Xinxi Wudui", "country": "CN", "coord": {"lon": 117.819229, "lat": 29.904819}}, {"id": 1788572, "name": "Xinxiang", "country": "CN", "coord": {"lon": 113.867218, "lat": 35.308891}}, {"id": 2053099, "name": "Xinxigang", "country": "CN", "coord": {"lon": 127.355827, "lat": 42.06472}}, {"id": 1788563, "name": "Xinxing", "country": "CN", "coord": {"lon": 108.885002, "lat": 34.775558}}, {"id": 1788568, "name": "Xinxing", "country": "CN", "coord": {"lon": 110.175972, "lat": 19.51099}}, {"id": 1928510, "name": "Xinxing", "country": "CN", "coord": {"lon": 111.823318, "lat": 28.95722}}, {"id": 1998292, "name": "Xinxing", "country": "CN", "coord": {"lon": 109.274361, "lat": 34.666882}}, {"id": 7885594, "name": "Xinxing", "country": "CN", "coord": {"lon": 122.256241, "lat": 40.71841}}, {"id": 1788537, "name": "Xinxu", "country": "CN", "coord": {"lon": 115.134369, "lat": 26.906361}}, {"id": 1788548, "name": "Xinxu", "country": "CN", "coord": {"lon": 115.863548, "lat": 24.054859}}, {"id": 1919564, "name": "Xinxu", "country": "CN", "coord": {"lon": 116.940697, "lat": 23.80555}}, {"id": 6422115, "name": "Xinxu", "country": "CN", "coord": {"lon": 112.269722, "lat": 25.80278}}, {"id": 6422308, "name": "Xinxu", "country": "CN", "coord": {"lon": 112.372498, "lat": 25.42194}}, {"id": 1788534, "name": "Xinyang", "country": "CN", "coord": {"lon": 114.065559, "lat": 32.12278}}, {"id": 1998417, "name": "Xinyang", "country": "CN", "coord": {"lon": 108.140518, "lat": 34.482941}}, {"id": 1788522, "name": "Xinye", "country": "CN", "coord": {"lon": 112.352219, "lat": 32.518608}}, {"id": 1812057, "name": "Xinyi", "country": "CN", "coord": {"lon": 110.947456, "lat": 22.37303}}, {"id": 1788520, "name": "Xinyi", "country": "CN", "coord": {"lon": 109.599663, "lat": 34.569538}}, {"id": 1788516, "name": "Xinying", "country": "CN", "coord": {"lon": 109.525337, "lat": 19.89295}}, {"id": 1668353, "name": "Xinying", "country": "TW", "coord": {"lon": 120.310562, "lat": 23.30694}}, {"id": 1788508, "name": "Xinyu", "country": "CN", "coord": {"lon": 114.93335, "lat": 27.804291}}, {"id": 1279694, "name": "Xinyuan", "country": "CN", "coord": {"lon": 99, "lat": 37.299999}}, {"id": 7653974, "name": "Xinzha", "country": "CN", "coord": {"lon": 113.629349, "lat": 31.116659}}, {"id": 1788491, "name": "Xinzhai", "country": "CN", "coord": {"lon": 107.947647, "lat": 36.94276}}, {"id": 1788493, "name": "Xinzhai", "country": "CN", "coord": {"lon": 104.683861, "lat": 33.643871}}, {"id": 1917869, "name": "Xinzhai", "country": "CN", "coord": {"lon": 117.148659, "lat": 23.72048}}, {"id": 1941102, "name": "Xinzhaiping", "country": "CN", "coord": {"lon": 109.8918, "lat": 29.1343}}, {"id": 1927935, "name": "Xinzhaipo", "country": "CN", "coord": {"lon": 109.422447, "lat": 29.284781}}, {"id": 1788482, "name": "Xinzhan", "country": "CN", "coord": {"lon": 106.856667, "lat": 28.38833}}, {"id": 1788467, "name": "Xinzheng", "country": "CN", "coord": {"lon": 106.28714, "lat": 31.27491}}, {"id": 1788468, "name": "Xinzheng", "country": "CN", "coord": {"lon": 109.62355, "lat": 18.54298}}, {"id": 1788462, "name": "Xinzhi", "country": "CN", "coord": {"lon": 111.70472, "lat": 36.49889}}, {"id": 1788463, "name": "Xinzhi", "country": "CN", "coord": {"lon": 114.682388, "lat": 27.694559}}, {"id": 1788450, "name": "Xinzhou", "country": "CN", "coord": {"lon": 112.73333, "lat": 38.409168}}, {"id": 1788452, "name": "Xinzhou", "country": "CN", "coord": {"lon": 114.800003, "lat": 30.866671}}, {"id": 1788453, "name": "Xinzhou", "country": "CN", "coord": {"lon": 111.881348, "lat": 29.55522}}, {"id": 1788457, "name": "Xinzhou", "country": "CN", "coord": {"lon": 105.351173, "lat": 24.872339}}, {"id": 1788461, "name": "Xinzhou", "country": "CN", "coord": {"lon": 109.311462, "lat": 19.71446}}, {"id": 1788425, "name": "Xinzhu", "country": "CN", "coord": {"lon": 109.055428, "lat": 34.38488}}, {"id": 1913862, "name": "Xinzhu", "country": "CN", "coord": {"lon": 110.206497, "lat": 19.62158}}, {"id": 1898207, "name": "Xinzhuang", "country": "CN", "coord": {"lon": 120.692047, "lat": 31.535219}}, {"id": 1941693, "name": "Xinzhuang", "country": "CN", "coord": {"lon": 117.323891, "lat": 39.020279}}, {"id": 7048311, "name": "Xinzhuang", "country": "CN", "coord": {"lon": 109.671043, "lat": 34.55909}}, {"id": 7757099, "name": "Xinzhuang", "country": "CN", "coord": {"lon": 115.079689, "lat": 28.458611}}, {"id": 6359850, "name": "Xinzo de Limia", "country": "ES", "coord": {"lon": -7.70073, "lat": 42.018978}}, {"id": 3121404, "name": "Xinzo de Limia", "country": "ES", "coord": {"lon": -7.72459, "lat": 42.063499}}, {"id": 1908957, "name": "Xiongbei", "country": "CN", "coord": {"lon": 112.811798, "lat": 33.662479}}, {"id": 7372848, "name": "Xiongchi", "country": "CN", "coord": {"lon": 105.33033, "lat": 33.40575}}, {"id": 6824599, "name": "Xiongguan", "country": "CN", "coord": {"lon": 102.801193, "lat": 24.225451}}, {"id": 1788414, "name": "Xionghe", "country": "CN", "coord": {"lon": 112.443062, "lat": 30.08424}}, {"id": 1788416, "name": "Xiongji", "country": "CN", "coord": {"lon": 112.654716, "lat": 31.95639}}, {"id": 1788409, "name": "Xiongkou", "country": "CN", "coord": {"lon": 112.775269, "lat": 30.306459}}, {"id": 1788407, "name": "Xiongshan", "country": "CN", "coord": {"lon": 118.857109, "lat": 27.364389}}, {"id": 2033630, "name": "Xiongyue", "country": "CN", "coord": {"lon": 122.122841, "lat": 40.177368}}, {"id": 1788402, "name": "Xiongzhou", "country": "CN", "coord": {"lon": 114.300003, "lat": 25.116671}}, {"id": 2033628, "name": "Xiping", "country": "CN", "coord": {"lon": 113.604553, "lat": 40.03952}}, {"id": 1784969, "name": "Xiping", "country": "CN", "coord": {"lon": 103.79612, "lat": 25.597839}}, {"id": 2033627, "name": "Xipingpo", "country": "CN", "coord": {"lon": 120.171494, "lat": 40.448212}}, {"id": 1899334, "name": "Xipo", "country": "CN", "coord": {"lon": 106.430389, "lat": 33.847721}}, {"id": 7525339, "name": "Xiqiao", "country": "CN", "coord": {"lon": 120.182182, "lat": 32.225761}}, {"id": 1788375, "name": "Xiqin", "country": "CN", "coord": {"lon": 118.109932, "lat": 26.572069}}, {"id": 2038577, "name": "Xiqu", "country": "CN", "coord": {"lon": 101.598282, "lat": 26.605659}}, {"id": 1998312, "name": "Xiquan", "country": "CN", "coord": {"lon": 109.13858, "lat": 34.407539}}, {"id": 3444823, "name": "Xique Xique", "country": "BR", "coord": {"lon": -42.73111, "lat": -10.82167}}, {"id": 8054802, "name": "Xiritala", "country": "CN", "coord": {"lon": 116.070213, "lat": 43.938889}}, {"id": 6361975, "name": "Xirivella", "country": "ES", "coord": {"lon": -0.42787, "lat": 39.46608}}, {"id": 2519466, "name": "Xirivella", "country": "ES", "coord": {"lon": -0.42589, "lat": 39.465881}}, {"id": 733818, "name": "Xiropotamos", "country": "GR", "coord": {"lon": 24.1, "lat": 41.200001}}, {"id": 1788365, "name": "Xisa", "country": "CN", "coord": {"lon": 104.707748, "lat": 23.450001}}, {"id": 7401246, "name": "Xishan", "country": "CN", "coord": {"lon": 120.349739, "lat": 40.352959}}, {"id": 1788351, "name": "Xishan", "country": "CN", "coord": {"lon": 115.624786, "lat": 28.551661}}, {"id": 1788352, "name": "Xishan", "country": "CN", "coord": {"lon": 108.96389, "lat": 25.68528}}, {"id": 1917215, "name": "Xishan", "country": "CN", "coord": {"lon": 114.420837, "lat": 24.26963}}, {"id": 2033618, "name": "Xishanzui", "country": "CN", "coord": {"lon": 108.64389, "lat": 40.7075}}, {"id": 1927951, "name": "Xishaping", "country": "CN", "coord": {"lon": 109.528297, "lat": 29.14257}}, {"id": 1788330, "name": "Xishenba", "country": "CN", "coord": {"lon": 106.919907, "lat": 32.805119}}, {"id": 1788328, "name": "Xishiqiao", "country": "CN", "coord": {"lon": 120.088333, "lat": 31.868891}}, {"id": 1914700, "name": "Xishui", "country": "CN", "coord": {"lon": 109.559677, "lat": 19.21129}}, {"id": 1788316, "name": "Xishuijie", "country": "CN", "coord": {"lon": 112.233414, "lat": 39.663658}}, {"id": 2033614, "name": "Xisi", "country": "CN", "coord": {"lon": 122.449089, "lat": 40.966282}}, {"id": 1789376, "name": "Xitan", "country": "CN", "coord": {"lon": 105.741608, "lat": 35.883781}}, {"id": 1788297, "name": "Xitang", "country": "CN", "coord": {"lon": 120.887848, "lat": 30.94729}}, {"id": 1788298, "name": "Xitangqiao", "country": "CN", "coord": {"lon": 120.982857, "lat": 30.608681}}, {"id": 1788291, "name": "Xitangtuo", "country": "CN", "coord": {"lon": 117.479439, "lat": 39.31472}}, {"id": 7679668, "name": "Xitianmu", "country": "CN", "coord": {"lon": 119.472229, "lat": 30.26577}}, {"id": 1279690, "name": "Xitieshan", "country": "CN", "coord": {"lon": 95.51667, "lat": 37.283329}}, {"id": 1788286, "name": "Xiting", "country": "CN", "coord": {"lon": 121.003883, "lat": 32.12442}}, {"id": 1788280, "name": "Xitou", "country": "CN", "coord": {"lon": 118.467308, "lat": 30.01053}}, {"id": 1788282, "name": "Xitou", "country": "CN", "coord": {"lon": 118.079422, "lat": 29.454041}}, {"id": 2522700, "name": "Xitta", "country": "IT", "coord": {"lon": 12.55, "lat": 37.98333}}, {"id": 1788274, "name": "Xituan", "country": "CN", "coord": {"lon": 120.418289, "lat": 33.109539}}, {"id": 2038054, "name": "Xitumenzi", "country": "CN", "coord": {"lon": 131.072571, "lat": 43.195141}}, {"id": 1917213, "name": "Xiuduan", "country": "CN", "coord": {"lon": 114.850594, "lat": 24.26475}}, {"id": 1788269, "name": "Xiugu", "country": "CN", "coord": {"lon": 116.776367, "lat": 27.91132}}, {"id": 1788268, "name": "Xiulin", "country": "CN", "coord": {"lon": 112.400002, "lat": 29.716669}}, {"id": 1798091, "name": "Xiumei", "country": "CN", "coord": {"lon": 111.625862, "lat": 29.51391}}, {"id": 1788263, "name": "Xiushan", "country": "CN", "coord": {"lon": 102.761528, "lat": 24.109989}}, {"id": 1898581, "name": "Xiushan", "country": "CN", "coord": {"lon": 122.168892, "lat": 30.18944}}, {"id": 1788259, "name": "Xiushi", "country": "CN", "coord": {"lon": 115.926537, "lat": 28.00078}}, {"id": 1785565, "name": "Xiushui", "country": "CN", "coord": {"lon": 113.388649, "lat": 38.10379}}, {"id": 1917457, "name": "Xiushui", "country": "CN", "coord": {"lon": 112.998009, "lat": 25.17226}}, {"id": 2033602, "name": "Xiuyan", "country": "CN", "coord": {"lon": 123.274437, "lat": 40.292782}}, {"id": 6962690, "name": "Xiwai", "country": "CN", "coord": {"lon": 107.47525, "lat": 31.21682}}, {"id": 7048101, "name": "Xiwang", "country": "CN", "coord": {"lon": 109.05677, "lat": 34.287682}}, {"id": 7685374, "name": "Xiwang", "country": "CN", "coord": {"lon": 115.703323, "lat": 27.893789}}, {"id": 2033595, "name": "Xiwanzi", "country": "CN", "coord": {"lon": 115.272499, "lat": 40.97139}}, {"id": 1788237, "name": "Xiwei", "country": "CN", "coord": {"lon": 118.37426, "lat": 26.18981}}, {"id": 1788230, "name": "Xiwu", "country": "CN", "coord": {"lon": 108.566391, "lat": 34.297218}}, {"id": 1788231, "name": "Xiwu", "country": "CN", "coord": {"lon": 117.884567, "lat": 29.90626}}, {"id": 1788232, "name": "Xiwu", "country": "CN", "coord": {"lon": 121.483521, "lat": 29.68322}}, {"id": 1788224, "name": "Xixi", "country": "CN", "coord": {"lon": 110.965828, "lat": 27.69722}}, {"id": 1916320, "name": "Xixi", "country": "CN", "coord": {"lon": 116.158546, "lat": 22.988741}}, {"id": 1925363, "name": "Xixia", "country": "CN", "coord": {"lon": 115.843262, "lat": 28.858549}}, {"id": 1788206, "name": "Xixiang", "country": "CN", "coord": {"lon": 112.864998, "lat": 35.162781}}, {"id": 1788192, "name": "Xixing", "country": "CN", "coord": {"lon": 120.226692, "lat": 30.18911}}, {"id": 1788156, "name": "Xiyan", "country": "CN", "coord": {"lon": 110.47361, "lat": 26.61639}}, {"id": 1788170, "name": "Xiyang", "country": "CN", "coord": {"lon": 109.00853, "lat": 34.660332}}, {"id": 6824061, "name": "Xiyang", "country": "CN", "coord": {"lon": 102.290733, "lat": 24.463989}}, {"id": 1983231, "name": "Xiyangjiang", "country": "CN", "coord": {"lon": 110.828888, "lat": 27.190281}}, {"id": 7636880, "name": "Xiyuan", "country": "CN", "coord": {"lon": 116.423012, "lat": 29.21608}}, {"id": 7012545, "name": "Xizhahaqi", "country": "CN", "coord": {"lon": 122.886192, "lat": 42.676029}}, {"id": 1788123, "name": "Xizhai", "country": "CN", "coord": {"lon": 110.050003, "lat": 34.684761}}, {"id": 7343088, "name": "Xizhai", "country": "CN", "coord": {"lon": 103.80175, "lat": 34.49366}}, {"id": 1910248, "name": "Xizhangbao", "country": "CN", "coord": {"lon": 108.565559, "lat": 34.50528}}, {"id": 7372472, "name": "Xizhi", "country": "CN", "coord": {"lon": 105.3564, "lat": 33.076729}}, {"id": 1788102, "name": "Xizhou", "country": "CN", "coord": {"lon": 121.672783, "lat": 29.478889}}, {"id": 147774, "name": "Xocali", "country": "AZ", "coord": {"lon": 46.790279, "lat": 39.912971}}, {"id": 148449, "name": "Xocal\u0131 Rayonu", "country": "AZ", "coord": {"lon": 46.75, "lat": 39.833328}}, {"id": 409423, "name": "Xocav\u0259nd Rayonu", "country": "AZ", "coord": {"lon": 47, "lat": 39.666672}}, {"id": 3514454, "name": "Xochihuehuetlan", "country": "MX", "coord": {"lon": -98.433327, "lat": 17.91667}}, {"id": 3514450, "name": "Xochimilco", "country": "MX", "coord": {"lon": -99.107498, "lat": 19.26222}}, {"id": 3514440, "name": "Xochistlahuaca", "country": "MX", "coord": {"lon": -98.25, "lat": 16.783331}}, {"id": 3514437, "name": "Xochitepec", "country": "MX", "coord": {"lon": -99.23333, "lat": 18.783331}}, {"id": 3514433, "name": "Xochitlan", "country": "MX", "coord": {"lon": -97.783333, "lat": 18.700001}}, {"id": 3514424, "name": "Xocotla", "country": "MX", "coord": {"lon": -97.099998, "lat": 19.033331}}, {"id": 3817701, "name": "Xocotl\u00e1n", "country": "MX", "coord": {"lon": -98.849998, "lat": 19.525}}, {"id": 8059273, "name": "Xoixar", "country": "CN", "coord": {"lon": 91.903, "lat": 27.903}}, {"id": 829959, "name": "Xojayli Shahri", "country": "UZ", "coord": {"lon": 59.445438, "lat": 42.40881}}, {"id": 3514414, "name": "Xometla", "country": "MX", "coord": {"lon": -98.883331, "lat": 19.65}}, {"id": 3514409, "name": "Xonacatlan", "country": "MX", "coord": {"lon": -99.532501, "lat": 19.40222}}, {"id": 6445811, "name": "Xonrupt-Longemer", "country": "FR", "coord": {"lon": 6.91667, "lat": 48.083328}}, {"id": 2967263, "name": "Xonrupt-Longemer", "country": "FR", "coord": {"lon": 6.92944, "lat": 48.082241}}, {"id": 1484843, "name": "Xorazm Viloyati", "country": "UZ", "coord": {"lon": 60.5, "lat": 41.5}}, {"id": 6359186, "name": "Xove", "country": "ES", "coord": {"lon": -7.50398, "lat": 43.693748}}, {"id": 3120114, "name": "Xove", "country": "ES", "coord": {"lon": -7.5113, "lat": 43.686562}}, {"id": 3514398, "name": "Xoxocotla", "country": "MX", "coord": {"lon": -99.25, "lat": 18.683331}}, {"id": 1788068, "name": "Xuanbao", "country": "CN", "coord": {"lon": 119.997223, "lat": 32.291672}}, {"id": 1788082, "name": "Xuancheng", "country": "CN", "coord": {"lon": 116.384102, "lat": 25.4095}}, {"id": 1788075, "name": "Xuanfeng", "country": "CN", "coord": {"lon": 114.119881, "lat": 27.696239}}, {"id": 1921645, "name": "Xuanhe", "country": "CN", "coord": {"lon": 116.64093, "lat": 25.61047}}, {"id": 2033574, "name": "Xuanhua", "country": "CN", "coord": {"lon": 115.044724, "lat": 40.610279}}, {"id": 7517945, "name": "Xuanma", "country": "CN", "coord": {"lon": 107.891251, "lat": 36.07695}}, {"id": 1908871, "name": "Xuanqiao", "country": "CN", "coord": {"lon": 112.961952, "lat": 33.152649}}, {"id": 1788081, "name": "Xuanzhou", "country": "CN", "coord": {"lon": 118.75528, "lat": 30.952499}}, {"id": 1922347, "name": "Xubi", "country": "CN", "coord": {"lon": 117.632523, "lat": 26.279751}}, {"id": 1787943, "name": "Xubu", "country": "CN", "coord": {"lon": 116.315239, "lat": 29.464569}}, {"id": 2033570, "name": "Xubu", "country": "CN", "coord": {"lon": 113.744728, "lat": 40.02792}}, {"id": 1788046, "name": "Xuchang", "country": "CN", "coord": {"lon": 113.816673, "lat": 34.01667}}, {"id": 1787837, "name": "Xucheng", "country": "CN", "coord": {"lon": 110.128838, "lat": 20.35}}, {"id": 1787831, "name": "Xucheng", "country": "CN", "coord": {"lon": 118.488609, "lat": 33.011108}}, {"id": 1788040, "name": "Xucun", "country": "CN", "coord": {"lon": 120.364731, "lat": 30.43523}}, {"id": 1788042, "name": "Xucun", "country": "CN", "coord": {"lon": 117.555283, "lat": 29.183611}}, {"id": 584715, "name": "Xudat", "country": "AZ", "coord": {"lon": 48.681, "lat": 41.630959}}, {"id": 49747, "name": "Xuddur", "country": "SO", "coord": {"lon": 43.88945, "lat": 4.12129}}, {"id": 1548495, "name": "Xuean", "country": "CN", "coord": {"lon": 120.683327, "lat": 32.46389}}, {"id": 6957982, "name": "Xuebu", "country": "CN", "coord": {"lon": 119.394272, "lat": 31.707609}}, {"id": 1788020, "name": "Xuedian", "country": "CN", "coord": {"lon": 111.199333, "lat": 35.469971}}, {"id": 1788022, "name": "Xuedian", "country": "CN", "coord": {"lon": 113.087044, "lat": 34.011951}}, {"id": 1788016, "name": "Xuefeng", "country": "CN", "coord": {"lon": 117.197777, "lat": 26.35722}}, {"id": 1787994, "name": "Xuejiawa", "country": "CN", "coord": {"lon": 112.442451, "lat": 39.049751}}, {"id": 8051687, "name": "Xuejiawan", "country": "CN", "coord": {"lon": 111.220802, "lat": 39.866779}}, {"id": 1787990, "name": "Xuekulue", "country": "CN", "coord": {"lon": 112.796692, "lat": 39.407982}}, {"id": 1787989, "name": "Xuelu", "country": "CN", "coord": {"lon": 108.340523, "lat": 34.409611}}, {"id": 1813734, "name": "Xuetian", "country": "CN", "coord": {"lon": 120.561996, "lat": 29.00453}}, {"id": 1787976, "name": "Xuezhen", "country": "CN", "coord": {"lon": 109.296516, "lat": 34.95475}}, {"id": 1925367, "name": "Xufang", "country": "CN", "coord": {"lon": 116.218719, "lat": 27.65317}}, {"id": 1550003, "name": "Xufeng", "country": "CN", "coord": {"lon": 119.550003, "lat": 34.450001}}, {"id": 7064804, "name": "Xuguang", "country": "CN", "coord": {"lon": 117.424583, "lat": 28.26829}}, {"id": 1787960, "name": "Xuhang", "country": "CN", "coord": {"lon": 121.270653, "lat": 31.41293}}, {"id": 1787958, "name": "Xuhe", "country": "CN", "coord": {"lon": 120.650002, "lat": 32.73333}}, {"id": 1787957, "name": "Xuhui", "country": "CN", "coord": {"lon": 121.44709, "lat": 31.19594}}, {"id": 7413795, "name": "Xuhujia", "country": "CN", "coord": {"lon": 102.951729, "lat": 35.664421}}, {"id": 1787948, "name": "Xujia", "country": "CN", "coord": {"lon": 116.69046, "lat": 27.650049}}, {"id": 7063937, "name": "Xujia", "country": "CN", "coord": {"lon": 108.962502, "lat": 34.34}}, {"id": 7319365, "name": "Xujia Changzhuang", "country": "CN", "coord": {"lon": 121.07885, "lat": 32.432011}}, {"id": 1550222, "name": "Xujiaba", "country": "CN", "coord": {"lon": 108.113609, "lat": 27.88472}}, {"id": 1928020, "name": "Xujiafang", "country": "CN", "coord": {"lon": 110.654678, "lat": 29.24369}}, {"id": 7518374, "name": "Xujiahe", "country": "CN", "coord": {"lon": 107.593201, "lat": 36.343472}}, {"id": 1787925, "name": "Xujiang", "country": "CN", "coord": {"lon": 116.320107, "lat": 26.839439}}, {"id": 1787923, "name": "Xujiaping", "country": "CN", "coord": {"lon": 106.057632, "lat": 33.405449}}, {"id": 1928458, "name": "Xujiaqiao", "country": "CN", "coord": {"lon": 111.584763, "lat": 28.913651}}, {"id": 1787913, "name": "Xujing", "country": "CN", "coord": {"lon": 121.271217, "lat": 31.176121}}, {"id": 1787912, "name": "Xukou", "country": "CN", "coord": {"lon": 120.474136, "lat": 31.23044}}, {"id": 1916824, "name": "Xukou", "country": "CN", "coord": {"lon": 119.665283, "lat": 29.98727}}, {"id": 1553475, "name": "Xuling", "country": "CN", "coord": {"lon": 117.72406, "lat": 29.892349}}, {"id": 2000018, "name": "Xumu", "country": "CN", "coord": {"lon": 109.115601, "lat": 34.694141}}, {"id": 1787901, "name": "Xunchang", "country": "CN", "coord": {"lon": 104.714981, "lat": 28.45433}}, {"id": 1787899, "name": "Xundian", "country": "CN", "coord": {"lon": 113.633797, "lat": 31.16188}}, {"id": 6359854, "name": "Xunqueira de Amb\u00eda", "country": "ES", "coord": {"lon": -7.71949, "lat": 42.184731}}, {"id": 1921037, "name": "Xunzhong", "country": "CN", "coord": {"lon": 118.24366, "lat": 25.47805}}, {"id": 1806602, "name": "Xushan", "country": "CN", "coord": {"lon": 121.245697, "lat": 30.176399}}, {"id": 1925368, "name": "Xushangqiao", "country": "CN", "coord": {"lon": 116.546387, "lat": 28.22879}}, {"id": 1787856, "name": "Xushi", "country": "CN", "coord": {"lon": 118.089203, "lat": 27.22781}}, {"id": 1787854, "name": "Xushuguan", "country": "CN", "coord": {"lon": 120.497223, "lat": 31.38028}}, {"id": 2033548, "name": "Xutun", "country": "CN", "coord": {"lon": 122.38858, "lat": 40.3438}}, {"id": 2033557, "name": "Xutun", "country": "CN", "coord": {"lon": 122.077187, "lat": 40.037739}}, {"id": 1787838, "name": "Xuwei", "country": "CN", "coord": {"lon": 119.538033, "lat": 34.525982}}, {"id": 1787833, "name": "Xuyang", "country": "CN", "coord": {"lon": 109.143532, "lat": 34.618301}}, {"id": 1787834, "name": "Xuyang", "country": "CN", "coord": {"lon": 104.419472, "lat": 29.45941}}, {"id": 1787828, "name": "Xuyong", "country": "CN", "coord": {"lon": 105.434517, "lat": 28.16992}}, {"id": 7067319, "name": "Xuzhen", "country": "CN", "coord": {"lon": 118.406807, "lat": 31.06394}}, {"id": 1787821, "name": "Xuzhuang", "country": "CN", "coord": {"lon": 109.940468, "lat": 34.864552}}, {"id": 251525, "name": "Xylokastron", "country": "GR", "coord": {"lon": 22.63166, "lat": 38.077621}}, {"id": 145971, "name": "Xylotymbou", "country": "GB", "coord": {"lon": 33.74057, "lat": 35.0191}}, {"id": 6362010, "name": "X\u00e0tiva", "country": "ES", "coord": {"lon": -0.54095, "lat": 39.000809}}, {"id": 1561096, "name": "X\u00f3m Pho", "country": "VN", "coord": {"lon": 105.849998, "lat": 21.033331}}, {"id": 1560678, "name": "X\u00f3m Y\u00e2n L\u1ea1c H\u00e2u", "country": "VN", "coord": {"lon": 105.666672, "lat": 18.73333}}, {"id": 7263043, "name": "Y", "country": "US", "coord": {"lon": -149.850754, "lat": 62.161289}}, {"id": 2142722, "name": "Yaamba", "country": "AU", "coord": {"lon": 150.366669, "lat": -23.133329}}, {"id": 281318, "name": "Yabad", "country": "PS", "coord": {"lon": 35.168221, "lat": 32.44566}}, {"id": 1787813, "name": "Yabai", "country": "CN", "coord": {"lon": 108.086617, "lat": 34.17939}}, {"id": 2110584, "name": "Yabase", "country": "JP", "coord": {"lon": 140.100006, "lat": 39.716671}}, {"id": 2221046, "name": "Yabassi", "country": "CM", "coord": {"lon": 9.96822, "lat": 4.45697}}, {"id": 2142715, "name": "Yabba North", "country": "AU", "coord": {"lon": 145.683334, "lat": -36.216671}}, {"id": 469900, "name": "Yabedino", "country": "RU", "coord": {"lon": 36.790489, "lat": 55.90477}}, {"id": 326036, "name": "Yabelo", "country": "ET", "coord": {"lon": 38.083328, "lat": 4.88333}}, {"id": 725611, "name": "Yablanitsa", "country": "BG", "coord": {"lon": 24.11278, "lat": 43.031391}}, {"id": 2119640, "name": "Yablochnyy", "country": "RU", "coord": {"lon": 142.066116, "lat": 47.166111}}, {"id": 469864, "name": "Yablono-Bukin", "country": "RU", "coord": {"lon": 50.033333, "lat": 51.666668}}, {"id": 469856, "name": "Yablonovka", "country": "RU", "coord": {"lon": 30.454445, "lat": 59.93222}}, {"id": 469844, "name": "Yablonovskiy", "country": "RU", "coord": {"lon": 38.943241, "lat": 44.98901}}, {"id": 839718, "name": "Yablonskiy", "country": "RU", "coord": {"lon": 39.656387, "lat": 44.148609}}, {"id": 688628, "name": "Yablon\u2019ki", "country": "UA", "coord": {"lon": 30.216669, "lat": 50.549999}}, {"id": 688625, "name": "Yabluniv", "country": "UA", "coord": {"lon": 24.93874, "lat": 48.404179}}, {"id": 688637, "name": "Yablunytsya", "country": "UA", "coord": {"lon": 24.48448, "lat": 48.317421}}, {"id": 162627, "name": "Yabrud", "country": "SY", "coord": {"lon": 36.65741, "lat": 33.967361}}, {"id": 1848852, "name": "Yabu", "country": "JP", "coord": {"lon": 134.816666, "lat": 35.383331}}, {"id": 4568908, "name": "Yabucoa", "country": "PR", "coord": {"lon": -65.879333, "lat": 18.05052}}, {"id": 4568909, "name": "Yabucoa Municipio", "country": "PR", "coord": {"lon": -65.887108, "lat": 18.073021}}, {"id": 1848848, "name": "Yabuhana", "country": "JP", "coord": {"lon": 139.467224, "lat": 35.408329}}, {"id": 2110583, "name": "Yabuki", "country": "JP", "coord": {"lon": 140.316666, "lat": 37.200001}}, {"id": 1848841, "name": "Yabutani", "country": "JP", "coord": {"lon": 134.466675, "lat": 34.799999}}, {"id": 1787808, "name": "Yacha", "country": "CN", "coord": {"lon": 109.447502, "lat": 19.23056}}, {"id": 1787805, "name": "Yacheng", "country": "CN", "coord": {"lon": 120.188347, "lat": 26.988291}}, {"id": 1787806, "name": "Yacheng", "country": "CN", "coord": {"lon": 109.164742, "lat": 18.37595}}, {"id": 3827252, "name": "Yachihuacaltepec", "country": "MX", "coord": {"lon": -99.679443, "lat": 19.324169}}, {"id": 2110579, "name": "Yachimata", "country": "JP", "coord": {"lon": 140.316666, "lat": 35.650002}}, {"id": 808182, "name": "Yachnevo", "country": "RU", "coord": {"lon": 36.579399, "lat": 50.637508}}, {"id": 1832973, "name": "Yach\u2019on", "country": "KR", "coord": {"lon": 126.815826, "lat": 35.13028}}, {"id": 3832376, "name": "Yacimiento Rio Turbio", "country": "AR", "coord": {"lon": -72.3508, "lat": -51.573212}}, {"id": 2142707, "name": "Yackandandah", "country": "AU", "coord": {"lon": 146.866669, "lat": -36.333328}}, {"id": 5816582, "name": "Yacolt", "country": "US", "coord": {"lon": -122.406212, "lat": 45.865952}}, {"id": 3665813, "name": "Yacopi", "country": "CO", "coord": {"lon": -74.338226, "lat": 5.45948}}, {"id": 3665811, "name": "Yacuanquer", "country": "CO", "coord": {"lon": -77.401688, "lat": 1.11577}}, {"id": 3901178, "name": "Yacuiba", "country": "BO", "coord": {"lon": -63.67968, "lat": -22.037991}}, {"id": 293260, "name": "Yad H\u0331anna", "country": "IL", "coord": {"lon": 35, "lat": 32.316669}}, {"id": 1252822, "name": "Yadgir", "country": "IN", "coord": {"lon": 77.133331, "lat": 16.76667}}, {"id": 4500154, "name": "Yadkinville", "country": "US", "coord": {"lon": -80.659508, "lat": 36.134579}}, {"id": 826716, "name": "Yadrikha", "country": "RU", "coord": {"lon": 46.522499, "lat": 61.202778}}, {"id": 469809, "name": "Yadrin", "country": "RU", "coord": {"lon": 46.206219, "lat": 55.940521}}, {"id": 1787794, "name": "Yaerya", "country": "CN", "coord": {"lon": 112.993088, "lat": 39.968761}}, {"id": 293253, "name": "Yafo", "country": "IL", "coord": {"lon": 34.752239, "lat": 32.05043}}, {"id": 2208791, "name": "Yafran", "country": "LY", "coord": {"lon": 12.52859, "lat": 32.06329}}, {"id": 1486551, "name": "Yaga", "country": "RU", "coord": {"lon": 90.263062, "lat": 55.501671}}, {"id": 7413340, "name": "Yaga", "country": "CN", "coord": {"lon": 102.276543, "lat": 35.76556}}, {"id": 2013198, "name": "Yagdag", "country": "RU", "coord": {"lon": 111.066673, "lat": 54.849998}}, {"id": 738123, "name": "Yaglidere", "country": "TR", "coord": {"lon": 38.624439, "lat": 40.860001}}, {"id": 738124, "name": "Yaglidere", "country": "TR", "coord": {"lon": 39.53167, "lat": 40.54501}}, {"id": 3979983, "name": "Yago", "country": "MX", "coord": {"lon": -105.066673, "lat": 21.83333}}, {"id": 725594, "name": "Yagodina", "country": "BG", "coord": {"lon": 24.35, "lat": 41.633331}}, {"id": 469753, "name": "Yagodnaya", "country": "RU", "coord": {"lon": 49.049999, "lat": 55.816666}}, {"id": 2119626, "name": "Yagodnoye", "country": "RU", "coord": {"lon": 149.666672, "lat": 62.549999}}, {"id": 2119625, "name": "Yagodnoye", "country": "RU", "coord": {"lon": 170.399994, "lat": 64.650002}}, {"id": 2013191, "name": "Yagodnyy", "country": "RU", "coord": {"lon": 113.5, "lat": 52.083328}}, {"id": 2033541, "name": "Yagou", "country": "CN", "coord": {"lon": 127.078911, "lat": 45.48061}}, {"id": 2221030, "name": "Yagoua", "country": "CM", "coord": {"lon": 15.23288, "lat": 10.34107}}, {"id": 3650121, "name": "Yaguachi", "country": "EC", "coord": {"lon": -79.683327, "lat": -2.11667}}, {"id": 3600271, "name": "Yaguacire", "country": "HN", "coord": {"lon": -87.216667, "lat": 14.01667}}, {"id": 3533826, "name": "Yaguajay", "country": "CU", "coord": {"lon": -79.237778, "lat": 22.327221}}, {"id": 3665803, "name": "Yaguara", "country": "CO", "coord": {"lon": -75.517532, "lat": 2.66355}}, {"id": 3625239, "name": "Yaguaraparo", "country": "VE", "coord": {"lon": -62.826931, "lat": 10.56916}}, {"id": 3436674, "name": "Yaguaron", "country": "PY", "coord": {"lon": -57.299999, "lat": -25.6}}, {"id": 3491807, "name": "Yaguate", "country": "DO", "coord": {"lon": -70.181129, "lat": 18.3353}}, {"id": 3491805, "name": "Yaguate Arriba", "country": "DO", "coord": {"lon": -70.191551, "lat": 18.33732}}, {"id": 1486525, "name": "Yagunovskiy", "country": "RU", "coord": {"lon": 85.977997, "lat": 55.282799}}, {"id": 1604979, "name": "Yaha", "country": "TH", "coord": {"lon": 101.132004, "lat": 6.4797}}, {"id": 1285941, "name": "Yahaungwa", "country": "MM", "coord": {"lon": 98.150002, "lat": 14.05}}, {"id": 2033540, "name": "Yahe", "country": "CN", "coord": {"lon": 123.276947, "lat": 40.227852}}, {"id": 688602, "name": "Yahilnytsya", "country": "UA", "coord": {"lon": 25.74374, "lat": 48.942478}}, {"id": 6185078, "name": "Yahk", "country": "CA", "coord": {"lon": -116.085388, "lat": 49.083199}}, {"id": 688587, "name": "Yahotyn", "country": "UA", "coord": {"lon": 31.762461, "lat": 50.279751}}, {"id": 297925, "name": "Yahsihan", "country": "TR", "coord": {"lon": 33.452942, "lat": 39.850281}}, {"id": 3979982, "name": "Yahualica", "country": "MX", "coord": {"lon": -102.849998, "lat": 21.133329}}, {"id": 1121418, "name": "Yahya Khel", "country": "AF", "coord": {"lon": 68.646217, "lat": 32.93742}}, {"id": 297917, "name": "Yahyali", "country": "TR", "coord": {"lon": 35.35704, "lat": 38.10228}}, {"id": 6443589, "name": "Yainville", "country": "FR", "coord": {"lon": 0.83333, "lat": 49.450001}}, {"id": 2967256, "name": "Yainville", "country": "FR", "coord": {"lon": 0.8292, "lat": 49.453709}}, {"id": 1252810, "name": "Yairipok", "country": "IN", "coord": {"lon": 94.066673, "lat": 24.66667}}, {"id": 1848776, "name": "Yaita", "country": "JP", "coord": {"lon": 139.933334, "lat": 36.799999}}, {"id": 469678, "name": "Yaitskiy", "country": "RU", "coord": {"lon": 50.183331, "lat": 53.099998}}, {"id": 6360204, "name": "Yaiza", "country": "ES", "coord": {"lon": -13.76312, "lat": 28.963289}}, {"id": 2509408, "name": "Yaiza", "country": "ES", "coord": {"lon": -13.76535, "lat": 28.956779}}, {"id": 1848774, "name": "Yaizu", "country": "JP", "coord": {"lon": 138.333328, "lat": 34.866669}}, {"id": 3514349, "name": "Yajalon", "country": "MX", "coord": {"lon": -92.333328, "lat": 17.23333}}, {"id": 1814514, "name": "Yajin", "country": "CN", "coord": {"lon": 116.794327, "lat": 25.126011}}, {"id": 2318480, "name": "Yajiwa", "country": "NG", "coord": {"lon": 12.7236, "lat": 11.38385}}, {"id": 1848764, "name": "Yakage", "country": "JP", "coord": {"lon": 133.583328, "lat": 34.616669}}, {"id": 738085, "name": "Yakakent", "country": "TR", "coord": {"lon": 35.528889, "lat": 41.6325}}, {"id": 1898186, "name": "Yakataishi", "country": "JP", "coord": {"lon": 129.925003, "lat": 33.521671}}, {"id": 2033536, "name": "Yakeshi", "country": "CN", "coord": {"lon": 120.73333, "lat": 49.283329}}, {"id": 469671, "name": "Yakhino", "country": "RU", "coord": {"lon": 31.89249, "lat": 56.460629}}, {"id": 469655, "name": "Yakhroma", "country": "RU", "coord": {"lon": 37.48333, "lat": 56.299999}}, {"id": 5816605, "name": "Yakima", "country": "US", "coord": {"lon": -120.505898, "lat": 46.60207}}, {"id": 5816597, "name": "Yakima County", "country": "US", "coord": {"lon": -120.667847, "lat": 46.466511}}, {"id": 469646, "name": "Yakimanskaya Sloboda", "country": "RU", "coord": {"lon": 42.049999, "lat": 55.583332}}, {"id": 469635, "name": "Yakimovo", "country": "RU", "coord": {"lon": 38.366669, "lat": 56.016666}}, {"id": 469633, "name": "Yakimovo", "country": "RU", "coord": {"lon": 43.643333, "lat": 57.849167}}, {"id": 725588, "name": "Yakimovo", "country": "BG", "coord": {"lon": 23.367781, "lat": 43.643059}}, {"id": 1346492, "name": "Yakkabog Shahri", "country": "UZ", "coord": {"lon": 66.688667, "lat": 38.976639}}, {"id": 2353688, "name": "Yako", "country": "BF", "coord": {"lon": -2.26667, "lat": 12.96667}}, {"id": 823631, "name": "Yakornaya Shchel'", "country": "RU", "coord": {"lon": 39.565834, "lat": 43.810555}}, {"id": 725586, "name": "Yakoruda", "country": "BG", "coord": {"lon": 23.68417, "lat": 42.02528}}, {"id": 1787781, "name": "Yakou", "country": "CN", "coord": {"lon": 118.637222, "lat": 24.67194}}, {"id": 1791271, "name": "Yakou", "country": "CN", "coord": {"lon": 113.523514, "lat": 33.29649}}, {"id": 2475039, "name": "Yakouren", "country": "DZ", "coord": {"lon": 4.43646, "lat": 36.730541}}, {"id": 725584, "name": "Yakovitsa", "country": "BG", "coord": {"lon": 25.299999, "lat": 41.283329}}, {"id": 469602, "name": "Yakovka", "country": "RU", "coord": {"lon": 35.846939, "lat": 52.8325}}, {"id": 2013176, "name": "Yakovlevka", "country": "RU", "coord": {"lon": 133.477219, "lat": 44.424999}}, {"id": 469544, "name": "Yakovlevo", "country": "RU", "coord": {"lon": 29.488001, "lat": 60.29409}}, {"id": 469577, "name": "Yakovlevo", "country": "RU", "coord": {"lon": 36.447842, "lat": 50.860329}}, {"id": 6418007, "name": "Yakovlevo", "country": "RU", "coord": {"lon": 37.455276, "lat": 55.963333}}, {"id": 469550, "name": "Yakovlevo", "country": "RU", "coord": {"lon": 40.866669, "lat": 56.799999}}, {"id": 469542, "name": "Yakovlevskaya", "country": "RU", "coord": {"lon": 38.786388, "lat": 55.574165}}, {"id": 817965, "name": "Yakovlevskiy", "country": "RU", "coord": {"lon": 37.39854, "lat": 54.782639}}, {"id": 469533, "name": "Yakovlevskoye", "country": "RU", "coord": {"lon": 37.950558, "lat": 55.441944}}, {"id": 469512, "name": "Yaksatovo", "country": "RU", "coord": {"lon": 48.015141, "lat": 46.24342}}, {"id": 469473, "name": "Yakshur", "country": "RU", "coord": {"lon": 53.435879, "lat": 56.887699}}, {"id": 6185108, "name": "Yaku", "country": "CA", "coord": {"lon": -133.019974, "lat": 54.18269}}, {"id": 619762, "name": "Yakubovka", "country": "BY", "coord": {"lon": 31.029301, "lat": 52.416698}}, {"id": 1848739, "name": "Yakuin-Horibata", "country": "JP", "coord": {"lon": 130.399994, "lat": 33.583328}}, {"id": 2127478, "name": "Yakumo", "country": "JP", "coord": {"lon": 140.269165, "lat": 42.253891}}, {"id": 738064, "name": "Yakuplu", "country": "TR", "coord": {"lon": 28.675819, "lat": 40.988941}}, {"id": 5558615, "name": "Yakutat", "country": "US", "coord": {"lon": -139.727219, "lat": 59.54694}}, {"id": 5558618, "name": "Yakutat City and Borough", "country": "US", "coord": {"lon": -139.133331, "lat": 59.666672}}, {"id": 2013159, "name": "Yakutsk", "country": "RU", "coord": {"lon": 129.733063, "lat": 62.03389}}, {"id": 713743, "name": "Yakymivka", "country": "UA", "coord": {"lon": 35.15361, "lat": 46.68972}}, {"id": 1604870, "name": "Yala", "country": "TH", "coord": {"lon": 101.281281, "lat": 6.53995}}, {"id": 178040, "name": "Yala", "country": "KE", "coord": {"lon": 34.537571, "lat": 0.09906}}, {"id": 3615669, "name": "Yalaguina", "country": "NI", "coord": {"lon": -86.492973, "lat": 13.48375}}, {"id": 4178817, "name": "Yalaha", "country": "US", "coord": {"lon": -81.808693, "lat": 28.7386}}, {"id": 738055, "name": "Yalakdere", "country": "TR", "coord": {"lon": 29.56389, "lat": 40.604721}}, {"id": 2142686, "name": "Yalca", "country": "AU", "coord": {"lon": 145.316666, "lat": -35.98333}}, {"id": 6185120, "name": "Yale", "country": "CA", "coord": {"lon": -121.435852, "lat": 49.566399}}, {"id": 4556110, "name": "Yale", "country": "US", "coord": {"lon": -96.699188, "lat": 36.114231}}, {"id": 5015627, "name": "Yale", "country": "US", "coord": {"lon": -82.798264, "lat": 43.130032}}, {"id": 7839858, "name": "Yalgoo", "country": "AU", "coord": {"lon": 117.15818, "lat": -28.487869}}, {"id": 2057633, "name": "Yalgoo", "country": "AU", "coord": {"lon": 116.683327, "lat": -28.33333}}, {"id": 3665792, "name": "Yali", "country": "CO", "coord": {"lon": -74.834297, "lat": 6.67456}}, {"id": 297839, "name": "Yalihuyuk", "country": "TR", "coord": {"lon": 32.08548, "lat": 37.30077}}, {"id": 236052, "name": "Yalinga", "country": "CF", "coord": {"lon": 23.265829, "lat": 6.50133}}, {"id": 439099, "name": "Yalintas", "country": "TR", "coord": {"lon": 39.39389, "lat": 36.735828}}, {"id": 619616, "name": "Yalizava", "country": "BY", "coord": {"lon": 29.00543, "lat": 53.398109}}, {"id": 469372, "name": "Yalkhoy-Mokhk", "country": "RU", "coord": {"lon": 46.190449, "lat": 43.105282}}, {"id": 3487963, "name": "Yallahs", "country": "JM", "coord": {"lon": -76.562447, "lat": 17.8748}}, {"id": 2057614, "name": "Yallingup", "country": "AU", "coord": {"lon": 115.033333, "lat": -33.650002}}, {"id": 2142658, "name": "Yallourn", "country": "AU", "coord": {"lon": 146.333328, "lat": -38.183331}}, {"id": 862469, "name": "Yalova", "country": "TR", "coord": {"lon": 29.16667, "lat": 40.583328}}, {"id": 738025, "name": "Yalova", "country": "TR", "coord": {"lon": 29.27693, "lat": 40.655022}}, {"id": 6198157, "name": "Yalpay", "country": "RU", "coord": {"lon": 47.899166, "lat": 56.176388}}, {"id": 688532, "name": "Yalta", "country": "UA", "coord": {"lon": 37.273651, "lat": 46.962791}}, {"id": 688533, "name": "Yalta", "country": "UA", "coord": {"lon": 34.166668, "lat": 44.5}}, {"id": 1810777, "name": "Yaluhu", "country": "CN", "coord": {"lon": 102.328979, "lat": 35.890961}}, {"id": 7678180, "name": "Yalukou", "country": "CN", "coord": {"lon": 119.014763, "lat": 30.661551}}, {"id": 1486468, "name": "Yalutorovsk", "country": "RU", "coord": {"lon": 66.300583, "lat": 56.65358}}, {"id": 297789, "name": "Yalvac", "country": "TR", "coord": {"lon": 31.17778, "lat": 38.295559}}, {"id": 2142653, "name": "Yalwal", "country": "AU", "coord": {"lon": 150.399994, "lat": -34.933331}}, {"id": 469396, "name": "Yal\u2019chiki", "country": "RU", "coord": {"lon": 48.0014, "lat": 55.163151}}, {"id": 469341, "name": "Yam", "country": "RU", "coord": {"lon": 37.749168, "lat": 55.484444}}, {"id": 436399, "name": "Yamacalti", "country": "TR", "coord": {"lon": 38.942219, "lat": 36.97139}}, {"id": 6185138, "name": "Yamachiche", "country": "CA", "coord": {"lon": -72.832428, "lat": 46.266762}}, {"id": 2110560, "name": "Yamada", "country": "JP", "coord": {"lon": 141.949997, "lat": 39.466671}}, {"id": 1848706, "name": "Yamae", "country": "JP", "coord": {"lon": 130.566666, "lat": 33.466671}}, {"id": 1848705, "name": "Yamaga", "country": "JP", "coord": {"lon": 130.683334, "lat": 33.01667}}, {"id": 2110554, "name": "Yamagata-ken", "country": "JP", "coord": {"lon": 140.099701, "lat": 38.450298}}, {"id": 2110556, "name": "Yamagata-shi", "country": "JP", "coord": {"lon": 140.363327, "lat": 38.240559}}, {"id": 1848681, "name": "Yamaguchi-ken", "country": "JP", "coord": {"lon": 131.570465, "lat": 34.206081}}, {"id": 1848689, "name": "Yamaguchi-shi", "country": "JP", "coord": {"lon": 131.47139, "lat": 34.185829}}, {"id": 1848667, "name": "Yamakita", "country": "JP", "coord": {"lon": 139.073334, "lat": 35.35667}}, {"id": 1486462, "name": "Yamalo-Nenetskiy Avtonomnyy Okrug", "country": "RU", "coord": {"lon": 76, "lat": 66}}, {"id": 1848649, "name": "Yamanashi-ken", "country": "JP", "coord": {"lon": 138.608002, "lat": 35.61602}}, {"id": 2114134, "name": "Yamanobe", "country": "JP", "coord": {"lon": 140.266663, "lat": 38.291111}}, {"id": 7932668, "name": "Yamanto", "country": "AU", "coord": {"lon": 152.738632, "lat": -27.660271}}, {"id": 3600254, "name": "Yamaranguila", "country": "HN", "coord": {"lon": -88.25, "lat": 14.28333}}, {"id": 3491796, "name": "Yamasa", "country": "DO", "coord": {"lon": -70.025078, "lat": 18.77014}}, {"id": 1848633, "name": "Yamasaki", "country": "JP", "coord": {"lon": 134.550003, "lat": 35}}, {"id": 6185140, "name": "Yamaska", "country": "CA", "coord": {"lon": -72.915802, "lat": 46.000061}}, {"id": 1848612, "name": "Yamata", "country": "JP", "coord": {"lon": 139.816666, "lat": 36.150002}}, {"id": 1848593, "name": "Yamato-Takada", "country": "JP", "coord": {"lon": 135.75, "lat": 34.51667}}, {"id": 1848598, "name": "Yamato-minami", "country": "JP", "coord": {"lon": 139.456116, "lat": 35.46722}}, {"id": 363656, "name": "Yambio", "country": "SS", "coord": {"lon": 28.395491, "lat": 4.57213}}, {"id": 725578, "name": "Yambol", "country": "BG", "coord": {"lon": 26.5, "lat": 42.48333}}, {"id": 2142637, "name": "Yambuk", "country": "AU", "coord": {"lon": 142.065063, "lat": -38.315571}}, {"id": 2142634, "name": "Yambuna", "country": "AU", "coord": {"lon": 145.033325, "lat": -36.150002}}, {"id": 1787768, "name": "Yamenkou", "country": "CN", "coord": {"lon": 116.200279, "lat": 39.882778}}, {"id": 1285899, "name": "Yamethin", "country": "MM", "coord": {"lon": 96.150002, "lat": 20.433331}}, {"id": 5761959, "name": "Yamhill", "country": "US", "coord": {"lon": -123.187332, "lat": 45.341499}}, {"id": 5761960, "name": "Yamhill County", "country": "US", "coord": {"lon": -123.301224, "lat": 45.216499}}, {"id": 469275, "name": "Yamkino", "country": "RU", "coord": {"lon": 38.403889, "lat": 55.928055}}, {"id": 469274, "name": "Yamkino", "country": "RU", "coord": {"lon": 29.30879, "lat": 57.904831}}, {"id": 469252, "name": "Yamnovo", "country": "RU", "coord": {"lon": 44.552776, "lat": 56.248333}}, {"id": 688512, "name": "Yamnytsya", "country": "UA", "coord": {"lon": 24.7075, "lat": 48.989719}}, {"id": 2110541, "name": "Yamoto", "country": "JP", "coord": {"lon": 141.214874, "lat": 38.42738}}, {"id": 2279755, "name": "Yamoussoukro", "country": "CI", "coord": {"lon": -5.27674, "lat": 6.82055}}, {"id": 3901147, "name": "Yamparaez", "country": "BO", "coord": {"lon": -65.125832, "lat": -19.18722}}, {"id": 6621221, "name": "Yampar\u00e1ez", "country": "BO", "coord": {"lon": -65.077713, "lat": -19.251459}}, {"id": 688501, "name": "Yampil", "country": "UA", "coord": {"lon": 33.783333, "lat": 51.950001}}, {"id": 2318399, "name": "Yamrat", "country": "NG", "coord": {"lon": 9.82604, "lat": 10.11161}}, {"id": 1252797, "name": "Yamunanagar", "country": "IN", "coord": {"lon": 77.283333, "lat": 30.1}}, {"id": 1604792, "name": "Yan Nawa", "country": "TH", "coord": {"lon": 100.542122, "lat": 13.69634}}, {"id": 1149757, "name": "Yan Ta Khao", "country": "TH", "coord": {"lon": 99.666924, "lat": 7.38622}}, {"id": 2116271, "name": "Yana", "country": "RU", "coord": {"lon": 149.386932, "lat": 59.738331}}, {"id": 2142624, "name": "Yanac", "country": "AU", "coord": {"lon": 141.433334, "lat": -36.133331}}, {"id": 3925863, "name": "Yanacancha", "country": "PE", "coord": {"lon": -76.645561, "lat": -10.24111}}, {"id": 3650095, "name": "Yanacocha", "country": "EC", "coord": {"lon": -79.216667, "lat": -3.98333}}, {"id": 1848575, "name": "Yanada", "country": "JP", "coord": {"lon": 139.483337, "lat": 36.299999}}, {"id": 2110538, "name": "Yanagawa", "country": "JP", "coord": {"lon": 140.600006, "lat": 37.849998}}, {"id": 1848573, "name": "Yanagawa", "country": "JP", "coord": {"lon": 130.399994, "lat": 33.166672}}, {"id": 3925809, "name": "Yanahuanca", "country": "PE", "coord": {"lon": -76.498611, "lat": -10.51667}}, {"id": 1848550, "name": "Yanai", "country": "JP", "coord": {"lon": 132.116669, "lat": 33.966671}}, {"id": 1252795, "name": "Yanam", "country": "IN", "coord": {"lon": 82.216667, "lat": 16.73333}}, {"id": 7302853, "name": "Yanamalakuduru", "country": "IN", "coord": {"lon": 80.667458, "lat": 16.48531}}, {"id": 3925749, "name": "Yanaoca", "country": "PE", "coord": {"lon": -71.431671, "lat": -14.21806}}, {"id": 469178, "name": "Yanaul", "country": "RU", "coord": {"lon": 54.930859, "lat": 56.2719}}, {"id": 469181, "name": "Yanaul", "country": "RU", "coord": {"lon": 53.683331, "lat": 55.75}}, {"id": 1927962, "name": "Yanbanpu", "country": "CN", "coord": {"lon": 109.832733, "lat": 29.091459}}, {"id": 1920412, "name": "Yanbei", "country": "CN", "coord": {"lon": 112.822472, "lat": 24.27392}}, {"id": 1925370, "name": "Yanbei", "country": "CN", "coord": {"lon": 115.532341, "lat": 27.36974}}, {"id": 1787758, "name": "Yanbodu", "country": "CN", "coord": {"lon": 110.96814, "lat": 29.37467}}, {"id": 100425, "name": "Yanbu al Bahr", "country": "SA", "coord": {"lon": 38.06374, "lat": 24.089121}}, {"id": 1898634, "name": "Yancang", "country": "CN", "coord": {"lon": 122.056938, "lat": 30.0329}}, {"id": 4500160, "name": "Yancey County", "country": "US", "coord": {"lon": -82.29985, "lat": 35.900108}}, {"id": 4500166, "name": "Yanceyville", "country": "US", "coord": {"lon": -79.336128, "lat": 36.40403}}, {"id": 706967, "name": "Yanchekrak", "country": "UA", "coord": {"lon": 35.360279, "lat": 47.536388}}, {"id": 1787746, "name": "Yancheng", "country": "CN", "coord": {"lon": 120.125282, "lat": 33.385559}}, {"id": 1790852, "name": "Yancheng", "country": "CN", "coord": {"lon": 111.869278, "lat": 38.915379}}, {"id": 1805560, "name": "Yancheng", "country": "CN", "coord": {"lon": 104.06723, "lat": 29.650681}}, {"id": 1806483, "name": "Yancheng", "country": "CN", "coord": {"lon": 103.566788, "lat": 29.74357}}, {"id": 2057575, "name": "Yanchep", "country": "AU", "coord": {"lon": 115.683327, "lat": -31.549999}}, {"id": 1927972, "name": "Yanchi", "country": "CN", "coord": {"lon": 110.929878, "lat": 29.799219}}, {"id": 2142612, "name": "Yanco", "country": "AU", "coord": {"lon": 146.399994, "lat": -34.599998}}, {"id": 2001855, "name": "Yancun", "country": "CN", "coord": {"lon": 109.494957, "lat": 34.418968}}, {"id": 2318383, "name": "Yanda Bayo", "country": "NG", "coord": {"lon": 10.7459, "lat": 11.5071}}, {"id": 2142602, "name": "Yandaran", "country": "AU", "coord": {"lon": 152.116669, "lat": -24.716669}}, {"id": 2142598, "name": "Yanderra", "country": "AU", "coord": {"lon": 150.566666, "lat": -34.333328}}, {"id": 2318374, "name": "Yandev", "country": "NG", "coord": {"lon": 9.05, "lat": 7.36667}}, {"id": 7653967, "name": "Yandian", "country": "CN", "coord": {"lon": 113.566521, "lat": 31.335171}}, {"id": 2142596, "name": "Yandilla", "country": "AU", "coord": {"lon": 151.366669, "lat": -27.85}}, {"id": 2142595, "name": "Yandina", "country": "AU", "coord": {"lon": 152.966675, "lat": -26.566669}}, {"id": 2142592, "name": "Yandoit", "country": "AU", "coord": {"lon": 144.100006, "lat": -37.200001}}, {"id": 1552321, "name": "Yandun", "country": "CN", "coord": {"lon": 118.15757, "lat": 30.721741}}, {"id": 1279592, "name": "Yanduo", "country": "CN", "coord": {"lon": 97.683327, "lat": 30.65}}, {"id": 469151, "name": "Yandyki", "country": "RU", "coord": {"lon": 47.125771, "lat": 45.769131}}, {"id": 7643683, "name": "Yanfang", "country": "CN", "coord": {"lon": 115.70076, "lat": 29.22369}}, {"id": 1913971, "name": "Yanfeng", "country": "CN", "coord": {"lon": 110.554512, "lat": 19.951151}}, {"id": 1604807, "name": "Yang Chum Noi", "country": "TH", "coord": {"lon": 104.39769, "lat": 15.26453}}, {"id": 1597130, "name": "Yang Si Surat", "country": "TH", "coord": {"lon": 103.103111, "lat": 15.68361}}, {"id": 1604797, "name": "Yang Talat", "country": "TH", "coord": {"lon": 103.367851, "lat": 16.39982}}, {"id": 2310882, "name": "Yanga", "country": "CD", "coord": {"lon": 13.36667, "lat": -5.35}}, {"id": 3514329, "name": "Yanga", "country": "MX", "coord": {"lon": -96.800003, "lat": 18.83333}}, {"id": 203717, "name": "Yangambi", "country": "CD", "coord": {"lon": 24.43359, "lat": 0.81021}}, {"id": 2142589, "name": "Yangan", "country": "AU", "coord": {"lon": 152.199997, "lat": -28.183331}}, {"id": 1787689, "name": "Yangba", "country": "CN", "coord": {"lon": 106.781914, "lat": 32.474628}}, {"id": 1914171, "name": "Yangba", "country": "CN", "coord": {"lon": 105.766434, "lat": 33.010269}}, {"id": 1928120, "name": "Yangban", "country": "CN", "coord": {"lon": 111.69075, "lat": 29.529961}}, {"id": 1787681, "name": "Yangce", "country": "CN", "coord": {"lon": 113.247063, "lat": 32.992851}}, {"id": 1787669, "name": "Yangcheng", "country": "CN", "coord": {"lon": 112.64521, "lat": 24.4762}}, {"id": 1814786, "name": "Yangchun", "country": "CN", "coord": {"lon": 111.783333, "lat": 22.16667}}, {"id": 7408081, "name": "Yangchun", "country": "CN", "coord": {"lon": 106.901482, "lat": 33.033241}}, {"id": 1787646, "name": "Yangcun", "country": "CN", "coord": {"lon": 117.06028, "lat": 39.363892}}, {"id": 1787656, "name": "Yangcun", "country": "CN", "coord": {"lon": 114.627991, "lat": 24.637341}}, {"id": 1787657, "name": "Yangcun", "country": "CN", "coord": {"lon": 114.467743, "lat": 23.433661}}, {"id": 1787638, "name": "Yangdi", "country": "CN", "coord": {"lon": 116.328148, "lat": 26.048639}}, {"id": 1787554, "name": "Yangdian", "country": "CN", "coord": {"lon": 106.426559, "lat": 33.933319}}, {"id": 2142586, "name": "Yangery", "country": "AU", "coord": {"lon": 142.416672, "lat": -38.316669}}, {"id": 1787624, "name": "Yangezhuang", "country": "CN", "coord": {"lon": 117.690277, "lat": 39.996391}}, {"id": 1787619, "name": "Yangfangkou", "country": "CN", "coord": {"lon": 112.330589, "lat": 39.100712}}, {"id": 1787618, "name": "Yangfanglin", "country": "CN", "coord": {"lon": 114.363022, "lat": 29.484131}}, {"id": 1910073, "name": "Yangfeng", "country": "CN", "coord": {"lon": 113.853157, "lat": 33.134399}}, {"id": 7636858, "name": "Yangfeng", "country": "CN", "coord": {"lon": 116.377647, "lat": 29.29108}}, {"id": 1787610, "name": "Yanggang", "country": "CN", "coord": {"lon": 115.137413, "lat": 29.57818}}, {"id": 2039332, "name": "Yanggang-do", "country": "KP", "coord": {"lon": 128.203613, "lat": 41.214169}}, {"id": 1897122, "name": "Yanggok", "country": "KR", "coord": {"lon": 127.214172, "lat": 37.636669}}, {"id": 1832909, "name": "Yanggu", "country": "KR", "coord": {"lon": 127.989441, "lat": 38.105831}}, {"id": 1787601, "name": "Yanggu", "country": "CN", "coord": {"lon": 115.775284, "lat": 36.110561}}, {"id": 1921672, "name": "Yanggu", "country": "CN", "coord": {"lon": 116.316292, "lat": 25.386061}}, {"id": 1787599, "name": "Yangguang", "country": "CN", "coord": {"lon": 102.793892, "lat": 24.13722}}, {"id": 1983170, "name": "Yangguao", "country": "CN", "coord": {"lon": 110.943893, "lat": 27.48667}}, {"id": 1787594, "name": "Yangguo", "country": "CN", "coord": {"lon": 109.51963, "lat": 34.355881}}, {"id": 1787590, "name": "Yanghe", "country": "CN", "coord": {"lon": 113.580887, "lat": 31.096251}}, {"id": 2033916, "name": "Yanghe", "country": "CN", "coord": {"lon": 123.40889, "lat": 40.058331}}, {"id": 7050525, "name": "Yanghe", "country": "CN", "coord": {"lon": 110.704102, "lat": 29.26502}}, {"id": 1787581, "name": "Yanghong", "country": "CN", "coord": {"lon": 108.315163, "lat": 34.519581}}, {"id": 1787580, "name": "Yanghou", "country": "CN", "coord": {"lon": 118.508057, "lat": 26.640829}}, {"id": 1787579, "name": "Yanghu", "country": "CN", "coord": {"lon": 118.297096, "lat": 29.70237}}, {"id": 7328917, "name": "Yanghuxiang", "country": "CN", "coord": {"lon": 115.493248, "lat": 28.0229}}, {"id": 1216490, "name": "Yangi Mirishkor", "country": "UZ", "coord": {"lon": 65.277893, "lat": 38.851429}}, {"id": 1121271, "name": "Yangi Qalah", "country": "AF", "coord": {"lon": 69.611313, "lat": 37.465721}}, {"id": 1346493, "name": "Yangi-Nishon Shahri", "country": "UZ", "coord": {"lon": 65.689522, "lat": 38.645012}}, {"id": 1512372, "name": "Yangiobod", "country": "UZ", "coord": {"lon": 70.094063, "lat": 41.11919}}, {"id": 1512350, "name": "Yangiqorgon", "country": "UZ", "coord": {"lon": 71.73333, "lat": 41.187222}}, {"id": 1512348, "name": "Yangirabot", "country": "UZ", "coord": {"lon": 65.960953, "lat": 40.025391}}, {"id": 1512342, "name": "Yangiyer", "country": "UZ", "coord": {"lon": 68.822502, "lat": 40.275002}}, {"id": 1512339, "name": "Yangiyul", "country": "UZ", "coord": {"lon": 69.047096, "lat": 41.112019}}, {"id": 1538262, "name": "Yangiy\u016dl Shahri", "country": "UZ", "coord": {"lon": 69.055, "lat": 41.113331}}, {"id": 1787538, "name": "Yangji", "country": "CN", "coord": {"lon": 112.994919, "lat": 31.218941}}, {"id": 7069747, "name": "Yangji", "country": "CN", "coord": {"lon": 112.992569, "lat": 33.327209}}, {"id": 1811481, "name": "Yangjia", "country": "CN", "coord": {"lon": 121.467323, "lat": 30.104429}}, {"id": 1787557, "name": "Yangjiachang", "country": "CN", "coord": {"lon": 112.284767, "lat": 30.06632}}, {"id": 1928100, "name": "Yangjiafang", "country": "CN", "coord": {"lon": 111.357529, "lat": 29.755699}}, {"id": 1909481, "name": "Yangjiaji", "country": "CN", "coord": {"lon": 113.338448, "lat": 32.829479}}, {"id": 7530465, "name": "Yangjialusanqiu", "country": "CN", "coord": {"lon": 121.067947, "lat": 30.219641}}, {"id": 1898130, "name": "Yangjian", "country": "CN", "coord": {"lon": 120.55632, "lat": 31.62575}}, {"id": 1806408, "name": "Yangjiang", "country": "CN", "coord": {"lon": 111.966667, "lat": 21.85}}, {"id": 1787531, "name": "Yangjiang", "country": "CN", "coord": {"lon": 114.53405, "lat": 27.856581}}, {"id": 1894135, "name": "Yangjiang", "country": "CN", "coord": {"lon": 110.343117, "lat": 19.100889}}, {"id": 6957984, "name": "Yangjiang", "country": "CN", "coord": {"lon": 118.804909, "lat": 31.332371}}, {"id": 1787521, "name": "Yangjiapo", "country": "CN", "coord": {"lon": 117.887497, "lat": 39.29417}}, {"id": 7404519, "name": "Yangjiapu", "country": "CN", "coord": {"lon": 123.330971, "lat": 40.192791}}, {"id": 1787481, "name": "Yangjinzhuang", "country": "CN", "coord": {"lon": 117.398064, "lat": 39.884998}}, {"id": 1832847, "name": "Yangju", "country": "KR", "coord": {"lon": 127.061691, "lat": 37.833111}}, {"id": 6643953, "name": "Yangla", "country": "CN", "coord": {"lon": 99.1278, "lat": 28.94183}}, {"id": 1787470, "name": "Yanglang", "country": "CN", "coord": {"lon": 106.169701, "lat": 36.225681}}, {"id": 7064737, "name": "Yanglin", "country": "CN", "coord": {"lon": 117.691879, "lat": 28.141171}}, {"id": 7630159, "name": "Yanglin", "country": "CN", "coord": {"lon": 127.131554, "lat": 46.077599}}, {"id": 1787458, "name": "Yangling", "country": "CN", "coord": {"lon": 108.078911, "lat": 34.271729}}, {"id": 1793662, "name": "Yanglinjie", "country": "CN", "coord": {"lon": 113.590897, "lat": 39.00898}}, {"id": 1787455, "name": "Yanglinshi", "country": "CN", "coord": {"lon": 111.775551, "lat": 29.97875}}, {"id": 1787438, "name": "Yangliu", "country": "CN", "coord": {"lon": 118.611732, "lat": 30.83795}}, {"id": 1787437, "name": "Yangliuqing", "country": "CN", "coord": {"lon": 116.999718, "lat": 39.137501}}, {"id": 1787421, "name": "Yanglu", "country": "CN", "coord": {"lon": 106.14164, "lat": 36.636551}}, {"id": 7516123, "name": "Yanglu", "country": "CN", "coord": {"lon": 106.14164, "lat": 36.636551}}, {"id": 1538461, "name": "Yangmaogong", "country": "CN", "coord": {"lon": 87.577217, "lat": 44.136669}}, {"id": 1787409, "name": "Yangmei", "country": "CN", "coord": {"lon": 112.56176, "lat": 24.10231}}, {"id": 7658382, "name": "Yangmen", "country": "CN", "coord": {"lon": 114.397102, "lat": 27.135469}}, {"id": 1787397, "name": "Yangming", "country": "CN", "coord": {"lon": 114.934402, "lat": 24.45088}}, {"id": 1787395, "name": "Yangmingbu", "country": "CN", "coord": {"lon": 112.872223, "lat": 39.012501}}, {"id": 2033489, "name": "Yangmulinzi", "country": "CN", "coord": {"lon": 130.496384, "lat": 42.902222}},