[{"id": 2774673, "name": "Kartitsch", "country": "AT", "coord": {"lon": 12.50083, "lat": 46.728889}}, {"id": 552080, "name": "Kartsevo", "country": "RU", "coord": {"lon": 36.716667, "lat": 56.049999}}, {"id": 653841, "name": "Karttula", "country": "FI", "coord": {"lon": 26.966669, "lat": 62.883331}}, {"id": 552073, "name": "Kartukovo", "country": "RU", "coord": {"lon": 46.533333, "lat": 56.200001}}, {"id": 7533057, "name": "Kartuzy", "country": "PL", "coord": {"lon": 18.19726, "lat": 54.33532}}, {"id": 3096525, "name": "Kartuzy", "country": "PL", "coord": {"lon": 18.19735, "lat": 54.33424}}, {"id": 2892625, "name": "Kartzfehn", "country": "DE", "coord": {"lon": 8.03333, "lat": 53.01667}}, {"id": 2892623, "name": "Kartzow", "country": "DE", "coord": {"lon": 12.98333, "lat": 52.5}}, {"id": 7036356, "name": "Karuk", "country": "ID", "coord": {"lon": 111.726799, "lat": -7.1106}}, {"id": 1137807, "name": "Karukh", "country": "AF", "coord": {"lon": 62.5863, "lat": 34.481079}}, {"id": 2129646, "name": "Karumai", "country": "JP", "coord": {"lon": 141.458328, "lat": 40.321388}}, {"id": 2161798, "name": "Karumba", "country": "AU", "coord": {"lon": 140.833328, "lat": -17.48333}}, {"id": 1267660, "name": "Karumbakkam", "country": "IN", "coord": {"lon": 80.09333, "lat": 12.69917}}, {"id": 1641047, "name": "Karumbu", "country": "ID", "coord": {"lon": 118.830399, "lat": -8.6949}}, {"id": 1709166, "name": "Karungdong", "country": "PH", "coord": {"lon": 121.263, "lat": 5.8844}}, {"id": 2619068, "name": "Karup", "country": "DK", "coord": {"lon": 9.16835, "lat": 56.306728}}, {"id": 1267648, "name": "Karur", "country": "IN", "coord": {"lon": 78.083328, "lat": 10.95}}, {"id": 193627, "name": "Karuri", "country": "KE", "coord": {"lon": 37.183331, "lat": -0.7}}, {"id": 428219, "name": "Karuzi", "country": "BI", "coord": {"lon": 30.17351, "lat": -3.10608}}, {"id": 653812, "name": "Karvia", "country": "FI", "coord": {"lon": 22.65, "lat": 62.200001}}, {"id": 653814, "name": "Karvia", "country": "FI", "coord": {"lon": 22.58333, "lat": 62.166672}}, {"id": 653813, "name": "Karvia", "country": "FI", "coord": {"lon": 22.566669, "lat": 62.133331}}, {"id": 3073789, "name": "Karvina", "country": "CZ", "coord": {"lon": 18.541691, "lat": 49.854}}, {"id": 1267635, "name": "Karwar", "country": "IN", "coord": {"lon": 74.133331, "lat": 14.8}}, {"id": 2892621, "name": "Karwe", "country": "DE", "coord": {"lon": 12.86156, "lat": 52.863022}}, {"id": 6558467, "name": "Karwitz", "country": "DE", "coord": {"lon": 11.0166, "lat": 53.088402}}, {"id": 2892612, "name": "Karwitz", "country": "DE", "coord": {"lon": 11.01667, "lat": 53.083328}}, {"id": 7529246, "name": "Karyadharma", "country": "ID", "coord": {"lon": 115.218697, "lat": -8.7037}}, {"id": 735972, "name": "Karyes", "country": "GR", "coord": {"lon": 24.24498, "lat": 40.257149}}, {"id": 2023100, "name": "Karymskaya", "country": "RU", "coord": {"lon": 107.699997, "lat": 52.26667}}, {"id": 2023094, "name": "Karymskoye", "country": "RU", "coord": {"lon": 114.349998, "lat": 51.616669}}, {"id": 735961, "name": "Karyotissa", "country": "GR", "coord": {"lon": 22.305281, "lat": 40.76833}}, {"id": 260935, "name": "Karystos", "country": "GR", "coord": {"lon": 24.416109, "lat": 38.013329}}, {"id": 626864, "name": "Karytnaye", "country": "BY", "coord": {"lon": 28.766666, "lat": 53.166668}}, {"id": 260979, "name": "Kar\u00e9s", "country": "GR", "coord": {"lon": 24.1, "lat": 35.383331}}, {"id": 1174870, "name": "Kar\u0101chi District", "country": "PK", "coord": {"lon": 67.203461, "lat": 25.07267}}, {"id": 1174867, "name": "Kar\u0101chi Lines", "country": "PK", "coord": {"lon": 67.188797, "lat": 24.9151}}, {"id": 1267826, "name": "Kar\u0101rkhera", "country": "IN", "coord": {"lon": 78.23333, "lat": 25.283331}}, {"id": 94796, "name": "Kar\u012bm \u0100wah", "country": "IQ", "coord": {"lon": 45.733334, "lat": 35.299999}}, {"id": 552407, "name": "Kar\u2019kovo", "country": "RU", "coord": {"lon": 44.066666, "lat": 58.049999}}, {"id": 552045, "name": "Kar\u2019yer", "country": "RU", "coord": {"lon": 36.666672, "lat": 52.933331}}, {"id": 308948, "name": "Kas", "country": "TR", "coord": {"lon": 29.637659, "lat": 36.201759}}, {"id": 2619061, "name": "Kas", "country": "DK", "coord": {"lon": 9.67173, "lat": 57.197739}}, {"id": 782859, "name": "Kasaj", "country": "AL", "coord": {"lon": 20.193331, "lat": 42.408058}}, {"id": 616554, "name": "Kasakh", "country": "AM", "coord": {"lon": 44.410461, "lat": 40.536968}}, {"id": 912764, "name": "Kasama", "country": "ZM", "coord": {"lon": 31.18084, "lat": -10.21289}}, {"id": 2112343, "name": "Kasama", "country": "JP", "coord": {"lon": 140.266663, "lat": 36.383331}}, {"id": 1859998, "name": "Kasamatsucho", "country": "JP", "coord": {"lon": 136.766663, "lat": 35.366669}}, {"id": 158289, "name": "Kasamwa", "country": "TZ", "coord": {"lon": 32.433331, "lat": -2.85}}, {"id": 933677, "name": "Kasane", "country": "BW", "coord": {"lon": 25.15, "lat": -17.816669}}, {"id": 2315057, "name": "Kasangulu", "country": "CD", "coord": {"lon": 15.17083, "lat": -4.59111}}, {"id": 1859990, "name": "Kasaoka", "country": "JP", "coord": {"lon": 133.5, "lat": 34.5}}, {"id": 1267616, "name": "Kasaragod", "country": "IN", "coord": {"lon": 75, "lat": 12.5}}, {"id": 1502429, "name": "Kasargi", "country": "RU", "coord": {"lon": 61.179699, "lat": 55.365601}}, {"id": 1267605, "name": "Kasauli", "country": "IN", "coord": {"lon": 76.964722, "lat": 30.89889}}, {"id": 2565228, "name": "Kasba Skhirat", "country": "MA", "coord": {"lon": -7.06182, "lat": 33.861382}}, {"id": 6546821, "name": "Kasba Tadla", "country": "MA", "coord": {"lon": -6.265, "lat": 32.596088}}, {"id": 2544720, "name": "Kasba Tadla", "country": "MA", "coord": {"lon": -6.26844, "lat": 32.597698}}, {"id": 2892605, "name": "Kasbach", "country": "DE", "coord": {"lon": 7.26667, "lat": 50.583328}}, {"id": 6553866, "name": "Kasbach-Ohlenberg", "country": "DE", "coord": {"lon": 7.26667, "lat": 50.583302}}, {"id": 3207750, "name": "Kasbach-Ohlenberg", "country": "DE", "coord": {"lon": 7.26667, "lat": 50.583328}}, {"id": 6554451, "name": "Kaschenbach", "country": "DE", "coord": {"lon": 6.48333, "lat": 49.883301}}, {"id": 2892585, "name": "Kaschenbach", "country": "DE", "coord": {"lon": 6.47987, "lat": 49.876049}}, {"id": 6554049, "name": "Kasdorf", "country": "DE", "coord": {"lon": 7.78333, "lat": 50.200001}}, {"id": 2892581, "name": "Kasdorf", "country": "DE", "coord": {"lon": 7.78333, "lat": 50.200001}}, {"id": 1859964, "name": "Kaseda", "country": "JP", "coord": {"lon": 130.316666, "lat": 31.41667}}, {"id": 3073780, "name": "Kasejovice", "country": "CZ", "coord": {"lon": 13.7406, "lat": 49.4627}}, {"id": 6554749, "name": "Kasel", "country": "DE", "coord": {"lon": 6.73333, "lat": 49.766701}}, {"id": 2892571, "name": "Kasel", "country": "DE", "coord": {"lon": 6.73222, "lat": 49.7617}}, {"id": 6547566, "name": "Kasel-Golzig", "country": "DE", "coord": {"lon": 13.7, "lat": 51.9333}}, {"id": 2892570, "name": "Kasel-Golzig", "country": "DE", "coord": {"lon": 13.7, "lat": 51.933331}}, {"id": 1965409, "name": "Kasembon", "country": "ID", "coord": {"lon": 112.566902, "lat": -8.0637}}, {"id": 1965433, "name": "Kasembon", "country": "ID", "coord": {"lon": 112.670403, "lat": -8.0878}}, {"id": 912628, "name": "Kasempa", "country": "ZM", "coord": {"lon": 25.833799, "lat": -13.45836}}, {"id": 2892563, "name": "Kasendorf", "country": "DE", "coord": {"lon": 11.35, "lat": 50.033329}}, {"id": 7779931, "name": "Kasepen", "country": "ID", "coord": {"lon": 105.842598, "lat": -6.3124}}, {"id": 7522420, "name": "Kasep\u00e4\u00e4 vald", "country": "EE", "coord": {"lon": 26.96397, "lat": 58.796741}}, {"id": 5123109, "name": "Kaser", "country": "US", "coord": {"lon": -74.067093, "lat": 41.121208}}, {"id": 232066, "name": "Kasese", "country": "UG", "coord": {"lon": 30.08333, "lat": 0.18333}}, {"id": 443342, "name": "Kasese District", "country": "UG", "coord": {"lon": 30.007771, "lat": 0.121}}, {"id": 1610187, "name": "Kaset Sombun", "country": "TH", "coord": {"lon": 101.954224, "lat": 16.280531}}, {"id": 1610185, "name": "Kaset Wisai", "country": "TH", "coord": {"lon": 103.583611, "lat": 15.65558}}, {"id": 1267588, "name": "Kasganj", "country": "IN", "coord": {"lon": 78.650002, "lat": 27.816669}}, {"id": 5989511, "name": "Kashabowie", "country": "CA", "coord": {"lon": -90.45018, "lat": 48.650108}}, {"id": 626849, "name": "Kashalyova", "country": "BY", "coord": {"lon": 25.716667, "lat": 53.533333}}, {"id": 128477, "name": "Kashan", "country": "IR", "coord": {"lon": 51.43644, "lat": 33.983082}}, {"id": 552006, "name": "Kashary", "country": "RU", "coord": {"lon": 41.005569, "lat": 49.040009}}, {"id": 5989520, "name": "Kashechewan", "country": "CA", "coord": {"lon": -81.616623, "lat": 52.299961}}, {"id": 1280849, "name": "Kashi", "country": "CN", "coord": {"lon": 75.979721, "lat": 39.45472}}, {"id": 1859952, "name": "Kashihara", "country": "JP", "coord": {"lon": 135.616669, "lat": 34.583328}}, {"id": 1859951, "name": "Kashihara-shi", "country": "JP", "coord": {"lon": 135.792892, "lat": 34.508961}}, {"id": 1859941, "name": "Kashima", "country": "JP", "coord": {"lon": 130.090561, "lat": 33.10611}}, {"id": 1860748, "name": "Kashima-shi", "country": "JP", "coord": {"lon": 140.644745, "lat": 35.965359}}, {"id": 551986, "name": "Kashin", "country": "RU", "coord": {"lon": 37.608059, "lat": 57.359169}}, {"id": 551975, "name": "Kashino", "country": "RU", "coord": {"lon": 35.917114, "lat": 56.10183}}, {"id": 551977, "name": "Kashino", "country": "RU", "coord": {"lon": 36.916668, "lat": 55.933334}}, {"id": 551976, "name": "Kashino", "country": "RU", "coord": {"lon": 38.852501, "lat": 55.995556}}, {"id": 1267579, "name": "Kashipur", "country": "IN", "coord": {"lon": 78.949997, "lat": 29.216669}}, {"id": 551964, "name": "Kashira", "country": "RU", "coord": {"lon": 38.166939, "lat": 54.84444}}, {"id": 551948, "name": "Kashirskoye", "country": "RU", "coord": {"lon": 39.61248, "lat": 51.419449}}, {"id": 1859924, "name": "Kashiwa", "country": "JP", "coord": {"lon": 139.968887, "lat": 35.854439}}, {"id": 1859914, "name": "Kashiwano", "country": "JP", "coord": {"lon": 136.399994, "lat": 34.316669}}, {"id": 1859913, "name": "Kashiwara", "country": "JP", "coord": {"lon": 135.766663, "lat": 34.450001}}, {"id": 1859908, "name": "Kashiwazaki", "country": "JP", "coord": {"lon": 138.550003, "lat": 37.366669}}, {"id": 551945, "name": "Kashka", "country": "RU", "coord": {"lon": 48.849998, "lat": 55.866669}}, {"id": 489997, "name": "Kashkhatau", "country": "RU", "coord": {"lon": 43.60804, "lat": 43.318481}}, {"id": 128447, "name": "Kashmar", "country": "IR", "coord": {"lon": 58.46558, "lat": 35.238312}}, {"id": 1174653, "name": "Kashmor", "country": "PK", "coord": {"lon": 69.583328, "lat": 28.433331}}, {"id": 2892549, "name": "Kashofen", "country": "DE", "coord": {"lon": 7.41667, "lat": 49.333328}}, {"id": 1709155, "name": "Kasibu", "country": "PH", "coord": {"lon": 121.296501, "lat": 16.3167}}, {"id": 1641017, "name": "Kasiguncu", "country": "ID", "coord": {"lon": 120.655403, "lat": -1.42114}}, {"id": 2005237, "name": "Kasihan", "country": "ID", "coord": {"lon": 110.32917, "lat": -7.82694}}, {"id": 8077621, "name": "Kasiman", "country": "ID", "coord": {"lon": 111.8862, "lat": -6.8741}}, {"id": 551891, "name": "Kasimov", "country": "RU", "coord": {"lon": 41.395279, "lat": 54.941113}}, {"id": 551885, "name": "Kasimovo", "country": "RU", "coord": {"lon": 30.318056, "lat": 60.196667}}, {"id": 538642, "name": "Kasimovo", "country": "RU", "coord": {"lon": 56.25, "lat": 54.733334}}, {"id": 3198236, "name": "Kasina", "country": "HR", "coord": {"lon": 16, "lat": 45.916672}}, {"id": 769443, "name": "Kasina Wielka", "country": "PL", "coord": {"lon": 20.13554, "lat": 49.729691}}, {"id": 2892545, "name": "Kasing", "country": "DE", "coord": {"lon": 11.55, "lat": 48.833328}}, {"id": 8060712, "name": "Kasingan", "country": "ID", "coord": {"lon": 111.351997, "lat": -6.707}}, {"id": 1641019, "name": "Kasiyan", "country": "ID", "coord": {"lon": 113.469002, "lat": -8.3146}}, {"id": 551877, "name": "Kaska", "country": "RU", "coord": {"lon": 39.031071, "lat": 63.48167}}, {"id": 1522955, "name": "Kaskabulak", "country": "KZ", "coord": {"lon": 70.349998, "lat": 43.116669}}, {"id": 1522949, "name": "Kaskakulan", "country": "KZ", "coord": {"lon": 60.983334, "lat": 45.666668}}, {"id": 653760, "name": "Kaskinen", "country": "FI", "coord": {"lon": 21.216669, "lat": 62.383331}}, {"id": 653758, "name": "Kaskinen", "country": "FI", "coord": {"lon": 21.22331, "lat": 62.384441}}, {"id": 1504251, "name": "Kasli", "country": "RU", "coord": {"lon": 60.7616, "lat": 55.8909}}, {"id": 5989566, "name": "Kaslo", "country": "CA", "coord": {"lon": -116.918869, "lat": 49.91658}}, {"id": 2296458, "name": "Kasoa", "country": "GH", "coord": {"lon": -0.4224, "lat": 5.53302}}, {"id": 213940, "name": "Kasongo", "country": "CD", "coord": {"lon": 26.66667, "lat": -4.45}}, {"id": 2315026, "name": "Kasongo-Lunda", "country": "CD", "coord": {"lon": 16.816669, "lat": -6.46667}}, {"id": 3073769, "name": "Kasperske Hory", "country": "CZ", "coord": {"lon": 13.55616, "lat": 49.142891}}, {"id": 614104, "name": "Kaspi", "country": "GE", "coord": {"lon": 44.425678, "lat": 41.925201}}, {"id": 6460750, "name": "Kaspichan", "country": "BG", "coord": {"lon": 27.16667, "lat": 43.316669}}, {"id": 730542, "name": "Kaspichan", "country": "BG", "coord": {"lon": 27.16667, "lat": 43.316669}}, {"id": 551847, "name": "Kaspiysk", "country": "RU", "coord": {"lon": 47.639191, "lat": 42.881649}}, {"id": 551846, "name": "Kaspiyskiy", "country": "RU", "coord": {"lon": 47.370731, "lat": 45.392879}}, {"id": 1267558, "name": "Kasrawad", "country": "IN", "coord": {"lon": 75.599998, "lat": 22.133329}}, {"id": 8068176, "name": "Kasreman", "country": "ID", "coord": {"lon": 111.415199, "lat": -6.7201}}, {"id": 1965588, "name": "Kasri", "country": "ID", "coord": {"lon": 112.677399, "lat": -8.1091}}, {"id": 2413052, "name": "Kass Wollof", "country": "GM", "coord": {"lon": -14.93333, "lat": 13.78333}}, {"id": 168519, "name": "Kassab", "country": "SY", "coord": {"lon": 35.991081, "lat": 35.926842}}, {"id": 372753, "name": "Kassala", "country": "SD", "coord": {"lon": 36.399979, "lat": 15.45099}}, {"id": 408663, "name": "Kassala State", "country": "SD", "coord": {"lon": 35.650002, "lat": 15.9}}, {"id": 2892522, "name": "Kassebruch", "country": "DE", "coord": {"lon": 8.63333, "lat": 53.366669}}, {"id": 6551457, "name": "Kasseburg", "country": "DE", "coord": {"lon": 10.4, "lat": 53.5667}}, {"id": 2892521, "name": "Kasseburg", "country": "DE", "coord": {"lon": 10.4, "lat": 53.566669}}, {"id": 6551654, "name": "Kasseedorf", "country": "DE", "coord": {"lon": 10.7167, "lat": 54.166698}}, {"id": 2892520, "name": "Kasseedorf", "country": "DE", "coord": {"lon": 10.71667, "lat": 54.166672}}, {"id": 2892518, "name": "Kassel", "country": "DE", "coord": {"lon": 9.5, "lat": 51.316669}}, {"id": 2892511, "name": "Kasselberg", "country": "DE", "coord": {"lon": 6.93333, "lat": 51.033329}}, {"id": 2473457, "name": "Kasserine", "country": "TN", "coord": {"lon": 8.83651, "lat": 35.16758}}, {"id": 6549677, "name": "Kassieck", "country": "DE", "coord": {"lon": 11.4833, "lat": 52.583302}}, {"id": 2892502, "name": "Kassieck", "country": "DE", "coord": {"lon": 11.48333, "lat": 52.583328}}, {"id": 2463701, "name": "Kassiopi", "country": "GR", "coord": {"lon": 19.91861, "lat": 39.788609}}, {"id": 2407899, "name": "Kassiri", "country": "SL", "coord": {"lon": -13.12444, "lat": 8.93722}}, {"id": 5032920, "name": "Kasson", "country": "US", "coord": {"lon": -92.75074, "lat": 44.029961}}, {"id": 6547775, "name": "Kassow", "country": "DE", "coord": {"lon": 12.0667, "lat": 53.883301}}, {"id": 2892498, "name": "Kassow", "country": "DE", "coord": {"lon": 12.07191, "lat": 53.878639}}, {"id": 2892497, "name": "Kassuhn", "country": "DE", "coord": {"lon": 11.38333, "lat": 52.816669}}, {"id": 438056, "name": "Kastal", "country": "TR", "coord": {"lon": 36.245079, "lat": 36.245972}}, {"id": 743881, "name": "Kastamonu", "country": "TR", "coord": {"lon": 33.666672, "lat": 41.5}}, {"id": 743882, "name": "Kastamonu", "country": "TR", "coord": {"lon": 33.77528, "lat": 41.378052}}, {"id": 735938, "name": "Kastaneai", "country": "GR", "coord": {"lon": 26.466669, "lat": 41.650002}}, {"id": 260821, "name": "Kastani\u00f3tissa", "country": "GR", "coord": {"lon": 23.16667, "lat": 38.900002}}, {"id": 735930, "name": "Kastano\u00fassa", "country": "GR", "coord": {"lon": 22.8925, "lat": 41.273609}}, {"id": 3198227, "name": "Kastav", "country": "HR", "coord": {"lon": 14.34861, "lat": 45.375278}}, {"id": 6554750, "name": "Kastel-Staadt", "country": "DE", "coord": {"lon": 6.56667, "lat": 49.5667}}, {"id": 2892484, "name": "Kastel-Staadt", "country": "DE", "coord": {"lon": 6.56667, "lat": 49.566669}}, {"id": 260811, "name": "Kastella", "country": "GR", "coord": {"lon": 23.633329, "lat": 38.566669}}, {"id": 2892485, "name": "Kastellaun", "country": "DE", "coord": {"lon": 7.45, "lat": 50.066669}}, {"id": 260804, "name": "Kastelli", "country": "GR", "coord": {"lon": 25.33773, "lat": 35.209019}}, {"id": 2774641, "name": "Kasten bei Boheimkirchen", "country": "AT", "coord": {"lon": 15.77946, "lat": 48.153198}}, {"id": 7871884, "name": "Kasten bei B\u00f6heimkirchen", "country": "AT", "coord": {"lon": 15.78714, "lat": 48.150799}}, {"id": 2794664, "name": "Kasterlee", "country": "BE", "coord": {"lon": 4.96994, "lat": 51.24258}}, {"id": 2794663, "name": "Kasterlee", "country": "BE", "coord": {"lon": 4.96651, "lat": 51.24118}}, {"id": 591523, "name": "Kasti", "country": "EE", "coord": {"lon": 24.9, "lat": 59.48333}}, {"id": 6556718, "name": "Kastl", "country": "DE", "coord": {"lon": 11.9, "lat": 49.833302}}, {"id": 2892459, "name": "Kastl", "country": "DE", "coord": {"lon": 11.9, "lat": 49.833328}}, {"id": 2892460, "name": "Kastl", "country": "DE", "coord": {"lon": 11.68333, "lat": 49.366669}}, {"id": 6556100, "name": "Kastl", "country": "DE", "coord": {"lon": 12.7, "lat": 48.200001}}, {"id": 2892461, "name": "Kastl", "country": "DE", "coord": {"lon": 12.7, "lat": 48.200001}}, {"id": 6551458, "name": "Kastorf", "country": "DE", "coord": {"lon": 10.5833, "lat": 53.75}}, {"id": 2892448, "name": "Kastorf", "country": "DE", "coord": {"lon": 10.58333, "lat": 53.75}}, {"id": 735927, "name": "Kastoria", "country": "GR", "coord": {"lon": 21.26667, "lat": 40.51667}}, {"id": 551823, "name": "Kastornoye", "country": "RU", "coord": {"lon": 38.130199, "lat": 51.833401}}, {"id": 260780, "name": "Kastrakion", "country": "GR", "coord": {"lon": 21.618059, "lat": 39.715561}}, {"id": 626826, "name": "Kastsyani", "country": "BY", "coord": {"lon": 25.200001, "lat": 53.066666}}, {"id": 626808, "name": "Kastsyukovichy", "country": "BY", "coord": {"lon": 32.050591, "lat": 53.351608}}, {"id": 626806, "name": "Kastsyukowka", "country": "BY", "coord": {"lon": 30.917299, "lat": 52.5387}}, {"id": 8052170, "name": "Kasturi", "country": "ID", "coord": {"lon": 108.357201, "lat": -7.0128}}, {"id": 1859900, "name": "Kasuga", "country": "JP", "coord": {"lon": 130.050003, "lat": 33.033329}}, {"id": 6822147, "name": "Kasuga", "country": "JP", "coord": {"lon": 130.48703, "lat": 33.526112}}, {"id": 1859895, "name": "Kasugabaru", "country": "JP", "coord": {"lon": 130.466675, "lat": 33.533329}}, {"id": 1859891, "name": "Kasugai", "country": "JP", "coord": {"lon": 136.97229, "lat": 35.24762}}, {"id": 1859884, "name": "Kasukabe", "country": "JP", "coord": {"lon": 139.753616, "lat": 35.976391}}, {"id": 158214, "name": "Kasulu", "country": "TZ", "coord": {"lon": 30.102501, "lat": -4.57667}}, {"id": 922944, "name": "Kasumbalesa", "country": "CD", "coord": {"lon": 27.797779, "lat": -12.1975}}, {"id": 2112328, "name": "Kasumich\u014d", "country": "JP", "coord": {"lon": 140.333328, "lat": 38.25}}, {"id": 551816, "name": "Kasumkent", "country": "RU", "coord": {"lon": 48.146011, "lat": 41.67725}}, {"id": 928534, "name": "Kasungu", "country": "MW", "coord": {"lon": 33.48333, "lat": -13.03333}}, {"id": 928531, "name": "Kasungu District", "country": "MW", "coord": {"lon": 33.416672, "lat": -13}}, {"id": 1174625, "name": "Kasur", "country": "PK", "coord": {"lon": 74.446671, "lat": 31.115561}}, {"id": 551814, "name": "Kasyakino", "country": "RU", "coord": {"lon": 38.187778, "lat": 55.341389}}, {"id": 1520561, "name": "Kasymbek", "country": "KZ", "coord": {"lon": 76.431938, "lat": 43.25111}}, {"id": 719346, "name": "Kaszaper", "country": "HU", "coord": {"lon": 20.83333, "lat": 46.466671}}, {"id": 3096502, "name": "Kaszczor", "country": "PL", "coord": {"lon": 16.16398, "lat": 51.958759}}, {"id": 3096494, "name": "Kaszow", "country": "PL", "coord": {"lon": 19.719339, "lat": 50.038841}}, {"id": 5989592, "name": "Kaszuby", "country": "CA", "coord": {"lon": -77.582787, "lat": 45.433418}}, {"id": 2023085, "name": "Kas\u2019yanovka", "country": "RU", "coord": {"lon": 101.583328, "lat": 54.316669}}, {"id": 1640972, "name": "Katabu", "country": "ID", "coord": {"lon": 122.516701, "lat": -4.9333}}, {"id": 2334861, "name": "Katagum", "country": "NG", "coord": {"lon": 10.3527, "lat": 12.2867}}, {"id": 653708, "name": "Katajanokka", "country": "FI", "coord": {"lon": 24.96917, "lat": 60.166389}}, {"id": 231947, "name": "Katakwi", "country": "UG", "coord": {"lon": 33.96611, "lat": 1.89111}}, {"id": 2161795, "name": "Katamatite", "country": "AU", "coord": {"lon": 145.699997, "lat": -36.083328}}, {"id": 2161793, "name": "Katandra", "country": "AU", "coord": {"lon": 145.616669, "lat": -36.23333}}, {"id": 1709119, "name": "Katangawan", "country": "PH", "coord": {"lon": 125.22139, "lat": 6.17222}}, {"id": 1267537, "name": "Katangi", "country": "IN", "coord": {"lon": 79.783333, "lat": 23.450001}}, {"id": 1267538, "name": "Katangi", "country": "IN", "coord": {"lon": 79.783333, "lat": 21.783331}}, {"id": 7839520, "name": "Katanning", "country": "AU", "coord": {"lon": 117.639648, "lat": -33.62476}}, {"id": 2068661, "name": "Katanning", "country": "AU", "coord": {"lon": 117.550003, "lat": -33.700001}}, {"id": 1859842, "name": "Katase", "country": "JP", "coord": {"lon": 139.474442, "lat": 35.31694}}, {"id": 260674, "name": "Katastarion", "country": "GR", "coord": {"lon": 20.76667, "lat": 37.833328}}, {"id": 551794, "name": "Katav-Ivanovsk", "country": "RU", "coord": {"lon": 58.19556, "lat": 54.753059}}, {"id": 1504212, "name": "Kataysk", "country": "RU", "coord": {"lon": 62.584099, "lat": 56.289001}}, {"id": 2413041, "name": "Katchang", "country": "GM", "coord": {"lon": -15.75, "lat": 13.5}}, {"id": 991676, "name": "Kate Hamel", "country": "ZA", "coord": {"lon": 28.23333, "lat": -26.299999}}, {"id": 2023071, "name": "Katen", "country": "RU", "coord": {"lon": 136.096115, "lat": 47.388611}}, {"id": 158179, "name": "Katerero", "country": "TZ", "coord": {"lon": 31.73333, "lat": -1.4}}, {"id": 735914, "name": "Katerini", "country": "GR", "coord": {"lon": 22.502501, "lat": 40.271938}}, {"id": 2753040, "name": "Katerveer", "country": "NL", "coord": {"lon": 6.06944, "lat": 52.5}}, {"id": 706634, "name": "Katerynopil\u2019", "country": "UA", "coord": {"lon": 30.968229, "lat": 48.955299}}, {"id": 158178, "name": "Katesh", "country": "TZ", "coord": {"lon": 35.383331, "lat": -4.51667}}, {"id": 3073760, "name": "Kate\u0159inky", "country": "CZ", "coord": {"lon": 17.92131, "lat": 49.945358}}, {"id": 1267517, "name": "Katghora", "country": "IN", "coord": {"lon": 82.550003, "lat": 22.5}}, {"id": 6549948, "name": "Katharinenberg", "country": "DE", "coord": {"lon": 10.2667, "lat": 51.1833}}, {"id": 2892409, "name": "Katharinenberg", "country": "DE", "coord": {"lon": 10.26667, "lat": 51.183331}}, {"id": 6551562, "name": "Katharinenheerd", "country": "DE", "coord": {"lon": 8.83333, "lat": 54.333302}}, {"id": 2892406, "name": "Katharinenheerd", "country": "DE", "coord": {"lon": 8.83333, "lat": 54.333328}}, {"id": 2892379, "name": "Kathendorf", "country": "DE", "coord": {"lon": 11.13464, "lat": 52.398022}}, {"id": 7839404, "name": "Katherine", "country": "AU", "coord": {"lon": 132.174133, "lat": -14.65012}}, {"id": 2068655, "name": "Katherine", "country": "AU", "coord": {"lon": 132.266663, "lat": -14.46667}}, {"id": 4160651, "name": "Kathleen", "country": "US", "coord": {"lon": -82.02314, "lat": 28.12085}}, {"id": 1283240, "name": "Kathmandu", "country": "NP", "coord": {"lon": 85.316666, "lat": 27.716667}}, {"id": 1283241, "name": "Kathmandu", "country": "NP", "coord": {"lon": 85.416672, "lat": 27.75}}, {"id": 7800827, "name": "KathmanduN.P.", "country": "NP", "coord": {"lon": 85.322182, "lat": 27.70731}}, {"id": 1267492, "name": "Kathor", "country": "IN", "coord": {"lon": 72.933327, "lat": 21.299999}}, {"id": 991664, "name": "Kathu", "country": "ZA", "coord": {"lon": 23.04929, "lat": -27.69569}}, {"id": 1153035, "name": "Kathu", "country": "TH", "coord": {"lon": 98.333221, "lat": 7.91779}}, {"id": 1157241, "name": "Kathu", "country": "TH", "coord": {"lon": 98.333199, "lat": 7.90903}}, {"id": 1267486, "name": "Kathua", "country": "IN", "coord": {"lon": 75.51667, "lat": 32.366669}}, {"id": 1267506, "name": "Kath\u0101ra", "country": "IN", "coord": {"lon": 80.23333, "lat": 26.316669}}, {"id": 2455558, "name": "Kati", "country": "ML", "coord": {"lon": -8.07257, "lat": 12.74409}}, {"id": 1267481, "name": "Kati", "country": "IN", "coord": {"lon": 75.900002, "lat": 17.966669}}, {"id": 1717884, "name": "Katico", "country": "PH", "coord": {"lon": 124.730003, "lat": 6.76167}}, {"id": 1709098, "name": "Katidtuan", "country": "PH", "coord": {"lon": 124.315277, "lat": 7.18861}}, {"id": 1267480, "name": "Katihar", "country": "IN", "coord": {"lon": 87.583328, "lat": 25.533331}}, {"id": 2189016, "name": "Katikati", "country": "NZ", "coord": {"lon": 175.916672, "lat": -37.549999}}, {"id": 7563745, "name": "Katikuloko", "country": "ID", "coord": {"lon": 119.542603, "lat": -9.5977}}, {"id": 877178, "name": "Katima Mulilo", "country": "NA", "coord": {"lon": 24.26667, "lat": -17.5}}, {"id": 2287298, "name": "Katiola", "country": "CI", "coord": {"lon": -5.1, "lat": 8.13333}}, {"id": 1709077, "name": "Katipunan", "country": "PH", "coord": {"lon": 123.282898, "lat": 8.514}}, {"id": 1957671, "name": "Katipunan", "country": "PH", "coord": {"lon": 122.830559, "lat": 7.5825}}, {"id": 1958762, "name": "Katipunan", "country": "PH", "coord": {"lon": 125.620277, "lat": 7.32028}}, {"id": 805542, "name": "Katkova Shchel\u2019", "country": "RU", "coord": {"lon": 39.413078, "lat": 43.850948}}, {"id": 2023067, "name": "Katkovo", "country": "RU", "coord": {"lon": 108.433327, "lat": 53.183331}}, {"id": 2892357, "name": "Katlenburg-Duhm", "country": "DE", "coord": {"lon": 10.1, "lat": 51.683331}}, {"id": 6552380, "name": "Katlenburg-Lindau", "country": "DE", "coord": {"lon": 10.1, "lat": 51.6833}}, {"id": 3207077, "name": "Katlenburg-Lindau", "country": "DE", "coord": {"lon": 10.1, "lat": 51.683331}}, {"id": 260644, "name": "Kato Achaia", "country": "GR", "coord": {"lon": 21.549999, "lat": 38.150002}}, {"id": 260630, "name": "Kato Asitai", "country": "GR", "coord": {"lon": 25, "lat": 35.200001}}, {"id": 260629, "name": "Kato Assos", "country": "GR", "coord": {"lon": 22.83333, "lat": 37.950001}}, {"id": 146529, "name": "Kato Dheftera", "country": "CY", "coord": {"lon": 33.279171, "lat": 35.087502}}, {"id": 260604, "name": "Kato Glikovrisi", "country": "GR", "coord": {"lon": 22.783331, "lat": 36.833328}}, {"id": 735902, "name": "Kato Kamila", "country": "GR", "coord": {"lon": 23.48333, "lat": 41.01667}}, {"id": 260567, "name": "Kato Khorion", "country": "GR", "coord": {"lon": 25.783331, "lat": 35.049999}}, {"id": 2463692, "name": "Kato Korakiana", "country": "GR", "coord": {"lon": 19.825279, "lat": 39.68972}}, {"id": 260542, "name": "Kato Lekhonia", "country": "GR", "coord": {"lon": 23.033331, "lat": 39.333328}}, {"id": 735886, "name": "Kato Loutrakion", "country": "GR", "coord": {"lon": 21.950001, "lat": 40.966671}}, {"id": 260531, "name": "Kato Mazarakion", "country": "GR", "coord": {"lon": 21.65, "lat": 38.066669}}, {"id": 735881, "name": "Kato Milea", "country": "GR", "coord": {"lon": 22.33778, "lat": 40.248329}}, {"id": 735879, "name": "Kato Nevrokopi", "country": "GR", "coord": {"lon": 23.866671, "lat": 41.349998}}, {"id": 146515, "name": "Kato Pyrgos", "country": "CY", "coord": {"lon": 32.682499, "lat": 35.180279}}, {"id": 735872, "name": "Kato Skholarion", "country": "GR", "coord": {"lon": 23.033331, "lat": 40.433331}}, {"id": 260478, "name": "Kato Soulion", "country": "GR", "coord": {"lon": 24, "lat": 38.166672}}, {"id": 260473, "name": "Kato Tithorea", "country": "GR", "coord": {"lon": 22.716669, "lat": 38.599998}}, {"id": 3377899, "name": "Kato Village", "country": "GY", "coord": {"lon": -59.816669, "lat": 4.66667}}, {"id": 1267461, "name": "Katol", "country": "IN", "coord": {"lon": 78.583328, "lat": 21.26667}}, {"id": 5123118, "name": "Katonah", "country": "US", "coord": {"lon": -73.68541, "lat": 41.25898}}, {"id": 2161776, "name": "Katoomba", "country": "AU", "coord": {"lon": 150.307388, "lat": -33.719769}}, {"id": 2112319, "name": "Katori-shi", "country": "JP", "coord": {"lon": 140.499435, "lat": 35.897671}}, {"id": 158160, "name": "Katoro", "country": "TZ", "coord": {"lon": 31.89583, "lat": -3.02028}}, {"id": 158161, "name": "Katoro", "country": "TZ", "coord": {"lon": 31.50028, "lat": -1.39972}}, {"id": 928434, "name": "Katoto", "country": "MW", "coord": {"lon": 34.009548, "lat": -11.45916}}, {"id": 260468, "name": "Katouna", "country": "GR", "coord": {"lon": 21.116671, "lat": 38.783329}}, {"id": 3073754, "name": "Katovice", "country": "CZ", "coord": {"lon": 13.83035, "lat": 49.273479}}, {"id": 3096472, "name": "Katowice", "country": "PL", "coord": {"lon": 19.02754, "lat": 50.258419}}, {"id": 1267457, "name": "Katoya", "country": "IN", "coord": {"lon": 88.133331, "lat": 23.65}}, {"id": 1267456, "name": "Katpadi", "country": "IN", "coord": {"lon": 79.133331, "lat": 12.98333}}, {"id": 1267454, "name": "Katpur", "country": "IN", "coord": {"lon": 71.783333, "lat": 21.049999}}, {"id": 1267448, "name": "Katra", "country": "IN", "coord": {"lon": 74.949997, "lat": 32.98333}}, {"id": 1267449, "name": "Katra", "country": "IN", "coord": {"lon": 82.01667, "lat": 27.51667}}, {"id": 1267439, "name": "Katras", "country": "IN", "coord": {"lon": 86.283333, "lat": 23.799999}}, {"id": 2892356, "name": "Katrepel", "country": "DE", "coord": {"lon": 8.91667, "lat": 53.133331}}, {"id": 2701223, "name": "Katrineholm", "country": "SE", "coord": {"lon": 16.207211, "lat": 58.995869}}, {"id": 2701221, "name": "Katrineholms Kommun", "country": "SE", "coord": {"lon": 16.200001, "lat": 59}}, {"id": 2892349, "name": "Katschwitz", "country": "DE", "coord": {"lon": 14.33333, "lat": 51.133331}}, {"id": 260420, "name": "Katsikas", "country": "GR", "coord": {"lon": 20.887501, "lat": 39.622501}}, {"id": 2334802, "name": "Katsina", "country": "NG", "coord": {"lon": 7.60063, "lat": 12.98943}}, {"id": 2334801, "name": "Katsina Ala", "country": "NG", "coord": {"lon": 9.28333, "lat": 7.16667}}, {"id": 2334797, "name": "Katsina State", "country": "NG", "coord": {"lon": 7.5, "lat": 12.25}}, {"id": 2112312, "name": "Katsuta", "country": "JP", "coord": {"lon": 140.533325, "lat": 36.383331}}, {"id": 2112309, "name": "Katsuura", "country": "JP", "coord": {"lon": 140.300003, "lat": 35.133331}}, {"id": 1859765, "name": "Katsuyama", "country": "JP", "coord": {"lon": 136.501007, "lat": 36.061729}}, {"id": 1216982, "name": "Kattaqorgon", "country": "UZ", "coord": {"lon": 66.256111, "lat": 39.898891}}, {"id": 6552107, "name": "Kattendorf", "country": "DE", "coord": {"lon": 10.0167, "lat": 53.849998}}, {"id": 2892325, "name": "Kattendorf", "country": "DE", "coord": {"lon": 10.01667, "lat": 53.849998}}, {"id": 2892324, "name": "Kattenes", "country": "DE", "coord": {"lon": 7.43333, "lat": 50.25}}, {"id": 2892310, "name": "Kattenvenne", "country": "DE", "coord": {"lon": 7.86667, "lat": 52.116669}}, {"id": 2892307, "name": "Katterbach", "country": "DE", "coord": {"lon": 10.63333, "lat": 49.316669}}, {"id": 7942140, "name": "Kattichhap", "country": "NP", "coord": {"lon": 85.1492, "lat": 27.71784}}, {"id": 2701154, "name": "Kattisavan", "country": "SE", "coord": {"lon": 18.15, "lat": 64.75}}, {"id": 1267433, "name": "Kattivakkam", "country": "IN", "coord": {"lon": 80.316673, "lat": 13.21667}}, {"id": 1267428, "name": "Kattuputtur", "country": "IN", "coord": {"lon": 78.23333, "lat": 10.98333}}, {"id": 1709108, "name": "Katubao", "country": "PH", "coord": {"lon": 124.829437, "lat": 5.88917}}, {"id": 1709059, "name": "Katuli", "country": "PH", "coord": {"lon": 124.216667, "lat": 7.43333}}, {"id": 158151, "name": "Katumba", "country": "TZ", "coord": {"lon": 33.616669, "lat": -9.23333}}, {"id": 1640939, "name": "Katumbiri", "country": "ID", "coord": {"lon": 105.697899, "lat": -6.6421}}, {"id": 1240935, "name": "Katunayaka North", "country": "LK", "coord": {"lon": 79.875702, "lat": 7.1643}}, {"id": 6459638, "name": "Katunci", "country": "BG", "coord": {"lon": 23.433331, "lat": 41.450001}}, {"id": 2161771, "name": "Katunga", "country": "AU", "coord": {"lon": 145.466675, "lat": -36.01667}}, {"id": 551736, "name": "Katunino", "country": "RU", "coord": {"lon": 40.629799, "lat": 64.3862}}, {"id": 730522, "name": "Katuntsi", "country": "BG", "coord": {"lon": 23.433331, "lat": 41.450001}}, {"id": 7036113, "name": "Katur", "country": "ID", "coord": {"lon": 111.719101, "lat": -7.1586}}, {"id": 3073753, "name": "Katusice", "country": "CZ", "coord": {"lon": 14.77736, "lat": 50.445099}}, {"id": 2753010, "name": "Katwijk aan Zee", "country": "NL", "coord": {"lon": 4.39861, "lat": 52.203331}}, {"id": 2753011, "name": "Katwijk aan den Rijn", "country": "NL", "coord": {"lon": 4.42222, "lat": 52.194172}}, {"id": 4702732, "name": "Katy", "country": "US", "coord": {"lon": -95.824402, "lat": 29.785789}}, {"id": 3096444, "name": "Katy Wroclawskie", "country": "PL", "coord": {"lon": 16.76767, "lat": 51.030979}}, {"id": 3050475, "name": "Katymar", "country": "HU", "coord": {"lon": 19.209351, "lat": 46.033981}}, {"id": 551732, "name": "Katyn", "country": "RU", "coord": {"lon": 31.690411, "lat": 54.774551}}, {"id": 551729, "name": "Katyr-Yurt", "country": "RU", "coord": {"lon": 45.37114, "lat": 43.170071}}, {"id": 706612, "name": "Katyuzhanka", "country": "UA", "coord": {"lon": 30.13764, "lat": 50.80595}}, {"id": 2892272, "name": "Katzberg", "country": "DE", "coord": {"lon": 13.48333, "lat": 48.883331}}, {"id": 7871933, "name": "Katzelsdorf", "country": "AT", "coord": {"lon": 16.27681, "lat": 47.771461}}, {"id": 2774612, "name": "Katzelsdorf", "country": "AT", "coord": {"lon": 16.283331, "lat": 47.783329}}, {"id": 6554959, "name": "Katzenbach", "country": "DE", "coord": {"lon": 7.81667, "lat": 49.650002}}, {"id": 2892256, "name": "Katzenbach", "country": "DE", "coord": {"lon": 7.81667, "lat": 49.650002}}, {"id": 2892192, "name": "Katzenelnbogen", "country": "DE", "coord": {"lon": 7.95, "lat": 50.283329}}, {"id": 2892191, "name": "Katzenfurt", "country": "DE", "coord": {"lon": 8.35, "lat": 50.616669}}, {"id": 2892174, "name": "Katzenloch", "country": "DE", "coord": {"lon": 7.21667, "lat": 49.76667}}, {"id": 2892118, "name": "Katzhutte", "country": "DE", "coord": {"lon": 11.06667, "lat": 50.549999}}, {"id": 6550321, "name": "Katzh\u00fctte", "country": "DE", "coord": {"lon": 11.0667, "lat": 50.549999}}, {"id": 6548274, "name": "Katzow", "country": "DE", "coord": {"lon": 13.6833, "lat": 54.049999}}, {"id": 2892112, "name": "Katzow", "country": "DE", "coord": {"lon": 13.68333, "lat": 54.049999}}, {"id": 2892107, "name": "Katzwang", "country": "DE", "coord": {"lon": 11.05954, "lat": 49.351742}}, {"id": 6555040, "name": "Katzweiler", "country": "DE", "coord": {"lon": 7.7, "lat": 49.5}}, {"id": 2892106, "name": "Katzweiler", "country": "DE", "coord": {"lon": 7.7, "lat": 49.5}}, {"id": 6554644, "name": "Katzwinkel", "country": "DE", "coord": {"lon": 6.91667, "lat": 50.25}}, {"id": 2892104, "name": "Katzwinkel", "country": "DE", "coord": {"lon": 6.91667, "lat": 50.25}}, {"id": 3207752, "name": "Katzwinkel", "country": "DE", "coord": {"lon": 7.81667, "lat": 50.816669}}, {"id": 260705, "name": "Kat\u00e1kali", "country": "GR", "coord": {"lon": 21.67861, "lat": 39.901112}}, {"id": 2892102, "name": "Kau", "country": "DE", "coord": {"lon": 7.35, "lat": 50.616669}}, {"id": 2892101, "name": "Kaub", "country": "DE", "coord": {"lon": 7.76667, "lat": 50.083328}}, {"id": 2892093, "name": "Kauerheim", "country": "DE", "coord": {"lon": 11.55169, "lat": 49.420582}}, {"id": 6550500, "name": "Kauern", "country": "DE", "coord": {"lon": 12.0833, "lat": 50.716702}}, {"id": 2892089, "name": "Kauern", "country": "DE", "coord": {"lon": 12.08333, "lat": 50.716671}}, {"id": 2892083, "name": "Kauernhofen", "country": "DE", "coord": {"lon": 11.08333, "lat": 49.76667}}, {"id": 2892082, "name": "Kaufbach", "country": "DE", "coord": {"lon": 13.56667, "lat": 51.049999}}, {"id": 2892080, "name": "Kaufbeuren", "country": "DE", "coord": {"lon": 10.61667, "lat": 47.883331}}, {"id": 6556259, "name": "Kaufering", "country": "DE", "coord": {"lon": 10.8595, "lat": 48.0867}}, {"id": 2892078, "name": "Kaufering", "country": "DE", "coord": {"lon": 10.87913, "lat": 48.091209}}, {"id": 4702728, "name": "Kaufman", "country": "US", "coord": {"lon": -96.308868, "lat": 32.58902}}, {"id": 4702735, "name": "Kaufman County", "country": "US", "coord": {"lon": -96.300262, "lat": 32.600128}}, {"id": 6553268, "name": "Kaufungen", "country": "DE", "coord": {"lon": 9.60572, "lat": 51.2831}}, {"id": 3336895, "name": "Kaufungen", "country": "DE", "coord": {"lon": 9.61861, "lat": 51.281109}}, {"id": 653627, "name": "Kauhajoki", "country": "FI", "coord": {"lon": 22.183331, "lat": 62.433331}}, {"id": 653628, "name": "Kauhajoki", "country": "FI", "coord": {"lon": 22.25, "lat": 62.333328}}, {"id": 7406835, "name": "Kauhan", "country": "ID", "coord": {"lon": 114.971802, "lat": -8.2673}}, {"id": 653617, "name": "Kauhava", "country": "FI", "coord": {"lon": 23.16667, "lat": 63.133331}}, {"id": 653616, "name": "Kauhava", "country": "FI", "coord": {"lon": 23.08333, "lat": 63.099998}}, {"id": 1717592, "name": "Kauit", "country": "PH", "coord": {"lon": 123.9459, "lat": 11.186}}, {"id": 294571, "name": "Kaukab Abu el Hija", "country": "IL", "coord": {"lon": 35.25, "lat": 32.833328}}, {"id": 2188993, "name": "Kaukapakapa", "country": "NZ", "coord": {"lon": 174.5, "lat": -36.616669}}, {"id": 5258296, "name": "Kaukauna", "country": "US", "coord": {"lon": -88.272049, "lat": 44.278042}}, {"id": 2892067, "name": "Kaulbach", "country": "DE", "coord": {"lon": 7.63333, "lat": 49.549999}}, {"id": 2892063, "name": "Kaule", "country": "DE", "coord": {"lon": 7.23458, "lat": 50.967621}}, {"id": 2794634, "name": "Kaulen", "country": "BE", "coord": {"lon": 5.99244, "lat": 50.654789}}, {"id": 7375205, "name": "Kaulon", "country": "ID", "coord": {"lon": 112.281097, "lat": -8.1605}}, {"id": 2892051, "name": "Kaulsdorf", "country": "DE", "coord": {"lon": 13.58871, "lat": 52.517319}}, {"id": 6550322, "name": "Kaulsdorf", "country": "DE", "coord": {"lon": 11.4333, "lat": 50.633301}}, {"id": 2892052, "name": "Kaulsdorf", "country": "DE", "coord": {"lon": 11.43333, "lat": 50.633331}}, {"id": 7845864, "name": "Kaum", "country": "ID", "coord": {"lon": 106.115646, "lat": -6.47819}}, {"id": 7849020, "name": "Kaum", "country": "ID", "coord": {"lon": 107.356621, "lat": -7.48656}}, {"id": 8025783, "name": "Kaum Kaler", "country": "ID", "coord": {"lon": 108.147697, "lat": -7.159}}, {"id": 7579599, "name": "Kauman", "country": "ID", "coord": {"lon": 111.8964, "lat": -8.0649}}, {"id": 8060281, "name": "Kauman", "country": "ID", "coord": {"lon": 111.146004, "lat": -6.7175}}, {"id": 8071143, "name": "Kauman", "country": "ID", "coord": {"lon": 111.408401, "lat": -6.9693}}, {"id": 8074399, "name": "Kauman", "country": "ID", "coord": {"lon": 108.7864, "lat": -7.4801}}, {"id": 8142620, "name": "Kauman", "country": "ID", "coord": {"lon": 112.563202, "lat": -6.9901}}, {"id": 8185104, "name": "Kauman", "country": "ID", "coord": {"lon": 113.475899, "lat": -8.3722}}, {"id": 7872931, "name": "Kaumberg", "country": "AT", "coord": {"lon": 15.89384, "lat": 48.028679}}, {"id": 2774597, "name": "Kaumberg", "country": "AT", "coord": {"lon": 15.89842, "lat": 48.024151}}, {"id": 5848652, "name": "Kaunakakai", "country": "US", "coord": {"lon": -157.023895, "lat": 21.09333}}, {"id": 598316, "name": "Kaunas", "country": "LT", "coord": {"lon": 23.9, "lat": 54.900002}}, {"id": 2960394, "name": "Kaundorf", "country": "LU", "coord": {"lon": 5.90306, "lat": 49.921391}}, {"id": 5123135, "name": "Kauneonga Lake", "country": "US", "coord": {"lon": -74.835716, "lat": 41.6912}}, {"id": 653560, "name": "Kauniainen", "country": "FI", "coord": {"lon": 24.72801, "lat": 60.209759}}, {"id": 653559, "name": "Kauniainen", "country": "FI", "coord": {"lon": 24.72756, "lat": 60.21209}}, {"id": 864477, "name": "Kauno Apskritis", "country": "LT", "coord": {"lon": 24, "lat": 55.166672}}, {"id": 7873663, "name": "Kauns", "country": "AT", "coord": {"lon": 10.71681, "lat": 47.066971}}, {"id": 2774593, "name": "Kauns", "country": "AT", "coord": {"lon": 10.68333, "lat": 47.083328}}, {"id": 2629399, "name": "Kaupangur", "country": "IS", "coord": {"lon": -18.014799, "lat": 65.641693}}, {"id": 2892043, "name": "Kaupen", "country": "DE", "coord": {"lon": 13.7, "lat": 51.450001}}, {"id": 2892035, "name": "Kauppen", "country": "DE", "coord": {"lon": 9.48772, "lat": 50.452419}}, {"id": 2334756, "name": "Kaura Namoda", "country": "NG", "coord": {"lon": 6.57791, "lat": 12.58979}}, {"id": 1709044, "name": "Kauran", "country": "PH", "coord": {"lon": 124.473328, "lat": 6.78556}}, {"id": 7645232, "name": "Kauriala", "country": "FI", "coord": {"lon": 24.44179, "lat": 60.996342}}, {"id": 551710, "name": "Kaurovka", "country": "RU", "coord": {"lon": 41.400002, "lat": 54.966667}}, {"id": 2892030, "name": "Kausen", "country": "DE", "coord": {"lon": 7.66667, "lat": 50.5}}, {"id": 6553409, "name": "Kausen", "country": "DE", "coord": {"lon": 7.8899, "lat": 50.779701}}, {"id": 2892029, "name": "Kausen", "country": "DE", "coord": {"lon": 7.86667, "lat": 50.73333}}, {"id": 653484, "name": "Kaustinen", "country": "FI", "coord": {"lon": 23.75, "lat": 63.583328}}, {"id": 653482, "name": "Kaustinen", "country": "FI", "coord": {"lon": 23.68845, "lat": 63.548779}}, {"id": 1709036, "name": "Kauswagan", "country": "PH", "coord": {"lon": 124.775558, "lat": 8.78972}}, {"id": 1709037, "name": "Kauswagan", "country": "PH", "coord": {"lon": 125.75, "lat": 8.51667}}, {"id": 1709039, "name": "Kauswagan", "country": "PH", "coord": {"lon": 124.084717, "lat": 8.19167}}, {"id": 6693327, "name": "Kautenbach", "country": "LU", "coord": {"lon": 6.02, "lat": 49.952782}}, {"id": 2960393, "name": "Kautenbach", "country": "LU", "coord": {"lon": 6.02, "lat": 49.952782}}, {"id": 2892023, "name": "Kautendorf", "country": "DE", "coord": {"lon": 11.98333, "lat": 50.283329}}, {"id": 779327, "name": "Kautokeino", "country": "NO", "coord": {"lon": 23.04151, "lat": 69.011513}}, {"id": 779330, "name": "Kautokeino", "country": "NO", "coord": {"lon": 23.041161, "lat": 69.012466}}, {"id": 7800110, "name": "Kautunje", "country": "NP", "coord": {"lon": 85.411499, "lat": 27.663601}}, {"id": 7873047, "name": "Kautzen", "country": "AT", "coord": {"lon": 15.23501, "lat": 48.932301}}, {"id": 2774589, "name": "Kautzen", "country": "AT", "coord": {"lon": 15.23333, "lat": 48.916672}}, {"id": 789541, "name": "Kavadarci", "country": "MK", "coord": {"lon": 22.01194, "lat": 41.43306}}, {"id": 3185211, "name": "Kavaje", "country": "AL", "coord": {"lon": 19.55694, "lat": 41.185558}}, {"id": 743851, "name": "Kavak", "country": "TR", "coord": {"lon": 36.0425, "lat": 41.078331}}, {"id": 743818, "name": "Kavakli", "country": "TR", "coord": {"lon": 28.33172, "lat": 41.092579}}, {"id": 308776, "name": "Kavaklidere", "country": "TR", "coord": {"lon": 28.362761, "lat": 37.44463}}, {"id": 735861, "name": "Kavala", "country": "GR", "coord": {"lon": 24.401939, "lat": 40.93972}}, {"id": 2023058, "name": "Kavalerovo", "country": "RU", "coord": {"lon": 135.057205, "lat": 44.266102}}, {"id": 1267394, "name": "Kavali", "country": "IN", "coord": {"lon": 79.98333, "lat": 14.91667}}, {"id": 735856, "name": "Kavallari", "country": "GR", "coord": {"lon": 23.045879, "lat": 40.715389}}, {"id": 5989777, "name": "Kavanagh", "country": "CA", "coord": {"lon": -113.5187, "lat": 53.183418}}, {"id": 4296777, "name": "Kavanaugh", "country": "US", "coord": {"lon": -82.586823, "lat": 38.253422}}, {"id": 1090919, "name": "Kavani", "country": "KM", "coord": {"lon": 44.26944, "lat": -12.19194}}, {"id": 1267390, "name": "Kavaratti", "country": "IN", "coord": {"lon": 72.642029, "lat": 10.56688}}, {"id": 730518, "name": "Kavarna", "country": "BG", "coord": {"lon": 28.33333, "lat": 43.433331}}, {"id": 598304, "name": "Kavarskas", "country": "LT", "coord": {"lon": 24.91667, "lat": 55.433331}}, {"id": 260379, "name": "Kavasilas", "country": "GR", "coord": {"lon": 21.26667, "lat": 37.866669}}, {"id": 2892008, "name": "Kavelstorf", "country": "DE", "coord": {"lon": 12.2, "lat": 54}}, {"id": 551685, "name": "Kaverino", "country": "RU", "coord": {"lon": 38.008331, "lat": 55.215279}}, {"id": 1267385, "name": "Kaverippattanam", "country": "IN", "coord": {"lon": 78.23333, "lat": 12.41667}}, {"id": 719317, "name": "Kavics-banya", "country": "HU", "coord": {"lon": 20.883329, "lat": 48.066669}}, {"id": 3050466, "name": "Kavicsb\u00e1nya", "country": "HU", "coord": {"lon": 19.283331, "lat": 47.400002}}, {"id": 2094342, "name": "Kavieng", "country": "PG", "coord": {"lon": 150.796692, "lat": -2.57444}}, {"id": 735852, "name": "Kavili", "country": "GR", "coord": {"lon": 26.51667, "lat": 41.566669}}, {"id": 551669, "name": "Kavkazskaya", "country": "RU", "coord": {"lon": 40.672779, "lat": 45.445}}, {"id": 551667, "name": "Kavkazskiy", "country": "RU", "coord": {"lon": 42.234699, "lat": 44.2672}}, {"id": 6459606, "name": "Kavrakirovo", "country": "BG", "coord": {"lon": 23.16667, "lat": 41.433331}}, {"id": 730512, "name": "Kavrakirovo", "country": "BG", "coord": {"lon": 23.16667, "lat": 41.433331}}, {"id": 311191, "name": "Kavsan", "country": "TR", "coord": {"lon": 40.659649, "lat": 37.656849}}, {"id": 2618989, "name": "Kavslunde", "country": "DK", "coord": {"lon": 9.8096, "lat": 55.48378}}, {"id": 213632, "name": "Kavumu", "country": "CD", "coord": {"lon": 28.816111, "lat": -2.30278}}, {"id": 308716, "name": "Kavurma", "country": "TR", "coord": {"lon": 43.360611, "lat": 38.461159}}, {"id": 6696932, "name": "Kawage", "country": "JP", "coord": {"lon": 136.546448, "lat": 34.80447}}, {"id": 1859740, "name": "Kawagoe", "country": "JP", "coord": {"lon": 139.485275, "lat": 35.908611}}, {"id": 2112297, "name": "Kawaguchi", "country": "JP", "coord": {"lon": 140.100006, "lat": 35.099998}}, {"id": 1859730, "name": "Kawaguchi", "country": "JP", "coord": {"lon": 139.720566, "lat": 35.805}}, {"id": 8054142, "name": "Kawahmanuk", "country": "ID", "coord": {"lon": 108.392799, "lat": -7.0122}}, {"id": 1859716, "name": "Kawai", "country": "JP", "coord": {"lon": 135.850006, "lat": 34.23333}}, {"id": 2188966, "name": "Kawakawa", "country": "NZ", "coord": {"lon": 174.066666, "lat": -35.383331}}, {"id": 1640904, "name": "Kawali", "country": "ID", "coord": {"lon": 108.370399, "lat": -7.1854}}, {"id": 8046765, "name": "Kawalimukti", "country": "ID", "coord": {"lon": 108.365402, "lat": -7.1823}}, {"id": 1640902, "name": "Kawalu", "country": "ID", "coord": {"lon": 108.208199, "lat": -7.3817}}, {"id": 176555, "name": "Kawambwa", "country": "ZM", "coord": {"lon": 29.07913, "lat": -9.7915}}, {"id": 1859687, "name": "Kawamoto", "country": "JP", "coord": {"lon": 132.5, "lat": 34.98333}}, {"id": 7411423, "name": "Kawangohari", "country": "ID", "coord": {"lon": 119.002899, "lat": -9.5411}}, {"id": 1640897, "name": "Kawangu", "country": "ID", "coord": {"lon": 120.340897, "lat": -9.6728}}, {"id": 7610379, "name": "Kawangu Satu", "country": "ID", "coord": {"lon": 120.328102, "lat": -9.6779}}, {"id": 1859675, "name": "Kawanishi", "country": "JP", "coord": {"lon": 135.416672, "lat": 34.816669}}, {"id": 1926116, "name": "Kawanoe", "country": "JP", "coord": {"lon": 133.566666, "lat": 34.01667}}, {"id": 1267370, "name": "Kawant", "country": "IN", "coord": {"lon": 74.050003, "lat": 22.1}}, {"id": 7574271, "name": "Kawapante", "country": "ID", "coord": {"lon": 122.295799, "lat": -8.6461}}, {"id": 1907225, "name": "Kawara", "country": "JP", "coord": {"lon": 139.272781, "lat": 35.47361}}, {"id": 8069765, "name": "Kawarasan", "country": "ID", "coord": {"lon": 108.699699, "lat": -7.5699}}, {"id": 1267369, "name": "Kawardha", "country": "IN", "coord": {"lon": 81.25, "lat": 22.01667}}, {"id": 2161764, "name": "Kawarren", "country": "AU", "coord": {"lon": 143.583328, "lat": -38.48333}}, {"id": 5989818, "name": "Kawartha Lakes", "country": "CA", "coord": {"lon": -78.832878, "lat": 44.58342}}, {"id": 6415253, "name": "Kawasaki", "country": "JP", "coord": {"lon": 136.064438, "lat": 35.65694}}, {"id": 1859647, "name": "Kawasaki", "country": "JP", "coord": {"lon": 130.833328, "lat": 33.583328}}, {"id": 1859642, "name": "Kawasaki", "country": "JP", "coord": {"lon": 139.717224, "lat": 35.520561}}, {"id": 7802105, "name": "Kawaswoti", "country": "NP", "coord": {"lon": 84.127563, "lat": 27.61747}}, {"id": 1859619, "name": "Kawatana", "country": "JP", "coord": {"lon": 129.866669, "lat": 33.066669}}, {"id": 1709018, "name": "Kawayan", "country": "PH", "coord": {"lon": 124.356667, "lat": 11.67944}}, {"id": 1709024, "name": "Kawayan", "country": "PH", "coord": {"lon": 122.872498, "lat": 7.53833}}, {"id": 3096437, "name": "Kaweczyn", "country": "PL", "coord": {"lon": 18.531019, "lat": 51.909229}}, {"id": 769364, "name": "Kaweczyn Nowy", "country": "PL", "coord": {"lon": 20.24703, "lat": 51.885971}}, {"id": 5989860, "name": "Kawene", "country": "CA", "coord": {"lon": -91.216873, "lat": 48.749828}}, {"id": 7036316, "name": "Kawengan", "country": "ID", "coord": {"lon": 111.680603, "lat": -7.0711}}, {"id": 8071101, "name": "Kawengan", "country": "ID", "coord": {"lon": 111.472397, "lat": -6.9387}}, {"id": 2188942, "name": "Kawerau", "country": "NZ", "coord": {"lon": 176.699997, "lat": -38.099998}}, {"id": 2188943, "name": "Kawerau District", "country": "NZ", "coord": {"lon": 176.716675, "lat": -38.099998}}, {"id": 1709007, "name": "Kawit", "country": "PH", "coord": {"lon": 120.900002, "lat": 14.45}}, {"id": 1709003, "name": "Kawit", "country": "PH", "coord": {"lon": 120.901642, "lat": 14.44426}}, {"id": 7415014, "name": "Kawit", "country": "ID", "coord": {"lon": 120.552002, "lat": -8.7215}}, {"id": 1709005, "name": "Kawit", "country": "PH", "coord": {"lon": 124.066673, "lat": 8.1875}}, {"id": 8045052, "name": "Kawitan", "country": "ID", "coord": {"lon": 108.270103, "lat": -7.5107}}, {"id": 353828, "name": "Kawm Hamadah", "country": "EG", "coord": {"lon": 30.69733, "lat": 30.76096}}, {"id": 353802, "name": "Kawm Umbu", "country": "EG", "coord": {"lon": 32.946259, "lat": 24.47669}}, {"id": 7780726, "name": "Kawoyang", "country": "ID", "coord": {"lon": 105.862701, "lat": -6.2428}}, {"id": 2161762, "name": "Kawungan", "country": "AU", "coord": {"lon": 152.833328, "lat": -25.299999}}, {"id": 1640871, "name": "Kawunglarang", "country": "ID", "coord": {"lon": 108.4832, "lat": -7.1649}}, {"id": 8073856, "name": "Kawungsari", "country": "ID", "coord": {"lon": 108.695702, "lat": -7.0678}}, {"id": 2701078, "name": "Kaxholmen", "country": "SE", "coord": {"lon": 14.3, "lat": 57.866669}}, {"id": 4540074, "name": "Kay County", "country": "US", "coord": {"lon": -97.150322, "lat": 36.850029}}, {"id": 2359608, "name": "Kaya", "country": "BF", "coord": {"lon": -1.08444, "lat": 13.09167}}, {"id": 308697, "name": "Kayabaglar", "country": "TR", "coord": {"lon": 41.665279, "lat": 37.982498}}, {"id": 308664, "name": "Kayac\u0131k", "country": "TR", "coord": {"lon": 28.774441, "lat": 36.701389}}, {"id": 308659, "name": "Kayac\u0131k", "country": "TR", "coord": {"lon": 32.586391, "lat": 37.985001}}, {"id": 308635, "name": "Kayadibi", "country": "TR", "coord": {"lon": 27.522221, "lat": 38.54472}}, {"id": 1319539, "name": "Kayah State", "country": "MM", "coord": {"lon": 97.5, "lat": 19.25}}, {"id": 551646, "name": "Kayakent", "country": "RU", "coord": {"lon": 47.903011, "lat": 42.38736}}, {"id": 308584, "name": "Kayalipinar", "country": "TR", "coord": {"lon": 41.225269, "lat": 37.333241}}, {"id": 1267361, "name": "Kayalpattinam", "country": "IN", "coord": {"lon": 78.116669, "lat": 8.56667}}, {"id": 1319533, "name": "Kayan", "country": "MM", "coord": {"lon": 96.563057, "lat": 16.90556}}, {"id": 7670994, "name": "Kayangel", "country": "PW", "coord": {"lon": 134.717255, "lat": 8.08228}}, {"id": 1267360, "name": "Kayankulam", "country": "IN", "coord": {"lon": 76.5, "lat": 9.18333}}, {"id": 430952, "name": "Kayanza", "country": "BI", "coord": {"lon": 29.629299, "lat": -2.9221}}, {"id": 1708983, "name": "Kayapa", "country": "PH", "coord": {"lon": 120.886703, "lat": 16.3592}}, {"id": 308572, "name": "Kayapinar", "country": "TR", "coord": {"lon": 41.164959, "lat": 37.55735}}, {"id": 2250677, "name": "Kayar", "country": "SN", "coord": {"lon": -17.121111, "lat": 14.91917}}, {"id": 551638, "name": "Kayasula", "country": "RU", "coord": {"lon": 45, "lat": 44.325001}}, {"id": 1267357, "name": "Kayattar", "country": "IN", "coord": {"lon": 77.800003, "lat": 8.95}}, {"id": 706604, "name": "Kaydaki", "country": "UA", "coord": {"lon": 35.123981, "lat": 48.376781}}, {"id": 8074716, "name": "Kayen", "country": "ID", "coord": {"lon": 111.741096, "lat": -6.8253}}, {"id": 2205745, "name": "Kayena", "country": "AU", "coord": {"lon": 146.898331, "lat": -41.19722}}, {"id": 5300830, "name": "Kayenta", "country": "US", "coord": {"lon": -110.254578, "lat": 36.727779}}, {"id": 2259383, "name": "Kayes", "country": "CG", "coord": {"lon": 13.29278, "lat": -4.16556}}, {"id": 2455518, "name": "Kayes", "country": "ML", "coord": {"lon": -11.4341, "lat": 14.4417}}, {"id": 2455516, "name": "Kayes Ndi", "country": "ML", "coord": {"lon": -11.4352, "lat": 14.4586}}, {"id": 6750152, "name": "Kaygamari", "country": "NE", "coord": {"lon": 10.13456, "lat": 13.59936}}, {"id": 6552108, "name": "Kayhude", "country": "DE", "coord": {"lon": 10.1333, "lat": 53.766701}}, {"id": 2891993, "name": "Kayhude", "country": "DE", "coord": {"lon": 10.13333, "lat": 53.76667}}, {"id": 2407829, "name": "Kayima", "country": "SL", "coord": {"lon": -11.16667, "lat": 8.88333}}, {"id": 1320233, "name": "Kayin State", "country": "MM", "coord": {"lon": 97.75, "lat": 17.5}}, {"id": 1319481, "name": "Kayinzu", "country": "MM", "coord": {"lon": 95.133331, "lat": 18.48333}}, {"id": 707245, "name": "Kayiry", "country": "UA", "coord": {"lon": 33.705921, "lat": 46.94537}}, {"id": 2960392, "name": "Kayl", "country": "LU", "coord": {"lon": 6, "lat": 49.5}}, {"id": 2960391, "name": "Kayl", "country": "LU", "coord": {"lon": 6.03972, "lat": 49.48917}}, {"id": 308504, "name": "Kaymaz", "country": "TR", "coord": {"lon": 31.17972, "lat": 39.51667}}, {"id": 2891991, "name": "Kayna", "country": "DE", "coord": {"lon": 12.23333, "lat": 50.98333}}, {"id": 308496, "name": "Kaynakkaya", "country": "TR", "coord": {"lon": 40.929829, "lat": 37.333881}}, {"id": 743633, "name": "Kaynarca", "country": "TR", "coord": {"lon": 30.307501, "lat": 41.03083}}, {"id": 730504, "name": "Kaynardzha", "country": "BG", "coord": {"lon": 27.5, "lat": 43.98333}}, {"id": 1708954, "name": "Kayogyog", "country": "PH", "coord": {"lon": 126.12944, "lat": 9.04417}}, {"id": 308463, "name": "Kayseri", "country": "TR", "coord": {"lon": 35.49683, "lat": 38.73695}}, {"id": 308464, "name": "Kayseri", "country": "TR", "coord": {"lon": 35.485279, "lat": 38.73222}}, {"id": 3011969, "name": "Kaysersberg", "country": "FR", "coord": {"lon": 7.26385, "lat": 48.138031}}, {"id": 5776715, "name": "Kaysville", "country": "US", "coord": {"lon": -111.938553, "lat": 41.035221}}, {"id": 743616, "name": "Kaytazdere", "country": "TR", "coord": {"lon": 29.53236, "lat": 40.682251}}, {"id": 1708942, "name": "Kaytitinga", "country": "PH", "coord": {"lon": 120.82917, "lat": 14.10722}}, {"id": 231696, "name": "Kayunga", "country": "UG", "coord": {"lon": 32.888611, "lat": 0.7025}}, {"id": 448218, "name": "Kayunga District", "country": "UG", "coord": {"lon": 32.866669, "lat": 1}}, {"id": 1504139, "name": "Kayyerkan", "country": "RU", "coord": {"lon": 87.743889, "lat": 69.378609}}, {"id": 1504081, "name": "Kaz", "country": "RU", "coord": {"lon": 87.310501, "lat": 52.911301}}, {"id": 2023029, "name": "Kazachinskoye", "country": "RU", "coord": {"lon": 107.580002, "lat": 56.26667}}, {"id": 1504075, "name": "Kazachinskoye", "country": "RU", "coord": {"lon": 93.276108, "lat": 57.695278}}, {"id": 823689, "name": "Kazachiy Brod", "country": "RU", "coord": {"lon": 39.985832, "lat": 43.518333}}, {"id": 856845, "name": "Kazachka", "country": "RU", "coord": {"lon": 38.069401, "lat": 53.364399}}, {"id": 551535, "name": "Kazaki", "country": "RU", "coord": {"lon": 38.264881, "lat": 52.62484}}, {"id": 6608675, "name": "Kazakovo", "country": "RU", "coord": {"lon": 42.051666, "lat": 56.824165}}, {"id": 551487, "name": "Kazan", "country": "RU", "coord": {"lon": 49.122139, "lat": 55.788738}}, {"id": 743615, "name": "Kazan", "country": "TR", "coord": {"lon": 32.683891, "lat": 40.23167}}, {"id": 308455, "name": "Kazanci", "country": "TR", "coord": {"lon": 40.600079, "lat": 37.770741}}, {"id": 730497, "name": "Kazanka", "country": "BG", "coord": {"lon": 25.41667, "lat": 42.466671}}, {"id": 706580, "name": "Kazanka", "country": "UA", "coord": {"lon": 32.82177, "lat": 47.846249}}, {"id": 730496, "name": "Kazanluk", "country": "BG", "coord": {"lon": 25.4, "lat": 42.616669}}, {"id": 769359, "name": "Kazanow", "country": "PL", "coord": {"lon": 21.467369, "lat": 51.275928}}, {"id": 551439, "name": "Kazanskaya", "country": "RU", "coord": {"lon": 40.4361, "lat": 45.410599}}, {"id": 551438, "name": "Kazanskaya", "country": "RU", "coord": {"lon": 41.146671, "lat": 49.793331}}, {"id": 1504019, "name": "Kazanskoye", "country": "RU", "coord": {"lon": 69.235001, "lat": 55.644772}}, {"id": 551424, "name": "Kazanskoye", "country": "RU", "coord": {"lon": 38.55611, "lat": 55.737221}}, {"id": 3050459, "name": "Kazar", "country": "HU", "coord": {"lon": 19.861429, "lat": 48.049519}}, {"id": 551408, "name": "Kazarets", "country": "RU", "coord": {"lon": 36.033333, "lat": 56.349998}}, {"id": 1528005, "name": "Kazarman", "country": "KG", "coord": {"lon": 74.028282, "lat": 41.404518}}, {"id": 551410, "name": "Kazar\u2019", "country": "RU", "coord": {"lon": 40.090279, "lat": 54.569168}}, {"id": 551407, "name": "Kazar\u2019", "country": "RU", "coord": {"lon": 36.926392, "lat": 52.881672}}, {"id": 2334674, "name": "Kazaure", "country": "NG", "coord": {"lon": 8.41615, "lat": 12.65131}}, {"id": 551379, "name": "Kazayak", "country": "RU", "coord": {"lon": 57.13028, "lat": 54.977222}}, {"id": 551378, "name": "Kazazov", "country": "RU", "coord": {"lon": 39.174168, "lat": 44.903332}}, {"id": 1129154, "name": "Kaze Karez", "country": "AF", "coord": {"lon": 65.845009, "lat": 31.537979}}, {"id": 537914, "name": "Kazenno-Kuzhorskiy", "country": "RU", "coord": {"lon": 40.6675, "lat": 44.660831}}, {"id": 128321, "name": "Kazerun", "country": "IR", "coord": {"lon": 51.654148, "lat": 29.61949}}, {"id": 1137548, "name": "Kazhah", "country": "AF", "coord": {"lon": 70.182739, "lat": 34.240879}}, {"id": 6461723, "name": "Kazichene", "country": "BG", "coord": {"lon": 23.466669, "lat": 42.666672}}, {"id": 730489, "name": "Kazichene", "country": "BG", "coord": {"lon": 23.466669, "lat": 42.666672}}, {"id": 706557, "name": "Kazil\u2019", "country": "UA", "coord": {"lon": 34.5, "lat": 44.950001}}, {"id": 3096400, "name": "Kazimierz Biskupi", "country": "PL", "coord": {"lon": 18.16581, "lat": 52.311001}}, {"id": 7533442, "name": "Kazimierz Dolny", "country": "PL", "coord": {"lon": 21.950001, "lat": 51.3069}}, {"id": 769345, "name": "Kazimierz Dolny", "country": "PL", "coord": {"lon": 21.955021, "lat": 51.319111}}, {"id": 769346, "name": "Kazimierza Wielka", "country": "PL", "coord": {"lon": 20.49358, "lat": 50.26564}}, {"id": 308400, "name": "Kazimkarabekir", "country": "TR", "coord": {"lon": 32.958889, "lat": 37.230282}}, {"id": 719311, "name": "Kazincbarcika", "country": "HU", "coord": {"lon": 20.633329, "lat": 48.25}}, {"id": 598286, "name": "Kazlu Ruda", "country": "LT", "coord": {"lon": 23.5, "lat": 54.76667}}, {"id": 829056, "name": "Kazluk", "country": "RU", "coord": {"lon": 49.334099, "lat": 62.10339}}, {"id": 3096392, "name": "Kazmierz", "country": "PL", "coord": {"lon": 16.58403, "lat": 52.513088}}, {"id": 3073752, "name": "Kaznejov", "country": "CZ", "coord": {"lon": 13.38295, "lat": 49.893131}}, {"id": 551277, "name": "Kazn\u00ebvo", "country": "RU", "coord": {"lon": 41.933334, "lat": 55.283333}}, {"id": 1859586, "name": "Kazo", "country": "JP", "coord": {"lon": 139.600006, "lat": 36.116669}}, {"id": 609454, "name": "Kaztalovka", "country": "KZ", "coord": {"lon": 48.695, "lat": 49.7575}}, {"id": 2130146, "name": "Kazuno", "country": "JP", "coord": {"lon": 140.787216, "lat": 40.183609}}, {"id": 2492809, "name": "Ka\u00efs", "country": "DZ", "coord": {"lon": 6.92492, "lat": 35.49474}}, {"id": 7533486, "name": "Ka\u0144czuga", "country": "PL", "coord": {"lon": 22.395599, "lat": 49.9772}}, {"id": 3073743, "name": "Kbely", "country": "CZ", "coord": {"lon": 14.55, "lat": 50.133331}}, {"id": 3096385, "name": "Kcynia", "country": "PL", "coord": {"lon": 17.4883, "lat": 52.99192}}, {"id": 3073739, "name": "Kdyne", "country": "CZ", "coord": {"lon": 13.03968, "lat": 49.39077}}, {"id": 2455465, "name": "Ke-Macina", "country": "ML", "coord": {"lon": -5.3572, "lat": 13.9623}}, {"id": 260348, "name": "Kea", "country": "GR", "coord": {"lon": 24.35, "lat": 37.633331}}, {"id": 5848891, "name": "Keaau", "country": "US", "coord": {"lon": -155.041672, "lat": 19.625561}}, {"id": 2645917, "name": "Keady", "country": "GB", "coord": {"lon": -6.7, "lat": 54.25}}, {"id": 5848956, "name": "Kealakekua", "country": "US", "coord": {"lon": -155.922501, "lat": 19.52083}}, {"id": 2963547, "name": "Kealkill", "country": "IE", "coord": {"lon": -9.39917, "lat": 51.757221}}, {"id": 5099961, "name": "Keansburg", "country": "US", "coord": {"lon": -74.12986, "lat": 40.441769}}, {"id": 5071348, "name": "Kearney", "country": "US", "coord": {"lon": -99.081482, "lat": 40.699459}}, {"id": 4393269, "name": "Kearney", "country": "US", "coord": {"lon": -94.362167, "lat": 39.367779}}, {"id": 4432161, "name": "Kearney Park", "country": "US", "coord": {"lon": -90.315369, "lat": 32.589031}}, {"id": 5776727, "name": "Kearns", "country": "US", "coord": {"lon": -111.99633, "lat": 40.65995}}, {"id": 5099967, "name": "Kearny", "country": "US", "coord": {"lon": -74.145416, "lat": 40.768429}}, {"id": 5300854, "name": "Kearny", "country": "US", "coord": {"lon": -110.910667, "lat": 33.057011}}, {"id": 5445733, "name": "Kearny County", "country": "US", "coord": {"lon": -101.317108, "lat": 37.983349}}, {"id": 2645911, "name": "Kearsley", "country": "GB", "coord": {"lon": -2.38333, "lat": 53.533329}}, {"id": 5990019, "name": "Keatley", "country": "CA", "coord": {"lon": -107.467949, "lat": 52.800121}}, {"id": 4863239, "name": "Keb (historical)", "country": "US", "coord": {"lon": -92.458519, "lat": 41.083351}}, {"id": 308389, "name": "Keban", "country": "TR", "coord": {"lon": 38.733608, "lat": 38.797779}}, {"id": 1640778, "name": "Kebasen", "country": "ID", "coord": {"lon": 109.199722, "lat": -7.53333}}, {"id": 2597363, "name": "Kebbi State", "country": "NG", "coord": {"lon": 4, "lat": 11.5}}, {"id": 2468018, "name": "Kebili", "country": "TN", "coord": {"lon": 8.96903, "lat": 33.704391}}, {"id": 1640769, "name": "Kebinti", "country": "ID", "coord": {"lon": 106.166672, "lat": -2.16667}}, {"id": 8074552, "name": "Kebloran", "country": "ID", "coord": {"lon": 111.634598, "lat": -6.7065}}, {"id": 1640765, "name": "Kebomas", "country": "ID", "coord": {"lon": 112.633301, "lat": -7.16667}}, {"id": 7036608, "name": "Kebon", "country": "ID", "coord": {"lon": 112.471703, "lat": -7.04}}, {"id": 7766692, "name": "Kebon", "country": "ID", "coord": {"lon": 105.878197, "lat": -6.473}}, {"id": 8060816, "name": "Kebon", "country": "ID", "coord": {"lon": 111.351303, "lat": -6.7499}}, {"id": 8070951, "name": "Kebon", "country": "ID", "coord": {"lon": 111.428802, "lat": -6.8598}}, {"id": 7036717, "name": "Kebon Tengah", "country": "ID", "coord": {"lon": 112.466698, "lat": -7.0937}}, {"id": 8058370, "name": "Kebonagung", "country": "ID", "coord": {"lon": 111.066803, "lat": -6.7117}}, {"id": 8060971, "name": "Kebonagung", "country": "ID", "coord": {"lon": 111.344704, "lat": -6.7523}}, {"id": 8142603, "name": "Kebonagung", "country": "ID", "coord": {"lon": 112.532204, "lat": -6.9435}}, {"id": 8144768, "name": "Kebonagung", "country": "ID", "coord": {"lon": 111.456703, "lat": -8.2355}}, {"id": 7375776, "name": "Kebonan", "country": "ID", "coord": {"lon": 113.228302, "lat": -8.2162}}, {"id": 7375801, "name": "Kebonan", "country": "ID", "coord": {"lon": 113.132301, "lat": -8.2261}}, {"id": 8185077, "name": "Kebonan", "country": "ID", "coord": {"lon": 113.407898, "lat": -8.3122}}, {"id": 1640755, "name": "Kebonarun", "country": "ID", "coord": {"lon": 110.563057, "lat": -7.70028}}, {"id": 8023749, "name": "Kebonbencoy", "country": "ID", "coord": {"lon": 108.187401, "lat": -7.2535}}, {"id": 7765494, "name": "Keboncau", "country": "ID", "coord": {"lon": 106.210098, "lat": -6.6281}}, {"id": 7780172, "name": "Keboncau", "country": "ID", "coord": {"lon": 106.105103, "lat": -6.3068}}, {"id": 7783035, "name": "Keboncau", "country": "ID", "coord": {"lon": 106.102097, "lat": -6.5217}}, {"id": 8078546, "name": "Kebondempet", "country": "ID", "coord": {"lon": 112.100403, "lat": -6.9405}}, {"id": 8073246, "name": "Kebonharjo", "country": "ID", "coord": {"lon": 111.624702, "lat": -6.864}}, {"id": 7766008, "name": "Kebonjaya", "country": "ID", "coord": {"lon": 105.852997, "lat": -6.4446}}, {"id": 7766464, "name": "Kebonjeruk", "country": "ID", "coord": {"lon": 105.922302, "lat": -6.3888}}, {"id": 7914414, "name": "Kebonkai", "country": "ID", "coord": {"lon": 107.967003, "lat": -7.5025}}, {"id": 7783094, "name": "Kebonkalapa", "country": "ID", "coord": {"lon": 106.026901, "lat": -6.5897}}, {"id": 7888038, "name": "Kebonkaret", "country": "ID", "coord": {"lon": 107.0718, "lat": -7.2417}}, {"id": 8042176, "name": "Kebonkaret", "country": "ID", "coord": {"lon": 107.159103, "lat": -7.0558}}, {"id": 7848922, "name": "Kebonkopi", "country": "ID", "coord": {"lon": 107.2556, "lat": -7.4855}}, {"id": 1965366, "name": "Kebonsari", "country": "ID", "coord": {"lon": 112.619102, "lat": -8.0176}}, {"id": 7034868, "name": "Kebonsari", "country": "ID", "coord": {"lon": 112.069298, "lat": -8.2002}}, {"id": 7350565, "name": "Kebonsari", "country": "ID", "coord": {"lon": 113.313797, "lat": -8.2461}}, {"id": 7375769, "name": "Kebonsari", "country": "ID", "coord": {"lon": 113.170197, "lat": -8.21098}}, {"id": 8078488, "name": "Kebonsari", "country": "ID", "coord": {"lon": 112.064499, "lat": -6.9044}}, {"id": 8144775, "name": "Kebonsari", "country": "ID", "coord": {"lon": 111.457802, "lat": -8.2151}}, {"id": 8185032, "name": "Kebonsari", "country": "ID", "coord": {"lon": 113.447701, "lat": -8.2641}}, {"id": 8185431, "name": "Kebonsari", "country": "ID", "coord": {"lon": 113.526604, "lat": -8.3187}}, {"id": 8185039, "name": "Kebonsari Kidul", "country": "ID", "coord": {"lon": 113.451797, "lat": -8.2766}}, {"id": 8060274, "name": "Kebonsawahan", "country": "ID", "coord": {"lon": 111.145897, "lat": -6.7108}}, {"id": 8024185, "name": "Kebontiwu", "country": "ID", "coord": {"lon": 108.227402, "lat": -7.3299}}, {"id": 8058020, "name": "Kebonturi", "country": "ID", "coord": {"lon": 111.184196, "lat": -6.7589}}, {"id": 7083099, "name": "Kebonwaru Satu", "country": "ID", "coord": {"lon": 113.672096, "lat": -8.1532}}, {"id": 7545189, "name": "Kebunjeruk", "country": "ID", "coord": {"lon": 114.377602, "lat": -8.1977}}, {"id": 3050454, "name": "Kecel", "country": "HU", "coord": {"lon": 19.25194, "lat": 46.52528}}, {"id": 4273881, "name": "Kechi", "country": "US", "coord": {"lon": -97.279488, "lat": 37.795849}}, {"id": 308365, "name": "Keciborlu", "country": "TR", "coord": {"lon": 30.302219, "lat": 37.942501}}, {"id": 3050447, "name": "Kecsked", "country": "HU", "coord": {"lon": 18.309389, "lat": 47.52298}}, {"id": 3050434, "name": "Kecskemet", "country": "HU", "coord": {"lon": 19.69128, "lat": 46.906181}}, {"id": 7007043, "name": "Keda", "country": "CN", "coord": {"lon": 109.240593, "lat": 29.02894}}, {"id": 1733048, "name": "Kedah", "country": "MY", "coord": {"lon": 100.666672, "lat": 6}}, {"id": 598272, "name": "Kedainiai", "country": "LT", "coord": {"lon": 23.97472, "lat": 55.28833}}, {"id": 8060288, "name": "Kedalon", "country": "ID", "coord": {"lon": 111.226997, "lat": -6.7217}}, {"id": 7081842, "name": "Kedampul", "country": "ID", "coord": {"lon": 112.813202, "lat": -8.0097}}, {"id": 3011968, "name": "Kedange-sur-Canner", "country": "FR", "coord": {"lon": 6.3372, "lat": 49.307911}}, {"id": 1640688, "name": "Kedaton", "country": "ID", "coord": {"lon": 105.259598, "lat": -5.38354}}, {"id": 8067485, "name": "Kedatuan", "country": "ID", "coord": {"lon": 108.587898, "lat": -7.041}}, {"id": 8064259, "name": "Kedawung", "country": "ID", "coord": {"lon": 108.376801, "lat": -7.2304}}, {"id": 1640668, "name": "Kedewan", "country": "ID", "coord": {"lon": 111.638496, "lat": -7.036}}, {"id": 6942800, "name": "Kedgwick", "country": "CA", "coord": {"lon": -67.343437, "lat": 47.644569}}, {"id": 1804784, "name": "Kedian", "country": "CN", "coord": {"lon": 112.86747, "lat": 31.360531}}, {"id": 2645900, "name": "Kedington", "country": "GB", "coord": {"lon": 0.48675, "lat": 52.092819}}, {"id": 8140917, "name": "Kediren", "country": "ID", "coord": {"lon": 112.405602, "lat": -6.9949}}, {"id": 1640660, "name": "Kediri", "country": "ID", "coord": {"lon": 112.01667, "lat": -7.81667}}, {"id": 1640658, "name": "Kediri", "country": "ID", "coord": {"lon": 116.151497, "lat": -8.6343}}, {"id": 1965685, "name": "Kedok", "country": "ID", "coord": {"lon": 112.694847, "lat": -8.14891}}, {"id": 7666470, "name": "Kedondong", "country": "ID", "coord": {"lon": 105.0009, "lat": -5.46284}}, {"id": 2250645, "name": "Kedougou", "country": "SN", "coord": {"lon": -12.1743, "lat": 12.5579}}, {"id": 1503955, "name": "Kedr", "country": "RU", "coord": {"lon": 60.650002, "lat": 60.433331}}, {"id": 2022996, "name": "Kedrovaya", "country": "RU", "coord": {"lon": 104.936943, "lat": 51.511391}}, {"id": 1503940, "name": "Kedrovka", "country": "RU", "coord": {"lon": 86.050003, "lat": 55.533329}}, {"id": 1503931, "name": "Kedrovoye", "country": "RU", "coord": {"lon": 60.569801, "lat": 57.1576}}, {"id": 1540484, "name": "Kedrovyy", "country": "RU", "coord": {"lon": 79.515556, "lat": 57.519718}}, {"id": 1538641, "name": "Kedrovyy", "country": "RU", "coord": {"lon": 91.816673, "lat": 56.166672}}, {"id": 1640641, "name": "Kedung", "country": "ID", "coord": {"lon": 111.0439, "lat": -6.599}}, {"id": 8068188, "name": "Kedung", "country": "ID", "coord": {"lon": 111.4935, "lat": -6.7294}}, {"id": 1985535, "name": "Kedungasem", "country": "ID", "coord": {"lon": 112.778702, "lat": -7.3216}}, {"id": 8058140, "name": "Kedungbacin", "country": "ID", "coord": {"lon": 111.225601, "lat": -6.8669}}, {"id": 7688373, "name": "Kedungbakung", "country": "ID", "coord": {"lon": 108.773331, "lat": -7.5052}}, {"id": 8056407, "name": "Kedungbang", "country": "ID", "coord": {"lon": 111.020203, "lat": -6.5428}}, {"id": 7034914, "name": "Kedungbanteng", "country": "ID", "coord": {"lon": 112.092598, "lat": -8.2381}}, {"id": 8170763, "name": "Kedungbanteng Krajan", "country": "ID", "coord": {"lon": 112.713501, "lat": -8.3666}}, {"id": 7688413, "name": "Kedungbulu", "country": "ID", "coord": {"lon": 108.7836, "lat": -7.5379}}, {"id": 7081694, "name": "Kedungbunder", "country": "ID", "coord": {"lon": 112.208298, "lat": -8.1775}}, {"id": 7579579, "name": "Kedungdoro", "country": "ID", "coord": {"lon": 111.950203, "lat": -8.0577}}, {"id": 8060755, "name": "Kedungdoro", "country": "ID", "coord": {"lon": 111.3461, "lat": -6.7174}}, {"id": 1958037, "name": "Kedungdowo", "country": "ID", "coord": {"lon": 114.1492, "lat": -7.7515}}, {"id": 7034642, "name": "Kedungdowo", "country": "ID", "coord": {"lon": 111.975098, "lat": -8.203}}, {"id": 8073187, "name": "Kedungdowo", "country": "ID", "coord": {"lon": 111.5765, "lat": -6.7625}}, {"id": 8079000, "name": "Kedunggajul", "country": "ID", "coord": {"lon": 112.076302, "lat": -8.2852}}, {"id": 8075248, "name": "Kedungharjo", "country": "ID", "coord": {"lon": 111.723, "lat": -6.9777}}, {"id": 8071187, "name": "Kedungjenar", "country": "ID", "coord": {"lon": 111.420998, "lat": -6.9758}}, {"id": 7406047, "name": "Kedungkrajan", "country": "ID", "coord": {"lon": 112.582703, "lat": -8.1476}}, {"id": 1640603, "name": "Kedunglo", "country": "ID", "coord": {"lon": 114.220299, "lat": -7.7863}}, {"id": 8075218, "name": "Kedungmulyo", "country": "ID", "coord": {"lon": 111.719101, "lat": -6.9569}}, {"id": 8060302, "name": "Kedungpancing", "country": "ID", "coord": {"lon": 111.146202, "lat": -6.7247}}, {"id": 1640600, "name": "Kedungpeluk", "country": "ID", "coord": {"lon": 112.754601, "lat": -7.4824}}, {"id": 1640598, "name": "Kedungreja", "country": "ID", "coord": {"lon": 108.779808, "lat": -7.50472}}, {"id": 7037644, "name": "Kedungrejo", "country": "ID", "coord": {"lon": 114.1726, "lat": -8.5141}}, {"id": 7334568, "name": "Kedungrejo", "country": "ID", "coord": {"lon": 114.320503, "lat": -8.4399}}, {"id": 7334656, "name": "Kedungrejo", "country": "ID", "coord": {"lon": 114.320503, "lat": -8.4399}}, {"id": 8067922, "name": "Kedungringin", "country": "ID", "coord": {"lon": 111.356003, "lat": -6.9883}}, {"id": 8068758, "name": "Kedungringin", "country": "ID", "coord": {"lon": 111.584297, "lat": -6.7387}}, {"id": 7688499, "name": "Kedungsalam", "country": "ID", "coord": {"lon": 108.7556, "lat": -7.6098}}, {"id": 7579657, "name": "Kedungsinggil", "country": "ID", "coord": {"lon": 111.9161, "lat": -8.0993}}, {"id": 7334612, "name": "Kedungsumur", "country": "ID", "coord": {"lon": 114.319504, "lat": -8.4982}}, {"id": 8185059, "name": "Kedungsumurkrajan", "country": "ID", "coord": {"lon": 113.487396, "lat": -8.2867}}, {"id": 7579574, "name": "Kedungtaman", "country": "ID", "coord": {"lon": 111.9114, "lat": -8.0547}}, {"id": 1640587, "name": "Kedungtuban", "country": "ID", "coord": {"lon": 111.494003, "lat": -7.164}}, {"id": 8061040, "name": "Kedungtulup", "country": "ID", "coord": {"lon": 111.271004, "lat": -6.8235}}, {"id": 1640585, "name": "Kedungwaru", "country": "ID", "coord": {"lon": 111.916672, "lat": -8.06667}}, {"id": 8074342, "name": "Kedungwringin", "country": "ID", "coord": {"lon": 108.767998, "lat": -7.4769}}, {"id": 7334595, "name": "Kedungwringin Satu", "country": "ID", "coord": {"lon": 114.334503, "lat": -8.4537}}, {"id": 1640583, "name": "Kedungwuluh", "country": "ID", "coord": {"lon": 108.687302, "lat": -7.536}}, {"id": 1640581, "name": "Kedungwuni", "country": "ID", "coord": {"lon": 109.647942, "lat": -6.97038}}, {"id": 3096372, "name": "Kedzierzyn-Kozle", "country": "PL", "coord": {"lon": 18.226061, "lat": 50.349838}}, {"id": 4359694, "name": "Keedysville", "country": "US", "coord": {"lon": -77.699707, "lat": 39.48621}}, {"id": 4997868, "name": "Keego Harbor", "country": "US", "coord": {"lon": -83.343819, "lat": 42.608089}}, {"id": 4070512, "name": "Keel (historical)", "country": "US", "coord": {"lon": -86.307762, "lat": 34.51675}}, {"id": 1252646, "name": "Keelakarai", "country": "IN", "coord": {"lon": 78.783333, "lat": 9.23333}}, {"id": 2891981, "name": "Keelbek", "country": "DE", "coord": {"lon": 9.41667, "lat": 54.650002}}, {"id": 2645898, "name": "Keelby", "country": "GB", "coord": {"lon": -0.24701, "lat": 53.575802}}, {"id": 5990125, "name": "Keeler", "country": "CA", "coord": {"lon": -105.884483, "lat": 50.683369}}, {"id": 6724654, "name": "Keelung", "country": "TW", "coord": {"lon": 121.689873, "lat": 25.114861}}, {"id": 1678228, "name": "Keelung", "country": "TW", "coord": {"lon": 121.741898, "lat": 25.12825}}, {"id": 2161737, "name": "Keely", "country": "AU", "coord": {"lon": 144.25, "lat": -35.849998}}, {"id": 2963538, "name": "Keenagh", "country": "IE", "coord": {"lon": -7.81488, "lat": 53.623161}}, {"id": 5990160, "name": "Keene", "country": "CA", "coord": {"lon": -78.166222, "lat": 44.250118}}, {"id": 5088262, "name": "Keene", "country": "US", "coord": {"lon": -72.278137, "lat": 42.933689}}, {"id": 4702785, "name": "Keene", "country": "US", "coord": {"lon": -97.323898, "lat": 32.396809}}, {"id": 5578653, "name": "Keenesburg", "country": "US", "coord": {"lon": -104.519958, "lat": 40.108318}}, {"id": 2161734, "name": "Keepit", "country": "AU", "coord": {"lon": 150.516663, "lat": -30.83333}}, {"id": 2161732, "name": "Keera", "country": "AU", "coord": {"lon": 150.783325, "lat": -29.98333}}, {"id": 2794620, "name": "Keerbergen", "country": "BE", "coord": {"lon": 4.63692, "lat": 51.002201}}, {"id": 2794619, "name": "Keerbergen", "country": "BE", "coord": {"lon": 4.63434, "lat": 51.002949}}, {"id": 5123173, "name": "Keeseville", "country": "US", "coord": {"lon": -73.480133, "lat": 44.505051}}, {"id": 2891977, "name": "Keesow", "country": "DE", "coord": {"lon": 14.33596, "lat": 53.272659}}, {"id": 3356264, "name": "Keetmanshoop", "country": "NA", "coord": {"lon": 18.133329, "lat": -26.58333}}, {"id": 5990225, "name": "Keewatin", "country": "CA", "coord": {"lon": -94.567139, "lat": 49.766708}}, {"id": 5032963, "name": "Keewatin", "country": "US", "coord": {"lon": -93.072418, "lat": 47.399658}}, {"id": 2891975, "name": "Keez", "country": "DE", "coord": {"lon": 11.63333, "lat": 53.73333}}, {"id": 7290409, "name": "Kefalonia", "country": "GR", "coord": {"lon": 20.50246, "lat": 38.122269}}, {"id": 260308, "name": "Kefalos", "country": "GR", "coord": {"lon": 26.958891, "lat": 36.745281}}, {"id": 735839, "name": "Kefalovryson", "country": "GR", "coord": {"lon": 20.5625, "lat": 40.014439}}, {"id": 1640576, "name": "Kefamenanu", "country": "ID", "coord": {"lon": 124.478058, "lat": -9.44667}}, {"id": 1804781, "name": "Kefang", "country": "CN", "coord": {"lon": 116.586937, "lat": 26.7174}}, {"id": 294568, "name": "Kefar Aharon", "country": "IL", "coord": {"lon": 34.792782, "lat": 31.91111}}, {"id": 294545, "name": "Kefar Habad", "country": "IL", "coord": {"lon": 34.851109, "lat": 31.98667}}, {"id": 294508, "name": "Kefar Shemaryahu", "country": "IL", "coord": {"lon": 34.821941, "lat": 32.185558}}, {"id": 294502, "name": "Kefar Tavor", "country": "IL", "coord": {"lon": 35.421181, "lat": 32.686562}}, {"id": 386445, "name": "Kefar Weradim", "country": "IL", "coord": {"lon": 35.277931, "lat": 32.993851}}, {"id": 294498, "name": "Kefar Witqin", "country": "IL", "coord": {"lon": 34.877369, "lat": 32.38126}}, {"id": 294492, "name": "Kefar Yona", "country": "IL", "coord": {"lon": 34.93507, "lat": 32.316689}}, {"id": 6553209, "name": "Kefenrod", "country": "DE", "coord": {"lon": 9.2, "lat": 50.349998}}, {"id": 2891973, "name": "Kefenrod", "country": "DE", "coord": {"lon": 9.2, "lat": 50.349998}}, {"id": 2891972, "name": "Keferloh", "country": "DE", "coord": {"lon": 11.72748, "lat": 48.095051}}, {"id": 2891969, "name": "Keffenbrink", "country": "DE", "coord": {"lon": 12.84842, "lat": 54.01907}}, {"id": 6549790, "name": "Kefferhausen", "country": "DE", "coord": {"lon": 10.2833, "lat": 51.3167}}, {"id": 2891968, "name": "Kefferhausen", "country": "DE", "coord": {"lon": 10.28333, "lat": 51.316669}}, {"id": 2334652, "name": "Keffi", "country": "NG", "coord": {"lon": 7.87361, "lat": 8.84861}}, {"id": 2334649, "name": "Keffin Hausa", "country": "NG", "coord": {"lon": 9.90798, "lat": 12.23753}}, {"id": 3415496, "name": "Keflavik", "country": "IS", "coord": {"lon": -22.56242, "lat": 64.004921}}, {"id": 5990251, "name": "Kegaska", "country": "CA", "coord": {"lon": -61.270981, "lat": 50.183739}}, {"id": 2891964, "name": "Kegelheim", "country": "DE", "coord": {"lon": 11.56397, "lat": 49.429619}}, {"id": 1522818, "name": "Kegen", "country": "KZ", "coord": {"lon": 79.220284, "lat": 43.019718}}, {"id": 601349, "name": "Kegeyli Shahar", "country": "UZ", "coord": {"lon": 59.60778, "lat": 42.776669}}, {"id": 458892, "name": "Kegums", "country": "LV", "coord": {"lon": 24.72439, "lat": 56.745098}}, {"id": 2645891, "name": "Kegworth", "country": "GB", "coord": {"lon": -1.28042, "lat": 52.83482}}, {"id": 2891951, "name": "Kehl", "country": "DE", "coord": {"lon": 7.81523, "lat": 48.572971}}, {"id": 6554050, "name": "Kehlbach", "country": "DE", "coord": {"lon": 7.76667, "lat": 50.266701}}, {"id": 2891948, "name": "Kehlbach", "country": "DE", "coord": {"lon": 7.75884, "lat": 50.25922}}, {"id": 6693263, "name": "Kehlen", "country": "LU", "coord": {"lon": 6.03583, "lat": 49.668331}}, {"id": 2960389, "name": "Kehlen", "country": "LU", "coord": {"lon": 6.03583, "lat": 49.668331}}, {"id": 6549843, "name": "Kehmstedt", "country": "DE", "coord": {"lon": 10.6, "lat": 51.466702}}, {"id": 2891925, "name": "Kehmstedt", "country": "DE", "coord": {"lon": 10.6, "lat": 51.466671}}, {"id": 2891922, "name": "Kehnert", "country": "DE", "coord": {"lon": 11.86667, "lat": 52.333328}}, {"id": 591476, "name": "Kehra", "country": "EE", "coord": {"lon": 25.32111, "lat": 59.336109}}, {"id": 6553757, "name": "Kehrig", "country": "DE", "coord": {"lon": 7.21667, "lat": 50.283298}}, {"id": 2891899, "name": "Kehrig", "country": "DE", "coord": {"lon": 7.21667, "lat": 50.283329}}, {"id": 7286184, "name": "Kehrsatz", "country": "CH", "coord": {"lon": 7.47155, "lat": 46.912121}}, {"id": 2660177, "name": "Kehrsatz", "country": "CH", "coord": {"lon": 7.47096, "lat": 46.910351}}, {"id": 2891894, "name": "Kehrum", "country": "DE", "coord": {"lon": 6.33333, "lat": 51.716671}}, {"id": 591475, "name": "Kehtna", "country": "EE", "coord": {"lon": 24.878059, "lat": 58.930279}}, {"id": 7522298, "name": "Kehtna vald", "country": "EE", "coord": {"lon": 24.89002, "lat": 58.842739}}, {"id": 706546, "name": "Kehychivka", "country": "UA", "coord": {"lon": 35.761532, "lat": 49.28656}}, {"id": 6553911, "name": "Keidelheim", "country": "DE", "coord": {"lon": 7.5, "lat": 49.983299}}, {"id": 2891889, "name": "Keidelheim", "country": "DE", "coord": {"lon": 7.5, "lat": 49.98333}}, {"id": 2891888, "name": "Keidenzell", "country": "DE", "coord": {"lon": 10.78333, "lat": 49.466671}}, {"id": 7301702, "name": "Keighley", "country": "GB", "coord": {"lon": -1.93194, "lat": 53.86768}}, {"id": 2645889, "name": "Keighley", "country": "GB", "coord": {"lon": -1.90664, "lat": 53.867908}}, {"id": 591472, "name": "Keila", "country": "EE", "coord": {"lon": 24.413059, "lat": 59.303612}}, {"id": 6550446, "name": "Keila", "country": "DE", "coord": {"lon": 11.66199, "lat": 50.636829}}, {"id": 2891887, "name": "Keila", "country": "DE", "coord": {"lon": 11.66182, "lat": 50.637379}}, {"id": 7522300, "name": "Keila linn", "country": "EE", "coord": {"lon": 24.386511, "lat": 59.311352}}, {"id": 7522299, "name": "Keila vald", "country": "EE", "coord": {"lon": 24.110109, "lat": 59.326408}}, {"id": 2161719, "name": "Keilor", "country": "AU", "coord": {"lon": 144.833328, "lat": -37.716671}}, {"id": 2161715, "name": "Keiraville", "country": "AU", "coord": {"lon": 150.866669, "lat": -34.416672}}, {"id": 2960387, "name": "Keispelt", "country": "LU", "coord": {"lon": 6.06944, "lat": 49.694439}}, {"id": 2442478, "name": "Keita", "country": "NE", "coord": {"lon": 5.7749, "lat": 14.7551}}, {"id": 653387, "name": "Keitele", "country": "FI", "coord": {"lon": 26.366671, "lat": 63.183331}}, {"id": 653389, "name": "Keitele", "country": "FI", "coord": {"lon": 26.33333, "lat": 63.166672}}, {"id": 5990301, "name": "Keith", "country": "CA", "coord": {"lon": -114.251999, "lat": 51.100109}}, {"id": 4540094, "name": "Keith", "country": "US", "coord": {"lon": -95.464691, "lat": 36.09177}}, {"id": 2161714, "name": "Keith", "country": "AU", "coord": {"lon": 140.350006, "lat": -36.099998}}, {"id": 2645880, "name": "Keith", "country": "GB", "coord": {"lon": -2.94811, "lat": 57.536331}}, {"id": 5696644, "name": "Keith County", "country": "US", "coord": {"lon": -101.650452, "lat": 41.199989}}, {"id": 2161713, "name": "Keith Hall", "country": "AU", "coord": {"lon": 153.533325, "lat": -28.9}}, {"id": 1841598, "name": "Keizan", "country": "KR", "coord": {"lon": 128.737778, "lat": 35.82333}}, {"id": 5734711, "name": "Keizer", "country": "US", "coord": {"lon": -123.026207, "lat": 44.99012}}, {"id": 8075232, "name": "Kejuron", "country": "ID", "coord": {"lon": 111.685799, "lat": -6.9707}}, {"id": 719280, "name": "Kek", "country": "HU", "coord": {"lon": 21.883329, "lat": 48.116669}}, {"id": 7414249, "name": "Keka", "country": "ID", "coord": {"lon": 120.3498, "lat": -8.8204}}, {"id": 5849164, "name": "Kekaha", "country": "US", "coord": {"lon": -159.713181, "lat": 21.968309}}, {"id": 458880, "name": "Kekava", "country": "LV", "coord": {"lon": 24.23, "lat": 56.826618}}, {"id": 7039068, "name": "Kekeran", "country": "ID", "coord": {"lon": 115.177696, "lat": -8.4906}}, {"id": 7335766, "name": "Kekeri", "country": "ID", "coord": {"lon": 116.1278, "lat": -8.557}}, {"id": 1267336, "name": "Kekri", "country": "IN", "coord": {"lon": 75.150002, "lat": 25.966669}}, {"id": 8074703, "name": "Kelabang", "country": "ID", "coord": {"lon": 111.727402, "lat": -6.7799}}, {"id": 1267331, "name": "Kelamangalam", "country": "IN", "coord": {"lon": 77.849998, "lat": 12.6}}, {"id": 7541337, "name": "Kelanabian", "country": "ID", "coord": {"lon": 115.176903, "lat": -8.7519}}, {"id": 1240622, "name": "Kelaniya", "country": "LK", "coord": {"lon": 79.921997, "lat": 6.9553}}, {"id": 1733044, "name": "Kelantan", "country": "MY", "coord": {"lon": 102, "lat": 5.33333}}, {"id": 1761293, "name": "Kelapa Sawit", "country": "MY", "coord": {"lon": 103.5327, "lat": 1.6698}}, {"id": 6554694, "name": "Kelberg", "country": "DE", "coord": {"lon": 6.91667, "lat": 50.299999}}, {"id": 2891846, "name": "Kelberg", "country": "DE", "coord": {"lon": 6.9195, "lat": 50.291641}}, {"id": 2891844, "name": "Kelbra", "country": "DE", "coord": {"lon": 11.04143, "lat": 51.43528}}, {"id": 2188922, "name": "Kelburn", "country": "NZ", "coord": {"lon": 174.766663, "lat": -41.283329}}, {"id": 3073731, "name": "Kelc", "country": "CZ", "coord": {"lon": 17.815331, "lat": 49.478439}}, {"id": 2891838, "name": "Kelchsried", "country": "DE", "coord": {"lon": 10.61667, "lat": 48.216671}}, {"id": 782843, "name": "Kelcyre", "country": "AL", "coord": {"lon": 20.18944, "lat": 40.313061}}, {"id": 3418365, "name": "Kelda", "country": "IS", "coord": {"lon": -21.538601, "lat": 64.619438}}, {"id": 2752969, "name": "Keldonk", "country": "NL", "coord": {"lon": 5.58472, "lat": 51.58667}}, {"id": 3050406, "name": "Kelebia", "country": "HU", "coord": {"lon": 19.61659, "lat": 46.1968}}, {"id": 6385811, "name": "Keleng", "country": "ID", "coord": {"lon": 109.111671, "lat": -7.595}}, {"id": 308261, "name": "Keles", "country": "TR", "coord": {"lon": 29.229441, "lat": 39.913609}}, {"id": 5990373, "name": "Kelfield", "country": "CA", "coord": {"lon": -108.612534, "lat": 51.943211}}, {"id": 2891834, "name": "Kelheim", "country": "DE", "coord": {"lon": 11.86667, "lat": 48.916672}}, {"id": 7039283, "name": "Keli", "country": "ID", "coord": {"lon": 118.799202, "lat": -8.3899}}, {"id": 418723, "name": "Kelishad", "country": "IR", "coord": {"lon": 51.526299, "lat": 32.55603}}, {"id": 653356, "name": "Keljonkangas", "country": "FI", "coord": {"lon": 25.714701, "lat": 62.192581}}, {"id": 2891832, "name": "Kelkheim (Taunus)", "country": "DE", "coord": {"lon": 8.45, "lat": 50.133331}}, {"id": 743537, "name": "Kelkit", "country": "TR", "coord": {"lon": 39.436069, "lat": 40.12978}}, {"id": 2891831, "name": "Kell", "country": "DE", "coord": {"lon": 6.83333, "lat": 49.633331}}, {"id": 6554751, "name": "Kell am See", "country": "DE", "coord": {"lon": 6.83333, "lat": 49.633301}}, {"id": 7144088, "name": "Kell am See", "country": "DE", "coord": {"lon": 6.82217, "lat": 49.63306}}, {"id": 6549791, "name": "Kella", "country": "DE", "coord": {"lon": 10.0833, "lat": 51.233299}}, {"id": 2891829, "name": "Kella", "country": "DE", "coord": {"lon": 10.08333, "lat": 51.23333}}, {"id": 2891823, "name": "Kellberg", "country": "DE", "coord": {"lon": 13.43333, "lat": 48.549999}}, {"id": 6553564, "name": "Kellenbach", "country": "DE", "coord": {"lon": 7.48333, "lat": 49.849998}}, {"id": 2891818, "name": "Kellenbach", "country": "DE", "coord": {"lon": 7.48333, "lat": 49.849998}}, {"id": 2891814, "name": "Kellenhusen", "country": "DE", "coord": {"lon": 11.06667, "lat": 54.183331}}, {"id": 2891807, "name": "Keller", "country": "DE", "coord": {"lon": 9.86667, "lat": 53.650002}}, {"id": 2891811, "name": "Keller", "country": "DE", "coord": {"lon": 10.35, "lat": 47.599998}}, {"id": 4702828, "name": "Keller", "country": "US", "coord": {"lon": -97.251678, "lat": 32.93457}}, {"id": 7839521, "name": "Kellerberrin", "country": "AU", "coord": {"lon": 117.805611, "lat": -31.577089}}, {"id": 2068612, "name": "Kellerberrin", "country": "AU", "coord": {"lon": 117.716667, "lat": -31.633329}}, {"id": 1522809, "name": "Kellerovka", "country": "KZ", "coord": {"lon": 69.292221, "lat": 53.83889}}, {"id": 2161708, "name": "Kellevie", "country": "AU", "coord": {"lon": 147.800003, "lat": -42.76667}}, {"id": 5990415, "name": "Kelligrews", "country": "CA", "coord": {"lon": -53.014759, "lat": 47.499889}}, {"id": 5990419, "name": "Kelliher", "country": "CA", "coord": {"lon": -103.734352, "lat": 51.266762}}, {"id": 2891750, "name": "Kellinghusen", "country": "DE", "coord": {"lon": 9.71959, "lat": 53.952019}}, {"id": 3489888, "name": "Kellits", "country": "JM", "coord": {"lon": -77.23333, "lat": 18.15}}, {"id": 2891749, "name": "Kellmunz", "country": "DE", "coord": {"lon": 10.12811, "lat": 48.12159}}, {"id": 5258330, "name": "Kellners Corners", "country": "US", "coord": {"lon": -87.709534, "lat": 44.12611}}, {"id": 5597606, "name": "Kellogg", "country": "US", "coord": {"lon": -116.119331, "lat": 47.538261}}, {"id": 5159481, "name": "Kelloggsville", "country": "US", "coord": {"lon": -80.617302, "lat": 41.85672}}, {"id": 551166, "name": "Kellogora", "country": "RU", "coord": {"lon": 32.266666, "lat": 64.333336}}, {"id": 2963528, "name": "Kells", "country": "IE", "coord": {"lon": -6.87917, "lat": 53.726391}}, {"id": 2161684, "name": "Kellys Plains", "country": "AU", "coord": {"lon": 151.633331, "lat": -30.58333}}, {"id": 5427193, "name": "Kellytown", "country": "US", "coord": {"lon": -104.993591, "lat": 39.48138}}, {"id": 4540109, "name": "Kellyville", "country": "US", "coord": {"lon": -96.213608, "lat": 35.943699}}, {"id": 598257, "name": "Kelme", "country": "LT", "coord": {"lon": 22.93417, "lat": 55.633888}}, {"id": 2068594, "name": "Kelmscott", "country": "AU", "coord": {"lon": 116.01667, "lat": -32.116669}}, {"id": 2430506, "name": "Kelo", "country": "TD", "coord": {"lon": 15.80658, "lat": 9.30859}}, {"id": 7084549, "name": "Kelodan", "country": "ID", "coord": {"lon": 114.953499, "lat": -8.203}}, {"id": 5990579, "name": "Kelowna", "country": "CA", "coord": {"lon": -119.48568, "lat": 49.883072}}, {"id": 6929953, "name": "Kelpen-Oler", "country": "NL", "coord": {"lon": 5.82602, "lat": 51.21817}}, {"id": 2645853, "name": "Kelsall", "country": "GB", "coord": {"lon": -2.71242, "lat": 53.207748}}, {"id": 5990626, "name": "Kelsey", "country": "CA", "coord": {"lon": -96.54187, "lat": 56.039959}}, {"id": 5362725, "name": "Kelseyville", "country": "US", "coord": {"lon": -122.839439, "lat": 38.977951}}, {"id": 2161678, "name": "Kelso", "country": "AU", "coord": {"lon": 149.600006, "lat": -33.416672}}, {"id": 2645849, "name": "Kelso", "country": "GB", "coord": {"lon": -2.43382, "lat": 55.598141}}, {"id": 5799571, "name": "Kelso", "country": "US", "coord": {"lon": -122.90844, "lat": 46.146778}}, {"id": 2891742, "name": "Kelsterbach", "country": "DE", "coord": {"lon": 8.53333, "lat": 50.066669}}, {"id": 2645843, "name": "Kelty", "country": "GB", "coord": {"lon": -3.3869, "lat": 56.133621}}, {"id": 8073614, "name": "Keluke", "country": "CN", "coord": {"lon": 97.134567, "lat": 37.321289}}, {"id": 7377429, "name": "Kelungkung", "country": "ID", "coord": {"lon": 117.3368, "lat": -8.5518}}, {"id": 2645841, "name": "Kelvedon", "country": "GB", "coord": {"lon": 0.7057, "lat": 51.840069}}, {"id": 2645840, "name": "Kelvedon Hatch", "country": "GB", "coord": {"lon": 0.26814, "lat": 51.667389}}, {"id": 2161672, "name": "Kelvin", "country": "AU", "coord": {"lon": 150.333328, "lat": -30.816669}}, {"id": 5990669, "name": "Kelvington", "country": "CA", "coord": {"lon": -103.534302, "lat": 52.166691}}, {"id": 1267311, "name": "Kelwa", "country": "IN", "coord": {"lon": 73.833336, "lat": 25.15}}, {"id": 4031681, "name": "Kelyun\u2019ya", "country": "RU", "coord": {"lon": -179.183334, "lat": 68.833328}}, {"id": 2891735, "name": "Kelz", "country": "DE", "coord": {"lon": 6.6, "lat": 50.76667}}, {"id": 551173, "name": "Kel\u2019i", "country": "RU", "coord": {"lon": 35.755459, "lat": 56.316422}}, {"id": 706536, "name": "Kel\u2019mentsi", "country": "UA", "coord": {"lon": 26.83457, "lat": 48.465031}}, {"id": 551152, "name": "Kel\u2019tsy", "country": "RU", "coord": {"lon": 40.00861, "lat": 54.900833}}, {"id": 551145, "name": "Kem", "country": "RU", "coord": {"lon": 34.579288, "lat": 64.95546}}, {"id": 8070877, "name": "Kemadu", "country": "ID", "coord": {"lon": 111.382202, "lat": -6.8165}}, {"id": 308233, "name": "Kemah", "country": "TR", "coord": {"lon": 39.038059, "lat": 39.601669}}, {"id": 4702913, "name": "Kemah", "country": "US", "coord": {"lon": -95.020477, "lat": 29.54273}}, {"id": 7614348, "name": "Kemajuan Tanah Batu Enam Puluh Tujuh", "country": "MY", "coord": {"lon": 103.235001, "lat": 2.0277}}, {"id": 308230, "name": "Kemaliye", "country": "TR", "coord": {"lon": 38.496738, "lat": 39.262878}}, {"id": 308224, "name": "Kemalpasa", "country": "TR", "coord": {"lon": 27.417311, "lat": 38.426208}}, {"id": 7766934, "name": "Kemancing", "country": "ID", "coord": {"lon": 106.2257, "lat": -6.5557}}, {"id": 8058053, "name": "Kemangi", "country": "ID", "coord": {"lon": 111.194504, "lat": -6.7835}}, {"id": 7035964, "name": "Kemantren", "country": "ID", "coord": {"lon": 111.5187, "lat": -7.2095}}, {"id": 8140994, "name": "Kemantren", "country": "ID", "coord": {"lon": 112.403, "lat": -6.8753}}, {"id": 7688401, "name": "Kemantren Satu", "country": "ID", "coord": {"lon": 108.8619, "lat": -7.5272}}, {"id": 7872824, "name": "Kematen an der Ybbs", "country": "AT", "coord": {"lon": 14.76985, "lat": 48.044849}}, {"id": 2774550, "name": "Kematen an der Ybbs", "country": "AT", "coord": {"lon": 14.76468, "lat": 48.02541}}, {"id": 7872537, "name": "Kematen in Tirol", "country": "AT", "coord": {"lon": 11.28557, "lat": 47.255009}}, {"id": 2774547, "name": "Kematen in Tirol", "country": "AT", "coord": {"lon": 11.26667, "lat": 47.25}}, {"id": 1640435, "name": "Kembang", "country": "ID", "coord": {"lon": 113.963402, "lat": -8.0105}}, {"id": 8060268, "name": "Kembang", "country": "ID", "coord": {"lon": 111.163399, "lat": -6.713}}, {"id": 8067940, "name": "Kembang", "country": "ID", "coord": {"lon": 111.351501, "lat": -6.9979}}, {"id": 8070804, "name": "Kembang", "country": "ID", "coord": {"lon": 111.431099, "lat": -6.7712}}, {"id": 7036103, "name": "Kembangan", "country": "ID", "coord": {"lon": 111.690201, "lat": -7.1476}}, {"id": 7081671, "name": "Kembangarum", "country": "ID", "coord": {"lon": 112.216797, "lat": -8.1593}}, {"id": 8078495, "name": "Kembangbilo", "country": "ID", "coord": {"lon": 112.028397, "lat": -6.9031}}, {"id": 7086698, "name": "Kembangkerang Lauk Timur", "country": "ID", "coord": {"lon": 116.537804, "lat": -8.5583}}, {"id": 7339653, "name": "Kembangkerang Satu", "country": "ID", "coord": {"lon": 116.298103, "lat": -8.5972}}, {"id": 7406473, "name": "Kembangpasar", "country": "ID", "coord": {"lon": 113.863701, "lat": -8.0117}}, {"id": 238373, "name": "Kembe", "country": "CF", "coord": {"lon": 21.88645, "lat": 4.62275}}, {"id": 2891718, "name": "Kemberg", "country": "DE", "coord": {"lon": 12.63333, "lat": 51.783329}}, {"id": 7337281, "name": "Kembo", "country": "ID", "coord": {"lon": 120.880798, "lat": -8.3971}}, {"id": 3011964, "name": "Kembs", "country": "FR", "coord": {"lon": 7.50323, "lat": 47.68948}}, {"id": 719260, "name": "Kemecse", "country": "HU", "coord": {"lon": 21.80625, "lat": 48.075321}}, {"id": 8142578, "name": "Kemeduran", "country": "ID", "coord": {"lon": 112.557503, "lat": -6.916}}, {"id": 2891713, "name": "Kemel", "country": "DE", "coord": {"lon": 8.01667, "lat": 50.166672}}, {"id": 7036485, "name": "Kemendung", "country": "ID", "coord": {"lon": 112.378197, "lat": -7.046}}, {"id": 609447, "name": "Kemer", "country": "KZ", "coord": {"lon": 53.799999, "lat": 49.816669}}, {"id": 308221, "name": "Kemer", "country": "TR", "coord": {"lon": 29.71306, "lat": 36.356541}}, {"id": 308220, "name": "Kemer", "country": "TR", "coord": {"lon": 30.56056, "lat": 36.597778}}, {"id": 308217, "name": "Kemer", "country": "TR", "coord": {"lon": 30.063061, "lat": 37.352219}}, {"id": 1503901, "name": "Kemerovo", "country": "RU", "coord": {"lon": 86.083328, "lat": 55.333328}}, {"id": 1503900, "name": "Kemerovskaya Oblast\u2019", "country": "RU", "coord": {"lon": 86, "lat": 55}}, {"id": 7872740, "name": "Kemeten", "country": "AT", "coord": {"lon": 16.15497, "lat": 47.251431}}, {"id": 2774541, "name": "Kemeten", "country": "AT", "coord": {"lon": 16.15, "lat": 47.23333}}, {"id": 653281, "name": "Kemi", "country": "FI", "coord": {"lon": 24.563709, "lat": 65.736412}}, {"id": 653282, "name": "Kemi", "country": "FI", "coord": {"lon": 24.58333, "lat": 65.75}}, {"id": 653272, "name": "Kemijaervi", "country": "FI", "coord": {"lon": 27.41667, "lat": 66.666672}}, {"id": 653274, "name": "Kemij\u00e4rvi", "country": "FI", "coord": {"lon": 27.41667, "lat": 66.666672}}, {"id": 653257, "name": "Keminmaa", "country": "FI", "coord": {"lon": 24.75, "lat": 65.833328}}, {"id": 653280, "name": "Keminmaa", "country": "FI", "coord": {"lon": 24.54483, "lat": 65.801582}}, {"id": 8071022, "name": "Kemiren", "country": "ID", "coord": {"lon": 111.468498, "lat": -6.8988}}, {"id": 1640392, "name": "Kemiri", "country": "ID", "coord": {"lon": 111.911301, "lat": -8.2267}}, {"id": 8058031, "name": "Kemiri", "country": "ID", "coord": {"lon": 111.163498, "lat": -6.7679}}, {"id": 8071205, "name": "Kemiri", "country": "ID", "coord": {"lon": 111.487701, "lat": -6.9913}}, {"id": 7035554, "name": "Kemiri Gede", "country": "ID", "coord": {"lon": 112.410004, "lat": -8.0763}}, {"id": 7406481, "name": "Kemirian", "country": "ID", "coord": {"lon": 113.834198, "lat": -8.0235}}, {"id": 333356, "name": "Kemise", "country": "ET", "coord": {"lon": 39.866669, "lat": 10.71667}}, {"id": 7036487, "name": "Kemlagigede", "country": "ID", "coord": {"lon": 112.390999, "lat": -7.0612}}, {"id": 2891703, "name": "Kemlitz", "country": "DE", "coord": {"lon": 13.53333, "lat": 51.849998}}, {"id": 551124, "name": "Kemlya", "country": "RU", "coord": {"lon": 45.242401, "lat": 54.696301}}, {"id": 2891693, "name": "Kemme", "country": "DE", "coord": {"lon": 10.0724, "lat": 52.181412}}, {"id": 6554051, "name": "Kemmenau", "country": "DE", "coord": {"lon": 7.75, "lat": 50.349998}}, {"id": 2891691, "name": "Kemmenau", "country": "DE", "coord": {"lon": 7.75, "lat": 50.349998}}, {"id": 7286185, "name": "Kemmental", "country": "CH", "coord": {"lon": 9.14126, "lat": 47.608009}}, {"id": 5829425, "name": "Kemmerer", "country": "US", "coord": {"lon": -110.537666, "lat": 41.79245}},