[{"id": 3108272, "name": "Tartanedo", "country": "ES", "coord": {"lon": -1.92459, "lat": 40.993469}}, {"id": 6361211, "name": "Taroda", "country": "ES", "coord": {"lon": -2.42967, "lat": 41.325729}}, {"id": 3108291, "name": "Taroda", "country": "ES", "coord": {"lon": -2.43318, "lat": 41.34798}}, {"id": 6358423, "name": "Tardienta", "country": "ES", "coord": {"lon": -0.55848, "lat": 41.958691}}, {"id": 3108299, "name": "Tardienta", "country": "ES", "coord": {"lon": -0.53732, "lat": 41.97781}}, {"id": 6361210, "name": "Tardelcuende", "country": "ES", "coord": {"lon": -2.63003, "lat": 41.59037}}, {"id": 3108302, "name": "Tardelcuende", "country": "ES", "coord": {"lon": -2.64439, "lat": 41.594021}}, {"id": 6356612, "name": "Tardajos", "country": "ES", "coord": {"lon": -3.81622, "lat": 42.351509}}, {"id": 3108304, "name": "Tardajos", "country": "ES", "coord": {"lon": -3.817, "lat": 42.349091}}, {"id": 6360555, "name": "Tard\u00e1guila", "country": "ES", "coord": {"lon": -5.5779, "lat": 41.14048}}, {"id": 3108305, "name": "Tardaguila", "country": "ES", "coord": {"lon": -5.57423, "lat": 41.114929}}, {"id": 6360554, "name": "Tarazona de Guare\u00f1a", "country": "ES", "coord": {"lon": -5.26249, "lat": 41.173382}}, {"id": 3108307, "name": "Tarazona de Guarena", "country": "ES", "coord": {"lon": -5.25005, "lat": 41.172058}}, {"id": 6358031, "name": "Taravilla", "country": "ES", "coord": {"lon": -1.98063, "lat": 40.672272}}, {"id": 3108309, "name": "Taravilla", "country": "ES", "coord": {"lon": -1.96817, "lat": 40.69743}}, {"id": 3108320, "name": "Taramundi", "country": "ES", "coord": {"lon": -7.10828, "lat": 43.360199}}, {"id": 6358030, "name": "Taragudo", "country": "ES", "coord": {"lon": -3.07933, "lat": 40.83213}}, {"id": 3108324, "name": "Taragudo", "country": "ES", "coord": {"lon": -3.0768, "lat": 40.82106}}, {"id": 6362641, "name": "Tapioles", "country": "ES", "coord": {"lon": -5.49004, "lat": 41.851601}}, {"id": 3108331, "name": "Tapioles", "country": "ES", "coord": {"lon": -5.49623, "lat": 41.85741}}, {"id": 6356611, "name": "Tamar\u00f3n", "country": "ES", "coord": {"lon": -3.99193, "lat": 42.273849}}, {"id": 3108357, "name": "Tamaron", "country": "ES", "coord": {"lon": -3.99154, "lat": 42.273861}}, {"id": 6362284, "name": "Tamariz de Campos", "country": "ES", "coord": {"lon": -5.01667, "lat": 41.983959}}, {"id": 3108358, "name": "Tamariz de Campos", "country": "ES", "coord": {"lon": -5.02335, "lat": 41.977058}}, {"id": 6360553, "name": "Tamames", "country": "ES", "coord": {"lon": -6.07936, "lat": 40.663559}}, {"id": 3108363, "name": "Tamames", "country": "ES", "coord": {"lon": -6.10536, "lat": 40.657249}}, {"id": 3108366, "name": "Tamajon", "country": "ES", "coord": {"lon": -3.24743, "lat": 40.999142}}, {"id": 6362936, "name": "Talamantes", "country": "ES", "coord": {"lon": -1.67076, "lat": 41.722252}}, {"id": 3108388, "name": "Talamantes", "country": "ES", "coord": {"lon": -1.67856, "lat": 41.730511}}, {"id": 6359364, "name": "Talamanca de Jarama", "country": "ES", "coord": {"lon": -3.48846, "lat": 40.7435}}, {"id": 3108389, "name": "Talamanca de Jarama", "country": "ES", "coord": {"lon": -3.50889, "lat": 40.743252}}, {"id": 6356296, "name": "Talamanca", "country": "ES", "coord": {"lon": 1.94051, "lat": 41.730141}}, {"id": 3108390, "name": "Talamanca", "country": "ES", "coord": {"lon": 1.97791, "lat": 41.7374}}, {"id": 6361208, "name": "Tajueco", "country": "ES", "coord": {"lon": -2.84637, "lat": 41.53717}}, {"id": 3108396, "name": "Tajueco", "country": "ES", "coord": {"lon": -2.84845, "lat": 41.536411}}, {"id": 6361207, "name": "Tajahuerce", "country": "ES", "coord": {"lon": -2.15802, "lat": 41.75021}}, {"id": 3108402, "name": "Tajahuerce", "country": "ES", "coord": {"lon": -2.15069, "lat": 41.73991}}, {"id": 6356295, "name": "Tagamanent", "country": "ES", "coord": {"lon": 2.26649, "lat": 41.740101}}, {"id": 3108411, "name": "Tagamanent", "country": "ES", "coord": {"lon": 2.2672, "lat": 41.737469}}, {"id": 6359774, "name": "Tafalla", "country": "ES", "coord": {"lon": -1.70558, "lat": 42.52475}}, {"id": 3108412, "name": "Tafalla", "country": "ES", "coord": {"lon": -1.67446, "lat": 42.526859}}, {"id": 6362935, "name": "Tabuenca", "country": "ES", "coord": {"lon": -1.52232, "lat": 41.682819}}, {"id": 3108417, "name": "Tabuenca", "country": "ES", "coord": {"lon": -1.54335, "lat": 41.695}}, {"id": 3108422, "name": "Taboadela", "country": "ES", "coord": {"lon": -7.82719, "lat": 42.24234}}, {"id": 3108425, "name": "Taboada", "country": "ES", "coord": {"lon": -7.82298, "lat": 42.699001}}, {"id": 6360551, "name": "Tabera de Abajo", "country": "ES", "coord": {"lon": -6.01994, "lat": 40.92815}}, {"id": 3108450, "name": "Tabera de Abajo", "country": "ES", "coord": {"lon": -6.00227, "lat": 40.91021}}, {"id": 3108458, "name": "Tabara", "country": "ES", "coord": {"lon": -5.9642, "lat": 41.824581}}, {"id": 6360920, "name": "Tabanera la Luenga", "country": "ES", "coord": {"lon": -4.24505, "lat": 41.09557}}, {"id": 3108461, "name": "Tabanera la Luenga", "country": "ES", "coord": {"lon": -4.23937, "lat": 41.09647}}, {"id": 6360118, "name": "Tabanera de Valdavia", "country": "ES", "coord": {"lon": -4.70532, "lat": 42.654999}}, {"id": 3108462, "name": "Tabanera de Valdavia", "country": "ES", "coord": {"lon": -4.69414, "lat": 42.647282}}, {"id": 6360117, "name": "Tabanera de Cerrato", "country": "ES", "coord": {"lon": -4.10496, "lat": 42.008301}}, {"id": 3108464, "name": "Tabanera de Cerrato", "country": "ES", "coord": {"lon": -4.12361, "lat": 42.024689}}, {"id": 6356610, "name": "Susinos del P\u00e1ramo", "country": "ES", "coord": {"lon": -3.92272, "lat": 42.471432}}, {"id": 3108475, "name": "Susinos del Paramo", "country": "ES", "coord": {"lon": -3.92555, "lat": 42.471081}}, {"id": 6358942, "name": "Sunyer", "country": "ES", "coord": {"lon": 0.59476, "lat": 41.522339}}, {"id": 3108493, "name": "Sunyer", "country": "ES", "coord": {"lon": 0.6, "lat": 41.51667}}, {"id": 6361206, "name": "Suellacabras", "country": "ES", "coord": {"lon": -2.20212, "lat": 41.860142}}, {"id": 3108509, "name": "Suellacabras", "country": "ES", "coord": {"lon": -2.22398, "lat": 41.852982}}, {"id": 3108520, "name": "Subirats", "country": "ES", "coord": {"lon": 1.83333, "lat": 41.400002}}, {"id": 3108571, "name": "Sotresgudo", "country": "ES", "coord": {"lon": -4.17725, "lat": 42.57935}}, {"id": 6356608, "name": "Sotragero", "country": "ES", "coord": {"lon": -3.71218, "lat": 42.41053}}, {"id": 3108573, "name": "Sotragero", "country": "ES", "coord": {"lon": -3.71312, "lat": 42.409962}}, {"id": 6358702, "name": "Soto y Am\u00edo", "country": "ES", "coord": {"lon": -5.86483, "lat": 42.790199}}, {"id": 3108574, "name": "Soto y Amio", "country": "ES", "coord": {"lon": -5.88693, "lat": 42.774769}}, {"id": 6360550, "name": "Sotoserrano", "country": "ES", "coord": {"lon": -6.04687, "lat": 40.39843}}, {"id": 3108576, "name": "Sotoserrano", "country": "ES", "coord": {"lon": -6.03262, "lat": 40.43499}}, {"id": 6360919, "name": "Sotosalbos", "country": "ES", "coord": {"lon": -3.9305, "lat": 41.025181}}, {"id": 3108579, "name": "Sotosalbos", "country": "ES", "coord": {"lon": -3.94115, "lat": 41.03537}}, {"id": 6359130, "name": "Soto en Cameros", "country": "ES", "coord": {"lon": -2.43121, "lat": 42.276119}}, {"id": 3108594, "name": "Soto en Cameros", "country": "ES", "coord": {"lon": -2.42597, "lat": 42.285912}}, {"id": 6358028, "name": "Sotodosos", "country": "ES", "coord": {"lon": -2.39211, "lat": 40.913342}}, {"id": 3108595, "name": "Sotodosos", "country": "ES", "coord": {"lon": -2.39211, "lat": 40.92149}}, {"id": 6360116, "name": "Soto de Cerrato", "country": "ES", "coord": {"lon": -4.42135, "lat": 41.943241}}, {"id": 3108613, "name": "Soto de Cerrato", "country": "ES", "coord": {"lon": -4.42998, "lat": 41.953121}}, {"id": 6360115, "name": "Sotoba\u00f1ado y Priorato", "country": "ES", "coord": {"lon": -4.44588, "lat": 42.598339}}, {"id": 3108618, "name": "Sotobanado y Priorato", "country": "ES", "coord": {"lon": -4.44185, "lat": 42.58987}}, {"id": 6361205, "name": "Sotillo del Rinc\u00f3n", "country": "ES", "coord": {"lon": -2.61484, "lat": 41.957321}}, {"id": 3108633, "name": "Sotillo del Rincon", "country": "ES", "coord": {"lon": -2.60297, "lat": 41.932201}}, {"id": 6361824, "name": "Sotillo de las Palomas", "country": "ES", "coord": {"lon": -4.84746, "lat": 40.093861}}, {"id": 3108634, "name": "Sotillo de las Palomas", "country": "ES", "coord": {"lon": -4.82736, "lat": 40.103588}}, {"id": 6355837, "name": "Sotillo de la Adrada", "country": "ES", "coord": {"lon": -4.5996, "lat": 40.298809}}, {"id": 3108636, "name": "Sotillo de la Adrada", "country": "ES", "coord": {"lon": -4.58385, "lat": 40.291199}}, {"id": 6360918, "name": "Sotillo", "country": "ES", "coord": {"lon": -3.65001, "lat": 41.261669}}, {"id": 3108648, "name": "Sotillo", "country": "ES", "coord": {"lon": -3.6373, "lat": 41.258461}}, {"id": 6355836, "name": "Sotalbo", "country": "ES", "coord": {"lon": -4.87756, "lat": 40.524521}}, {"id": 3108654, "name": "Sotalbo", "country": "ES", "coord": {"lon": -4.84548, "lat": 40.541698}}, {"id": 3108655, "name": "Soses", "country": "ES", "coord": {"lon": 0.48333, "lat": 41.533329}}, {"id": 6359128, "name": "Sorzano", "country": "ES", "coord": {"lon": -2.52137, "lat": 42.34621}}, {"id": 3108662, "name": "Sorzano", "country": "ES", "coord": {"lon": -2.52872, "lat": 42.34306}}, {"id": 6359772, "name": "Sorlada", "country": "ES", "coord": {"lon": -2.21826, "lat": 42.612492}}, {"id": 3108678, "name": "Sorlada", "country": "ES", "coord": {"lon": -2.21525, "lat": 42.61507}}, {"id": 6360549, "name": "Sorihuela", "country": "ES", "coord": {"lon": -5.66705, "lat": 40.453281}}, {"id": 3108679, "name": "Sorihuela", "country": "ES", "coord": {"lon": -5.67818, "lat": 40.443779}}, {"id": 6356606, "name": "Sordillos", "country": "ES", "coord": {"lon": -4.09678, "lat": 42.462029}}, {"id": 3108683, "name": "Sordillos", "country": "ES", "coord": {"lon": -4.10726, "lat": 42.461971}}, {"id": 6356291, "name": "Sora", "country": "ES", "coord": {"lon": 2.15924, "lat": 42.110828}}, {"id": 3108688, "name": "Sora", "country": "ES", "coord": {"lon": 2.16083, "lat": 42.112358}}, {"id": 6362425, "name": "Sopelana", "country": "ES", "coord": {"lon": -2.98281, "lat": 43.382641}}, {"id": 3108702, "name": "Sopelana", "country": "ES", "coord": {"lon": -2.98313, "lat": 43.37891}}, {"id": 3108716, "name": "Porto do Son", "country": "ES", "coord": {"lon": -9.00527, "lat": 42.724819}}, {"id": 6359362, "name": "Somosierra", "country": "ES", "coord": {"lon": -3.57797, "lat": 41.139709}}, {"id": 3108723, "name": "Somosierra", "country": "ES", "coord": {"lon": -3.58237, "lat": 41.13269}}, {"id": 6358026, "name": "Somolinos", "country": "ES", "coord": {"lon": -3.06969, "lat": 41.25927}}, {"id": 3108729, "name": "Somolinos", "country": "ES", "coord": {"lon": -3.06004, "lat": 41.246059}}, {"id": 3108747, "name": "Solsona", "country": "ES", "coord": {"lon": 1.51706, "lat": 41.99395}}, {"id": 3108749, "name": "Solosancho", "country": "ES", "coord": {"lon": -4.90479, "lat": 40.55294}}, {"id": 3108764, "name": "Soliedra", "country": "ES", "coord": {"lon": -2.38164, "lat": 41.469318}}, {"id": 6356605, "name": "Solarana", "country": "ES", "coord": {"lon": -3.65778, "lat": 41.968658}}, {"id": 3108778, "name": "Solarana", "country": "ES", "coord": {"lon": -3.65876, "lat": 41.97168}}, {"id": 6358025, "name": "Solanillos del Extremo", "country": "ES", "coord": {"lon": -2.69544, "lat": 40.764809}}, {"id": 3108781, "name": "Solanillos del Extremo", "country": "ES", "coord": {"lon": -2.69799, "lat": 40.750881}}, {"id": 6359127, "name": "Sojuela", "country": "ES", "coord": {"lon": -2.55762, "lat": 42.35511}}, {"id": 3108799, "name": "Sojuela", "country": "ES", "coord": {"lon": -2.54525, "lat": 42.369881}}, {"id": 3108847, "name": "Sobrado", "country": "ES", "coord": {"lon": -8.02784, "lat": 43.038818}}, {"id": 6358700, "name": "Sobrado", "country": "ES", "coord": {"lon": -6.867, "lat": 42.514801}}, {"id": 3108849, "name": "Sobrado", "country": "ES", "coord": {"lon": -6.85, "lat": 42.51667}}, {"id": 6360548, "name": "Sobradillo", "country": "ES", "coord": {"lon": -6.82399, "lat": 40.919559}}, {"id": 3108854, "name": "Sobradillo", "country": "ES", "coord": {"lon": -6.79729, "lat": 40.917542}}, {"id": 6362933, "name": "Sobradiel", "country": "ES", "coord": {"lon": -1.03068, "lat": 41.742168}}, {"id": 3108855, "name": "Sobradiel", "country": "ES", "coord": {"lon": -1.03765, "lat": 41.73875}}, {"id": 3108862, "name": "Sober", "country": "ES", "coord": {"lon": -7.5864, "lat": 42.461269}}, {"id": 6362932, "name": "Sisam\u00f3n", "country": "ES", "coord": {"lon": -2.00439, "lat": 41.191139}}, {"id": 3108891, "name": "Sisamon", "country": "ES", "coord": {"lon": -2.00386, "lat": 41.171242}}, {"id": 6355832, "name": "Sinlabajos", "country": "ES", "coord": {"lon": -4.83698, "lat": 41.076618}}, {"id": 3108906, "name": "Sinlabajos", "country": "ES", "coord": {"lon": -4.83242, "lat": 41.0765}}, {"id": 6361614, "name": "Singra", "country": "ES", "coord": {"lon": -1.29383, "lat": 40.662899}}, {"id": 3108907, "name": "Singra", "country": "ES", "coord": {"lon": -1.31158, "lat": 40.655079}}, {"id": 6362283, "name": "Simancas", "country": "ES", "coord": {"lon": -4.82155, "lat": 41.591702}}, {"id": 3108917, "name": "Simancas", "country": "ES", "coord": {"lon": -4.82796, "lat": 41.590721}}, {"id": 3108945, "name": "Sils", "country": "ES", "coord": {"lon": 2.74508, "lat": 41.808418}}, {"id": 3108957, "name": "Siguees", "country": "ES", "coord": {"lon": -1.01212, "lat": 42.630299}}, {"id": 6355831, "name": "Sigeres", "country": "ES", "coord": {"lon": -4.93075, "lat": 40.794369}}, {"id": 3108967, "name": "Sigeres", "country": "ES", "coord": {"lon": -4.93361, "lat": 40.799389}}, {"id": 6362282, "name": "Siete Iglesias de Trabancos", "country": "ES", "coord": {"lon": -5.17591, "lat": 41.377079}}, {"id": 3108974, "name": "Siete Iglesias de Trabancos", "country": "ES", "coord": {"lon": -5.18488, "lat": 41.35223}}, {"id": 6362930, "name": "Sierra de Luna", "country": "ES", "coord": {"lon": -0.93482, "lat": 42.042011}}, {"id": 3108989, "name": "Sierra de Luna", "country": "ES", "coord": {"lon": -0.91025, "lat": 42.04818}}, {"id": 6358023, "name": "Sienes", "country": "ES", "coord": {"lon": -2.63645, "lat": 41.204231}}, {"id": 3109009, "name": "Sienes", "country": "ES", "coord": {"lon": -2.65332, "lat": 41.200958}}, {"id": 6358935, "name": "Sidamon", "country": "ES", "coord": {"lon": 0.83333, "lat": 41.62624}}, {"id": 3109012, "name": "Sidamon", "country": "ES", "coord": {"lon": 0.83333, "lat": 41.633331}}, {"id": 6358022, "name": "Setiles", "country": "ES", "coord": {"lon": -1.60254, "lat": 40.73032}}, {"id": 3109024, "name": "Setiles", "country": "ES", "coord": {"lon": -1.6172, "lat": 40.734192}}, {"id": 6358419, "name": "Sesu\u00e9", "country": "ES", "coord": {"lon": 0.47926, "lat": 42.552872}}, {"id": 3109032, "name": "Sesue", "country": "ES", "coord": {"lon": 0.47212, "lat": 42.551311}}, {"id": 6359771, "name": "Sesma", "country": "ES", "coord": {"lon": -2.0943, "lat": 42.479889}}, {"id": 3109045, "name": "Sesma", "country": "ES", "coord": {"lon": -2.08353, "lat": 42.477482}}, {"id": 6358418, "name": "Sesa", "country": "ES", "coord": {"lon": -0.2491, "lat": 41.99144}}, {"id": 3109054, "name": "Sesa", "country": "ES", "coord": {"lon": -0.24511, "lat": 41.994839}}, {"id": 6359360, "name": "Serranillos del Valle", "country": "ES", "coord": {"lon": -3.90851, "lat": 40.2062}}, {"id": 3109077, "name": "Serranillos del Valle", "country": "ES", "coord": {"lon": -3.88187, "lat": 40.202099}}, {"id": 6355830, "name": "Serranillos", "country": "ES", "coord": {"lon": -4.90676, "lat": 40.331032}}, {"id": 3109079, "name": "Serranillos", "country": "ES", "coord": {"lon": -4.91166, "lat": 40.33625}}, {"id": 6360545, "name": "Serradilla del Llano", "country": "ES", "coord": {"lon": -6.36028, "lat": 40.499249}}, {"id": 3109086, "name": "Serradilla del Llano", "country": "ES", "coord": {"lon": -6.35701, "lat": 40.499962}}, {"id": 6360544, "name": "Serradilla del Arroyo", "country": "ES", "coord": {"lon": -6.34409, "lat": 40.552181}}, {"id": 3109087, "name": "Serradilla del Arroyo", "country": "ES", "coord": {"lon": -6.36008, "lat": 40.521332}}, {"id": 6534147, "name": "Serra de Dar\u00f3", "country": "ES", "coord": {"lon": 3.06709, "lat": 42.02911}}, {"id": 3109088, "name": "Serra de Daro", "country": "ES", "coord": {"lon": 3.07222, "lat": 42.02877}}, {"id": 6362281, "name": "Serrada", "country": "ES", "coord": {"lon": -4.85317, "lat": 41.469002}}, {"id": 3109091, "name": "Serrada", "country": "ES", "coord": {"lon": -4.86279, "lat": 41.457218}}, {"id": 6358934, "name": "Ser\u00f2s", "country": "ES", "coord": {"lon": 0.4135, "lat": 41.398102}}, {"id": 3109099, "name": "Seros", "country": "ES", "coord": {"lon": 0.41667, "lat": 41.466671}}, {"id": 6360543, "name": "Sequeros", "country": "ES", "coord": {"lon": -6.0257, "lat": 40.511749}}, {"id": 3109131, "name": "Sequeros", "country": "ES", "coord": {"lon": -6.02495, "lat": 40.512959}}, {"id": 6360917, "name": "Sequera de Fresno", "country": "ES", "coord": {"lon": -3.55455, "lat": 41.357819}}, {"id": 3109132, "name": "Sequera de Fresno", "country": "ES", "coord": {"lon": -3.54612, "lat": 41.366402}}, {"id": 6360916, "name": "Sep\u00falveda", "country": "ES", "coord": {"lon": -3.78145, "lat": 41.289879}}, {"id": 3109139, "name": "Sepulveda", "country": "ES", "coord": {"lon": -3.74221, "lat": 41.296959}}, {"id": 6361613, "name": "Seno", "country": "ES", "coord": {"lon": -0.34996, "lat": 40.828308}}, {"id": 3109164, "name": "Seno", "country": "ES", "coord": {"lon": -0.33816, "lat": 40.812248}}, {"id": 3109165, "name": "Sentmenat", "country": "ES", "coord": {"lon": 2.13532, "lat": 41.60862}}, {"id": 6358417, "name": "Sen\u00e9s de Alcubierre", "country": "ES", "coord": {"lon": -0.51706, "lat": 41.902519}}, {"id": 3109170, "name": "Senes de Alcubierre", "country": "ES", "coord": {"lon": -0.48906, "lat": 41.90731}}, {"id": 6361388, "name": "Senan", "country": "ES", "coord": {"lon": 1.07415, "lat": 41.477421}}, {"id": 3109180, "name": "Senan", "country": "ES", "coord": {"lon": 1.08541, "lat": 41.46994}}, {"id": 6358699, "name": "Sena de Luna", "country": "ES", "coord": {"lon": -5.93488, "lat": 42.917938}}, {"id": 3109183, "name": "Sena de Luna", "country": "ES", "coord": {"lon": -5.95267, "lat": 42.929062}}, {"id": 6358092, "name": "Semillas", "country": "ES", "coord": {"lon": -3.13676, "lat": 41.045799}}, {"id": 3109188, "name": "Semillas", "country": "ES", "coord": {"lon": -3.11945, "lat": 41.058571}}, {"id": 6360727, "name": "Selaya", "country": "ES", "coord": {"lon": -3.77178, "lat": 43.201908}}, {"id": 3109211, "name": "Selaya", "country": "ES", "coord": {"lon": -3.80563, "lat": 43.21376}}, {"id": 6358021, "name": "Selas", "country": "ES", "coord": {"lon": -2.11135, "lat": 40.941551}}, {"id": 3109213, "name": "Selas", "country": "ES", "coord": {"lon": -2.10203, "lat": 40.9515}}, {"id": 6358415, "name": "Seira", "country": "ES", "coord": {"lon": 0.38877, "lat": 42.512901}}, {"id": 3109226, "name": "Seira", "country": "ES", "coord": {"lon": 0.43127, "lat": 42.476959}}, {"id": 6361820, "name": "Segurilla", "country": "ES", "coord": {"lon": -4.87104, "lat": 40.037491}}, {"id": 3109238, "name": "Segurilla", "country": "ES", "coord": {"lon": -4.86418, "lat": 40.023861}}, {"id": 6356869, "name": "Segura de Toro", "country": "ES", "coord": {"lon": -5.93957, "lat": 40.219349}}, {"id": 3109239, "name": "Segura de Toro", "country": "ES", "coord": {"lon": -5.94836, "lat": 40.22427}}, {"id": 6361612, "name": "Segura de los Ba\u00f1os", "country": "ES", "coord": {"lon": -0.96198, "lat": 40.929642}}, {"id": 3109240, "name": "Segura de los Banos", "country": "ES", "coord": {"lon": -0.95111, "lat": 40.94088}}, {"id": 6358158, "name": "Segura", "country": "ES", "coord": {"lon": -2.25765, "lat": 43.00082}}, {"id": 3109242, "name": "Segura", "country": "ES", "coord": {"lon": -2.254, "lat": 43.00753}}, {"id": 6362928, "name": "Sediles", "country": "ES", "coord": {"lon": -1.51577, "lat": 41.357719}}, {"id": 3109261, "name": "Sediles", "country": "ES", "coord": {"lon": -1.53177, "lat": 41.34613}}, {"id": 6358414, "name": "Secastilla", "country": "ES", "coord": {"lon": 0.25162, "lat": 42.19289}}, {"id": 3109280, "name": "Secastilla", "country": "ES", "coord": {"lon": 0.26736, "lat": 42.181122}}, {"id": 6360914, "name": "Seb\u00falcor", "country": "ES", "coord": {"lon": -3.86304, "lat": 41.289249}}, {"id": 3109288, "name": "Sebulcor", "country": "ES", "coord": {"lon": -3.88398, "lat": 41.270908}}, {"id": 6358020, "name": "Sayat\u00f3n", "country": "ES", "coord": {"lon": -2.82265, "lat": 40.420719}}, {"id": 3109305, "name": "Sayaton", "country": "ES", "coord": {"lon": -2.85253, "lat": 40.37635}}, {"id": 6360913, "name": "Sauquillo de Cabezas", "country": "ES", "coord": {"lon": -4.05767, "lat": 41.202591}}, {"id": 3109319, "name": "Sauquillo de Cabezas", "country": "ES", "coord": {"lon": -4.06884, "lat": 41.194221}}, {"id": 6360540, "name": "Saucelle", "country": "ES", "coord": {"lon": -6.749, "lat": 41.044628}}, {"id": 3109325, "name": "Saucelle", "country": "ES", "coord": {"lon": -6.75328, "lat": 41.047691}}, {"id": 6358019, "name": "Sa\u00faca", "country": "ES", "coord": {"lon": -2.56636, "lat": 41.031269}}, {"id": 3109328, "name": "Sauca", "country": "ES", "coord": {"lon": -2.52905, "lat": 41.030979}}, {"id": 6362926, "name": "S\u00e1stago", "country": "ES", "coord": {"lon": -0.27571, "lat": 41.323631}}, {"id": 3109336, "name": "Sastago", "country": "ES", "coord": {"lon": -0.35075, "lat": 41.321659}}, {"id": 6361819, "name": "Sartajada", "country": "ES", "coord": {"lon": -4.7992, "lat": 40.21682}}, {"id": 3109352, "name": "Sartajada", "country": "ES", "coord": {"lon": -4.79428, "lat": 40.2132}}, {"id": 6359770, "name": "Sartaguda", "country": "ES", "coord": {"lon": -2.0426, "lat": 42.38266}}, {"id": 3109353, "name": "Sartaguda", "country": "ES", "coord": {"lon": -2.05709, "lat": 42.383331}}, {"id": 3109369, "name": "Sarria", "country": "ES", "coord": {"lon": -7.41431, "lat": 42.781479}}, {"id": 3109370, "name": "Sarreaus", "country": "ES", "coord": {"lon": -7.60348, "lat": 42.087841}}, {"id": 3109374, "name": "Sarratella", "country": "ES", "coord": {"lon": 0.0315, "lat": 40.31284}}, {"id": 6356602, "name": "Sarrac\u00edn", "country": "ES", "coord": {"lon": -3.68574, "lat": 42.258129}}, {"id": 3109376, "name": "Sarracin", "country": "ES", "coord": {"lon": -3.68608, "lat": 42.258129}}, {"id": 6360726, "name": "Saro", "country": "ES", "coord": {"lon": -3.8084, "lat": 43.26403}}, {"id": 3109378, "name": "Saro", "country": "ES", "coord": {"lon": -3.84283, "lat": 43.259609}}, {"id": 3109381, "name": "Sariegos", "country": "ES", "coord": {"lon": -5.63333, "lat": 42.650002}}, {"id": 3109383, "name": "Sariego", "country": "ES", "coord": {"lon": -5.53333, "lat": 43.400002}}, {"id": 6356601, "name": "Sargentes de la Lora", "country": "ES", "coord": {"lon": -3.90009, "lat": 42.733559}}, {"id": 3109384, "name": "Sargentes de la Lora", "country": "ES", "coord": {"lon": -3.87278, "lat": 42.769169}}, {"id": 6360539, "name": "Sard\u00f3n de los Frailes", "country": "ES", "coord": {"lon": -6.2699, "lat": 41.21978}}, {"id": 3109387, "name": "Sardon de los Frailes", "country": "ES", "coord": {"lon": -6.27101, "lat": 41.21373}}, {"id": 6362279, "name": "Sard\u00f3n de Duero", "country": "ES", "coord": {"lon": -4.41544, "lat": 41.607368}}, {"id": 3109389, "name": "Sardon de Duero", "country": "ES", "coord": {"lon": -4.43397, "lat": 41.608471}}, {"id": 6362639, "name": "Sanzoles", "country": "ES", "coord": {"lon": -5.56411, "lat": 41.424671}}, {"id": 3109427, "name": "Sanzoles", "country": "ES", "coord": {"lon": -5.5671, "lat": 41.43235}}, {"id": 3109433, "name": "San Vitero", "country": "ES", "coord": {"lon": -6.34877, "lat": 41.777401}}, {"id": 6356600, "name": "San Vicente del Valle", "country": "ES", "coord": {"lon": -3.16506, "lat": 42.35479}}, {"id": 3109441, "name": "San Vicente del Valle", "country": "ES", "coord": {"lon": -3.1621, "lat": 42.337559}}, {"id": 6362278, "name": "San Vicente del Palacio", "country": "ES", "coord": {"lon": -4.88147, "lat": 41.22987}}, {"id": 3109443, "name": "San Vicente del Palacio", "country": "ES", "coord": {"lon": -4.85158, "lat": 41.219009}}, {"id": 6359126, "name": "San Vicente de la Sonsierra", "country": "ES", "coord": {"lon": -2.74685, "lat": 42.561279}}, {"id": 3109447, "name": "San Vicente de la Sonsierra", "country": "ES", "coord": {"lon": -2.76072, "lat": 42.56321}}, {"id": 6362637, "name": "San Vicente de la Cabeza", "country": "ES", "coord": {"lon": -6.24087, "lat": 41.806969}}, {"id": 3109448, "name": "San Vicente de la Cabeza", "country": "ES", "coord": {"lon": -6.24993, "lat": 41.806961}}, {"id": 3109450, "name": "San Vicente de la Barquera", "country": "ES", "coord": {"lon": -4.39934, "lat": 43.38509}}, {"id": 6359125, "name": "Santurdejo", "country": "ES", "coord": {"lon": -2.94265, "lat": 42.363209}}, {"id": 3109477, "name": "Santurdejo", "country": "ES", "coord": {"lon": -2.95437, "lat": 42.376961}}, {"id": 6360113, "name": "Santoyo", "country": "ES", "coord": {"lon": -4.34909, "lat": 42.221828}}, {"id": 3109499, "name": "Santoyo", "country": "ES", "coord": {"lon": -4.34296, "lat": 42.214741}}, {"id": 6362636, "name": "Santovenia", "country": "ES", "coord": {"lon": -5.70761, "lat": 41.865009}}, {"id": 3109505, "name": "Santovenia", "country": "ES", "coord": {"lon": -5.71003, "lat": 41.878559}}, {"id": 6355827, "name": "Santo Tom\u00e9 de Zabarcos", "country": "ES", "coord": {"lon": -4.90312, "lat": 40.78894}}, {"id": 3109508, "name": "Santo Tome de Zabarcos", "country": "ES", "coord": {"lon": -4.91048, "lat": 40.787258}}, {"id": 6359123, "name": "San Torcuato", "country": "ES", "coord": {"lon": -2.85884, "lat": 42.480499}}, {"id": 3109522, "name": "San Torcuato", "country": "ES", "coord": {"lon": -2.88923, "lat": 42.482189}}, {"id": 6359357, "name": "Santorcaz", "country": "ES", "coord": {"lon": -3.23436, "lat": 40.47163}}, {"id": 3109524, "name": "Santorcaz", "country": "ES", "coord": {"lon": -3.23462, "lat": 40.47176}}, {"id": 6360724, "name": "Santo\u00f1a", "country": "ES", "coord": {"lon": -3.44362, "lat": 43.453812}}, {"id": 3109527, "name": "Santona", "country": "ES", "coord": {"lon": -3.45757, "lat": 43.443859}}, {"id": 6356599, "name": "Santo Domingo de Silos", "country": "ES", "coord": {"lon": -3.43475, "lat": 41.966389}}, {"id": 3109532, "name": "Santo Domingo de Silos", "country": "ES", "coord": {"lon": -3.4174, "lat": 41.964001}}, {"id": 6360911, "name": "Santo Domingo de Pir\u00f3n", "country": "ES", "coord": {"lon": -3.96076, "lat": 41.010799}}, {"id": 3109533, "name": "Santo Domingo de Piron", "country": "ES", "coord": {"lon": -3.98933, "lat": 41.041039}}, {"id": 6355826, "name": "Santo Domingo de las Posadas", "country": "ES", "coord": {"lon": -4.64267, "lat": 40.800282}}, {"id": 3109534, "name": "Santo Domingo de las Posadas", "country": "ES", "coord": {"lon": -4.63383, "lat": 40.812}}, {"id": 6359122, "name": "Santo Domingo de la Calzada", "country": "ES", "coord": {"lon": -2.9555, "lat": 42.428471}}, {"id": 3109535, "name": "Santo Domingo de la Calzada", "country": "ES", "coord": {"lon": -2.95365, "lat": 42.440151}}, {"id": 6357635, "name": "la Vall de Bianya", "country": "ES", "coord": {"lon": 2.45674, "lat": 42.22348}}, {"id": 3109550, "name": "Sant Joan les Fonts", "country": "ES", "coord": {"lon": 2.51291, "lat": 42.211861}}, {"id": 6356142, "name": "Manresa", "country": "ES", "coord": {"lon": 1.8227, "lat": 41.724049}}, {"id": 3109551, "name": "Sant Joan de Vilatorrada", "country": "ES", "coord": {"lon": 1.80476, "lat": 41.745491}}, {"id": 6360537, "name": "Santiz", "country": "ES", "coord": {"lon": -5.88768, "lat": 41.210251}}, {"id": 3109553, "name": "Santiz", "country": "ES", "coord": {"lon": -5.89654, "lat": 41.205791}}, {"id": 6360910, "name": "Santiuste de San Juan Bautista", "country": "ES", "coord": {"lon": -4.56244, "lat": 41.162659}}, {"id": 3109554, "name": "Santiuste de San Juan Bautista", "country": "ES", "coord": {"lon": -4.57202, "lat": 41.15593}}, {"id": 6358018, "name": "Santiuste", "country": "ES", "coord": {"lon": -2.80866, "lat": 41.087318}}, {"id": 3109559, "name": "Santiuste", "country": "ES", "coord": {"lon": -2.80953, "lat": 41.084621}}, {"id": 3109561, "name": "Santiurde de Toranzo", "country": "ES", "coord": {"lon": -3.93948, "lat": 43.23819}}, {"id": 6357347, "name": "Santiso", "country": "ES", "coord": {"lon": -8.07861, "lat": 42.86573}}, {"id": 3109564, "name": "Santiso", "country": "ES", "coord": {"lon": -8.05497, "lat": 42.873878}}, {"id": 6356867, "name": "Santib\u00e1\u00f1ez el Bajo", "country": "ES", "coord": {"lon": -6.246, "lat": 40.166851}}, {"id": 3109589, "name": "Santibanez el Bajo", "country": "ES", "coord": {"lon": -6.22441, "lat": 40.176369}}, {"id": 6356866, "name": "Santib\u00e1\u00f1ez el Alto", "country": "ES", "coord": {"lon": -6.54169, "lat": 40.201561}}, {"id": 3109590, "name": "Santibanez el Alto", "country": "ES", "coord": {"lon": -6.54782, "lat": 40.185249}}, {"id": 6362635, "name": "Santib\u00e1\u00f1ez de Vidriales", "country": "ES", "coord": {"lon": -6.0145, "lat": 42.075039}}, {"id": 3109591, "name": "Santibanez de Vidriales", "country": "ES", "coord": {"lon": -6.01549, "lat": 42.07362}}, {"id": 6362276, "name": "Santib\u00e1\u00f1ez de Valcorba", "country": "ES", "coord": {"lon": -4.42013, "lat": 41.56155}}, {"id": 3109593, "name": "Santibanez de Valcorba", "country": "ES", "coord": {"lon": -4.44938, "lat": 41.569832}}, {"id": 3109594, "name": "Santibanez de Tera", "country": "ES", "coord": {"lon": -5.92257, "lat": 41.98563}}, {"id": 6356598, "name": "Santib\u00e1\u00f1ez del Val", "country": "ES", "coord": {"lon": -3.48424, "lat": 41.976971}}, {"id": 3109601, "name": "Santibanez del Val", "country": "ES", "coord": {"lon": -3.48142, "lat": 41.973541}}, {"id": 6360536, "name": "Santib\u00e1\u00f1ez de la Sierra", "country": "ES", "coord": {"lon": -5.91675, "lat": 40.49519}}, {"id": 3109604, "name": "Santibanez de la Sierra", "country": "ES", "coord": {"lon": -5.91576, "lat": 40.49464}}, {"id": 6360111, "name": "Santib\u00e1\u00f1ez de Ecla", "country": "ES", "coord": {"lon": -4.35923, "lat": 42.715099}}, {"id": 3109609, "name": "Santibanez de Ecla", "country": "ES", "coord": {"lon": -4.37263, "lat": 42.70784}}, {"id": 6360535, "name": "Santib\u00e1\u00f1ez de B\u00e9jar", "country": "ES", "coord": {"lon": -5.59529, "lat": 40.49675}}, {"id": 3109610, "name": "Santibanez de Bejar", "country": "ES", "coord": {"lon": -5.6111, "lat": 40.48785}}, {"id": 6358696, "name": "Santiago Millas", "country": "ES", "coord": {"lon": -6.11542, "lat": 42.403179}}, {"id": 3109629, "name": "Santiago Millas", "country": "ES", "coord": {"lon": -6.10538, "lat": 42.383801}}, {"id": 6355825, "name": "Santiago del Collado", "country": "ES", "coord": {"lon": -5.33967, "lat": 40.427689}}, {"id": 3109637, "name": "Santiago del Collado", "country": "ES", "coord": {"lon": -5.35631, "lat": 40.433262}}, {"id": 6360534, "name": "Santiago de la Puebla", "country": "ES", "coord": {"lon": -5.28948, "lat": 40.795509}}, {"id": 3109641, "name": "Santiago de la Puebla", "country": "ES", "coord": {"lon": -5.28073, "lat": 40.801319}}, {"id": 6359768, "name": "Doneztebe/Santesteban", "country": "ES", "coord": {"lon": -1.67031, "lat": 43.135029}}, {"id": 3109653, "name": "Doneztebe", "country": "ES", "coord": {"lon": -1.66667, "lat": 43.133331}}, {"id": 3109656, "name": "Santervas de la Vega", "country": "ES", "coord": {"lon": -4.80002, "lat": 42.50676}}, {"id": 6362275, "name": "Santerv\u00e1s de Campos", "country": "ES", "coord": {"lon": -5.05617, "lat": 42.243549}}, {"id": 3109658, "name": "Santervas de Campos", "country": "ES", "coord": {"lon": -5.10028, "lat": 42.218201}}, {"id": 6362925, "name": "Santed", "country": "ES", "coord": {"lon": -1.51242, "lat": 41.03743}}, {"id": 3109664, "name": "Santed", "country": "ES", "coord": {"lon": -1.51028, "lat": 41.031719}}, {"id": 6533997, "name": "Santa Susanna", "country": "ES", "coord": {"lon": 2.69017, "lat": 41.65432}}, {"id": 3109680, "name": "Santa Susanna", "country": "ES", "coord": {"lon": 2.71667, "lat": 41.633331}}, {"id": 3109681, "name": "Santas Martas", "country": "ES", "coord": {"lon": -5.37066, "lat": 42.432201}}, {"id": 3109692, "name": "Santa Pau", "country": "ES", "coord": {"lon": 2.57123, "lat": 42.144299}}, {"id": 6356596, "name": "Santa Olalla de Bureba", "country": "ES", "coord": {"lon": -3.43897, "lat": 42.475121}}, {"id": 3109699, "name": "Santa Olalla de Bureba", "country": "ES", "coord": {"lon": -3.44109, "lat": 42.477211}}, {"id": 6361818, "name": "Santa Olalla", "country": "ES", "coord": {"lon": -4.4327, "lat": 40.008678}}, {"id": 3109705, "name": "Santa Olalla", "country": "ES", "coord": {"lon": -4.43025, "lat": 40.023479}}, {"id": 6534120, "name": "Sant Aniol de Finestres", "country": "ES", "coord": {"lon": 2.60579, "lat": 42.072762}}, {"id": 3109714, "name": "Sant Aniol de Finestres", "country": "ES", "coord": {"lon": 2.58688, "lat": 42.090229}}, {"id": 3109724, "name": "Santa Marta de Ortigueira", "country": "ES", "coord": {"lon": -7.85, "lat": 43.683331}}, {"id": 6360908, "name": "Santa Marta del Cerro", "country": "ES", "coord": {"lon": -3.68107, "lat": 41.212719}}, {"id": 3109725, "name": "Santa Marta del Cerro", "country": "ES", "coord": {"lon": -3.68582, "lat": 41.21843}}, {"id": 3109736, "name": "Santa Marina del Rey", "country": "ES", "coord": {"lon": -5.86065, "lat": 42.51334}}, {"id": 6362633, "name": "Santa Mar\u00eda de Valverde", "country": "ES", "coord": {"lon": -5.92959, "lat": 41.939781}}, {"id": 3109760, "name": "Santa Maria de Valverde", "country": "ES", "coord": {"lon": -5.9356, "lat": 41.934792}}, {"id": 6360532, "name": "Santa Mar\u00eda de Sando", "country": "ES", "coord": {"lon": -6.13826, "lat": 40.983959}}, {"id": 3109761, "name": "Santa Maria de Sando", "country": "ES", "coord": {"lon": -6.12904, "lat": 40.979092}}, {"id": 6358693, "name": "Santa Mar\u00eda de Ord\u00e1s", "country": "ES", "coord": {"lon": -5.82686, "lat": 42.749512}}, {"id": 3109766, "name": "Santa Maria de Ordas", "country": "ES", "coord": {"lon": -5.82301, "lat": 42.726528}}, {"id": 6356048, "name": "Aviny\u00f3", "country": "ES", "coord": {"lon": 1.97721, "lat": 41.857521}}, {"id": 3109767, "name": "Santa Maria dOlo", "country": "ES", "coord": {"lon": 2.03333, "lat": 41.866669}}, {"id": 6357529, "name": "Santa Mar\u00eda del Val", "country": "ES", "coord": {"lon": -2.06842, "lat": 40.49501}}, {"id": 3109775, "name": "Santa Maria del Val", "country": "ES", "coord": {"lon": -2.04115, "lat": 40.504391}}, {"id": 6358692, "name": "Santa Mar\u00eda del P\u00e1ramo", "country": "ES", "coord": {"lon": -5.7545, "lat": 42.355782}}, {"id": 3109778, "name": "Santa Maria del Paramo", "country": "ES", "coord": {"lon": -5.75151, "lat": 42.355122}}, {"id": 6355823, "name": "Santa Mar\u00eda de los Caballeros", "country": "ES", "coord": {"lon": -5.44599, "lat": 40.391769}}, {"id": 3109781, "name": "Santa Maria de los Caballeros", "country": "ES", "coord": {"lon": -5.45112, "lat": 40.389252}}, {"id": 6358691, "name": "Santa Mar\u00eda del Monte de Cea", "country": "ES", "coord": {"lon": -5.11403, "lat": 42.496498}}, {"id": 3109783, "name": "Santa Maria del Monte de Cea", "country": "ES", "coord": {"lon": -5.11689, "lat": 42.491371}}, {"id": 6356593, "name": "Santa Mar\u00eda del Invierno", "country": "ES", "coord": {"lon": -3.43577, "lat": 42.436081}}, {"id": 3109785, "name": "Santa Maria del Invierno", "country": "ES", "coord": {"lon": -3.43782, "lat": 42.442879}}, {"id": 6356592, "name": "Santa Mar\u00eda del Campo", "country": "ES", "coord": {"lon": -3.99637, "lat": 42.113541}}, {"id": 3109788, "name": "Santa Maria del Campo", "country": "ES", "coord": {"lon": -3.97283, "lat": 42.133041}}, {"id": 6362632, "name": "Santa Mar\u00eda de la Vega", "country": "ES", "coord": {"lon": -5.81065, "lat": 42.085361}}, {"id": 3109791, "name": "Santa Maria de la Vega", "country": "ES", "coord": {"lon": -5.80851, "lat": 42.084969}}, {"id": 6358690, "name": "Santa Mar\u00eda de la Isla", "country": "ES", "coord": {"lon": -5.93333, "lat": 42.35947}}, {"id": 3109793, "name": "Santa Maria de la Isla", "country": "ES", "coord": {"lon": -5.9287, "lat": 42.355331}}, {"id": 6361200, "name": "Santa Mar\u00eda de Huerta", "country": "ES", "coord": {"lon": -2.16484, "lat": 41.220711}}, {"id": 3109795, "name": "Santa Maria de Huerta", "country": "ES", "coord": {"lon": -2.16667, "lat": 41.26667}}, {"id": 3109800, "name": "Santa Maria de Cayon", "country": "ES", "coord": {"lon": -3.8368, "lat": 43.308491}}, {"id": 6356591, "name": "Santa In\u00e9s", "country": "ES", "coord": {"lon": -3.6937, "lat": 42.056271}}, {"id": 3109861, "name": "Santa Ines", "country": "ES", "coord": {"lon": -3.70322, "lat": 42.040131}}, {"id": 6356590, "name": "Santa Gadea del Cid", "country": "ES", "coord": {"lon": -3.0585, "lat": 42.707291}}, {"id": 3109863, "name": "Santa Gadea del Cid", "country": "ES", "coord": {"lon": -3.05885, "lat": 42.715309}}, {"id": 6356269, "name": "Santa Eul\u00e0lia de Ron\u00e7ana", "country": "ES", "coord": {"lon": 2.21602, "lat": 41.648628}}, {"id": 3109871, "name": "Santa Eulalia de Roncana", "country": "ES", "coord": {"lon": 2.23333, "lat": 41.650002}}, {"id": 3109875, "name": "Santa Eulalia de Oscos", "country": "ES", "coord": {"lon": -7.01895, "lat": 43.259499}}, {"id": 6362924, "name": "Santa Eulalia de G\u00e1llego", "country": "ES", "coord": {"lon": -0.7812, "lat": 42.26556}}, {"id": 3109878, "name": "Santa Eulalia de Gallego", "country": "ES", "coord": {"lon": -0.76065, "lat": 42.286999}}, {"id": 6359121, "name": "Santa Eulalia Bajera", "country": "ES", "coord": {"lon": -2.19023, "lat": 42.223412}}, {"id": 3109881, "name": "Santa Eulalia Bajera", "country": "ES", "coord": {"lon": -2.19174, "lat": 42.209599}}, {"id": 3109887, "name": "Santa Eulalia", "country": "ES", "coord": {"lon": -5.41128, "lat": 43.41621}}, {"id": 6361610, "name": "Santa Eulalia", "country": "ES", "coord": {"lon": -1.288, "lat": 40.558472}}, {"id": 3109891, "name": "Santa Eulalia", "country": "ES", "coord": {"lon": -1.31354, "lat": 40.567421}}, {"id": 3109894, "name": "Santa Eugenia de Berga", "country": "ES", "coord": {"lon": 2.28333, "lat": 41.900002}}, {"id": 3109899, "name": "Santa Eufemia del Barco", "country": "ES", "coord": {"lon": -5.89831, "lat": 41.678082}}, {"id": 6362274, "name": "Santa Eufemia del Arroyo", "country": "ES", "coord": {"lon": -5.27448, "lat": 41.896759}}, {"id": 3109900, "name": "Santa Eufemia del Arroyo", "country": "ES", "coord": {"lon": -5.26575, "lat": 41.89505}}, {"id": 3109911, "name": "Santa Elena de Jamuz", "country": "ES", "coord": {"lon": -5.88762, "lat": 42.260639}}, {"id": 6361199, "name": "Santa Cruz de Yanguas", "country": "ES", "coord": {"lon": -2.46783, "lat": 42.065922}}, {"id": 3109914, "name": "Santa Cruz de Yanguas", "country": "ES", "coord": {"lon": -2.44894, "lat": 42.0625}}, {"id": 6355820, "name": "Santa Cruz de Pinares", "country": "ES", "coord": {"lon": -4.58493, "lat": 40.531719}}, {"id": 3109915, "name": "Santa Cruz de Pinares", "country": "ES", "coord": {"lon": -4.58036, "lat": 40.542648}}, {"id": 6356862, "name": "Santa Cruz de Paniagua", "country": "ES", "coord": {"lon": -6.31211, "lat": 40.203831}}, {"id": 3109916, "name": "Santa Cruz de Paniagua", "country": "ES", "coord": {"lon": -6.34003, "lat": 40.191669}}, {"id": 6361609, "name": "Santa Cruz de Nogueras", "country": "ES", "coord": {"lon": -1.08261, "lat": 41.118568}}, {"id": 3109917, "name": "Santa Cruz de Nogueras", "country": "ES", "coord": {"lon": -1.08933, "lat": 41.11475}}, {"id": 6362923, "name": "Santa Cruz de Moncayo", "country": "ES", "coord": {"lon": -1.75562, "lat": 41.88089}}, {"id": 3109919, "name": "Santa Cruz de Moncayo", "country": "ES", "coord": {"lon": -1.75637, "lat": 41.882401}}, {"id": 6356589, "name": "Santa Cruz del Valle Urbi\u00f3n", "country": "ES", "coord": {"lon": -3.20851, "lat": 42.275928}}, {"id": 3109921, "name": "Santa Cruz del Valle Urbion", "country": "ES", "coord": {"lon": -3.2214, "lat": 42.30558}}, {"id": 6355819, "name": "Santa Cruz del Valle", "country": "ES", "coord": {"lon": -4.99381, "lat": 40.215179}}, {"id": 3109922, "name": "Santa Cruz del Valle", "country": "ES", "coord": {"lon": -5.00133, "lat": 40.251598}}, {"id": 6356588, "name": "Santa Cruz de la Salceda", "country": "ES", "coord": {"lon": -3.58326, "lat": 41.59314}}, {"id": 3109930, "name": "Santa Cruz de la Salceda", "country": "ES", "coord": {"lon": -3.59317, "lat": 41.595909}}, {"id": 6362922, "name": "Santa Cruz de Gr\u00edo", "country": "ES", "coord": {"lon": -1.41922, "lat": 41.375839}}, {"id": 3109932, "name": "Santa Cruz de Grio", "country": "ES", "coord": {"lon": -1.43008, "lat": 41.370499}}, {"id": 6360109, "name": "Santa Cruz de Boedo", "country": "ES", "coord": {"lon": -4.3523, "lat": 42.519531}}, {"id": 3109934, "name": "Santa Cruz de Boedo", "country": "ES", "coord": {"lon": -4.37398, "lat": 42.525311}}, {"id": 6362630, "name": "Santa Croya de Tera", "country": "ES", "coord": {"lon": -5.9701, "lat": 41.973289}}, {"id": 3109953, "name": "Santa Croya de Tera", "country": "ES", "coord": {"lon": -5.97725, "lat": 41.983341}}, {"id": 3109954, "name": "Santa Cristina de Valmadrigal", "country": "ES", "coord": {"lon": -5.30929, "lat": 42.354462}}, {"id": 6362629, "name": "Santa Cristina de la Polvorosa", "country": "ES", "coord": {"lon": -5.737, "lat": 41.991611}}, {"id": 3109956, "name": "Santa Cristina de la Polvorosa", "country": "ES", "coord": {"lon": -5.71355, "lat": 41.999851}}, {"id": 3109971, "name": "Santa Colomba de Somoza", "country": "ES", "coord": {"lon": -6.24483, "lat": 42.44466}}, {"id": 6362628, "name": "Santa Colomba de las Monjas", "country": "ES", "coord": {"lon": -5.68203, "lat": 41.95702}}, {"id": 3109974, "name": "Santa Colomba de las Monjas", "country": "ES", "coord": {"lon": -5.68389, "lat": 41.95834}}, {"id": 6358686, "name": "Santa Colomba de Curue\u00f1o", "country": "ES", "coord": {"lon": -5.40905, "lat": 42.758209}}, {"id": 3109977, "name": "Santa Colomba de Curueno", "country": "ES", "coord": {"lon": -5.41201, "lat": 42.75058}}, {"id": 6356265, "name": "Santa Coloma de Cervell\u00f3", "country": "ES", "coord": {"lon": 2.02121, "lat": 41.36718}}, {"id": 3109983, "name": "Santa Coloma de Cervello", "country": "ES", "coord": {"lon": 2.01426, "lat": 41.367359}}, {"id": 6362627, "name": "Santa Clara de Avedillo", "country": "ES", "coord": {"lon": -5.66587, "lat": 41.341301}}, {"id": 3109989, "name": "Santa Clara de Avedillo", "country": "ES", "coord": {"lon": -5.67692, "lat": 41.338772}}, {"id": 6356264, "name": "Santa Cec\u00edlia de Voltreg\u00e0", "country": "ES", "coord": {"lon": 2.20587, "lat": 42.005539}}, {"id": 3109999, "name": "Santa Cecilia de Voltrega", "country": "ES", "coord": {"lon": 2.23333, "lat": 42}}, {"id": 6360108, "name": "Santa Cecilia del Alcor", "country": "ES", "coord": {"lon": -4.65906, "lat": 41.928921}}, {"id": 3110000, "name": "Santa Cecilia del Alcor", "country": "ES", "coord": {"lon": -4.65546, "lat": 41.93227}}, {"id": 3110004, "name": "Santa Cecilia", "country": "ES", "coord": {"lon": -3.80345, "lat": 42.05225}}, {"id": 6359726, "name": "Murillo el Cuende", "country": "ES", "coord": {"lon": -1.60247, "lat": 42.357311}}, {"id": 3110010, "name": "Santacara", "country": "ES", "coord": {"lon": -1.63333, "lat": 42.366669}}, {"id": 3110016, "name": "Santa Barbara", "country": "ES", "coord": {"lon": 0.49292, "lat": 40.71542}}, {"id": 6359766, "name": "Sansol", "country": "ES", "coord": {"lon": -2.25615, "lat": 42.537739}}, {"id": 3110031, "name": "Sansol", "country": "ES", "coord": {"lon": -2.26676, "lat": 42.553619}}, {"id": 6357344, "name": "San Sadurni\u00f1o", "country": "ES", "coord": {"lon": -8.01565, "lat": 43.524502}}, {"id": 3110048, "name": "San Sadurnino", "country": "ES", "coord": {"lon": -8.06667, "lat": 43.533329}}, {"id": 6363002, "name": "San Salvador", "country": "ES", "coord": {"lon": -5.07608, "lat": 41.61903}}, {"id": 3110063, "name": "San Salvador", "country": "ES", "coord": {"lon": -5.08713, "lat": 41.620602}}, {"id": 3110064, "name": "Sant Sadurni dAnoia", "country": "ES", "coord": {"lon": 1.78333, "lat": 41.416672}}, {"id": 6360107, "name": "San Rom\u00e1n de la Cuba", "country": "ES", "coord": {"lon": -4.85112, "lat": 42.267429}}, {"id": 3110076, "name": "San Roman de la Cuba", "country": "ES", "coord": {"lon": -4.85724, "lat": 42.262569}}, {"id": 6362273, "name": "San Rom\u00e1n de Hornija", "country": "ES", "coord": {"lon": -5.28943, "lat": 41.47385}}, {"id": 3110077, "name": "San Roman de Hornija", "country": "ES", "coord": {"lon": -5.28454, "lat": 41.481312}}, {"id": 3110079, "name": "San Roman de Cameros", "country": "ES", "coord": {"lon": -2.47436, "lat": 42.232552}}, {"id": 6356260, "name": "Sant Quirze Safaja", "country": "ES", "coord": {"lon": 2.18233, "lat": 41.725521}}, {"id": 3110100, "name": "Sant Quirze Safaja", "country": "ES", "coord": {"lon": 2.15, "lat": 41.73333}}, {"id": 6533996, "name": "Sant Pol de Mar", "country": "ES", "coord": {"lon": 2.61931, "lat": 41.610699}}, {"id": 3110110, "name": "Sant Pol de Mar", "country": "ES", "coord": {"lon": 2.61741, "lat": 41.601768}}, {"id": 6360531, "name": "San Pelayo de Guare\u00f1a", "country": "ES", "coord": {"lon": -5.87484, "lat": 41.11562}}, {"id": 3110117, "name": "San Pelayo de Guarena", "country": "ES", "coord": {"lon": -5.85702, "lat": 41.115791}}, {"id": 6362272, "name": "San Pelayo", "country": "ES", "coord": {"lon": -5.02581, "lat": 41.689308}}, {"id": 3110126, "name": "San Pelayo", "country": "ES", "coord": {"lon": -5.03403, "lat": 41.680328}}, {"id": 6357525, "name": "San Pedro Palmiches", "country": "ES", "coord": {"lon": -2.40548, "lat": 40.435341}}, {"id": 3110130, "name": "San Pedro Palmiches", "country": "ES", "coord": {"lon": -2.40602, "lat": 40.429562}}, {"id": 6356256, "name": "Sant Pere de Vilamajor", "country": "ES", "coord": {"lon": 2.38678, "lat": 41.683681}}, {"id": 3110136, "name": "Sant Pere de Vilamajor", "country": "ES", "coord": {"lon": 2.38333, "lat": 41.683331}}, {"id": 6360530, "name": "San Pedro de Rozados", "country": "ES", "coord": {"lon": -5.78279, "lat": 40.814499}}, {"id": 3110141, "name": "San Pedro de Rozados", "country": "ES", "coord": {"lon": -5.73716, "lat": 40.790081}}, {"id": 3107774, "name": "Torrelavit", "country": "ES", "coord": {"lon": 1.73333, "lat": 41.450001}}, {"id": 3110142, "name": "Sant Pere de Riudebitlles", "country": "ES", "coord": {"lon": 1.7, "lat": 41.450001}}, {"id": 6360529, "name": "San Pedro del Valle", "country": "ES", "coord": {"lon": -5.86074, "lat": 41.046459}}, {"id": 3110150, "name": "San Pedro del Valle", "country": "ES", "coord": {"lon": -5.86025, "lat": 41.033321}}, {"id": 6360716, "name": "San Pedro del Romeral", "country": "ES", "coord": {"lon": -3.82795, "lat": 43.124371}}, {"id": 3110152, "name": "San Pedro del Romeral", "country": "ES", "coord": {"lon": -3.8186, "lat": 43.115139}}, {"id": 6362271, "name": "San Pedro de Latarce", "country": "ES", "coord": {"lon": -5.33758, "lat": 41.739101}}, {"id": 3110158, "name": "San Pedro de Latarce", "country": "ES", "coord": {"lon": -5.32592, "lat": 41.735561}}, {"id": 6355818, "name": "San Pedro del Arroyo", "country": "ES", "coord": {"lon": -4.86735, "lat": 40.791248}}, {"id": 3110165, "name": "San Pedro del Arroyo", "country": "ES", "coord": {"lon": -4.87074, "lat": 40.802132}}, {"id": 6360906, "name": "San Pedro de Ga\u00edllos", "country": "ES", "coord": {"lon": -3.82074, "lat": 41.229961}}, {"id": 3110171, "name": "San Pedro de Gaillos", "country": "ES", "coord": {"lon": -3.80921, "lat": 41.22662}}, {"id": 6362626, "name": "San Pedro de Ceque", "country": "ES", "coord": {"lon": -6.1069, "lat": 42.048649}}, {"id": 3110175, "name": "San Pedro de Ceque", "country": "ES", "coord": {"lon": -6.07242, "lat": 42.043339}}, {"id": 6358685, "name": "San Pedro Bercianos", "country": "ES", "coord": {"lon": -5.7195, "lat": 42.412979}}, {"id": 3110181, "name": "San Pedro Bercianos", "country": "ES", "coord": {"lon": -5.71341, "lat": 42.391449}}, {"id": 6362270, "name": "San Pablo de la Moraleja", "country": "ES", "coord": {"lon": -4.77344, "lat": 41.15802}}, {"id": 3110223, "name": "San Pablo de la Moraleja", "country": "ES", "coord": {"lon": -4.77762, "lat": 41.160999}}, {"id": 6534137, "name": "Sant Mori", "country": "ES", "coord": {"lon": 2.99058, "lat": 42.154179}}, {"id": 3110230, "name": "Sant Mori", "country": "ES", "coord": {"lon": 2.98946, "lat": 42.155899}}, {"id": 6360527, "name": "San Morales", "country": "ES", "coord": {"lon": -5.50471, "lat": 40.987492}}, {"id": 3110231, "name": "San Morales", "country": "ES", "coord": {"lon": -5.50234, "lat": 40.99358}}, {"id": 6359117, "name": "San Mill\u00e1n de Y\u00e9cora", "country": "ES", "coord": {"lon": -3.09931, "lat": 42.54813}}, {"id": 3110233, "name": "San Millan de Yecora", "country": "ES", "coord": {"lon": -3.09681, "lat": 42.54705}}, {"id": 6358684, "name": "San Mill\u00e1n de los Caballeros", "country": "ES", "coord": {"lon": -5.58477, "lat": 42.294891}}, {"id": 3110235, "name": "San Millan de los Caballeros", "country": "ES", "coord": {"lon": -5.56107, "lat": 42.285198}}, {"id": 6356586, "name": "San Mill\u00e1n de Lara", "country": "ES", "coord": {"lon": -3.33453, "lat": 42.149651}}, {"id": 3110236, "name": "San Millan de Lara", "country": "ES", "coord": {"lon": -3.34515, "lat": 42.136211}}, {"id": 6360526, "name": "San Miguel de Valero", "country": "ES", "coord": {"lon": -5.95269, "lat": 40.55571}}, {"id": 3110244, "name": "San Miguel de Valero", "country": "ES", "coord": {"lon": -5.9228, "lat": 40.54361}}, {"id": 6355816, "name": "San Miguel de Serrezuela", "country": "ES", "coord": {"lon": -5.27359, "lat": 40.693008}}, {"id": 3110245, "name": "San Miguel de Serrezuela", "country": "ES", "coord": {"lon": -5.28858, "lat": 40.670639}}, {"id": 3110254, "name": "San Miguel de Meruelo", "country": "ES", "coord": {"lon": -3.58877, "lat": 43.462109}}, {"id": 6362269, "name": "San Miguel del Pino", "country": "ES", "coord": {"lon": -4.90904, "lat": 41.515148}}, {"id": 3110258, "name": "San Miguel del Pino", "country": "ES", "coord": {"lon": -4.91149, "lat": 41.509411}}, {"id": 6362268, "name": "San Miguel del Arroyo", "country": "ES", "coord": {"lon": -4.47484, "lat": 41.442711}}, {"id": 3110265, "name": "San Miguel del Arroyo", "country": "ES", "coord": {"lon": -4.4599, "lat": 41.443279}}, {"id": 6362624, "name": "San Miguel de la Ribera", "country": "ES", "coord": {"lon": -5.55847, "lat": 41.338669}}, {"id": 3110266, "name": "San Miguel de la Ribera", "country": "ES", "coord": {"lon": -5.57689, "lat": 41.333012}}, {"id": 6534136, "name": "Sant Miquel de Fluvi\u00e0", "country": "ES", "coord": {"lon": 2.99034, "lat": 42.175171}}, {"id": 3110270, "name": "Sant Miquel de Fluvia", "country": "ES", "coord": {"lon": 2.99259, "lat": 42.172001}}, {"id": 6355815, "name": "San Miguel de Corneja", "country": "ES", "coord": {"lon": -5.27369, "lat": 40.496109}}, {"id": 3110274, "name": "San Miguel de Corneja", "country": "ES", "coord": {"lon": -5.28654, "lat": 40.487221}}, {"id": 6534135, "name": "Sant Miquel de Campmajor", "country": "ES", "coord": {"lon": 2.67892, "lat": 42.133888}}, {"id": 3110275, "name": "Sant Miquel de Campmajor", "country": "ES", "coord": {"lon": 2.68333, "lat": 42.133331}}, {"id": 6360715, "name": "San Miguel de Aguayo", "country": "ES", "coord": {"lon": -3.99454, "lat": 43.075932}}, {"id": 3110280, "name": "San Miguel de Aguayo", "country": "ES", "coord": {"lon": -4.0255, "lat": 43.053829}}, {"id": 6362921, "name": "San Mateo de G\u00e1llego", "country": "ES", "coord": {"lon": -0.71946, "lat": 41.857792}}, {"id": 3110305, "name": "San Mateo de Gallego", "country": "ES", "coord": {"lon": -0.76578, "lat": 41.830429}}, {"id": 6534134, "name": "Sant Mart\u00ed Vell", "country": "ES", "coord": {"lon": 2.9277, "lat": 41.998951}}, {"id": 3110311, "name": "Sant Marti Vell", "country": "ES", "coord": {"lon": 2.93333, "lat": 42.01667}}, {"id": 6356249, "name": "Sant Mart\u00ed Sarroca", "country": "ES", "coord": {"lon": 1.6181, "lat": 41.367401}}, {"id": 3110315, "name": "Sant Marti Sarroca", "country": "ES", "coord": {"lon": 1.61667, "lat": 41.383331}}, {"id": 6362267, "name": "San Mart\u00edn de Valven\u00ed", "country": "ES", "coord": {"lon": -4.54563, "lat": 41.755051}}, {"id": 3110321, "name": "San Martin de Valveni", "country": "ES", "coord": {"lon": -4.56724, "lat": 41.753361}}, {"id": 6362623, "name": "San Mart\u00edn de Valderaduey", "country": "ES", "coord": {"lon": -5.47897, "lat": 41.798431}}, {"id": 3110324, "name": "San Martin de Valderaduey", "country": "ES", "coord": {"lon": -5.47249, "lat": 41.81414}}, {"id": 6359354, "name": "San Mart\u00edn de Valdeiglesias", "country": "ES", "coord": {"lon": -4.34393, "lat": 40.362309}}, {"id": 3110326, "name": "San Martin de Valdeiglesias", "country": "ES", "coord": {"lon": -4.39831, "lat": 40.361851}}, {"id": 6359765, "name": "San Mart\u00edn de Unx", "country": "ES", "coord": {"lon": -1.57139, "lat": 42.525249}}, {"id": 3110327, "name": "San Martin de Unx", "country": "ES", "coord": {"lon": -1.56091, "lat": 42.524731}}, {"id": 6356859, "name": "San Mart\u00edn de Trevejo", "country": "ES", "coord": {"lon": -6.82897, "lat": 40.20322}}, {"id": 3110329, "name": "San Martin de Trevejo", "country": "ES", "coord": {"lon": -6.79534, "lat": 40.21241}}, {"id": 6356248, "name": "Sant Mart\u00ed de Tous", "country": "ES", "coord": {"lon": 1.51498, "lat": 41.557018}}, {"id": 3110330, "name": "Sant Marti de Tous", "country": "ES", "coord": {"lon": 1.51667, "lat": 41.549999}}, {"id": 6356585, "name": "San Mart\u00edn de Rubiales", "country": "ES", "coord": {"lon": -3.99911, "lat": 41.636391}}, {"id": 3110336, "name": "San Martin de Rubiales", "country": "ES", "coord": {"lon": -3.99134, "lat": 41.641911}}, {"id": 3110340, "name": "San Martin de Oscos", "country": "ES", "coord": {"lon": -6.96241, "lat": 43.265869}}, {"id": 6361608, "name": "San Mart\u00edn del R\u00edo", "country": "ES", "coord": {"lon": -1.37975, "lat": 41.062092}}, {"id": 3110346, "name": "San Martin del Rio", "country": "ES", "coord": {"lon": -1.38733, "lat": 41.06633}}, {"id": 6355814, "name": "San Mart\u00edn del Pimpollar", "country": "ES", "coord": {"lon": -5.03113, "lat": 40.374432}}, {"id": 3110348, "name": "San Martin del Pimpollar", "country": "ES", "coord": {"lon": -5.05443, "lat": 40.368301}}, {"id": 6360525, "name": "San Mart\u00edn del Casta\u00f1ar", "country": "ES", "coord": {"lon": -6.0765, "lat": 40.522469}}, {"id": 3110356, "name": "San Martin del Castanar", "country": "ES", "coord": {"lon": -6.06387, "lat": 40.52264}}, {"id": 6355813, "name": "San Mart\u00edn de la Vega del Alberche", "country": "ES", "coord": {"lon": -5.16281, "lat": 40.42625}}, {"id": 3110359, "name": "San Martin de la Vega del Alberche", "country": "ES", "coord": {"lon": -5.155, "lat": 40.430531}}, {"id": 3110374, "name": "San Martin de Elines", "country": "ES", "coord": {"lon": -3.86865, "lat": 42.82864}}, {"id": 6356246, "name": "Sant Mart\u00ed de Centelles", "country": "ES", "coord": {"lon": 2.24859, "lat": 41.76107}}, {"id": 3110377, "name": "Sant Marti de Centelles", "country": "ES", "coord": {"lon": 2.20566, "lat": 41.766171}}, {"id": 6360106, "name": "San Mam\u00e9s de Campos", "country": "ES", "coord": {"lon": -4.54206, "lat": 42.361401}}, {"id": 3110429, "name": "San Mames de Campos", "country": "ES", "coord": {"lon": -4.56565, "lat": 42.355122}}, {"id": 6356584, "name": "San Mam\u00e9s de Burgos", "country": "ES", "coord": {"lon": -3.79329, "lat": 42.33691}}, {"id": 3110430, "name": "San Mames de Burgos", "country": "ES", "coord": {"lon": -3.79397, "lat": 42.336849}}, {"id": 6355812, "name": "San Lorenzo de Tormes", "country": "ES", "coord": {"lon": -5.50391, "lat": 40.379341}}, {"id": 3110451, "name": "San Lorenzo de Tormes", "country": "ES", "coord": {"lon": -5.48848, "lat": 40.369839}}, {"id": 6534132, "name": "Sant Lloren\u00e7 de la Muga", "country": "ES", "coord": {"lon": 2.78941, "lat": 42.3214}}, {"id": 3110456, "name": "Sant Llorenc de la Muga", "country": "ES", "coord": {"lon": 2.78888, "lat": 42.319759}}, {"id": 6356244, "name": "Sant Lloren\u00e7 d'Hortons", "country": "ES", "coord": {"lon": 1.83517, "lat": 41.47084}}, {"id": 3110457, "name": "Sant Llorenc dHortons", "country": "ES", "coord": {"lon": 1.83333, "lat": 41.466671}}, {"id": 6362266, "name": "San Llorente", "country": "ES", "coord": {"lon": -4.06894, "lat": 41.689838}}, {"id": 3110476, "name": "San Llorente", "country": "ES", "coord": {"lon": -4.066, "lat": 41.68631}}, {"id": 6361197, "name": "San Leonardo de Yag\u00fce", "country": "ES", "coord": {"lon": -3.08203, "lat": 41.831821}}, {"id": 3110479, "name": "San Leonardo de Yague", "country": "ES", "coord": {"lon": -3.0688, "lat": 41.830341}}, {"id": 6356129, "name": "Guardiola de Bergued\u00e0", "country": "ES", "coord": {"lon": 1.88773, "lat": 42.230782}}, {"id": 3110499, "name": "Sant Julia de Cerdanyola", "country": "ES", "coord": {"lon": 1.89308, "lat": 42.223499}}, {"id": 3110528, "name": "San Juan de Moro", "country": "ES", "coord": {"lon": -0.13691, "lat": 40.059898}}, {"id": 6534127, "name": "Sant Joan de Mollet", "country": "ES", "coord": {"lon": 2.93841, "lat": 42.045811}}, {"id": 3110529, "name": "Sant Joan de Mollet", "country": "ES", "coord": {"lon": 2.95, "lat": 42.049999}}, {"id": 6356583, "name": "San Juan del Monte", "country": "ES", "coord": {"lon": -3.51876, "lat": 41.676079}}, {"id": 3110531, "name": "San Juan del Monte", "country": "ES", "coord": {"lon": -3.52337, "lat": 41.683128}}, {"id": 6355810, "name": "San Juan del Molinillo", "country": "ES", "coord": {"lon": -4.83503, "lat": 40.46553}}, {"id": 3110532, "name": "San Juan del Molinillo", "country": "ES", "coord": {"lon": -4.81711, "lat": 40.459091}}, {"id": 6357623, "name": "Ripoll", "country": "ES", "coord": {"lon": 2.18817, "lat": 42.19928}}, {"id": 3110533, "name": "Sant Joan de les Abadesses", "country": "ES", "coord": {"lon": 2.28524, "lat": 42.233318}}, {"id": 6355809, "name": "San Juan de la Nava", "country": "ES", "coord": {"lon": -4.68179, "lat": 40.460819}}, {"id": 3110535, "name": "San Juan de la Nava", "country": "ES", "coord": {"lon": -4.68238, "lat": 40.478802}}, {"id": 3110538, "name": "San Juan de la Encinilla", "country": "ES", "coord": {"lon": -4.83957, "lat": 40.8302}}, {"id": 6534129, "name": "Sant Jordi Desvalls", "country": "ES", "coord": {"lon": 2.95525, "lat": 42.07299}}, {"id": 3110570, "name": "Sant Jordi Desvalls", "country": "ES", "coord": {"lon": 2.95, "lat": 42.066669}}, {"id": 6361379, "name": "Sant Jaume dels Domenys", "country": "ES", "coord": {"lon": 1.55844, "lat": 41.3046}}, {"id": 3110573, "name": "Sant Jaume dels Domenys", "country": "ES", "coord": {"lon": 1.56667, "lat": 41.299999}}, {"id": 3110584, "name": "Sant Hilari Sacalm", "country": "ES", "coord": {"lon": 2.51667, "lat": 41.883331}}, {"id": 3110597, "name": "Sant Gregori", "country": "ES", "coord": {"lon": 2.73333, "lat": 41.98333}}, {"id": 6358408, "name": "Sangarr\u00e9n", "country": "ES", "coord": {"lon": -0.45149, "lat": 42.008991}}, {"id": 3110611, "name": "Sangarren", "country": "ES", "coord": {"lon": -0.43323, "lat": 42.019211}}, {"id": 6355807, "name": "San Garc\u00eda de Ingelmos", "country": "ES", "coord": {"lon": -5.10831, "lat": 40.765099}}, {"id": 3110612, "name": "San Garcia de Ingelmos", "country": "ES", "coord": {"lon": -5.11523, "lat": 40.769119}}, {"id": 3110615, "name": "Sant Fruitos de Bages", "country": "ES", "coord": {"lon": 1.86667, "lat": 41.75}}, {"id": 3110625, "name": "Sant Ferriol", "country": "ES", "coord": {"lon": 2.66667, "lat": 42.200001}}, {"id": 6356234, "name": "Sant Feliu Sasserra", "country": "ES", "coord": {"lon": 2.01504, "lat": 41.934212}}, {"id": 3110638, "name": "Sant Feliu Sasserra", "country": "ES", "coord": {"lon": 2.03333, "lat": 41.950001}}, {"id": 6357625, "name": "Sant Feliu de Pallerols", "country": "ES", "coord": {"lon": 2.50892, "lat": 42.103611}}, {"id": 3110639, "name": "Sant Feliu de Pallerols", "country": "ES", "coord": {"lon": 2.50935, "lat": 42.07708}}, {"id": 3110644, "name": "Sant Feliu de Codines", "country": "ES", "coord": {"lon": 2.16667, "lat": 41.700001}}, {"id": 6360524, "name": "San Felices de los Gallegos", "country": "ES", "coord": {"lon": -6.70024, "lat": 40.832458}}, {"id": 3110650, "name": "San Felices de los Gallegos", "country": "ES", "coord": {"lon": -6.70804, "lat": 40.849541}}, {"id": 6361196, "name": "San Felices", "country": "ES", "coord": {"lon": -2.01478, "lat": 41.92347}}, {"id": 3110656, "name": "San Felices", "country": "ES", "coord": {"lon": -2.02638, "lat": 41.93708}}, {"id": 6358682, "name": "San Esteban de Nogales", "country": "ES", "coord": {"lon": -5.94197, "lat": 42.155819}}, {"id": 3110669, "name": "San Esteban de Nogales", "country": "ES", "coord": {"lon": -5.93066, "lat": 42.15995}}, {"id": 6355805, "name": "San Esteban del Valle", "country": "ES", "coord": {"lon": -4.96394, "lat": 40.280239}}, {"id": 3110670, "name": "San Esteban del Valle", "country": "ES", "coord": {"lon": -4.98215, "lat": 40.275101}}, {"id": 6355804, "name": "San Esteban de los Patos", "country": "ES", "coord": {"lon": -4.63061, "lat": 40.741508}}, {"id": 3110672, "name": "San Esteban de los Patos", "country": "ES", "coord": {"lon": -4.62413, "lat": 40.747051}}, {"id": 6362621, "name": "San Esteban del Molar", "country": "ES", "coord": {"lon": -5.55273, "lat": 41.93758}}, {"id": 3110673, "name": "San Esteban del Molar", "country": "ES", "coord": {"lon": -5.55158, "lat": 41.937168}}, {"id": 6360523, "name": "San Esteban de la Sierra", "country": "ES", "coord": {"lon": -5.88295, "lat": 40.514751}}, {"id": 3110676, "name": "San Esteban de la Sierra", "country": "ES", "coord": {"lon": -5.90619, "lat": 40.506802}}, {"id": 6358681, "name": "San Emiliano", "country": "ES", "coord": {"lon": -6.02645, "lat": 42.977779}}, {"id": 3110696, "name": "San Emiliano", "country": "ES", "coord": {"lon": -6.00075, "lat": 42.971642}}, {"id": 6360900, "name": "San Crist\u00f3bal de la Vega", "country": "ES", "coord": {"lon": -4.62197, "lat": 41.120628}}, {"id": 3110726, "name": "San Cristobal de la Vega", "country": "ES", "coord": {"lon": -4.64448, "lat": 41.112141}}, {"id": 6358680, "name": "San Crist\u00f3bal de la Polantera", "country": "ES", "coord": {"lon": -5.90336, "lat": 42.390961}}, {"id": 3110727, "name": "San Cristobal de la Polantera", "country": "ES", "coord": {"lon": -5.90732, "lat": 42.390411}}, {"id": 6360517, "name": "San Crist\u00f3bal de la Cuesta", "country": "ES", "coord": {"lon": -5.61886, "lat": 41.033169}}, {"id": 3110728, "name": "San Cristobal de la Cuesta", "country": "ES", "coord": {"lon": -5.61772, "lat": 41.02919}}, {"id": 6360899, "name": "San Crist\u00f3bal de Cu\u00e9llar", "country": "ES", "coord": {"lon": -4.3904, "lat": 41.429329}}, {"id": 3110730, "name": "San Cristobal de Cuellar", "country": "ES", "coord": {"lon": -4.40446, "lat": 41.40591}}, {"id": 6360105, "name": "San Crist\u00f3bal de Boedo", "country": "ES", "coord": {"lon": -4.34847, "lat": 42.540401}}, {"id": 3110732, "name": "San Cristobal de Boedo", "country": "ES", "coord": {"lon": -4.35325, "lat": 42.541939}}, {"id": 6360521, "name": "Sanchotello", "country": "ES", "coord": {"lon": -5.74736, "lat": 40.443249}}, {"id": 3110796, "name": "Sanchotello", "country": "ES", "coord": {"lon": -5.75394, "lat": 40.438122}}, {"id": 6355803, "name": "Sanchorreja", "country": "ES", "coord": {"lon": -4.87834, "lat": 40.681709}}, {"id": 3110798, "name": "Sanchorreja", "country": "ES", "coord": {"lon": -4.91494, "lat": 40.664749}}, {"id": 6360901, "name": "Sanchonu\u00f1o", "country": "ES", "coord": {"lon": -4.2832, "lat": 41.326111}}, {"id": 3110800, "name": "Sanchonuno", "country": "ES", "coord": {"lon": -4.30531, "lat": 41.32325}}, {"id": 6360520, "name": "Sanch\u00f3n de la Sagrada", "country": "ES", "coord": {"lon": -6.02498, "lat": 40.761292}}, {"id": 3110801, "name": "Sanchon de la Sagrada", "country": "ES", "coord": {"lon": -6.02502, "lat": 40.74287}}, {"id": 6360519, "name": "Sanch\u00f3n de la Ribera", "country": "ES", "coord": {"lon": -6.3939, "lat": 41.10276}}, {"id": 3110802, "name": "Sanchon de la Ribera", "country": "ES", "coord": {"lon": -6.41314, "lat": 41.08844}}, {"id": 6355802, "name": "Sanchidri\u00e1n", "country": "ES", "coord": {"lon": -4.58539, "lat": 40.89188}}, {"id": 3110809, "name": "Sanchidrian", "country": "ES", "coord": {"lon": -4.58132, "lat": 40.893471}}, {"id": 6358679, "name": "Sancedo", "country": "ES", "coord": {"lon": -6.63588, "lat": 42.670399}}, {"id": 3110815, "name": "Sancedo", "country": "ES", "coord": {"lon": -6.63456, "lat": 42.66666}}, {"id": 6360104, "name": "San Cebri\u00e1n de Mud\u00e1", "country": "ES", "coord": {"lon": -4.38794, "lat": 42.908089}}, {"id": 3110816, "name": "San Cebrian de Muda", "country": "ES", "coord": {"lon": -4.38719, "lat": 42.892601}}, {"id": 6362265, "name": "San Cebri\u00e1n de Mazote", "country": "ES", "coord": {"lon": -5.15439, "lat": 41.675629}}, {"id": 3110817, "name": "San Cebrian de Mazote", "country": "ES", "coord": {"lon": -5.14847, "lat": 41.680222}}, {"id": 6360103, "name": "San Cebri\u00e1n de Campos", "country": "ES", "coord": {"lon": -4.53695, "lat": 42.190788}}, {"id": 3110819, "name": "San Cebrian de Campos", "country": "ES", "coord": {"lon": -4.53127, "lat": 42.20063}}, {"id": 6356224, "name": "Sant Boi de Llu\u00e7an\u00e8s", "country": "ES", "coord": {"lon": 2.14821, "lat": 42.050049}}, {"id": 3110833, "name": "Sant Boi de Llucanes", "country": "ES", "coord": {"lon": 2.15, "lat": 42.049999}}, {"id": 6355800, "name": "San Bartolom\u00e9 de Corneja", "country": "ES", "coord": {"lon": -5.37279, "lat": 40.491879}}, {"id": 3110842, "name": "San Bartolome de Corneja", "country": "ES", "coord": {"lon": -5.38519, "lat": 40.492569}}, {"id": 6355799, "name": "San Bartolom\u00e9 de B\u00e9jar", "country": "ES", "coord": {"lon": -5.673, "lat": 40.397942}}, {"id": 3110843, "name": "San Bartolome de Bejar", "country": "ES", "coord": {"lon": -5.66261, "lat": 40.407829}}, {"id": 6359115, "name": "San Asensio", "country": "ES", "coord": {"lon": -2.74034, "lat": 42.5075}}, {"id": 3110850, "name": "San Asensio", "country": "ES", "coord": {"lon": -2.75057, "lat": 42.496761}}, {"id": 3110870, "name": "San Antolin", "country": "ES", "coord": {"lon": -6.87376, "lat": 43.038502}}, {"id": 6358017, "name": "San Andr\u00e9s del Rey", "country": "ES", "coord": {"lon": -2.81562, "lat": 40.630821}}, {"id": 3110879, "name": "San Andres del Rey", "country": "ES", "coord": {"lon": -2.8202, "lat": 40.638359}}, {"id": 3110881, "name": "Sant Andreu de Llavaneres", "country": "ES", "coord": {"lon": 2.48333, "lat": 41.566669}}, {"id": 6358016, "name": "San Andr\u00e9s del Congosto", "country": "ES", "coord": {"lon": -3.03475, "lat": 40.986729}}, {"id": 3110882, "name": "San Andres del Congosto", "country": "ES", "coord": {"lon": -3.02423, "lat": 40.997749}}, {"id": 6359891, "name": "San Amaro", "country": "ES", "coord": {"lon": -8.06333, "lat": 42.370041}}, {"id": 3110906, "name": "San Amaro", "country": "ES", "coord": {"lon": -8.07347, "lat": 42.373852}}, {"id": 6362618, "name": "San Agust\u00edn del Pozo", "country": "ES", "coord": {"lon": -5.60693, "lat": 41.896809}}, {"id": 3110909, "name": "San Agustin del Pozo", "country": "ES", "coord": {"lon": -5.59351, "lat": 41.886131}}, {"id": 3110911, "name": "San Agustin de Guadalix", "country": "ES", "coord": {"lon": -3.61639, "lat": 40.678822}}, {"id": 6361607, "name": "San Agust\u00edn", "country": "ES", "coord": {"lon": -0.67161, "lat": 40.092548}}, {"id": 3110915, "name": "San Agustin", "country": "ES", "coord": {"lon": -0.68333, "lat": 40.049999}}, {"id": 6358677, "name": "San Adri\u00e1n del Valle", "country": "ES", "coord": {"lon": -5.71274, "lat": 42.12553}}, {"id": 3110919, "name": "San Adrian del Valle", "country": "ES", "coord": {"lon": -5.72905, "lat": 42.130329}}, {"id": 6356582, "name": "San Adri\u00e1n de Juarros", "country": "ES", "coord": {"lon": -3.45524, "lat": 42.277649}}, {"id": 3110920, "name": "San Adrian de Juarros", "country": "ES", "coord": {"lon": -3.47551, "lat": 42.274269}}, {"id": 6359763, "name": "San Adri\u00e1n", "country": "ES", "coord": {"lon": -1.92256, "lat": 42.346539}}, {"id": 3110924, "name": "San Adrian", "country": "ES", "coord": {"lon": -1.93509, "lat": 42.334332}}, {"id": 6533994, "name": "Sant Iscle de Vallalta", "country": "ES", "coord": {"lon": 2.56876, "lat": 41.633411}}, {"id": 3110925, "name": "Sant Iscle de Vallalta", "country": "ES", "coord": {"lon": 2.56667, "lat": 41.616669}}, {"id": 6362919, "name": "Samper del Salz", "country": "ES", "coord": {"lon": -0.82762, "lat": 41.2075}}, {"id": 3110931, "name": "Samper del Salz", "country": "ES", "coord": {"lon": -0.8251, "lat": 41.234581}}, {"id": 6361606, "name": "Samper de Calanda", "country": "ES", "coord": {"lon": -0.32756, "lat": 41.19249}}, {"id": 3110932, "name": "Samper de Calanda", "country": "ES", "coord": {"lon": -0.38883, "lat": 41.189331}}, {"id": 6356216, "name": "Santpedor", "country": "ES", "coord": {"lon": 1.82581, "lat": 41.783791}}, {"id": 3110934, "name": "Santpedor", "country": "ES", "coord": {"lon": 1.84673, "lat": 41.783089}}, {"id": 3110938, "name": "Samos", "country": "ES", "coord": {"lon": -7.32582, "lat": 42.730999}}, {"id": 6362617, "name": "Samir de los Ca\u00f1os", "country": "ES", "coord": {"lon": -6.1525, "lat": 41.673931}}, {"id": 3110940, "name": "Samir de los Canos", "country": "ES", "coord": {"lon": -6.16415, "lat": 41.672798}}, {"id": 6355279, "name": "Samaniego", "country": "ES", "coord": {"lon": -2.67114, "lat": 42.569469}}, {"id": 3110955, "name": "Samaniego", "country": "ES", "coord": {"lon": -2.67974, "lat": 42.568539}}, {"id": 3110964, "name": "Salvatierra de Tormes", "country": "ES", "coord": {"lon": -5.59763, "lat": 40.590069}}, {"id": 6362918, "name": "Salvatierra de Esca", "country": "ES", "coord": {"lon": -0.94653, "lat": 42.690681}}, {"id": 3110966, "name": "Salvatierra de Esca", "country": "ES", "coord": {"lon": -1.00475, "lat": 42.670021}}, {"id": 6362264, "name": "Salvador de Zapardiel", "country": "ES", "coord": {"lon": -4.86288, "lat": 41.142422}}, {"id": 3110969, "name": "Salvador de Zapardiel", "country": "ES", "coord": {"lon": -4.87486, "lat": 41.116959}}, {"id": 6355798, "name": "Salvadi\u00f3s", "country": "ES", "coord": {"lon": -5.07124, "lat": 40.889641}}, {"id": 3110972, "name": "Salvadios", "country": "ES", "coord": {"lon": -5.09629, "lat": 40.878361}}, {"id": 6357521, "name": "Salvaca\u00f1ete", "country": "ES", "coord": {"lon": -1.5027, "lat": 40.140739}}, {"id": 3110974, "name": "Salvacanete", "country": "ES", "coord": {"lon": -1.5, "lat": 40.099998}}, {"id": 6361377, "name": "Salom\u00f3", "country": "ES", "coord": {"lon": 1.36258, "lat": 41.238258}}, {"id": 3110989, "name": "Salomo", "country": "ES", "coord": {"lon": 1.37445, "lat": 41.229549}}, {"id": 6355797, "name": "Salobral", "country": "ES", "coord": {"lon": -4.8043, "lat": 40.610222}}, {"id": 3110992, "name": "Salobral", "country": "ES", "coord": {"lon": -4.81013, "lat": 40.61179}}, {"id": 6360515, "name": "Salmoral", "country": "ES", "coord": {"lon": -5.21218, "lat": 40.809582}}, {"id": 3110994, "name": "Salmoral", "country": "ES", "coord": {"lon": -5.2191, "lat": 40.801369}}, {"id": 6358015, "name": "Salmer\u00f3n", "country": "ES", "coord": {"lon": -2.48337, "lat": 40.547081}}, {"id": 3110998, "name": "Salmeron", "country": "ES", "coord": {"lon": -2.49315, "lat": 40.545292}}, {"id": 3111003, "name": "Sallent", "country": "ES", "coord": {"lon": 1.8955, "lat": 41.826019}}, {"id": 3111008, "name": "Salinillas de Bureba", "country": "ES", "coord": {"lon": -3.38753, "lat": 42.552429}}, {"id": 3111014, "name": "Salinas de Oro", "country": "ES", "coord": {"lon": -1.88999, "lat": 42.774872}}, {"id": 6357519, "name": "Salinas del Manzano", "country": "ES", "coord": {"lon": -1.55196, "lat": 40.080898}}, {"id": 3111016, "name": "Salinas del Manzano", "country": "ES", "coord": {"lon": -1.55, "lat": 40.083328}}, {"id": 3111017, "name": "Leintz-Gatzaga", "country": "ES", "coord": {"lon": -2.56851, "lat": 42.986839}}, {"id": 6358405, "name": "Salillas", "country": "ES", "coord": {"lon": -0.17055, "lat": 41.97953}}, {"id": 3111031, "name": "Salillas", "country": "ES", "coord": {"lon": -0.22278, "lat": 41.99498}}, {"id": 6361194, "name": "Salduero", "country": "ES", "coord": {"lon": -2.80906, "lat": 41.899139}}, {"id": 3111054, "name": "Salduero", "country": "ES", "coord": {"lon": -2.7967, "lat": 41.889462}}, {"id": 6361605, "name": "Sald\u00f3n", "country": "ES", "coord": {"lon": -1.42076, "lat": 40.33004}}, {"id": 3111055, "name": "Saldon", "country": "ES", "coord": {"lon": -1.42782, "lat": 40.32513}}, {"id": 6359761, "name": "Sald\u00edas", "country": "ES", "coord": {"lon": -1.77292, "lat": 43.092941}}, {"id": 3111057, "name": "Saldias", "country": "ES", "coord": {"lon": -1.77946, "lat": 43.088581}}, {"id": 3111060, "name": "Saldes", "country": "ES", "coord": {"lon": 1.73333, "lat": 42.23333}}, {"id": 6360514, "name": "Saldeana", "country": "ES", "coord": {"lon": -6.63478, "lat": 41.01144}}, {"id": 3111061, "name": "Saldeana", "country": "ES", "coord": {"lon": -6.64015, "lat": 41.020679}}, {"id": 6356580, "name": "Salda\u00f1a de Burgos", "country": "ES", "coord": {"lon": -3.69741, "lat": 42.258759}}, {"id": 3111063, "name": "Saldana de Burgos", "country": "ES", "coord": {"lon": -3.69707, "lat": 42.258381}}, {"id": 6361604, "name": "Salcedillo", "country": "ES", "coord": {"lon": -1.00987, "lat": 40.94511}}, {"id": 3111076, "name": "Salcedillo", "country": "ES", "coord": {"lon": -1.00433, "lat": 40.962002}}, {"id": 6362616, "name": "Salce", "country": "ES", "coord": {"lon": -6.22344, "lat": 41.276321}}, {"id": 3111085, "name": "Salce", "country": "ES", "coord": {"lon": -6.21875, "lat": 41.269958}}, {"id": 6534117, "name": "Sales de Llierca", "country": "ES", "coord": {"lon": 2.64172, "lat": 42.256771}}, {"id": 3111094, "name": "Sales de Llierca", "country": "ES", "coord": {"lon": 2.65, "lat": 42.23333}}, {"id": 6356578, "name": "Salas de Bureba", "country": "ES", "coord": {"lon": -3.4728, "lat": 42.70084}}, {"id": 3111096, "name": "Salas de Bureba", "country": "ES", "coord": {"lon": -3.47359, "lat": 42.691898}}, {"id": 6358404, "name": "Salas Bajas", "country": "ES", "coord": {"lon": 0.09271, "lat": 42.095589}}, {"id": 3111097, "name": "Salas Bajas", "country": "ES", "coord": {"lon": 0.08349, "lat": 42.10046}}, {"id": 6358403, "name": "Salas Altas", "country": "ES", "coord": {"lon": 0.07873, "lat": 42.116718}}, {"id": 3111098, "name": "Salas Altas", "country": "ES", "coord": {"lon": 0.06821, "lat": 42.114071}}, {"id": 3111101, "name": "Salas", "country": "ES", "coord": {"lon": -6.26023, "lat": 43.4118}}, {"id": 6359114, "name": "Sajazarra", "country": "ES", "coord": {"lon": -2.94306, "lat": 42.595329}}, {"id": 3111120, "name": "Sajazarra", "country": "ES", "coord": {"lon": -2.96124, "lat": 42.58884}}, {"id": 6356212, "name": "Sag\u00e0s", "country": "ES", "coord": {"lon": 1.94831, "lat": 42.035809}}, {"id": 3111143, "name": "Sagas", "country": "ES", "coord": {"lon": 1.96667, "lat": 42.049999}}, {"id": 6360511, "name": "Saelices el Chico", "country": "ES", "coord": {"lon": -6.6172, "lat": 40.654861}}, {"id": 3111146, "name": "Saelices el Chico", "country": "ES", "coord": {"lon": -6.63271, "lat": 40.669979}}, {"id": 6362263, "name": "Saelices de Mayorga", "country": "ES", "coord": {"lon": -5.20924, "lat": 42.21368}}, {"id": 3111148, "name": "Saelices de Mayorga", "country": "ES", "coord": {"lon": -5.20534, "lat": 42.212059}}, {"id": 6358014, "name": "Saelices de la Sal", "country": "ES", "coord": {"lon": -2.34041, "lat": 40.905102}}, {"id": 3111151, "name": "Saelices de la Sal", "country": "ES", "coord": {"lon": -2.32325, "lat": 40.90723}}, {"id": 3111158, "name": "Sada", "country": "ES", "coord": {"lon": -8.25796, "lat": 43.35619}}, {"id": 6360897, "name": "Sacramenia", "country": "ES", "coord": {"lon": -3.93933, "lat": 41.516102}}, {"id": 3111159, "name": "Sacramenia", "country": "ES", "coord": {"lon": -3.9621, "lat": 41.49419}}, {"id": 6357517, "name": "Saceda-Trasierra", "country": "ES", "coord": {"lon": -2.84793, "lat": 40.1642}}, {"id": 3111165, "name": "Saceda-Trasierra", "country": "ES", "coord": {"lon": -2.85369, "lat": 40.155251}}, {"id": 6358012, "name": "Sacecorbo", "country": "ES", "coord": {"lon": -2.39921, "lat": 40.823952}}, {"id": 3111169, "name": "Sacecorbo", "country": "ES", "coord": {"lon": -2.41838, "lat": 40.832802}}, {"id": 6534116, "name": "Rupi\u00e0", "country": "ES", "coord": {"lon": 3.01249, "lat": 42.017529}}, {"id": 3111219, "name": "Rupia", "country": "ES", "coord": {"lon": 3.01667, "lat": 42.01667}}, {"id": 3111240, "name": "Ruesga", "country": "ES", "coord": {"lon": -4.52942, "lat": 42.86414}}, {"id": 6362915, "name": "Ruesca", "country": "ES", "coord": {"lon": -1.45697, "lat": 41.281898}}, {"id": 3111241, "name": "Ruesca", "country": "ES", "coord": {"lon": -1.48142, "lat": 41.283501}}, {"id": 3111243, "name": "Ruente", "country": "ES", "coord": {"lon": -4.26791, "lat": 43.258259}}, {"id": 6358011, "name": "Rueda de la Sierra", "country": "ES", "coord": {"lon": -1.85647, "lat": 40.943501}}, {"id": 3111246, "name": "Rueda de la Sierra", "country": "ES", "coord": {"lon": -1.85439, "lat": 40.91795}}, {"id": 6362262, "name": "Rueda", "country": "ES", "coord": {"lon": -4.98914, "lat": 41.414059}}, {"id": 3111251, "name": "Rueda", "country": "ES", "coord": {"lon": -4.95884, "lat": 41.412319}}, {"id": 3111261, "name": "Rucandio", "country": "ES", "coord": {"lon": -3.54166, "lat": 42.751099}}, {"id": 6356576, "name": "Rublacedo de Abajo", "country": "ES", "coord": {"lon": -3.50765, "lat": 42.538441}}, {"id": 3111264, "name": "Rublacedo de Abajo", "country": "ES", "coord": {"lon": -3.50236, "lat": 42.553322}}, {"id": 3111274, "name": "Rubielos de Mora", "country": "ES", "coord": {"lon": -0.65307, "lat": 40.188938}}, {"id": 6361602, "name": "Rubielos de la C\u00e9rida", "country": "ES", "coord": {"lon": -1.21699, "lat": 40.771179}}, {"id": 3111275, "name": "Rubielos de la Cerida", "country": "ES", "coord": {"lon": -1.21291, "lat": 40.77058}}, {"id": 6362261, "name": "Rub\u00ed de Bracamonte", "country": "ES", "coord": {"lon": -4.90944, "lat": 41.221352}}, {"id": 3111277, "name": "Rubi de Bracamonte", "country": "ES", "coord": {"lon": -4.92491, "lat": 41.214211}}, {"id": 6361601, "name": "Rubiales", "country": "ES", "coord": {"lon": -1.2724, "lat": 40.270191}}, {"id": 3111289, "name": "Rubiales", "country": "ES", "coord": {"lon": -1.27166, "lat": 40.276241}}, {"id": 6356575, "name": "Rubena", "country": "ES", "coord": {"lon": -3.5733, "lat": 42.388851}}, {"id": 3111295, "name": "Rubena", "country": "ES", "coord": {"lon": -3.57485, "lat": 42.387459}}, {"id": 6356574, "name": "Royuela de R\u00edo Franco", "country": "ES", "coord": {"lon": -3.94338, "lat": 42.002129}}, {"id": 3111322, "name": "Royuela de Rio Franco", "country": "ES", "coord": {"lon": -3.95547, "lat": 42.002171}}, {"id": 6361600, "name": "Royuela", "country": "ES", "coord": {"lon": -1.51072, "lat": 40.35688}}, {"id": 3111323, "name": "Royuela", "country": "ES", "coord": {"lon": -1.51337, "lat": 40.37846}}, {"id": 6362260, "name": "Roturas", "country": "ES", "coord": {"lon": -4.10783, "lat": 41.670341}}, {"id": 3111330, "name": "Roturas", "country": "ES", "coord": {"lon": -4.11901, "lat": 41.667912}}, {"id": 6360225, "name": "Guarda (A)", "country": "ES", "coord": {"lon": -8.87225, "lat": 41.90403}}, {"id": 3111353, "name": "O Rosal", "country": "ES", "coord": {"lon": -8.83677, "lat": 41.93536}}, {"id": 6358674, "name": "Roperuelos del P\u00e1ramo", "country": "ES", "coord": {"lon": -5.78881, "lat": 42.223}}, {"id": 3111361, "name": "Roperuelos del Paramo", "country": "ES", "coord": {"lon": -5.78234, "lat": 42.237801}}, {"id": 6362913, "name": "Romanos", "country": "ES", "coord": {"lon": -1.2926, "lat": 41.119122}}, {"id": 3111390, "name": "Romanos", "country": "ES", "coord": {"lon": -1.27502, "lat": 41.126362}}, {"id": 6358010, "name": "Romanones", "country": "ES", "coord": {"lon": -2.98357, "lat": 40.572559}}, {"id": 3111391, "name": "Romanones", "country": "ES", "coord": {"lon": -2.99072, "lat": 40.571491}}, {"id": 6358009, "name": "Romanillos de Atienza", "country": "ES", "coord": {"lon": -2.88695, "lat": 41.279881}}, {"id": 3111393, "name": "Romanillos de Atienza", "country": "ES", "coord": {"lon": -2.9, "lat": 41.26667}}, {"id": 6360510, "name": "Roll\u00e1n", "country": "ES", "coord": {"lon": -5.92126, "lat": 40.962029}}, {"id": 3111407, "name": "Rollan", "country": "ES", "coord": {"lon": -5.91752, "lat": 40.962299}}, {"id": 6361192, "name": "Rollamienta", "country": "ES", "coord": {"lon": -2.53021, "lat": 41.933331}}, {"id": 3111408, "name": "Rollamienta", "country": "ES", "coord": {"lon": -2.53125, "lat": 41.925919}}, {"id": 6356573, "name": "Rojas", "country": "ES", "coord": {"lon": -3.43963, "lat": 42.58326}}, {"id": 3111413, "name": "Rojas", "country": "ES", "coord": {"lon": -3.44195, "lat": 42.577808}}, {"id": 6359113, "name": "Rodezno", "country": "ES", "coord": {"lon": -2.83032, "lat": 42.512821}}, {"id": 3111450, "name": "Rodezno", "country": "ES", "coord": {"lon": -2.84597, "lat": 42.525761}}, {"id": 6361599, "name": "R\u00f3denas", "country": "ES", "coord": {"lon": -1.51128, "lat": 40.623711}}, {"id": 3111454, "name": "Rodenas", "country": "ES", "coord": {"lon": -1.51617, "lat": 40.640759}}, {"id": 6360896, "name": "Roda de Eresma", "country": "ES", "coord": {"lon": -4.17872, "lat": 41.032669}}, {"id": 3111467, "name": "Roda de Eresma", "country": "ES", "coord": {"lon": -4.1813, "lat": 41.028519}}, {"id": 6361373, "name": "Roda de Bar\u00e0", "country": "ES", "coord": {"lon": 1.466, "lat": 41.177601}}, {"id": 3111468, "name": "Roda de Bara", "country": "ES", "coord": {"lon": 1.46667, "lat": 41.183331}}, {"id": 6359112, "name": "Robres del Castillo", "country": "ES", "coord": {"lon": -2.29222, "lat": 42.256771}}, {"id": 3111492, "name": "Robres del Castillo", "country": "ES", "coord": {"lon": -2.29245, "lat": 42.275928}}, {"id": 6358400, "name": "Robres", "country": "ES", "coord": {"lon": -0.48055, "lat": 41.861759}}, {"id": 3111493, "name": "Robres", "country": "ES", "coord": {"lon": -0.46094, "lat": 41.867458}}, {"id": 6359347, "name": "Robregordo", "country": "ES", "coord": {"lon": -3.60292, "lat": 41.121719}}, {"id": 3111494, "name": "Robregordo", "country": "ES", "coord": {"lon": -3.59369, "lat": 41.10656}}, {"id": 6360509, "name": "Robliza de Cojos", "country": "ES", "coord": {"lon": -5.96869, "lat": 40.853588}}, {"id": 3111501, "name": "Robliza de Cojos", "country": "ES", "coord": {"lon": -5.97786, "lat": 40.867661}}, {"id": 6358008, "name": "Robledo de Corpes", "country": "ES", "coord": {"lon": -2.9349, "lat": 41.117809}}, {"id": 3111524, "name": "Robledo de Corpes", "country": "ES", "coord": {"lon": -2.95, "lat": 41.118382}}, {"id": 6359346, "name": "Robledo de Chavela", "country": "ES", "coord": {"lon": -4.23744, "lat": 40.491112}}, {"id": 3111525, "name": "Robledo de Chavela", "country": "ES", "coord": {"lon": -4.23635, "lat": 40.500622}}, {"id": 6358007, "name": "Robledillo de Mohernando", "country": "ES", "coord": {"lon": -3.21036, "lat": 40.844082}}, {"id": 3111548, "name": "Robledillo de Mohernando", "country": "ES", "coord": {"lon": -3.23162, "lat": 40.851181}}, {"id": 6356852, "name": "Robledillo de la Vera", "country": "ES", "coord": {"lon": -5.57981, "lat": 40.08844}}, {"id": 3111549, "name": "Robledillo de la Vera", "country": "ES", "coord": {"lon": -5.58896, "lat": 40.100929}}, {"id": 6359345, "name": "Robledillo de la Jara", "country": "ES", "coord": {"lon": -3.52977, "lat": 40.949181}}, {"id": 3111550, "name": "Robledillo de la Jara", "country": "ES", "coord": {"lon": -3.52181, "lat": 40.950539}}, {"id": 6356851, "name": "Robledillo de Gata", "country": "ES", "coord": {"lon": -6.47074, "lat": 40.341438}}, {"id": 3111551, "name": "Robledillo de Gata", "country": "ES", "coord": {"lon": -6.47129, "lat": 40.322338}}, {"id": 6362613, "name": "Robleda-Cervantes", "country": "ES", "coord": {"lon": -6.60867, "lat": 42.076481}}, {"id": 3111556, "name": "Robleda-Cervantes", "country": "ES", "coord": {"lon": -6.59414, "lat": 42.082458}}, {"id": 6360508, "name": "Robleda", "country": "ES", "coord": {"lon": -6.6047, "lat": 40.385941}}, {"id": 3111557, "name": "Robleda", "country": "ES", "coord": {"lon": -6.60726, "lat": 40.384689}}, {"id": 6362259, "name": "Robladillo", "country": "ES", "coord": {"lon": -4.90429, "lat": 41.609619}}, {"id": 3111559, "name": "Robladillo", "country": "ES", "coord": {"lon": -4.90992, "lat": 41.608379}}, {"id": 6362612, "name": "Roales", "country": "ES", "coord": {"lon": -5.78125, "lat": 41.549541}}, {"id": 3111565, "name": "Roales", "country": "ES", "coord": {"lon": -5.77211, "lat": 41.551701}}, {"id": 6356572, "name": "Roa", "country": "ES", "coord": {"lon": -3.92445, "lat": 41.713249}}, {"id": 3111567, "name": "Roa", "country": "ES", "coord": {"lon": -3.92782, "lat": 41.696991}}, {"id": 6355796, "name": "Rivilla de Barajas", "country": "ES", "coord": {"lon": -5.01409, "lat": 40.876019}}, {"id": 3111569, "name": "Rivilla de Barajas", "country": "ES", "coord": {"lon": -4.98836, "lat": 40.9021}}, {"id": 6534114, "name": "Riumors", "country": "ES", "coord": {"lon": 3.04199, "lat": 42.22644}}, {"id": 3111589, "name": "Riumors", "country": "ES", "coord": {"lon": 3.0419, "lat": 42.227261}}, {"id": 6361371, "name": "Riudoms", "country": "ES", "coord": {"lon": 1.0571, "lat": 41.14307}}, {"id": 3111590, "name": "Riudoms", "country": "ES", "coord": {"lon": 1.05, "lat": 41.133331}}, {"id": 6534113, "name": "Riudellots de la Selva", "country": "ES", "coord": {"lon": 2.80307, "lat": 41.89473}}, {"id": 3111592, "name": "Riudellots de la Selva", "country": "ES", "coord": {"lon": 2.80452, "lat": 41.893269}}, {"id": 6361370, "name": "Riudecols", "country": "ES", "coord": {"lon": 0.96204, "lat": 41.17548}}, {"id": 3111596, "name": "Riudecols", "country": "ES", "coord": {"lon": 0.97625, "lat": 41.168999}}, {"id": 6361369, "name": "Riudecanyes", "country": "ES", "coord": {"lon": 0.95195, "lat": 41.133862}}, {"id": 3111598, "name": "Riudecanyes", "country": "ES", "coord": {"lon": 0.96667, "lat": 41.133331}}, {"id": 6534112, "name": "Riudarenes", "country": "ES", "coord": {"lon": 2.71568, "lat": 41.822842}}, {"id": 3111602, "name": "Riudarenes", "country": "ES", "coord": {"lon": 2.71667, "lat": 41.816669}}, {"id": 6359213, "name": "Riotorto", "country": "ES", "coord": {"lon": -7.25803, "lat": 43.317711}}, {"id": 3111612, "name": "Riotorto", "country": "ES", "coord": {"lon": -7.23333, "lat": 43.349998}}, {"id": 6362610, "name": "Riofr\u00edo de Aliste", "country": "ES", "coord": {"lon": -6.20373, "lat": 41.834789}}, {"id": 3111665, "name": "Riofrio de Aliste", "country": "ES", "coord": {"lon": -6.17742, "lat": 41.817242}}, {"id": 6361598, "name": "Riodeva", "country": "ES", "coord": {"lon": -1.14058, "lat": 40.121899}}, {"id": 3111677, "name": "Riodeva", "country": "ES", "coord": {"lon": -1.15, "lat": 40.116669}}, {"id": 6356571, "name": "Riocavado de la Sierra", "country": "ES", "coord": {"lon": -3.21967, "lat": 42.17395}}, {"id": 3111690, "name": "Riocavado de la Sierra", "country": "ES", "coord": {"lon": -3.19759, "lat": 42.152088}}, {"id": 3111704, "name": "Rio Aller", "country": "ES", "coord": {"lon": -5.55019, "lat": 43.053719}}, {"id": 6359111, "name": "Rinc\u00f3n de Soto", "country": "ES", "coord": {"lon": -1.8477, "lat": 42.237701}}, {"id": 3111717, "name": "Rincon de Soto", "country": "ES", "coord": {"lon": -1.85214, "lat": 42.234749}}, {"id": 6358005, "name": "Rillo de Gallo", "country": "ES", "coord": {"lon": -1.92665, "lat": 40.883308}}, {"id": 3111724, "name": "Rillo de Gallo", "country": "ES", "coord": {"lon": -1.9374, "lat": 40.866348}}, {"id": 6361597, "name": "Rillo", "country": "ES", "coord": {"lon": -0.97659, "lat": 40.730961}}, {"id": 3111725, "name": "Rillo", "country": "ES", "coord": {"lon": -0.99622, "lat": 40.722328}}, {"id": 6362420, "name": "Errigoiti", "country": "ES", "coord": {"lon": -2.73414, "lat": 43.332001}}, {"id": 3111733, "name": "Errigoiti", "country": "ES", "coord": {"lon": -2.71667, "lat": 43.316669}}, {"id": 6357622, "name": "Riells i Viabrea", "country": "ES", "coord": {"lon": 2.53519, "lat": 41.754349}}, {"id": 3111748, "name": "Riells i Viabrea", "country": "ES", "coord": {"lon": 2.51667, "lat": 41.783329}}, {"id": 6362912, "name": "Ricla", "country": "ES", "coord": {"lon": -1.40631, "lat": 41.523941}}, {"id": 3111769, "name": "Ricla", "country": "ES", "coord": {"lon": -1.40468, "lat": 41.505798}}, {"id": 6360894, "name": "Ribota", "country": "ES", "coord": {"lon": -3.42571, "lat": 41.352718}}, {"id": 3111775, "name": "Ribota", "country": "ES", "coord": {"lon": -3.42964, "lat": 41.364769}}, {"id": 6357045, "name": "Ribesalbes", "country": "ES", "coord": {"lon": -0.26996, "lat": 40.024502}}, {"id": 3111781, "name": "Ribesalbes", "country": "ES", "coord": {"lon": -0.26667, "lat": 40.01667}}, {"id": 6360100, "name": "Riberos de la Cueza", "country": "ES", "coord": {"lon": -4.71307, "lat": 42.280392}}, {"id": 3111782, "name": "Riberos de la Cueza", "country": "ES", "coord": {"lon": -4.72503, "lat": 42.278809}}, {"id": 6359343, "name": "Ribatejada", "country": "ES", "coord": {"lon": -3.42256, "lat": 40.66692}}, {"id": 3111809, "name": "Ribatejada", "country": "ES", "coord": {"lon": -3.38976, "lat": 40.6642}}, {"id": 6359870, "name": "Nogueira de Ramu\u00edn", "country": "ES", "coord": {"lon": -7.70591, "lat": 42.398788}}, {"id": 3111822, "name": "Luintra", "country": "ES", "coord": {"lon": -7.72682, "lat": 42.409641}}, {"id": 6359756, "name": "Ribaforada", "country": "ES", "coord": {"lon": -1.51411, "lat": 41.991901}}, {"id": 3111845, "name": "Ribaforada", "country": "ES", "coord": {"lon": -1.51272, "lat": 41.998138}}, {"id": 6358004, "name": "Riba de Saelices", "country": "ES", "coord": {"lon": -2.28082, "lat": 40.904812}}, {"id": 3111857, "name": "Riba de Saelices", "country": "ES", "coord": {"lon": -2.29715, "lat": 40.911449}}, {"id": 6359210, "name": "Ribadeo", "country": "ES", "coord": {"lon": -7.09913, "lat": 43.53249}}, {"id": 3111859, "name": "Ribadeo", "country": "ES", "coord": {"lon": -7.04095, "lat": 43.537041}}, {"id": 6358669, "name": "Ria\u00f1o", "country": "ES", "coord": {"lon": -5.0097, "lat": 42.971031}}, {"id": 3111878, "name": "Riano", "country": "ES", "coord": {"lon": -5.00352, "lat": 42.977051}}, {"id": 3111879, "name": "Rianxo", "country": "ES", "coord": {"lon": -8.81763, "lat": 42.649761}}, {"id": 6360892, "name": "Riaguas de San Bartolom\u00e9", "country": "ES", "coord": {"lon": -3.48689, "lat": 41.425301}}, {"id": 3111891, "name": "Riaguas de San Bartolome", "country": "ES", "coord": {"lon": -3.48893, "lat": 41.426399}}, {"id": 6361189, "name": "Reznos", "country": "ES", "coord": {"lon": -2.01441, "lat": 41.594421}}, {"id": 3111895, "name": "Reznos", "country": "ES", "coord": {"lon": -2.0278, "lat": 41.5909}}, {"id": 6356570, "name": "Rezmondo", "country": "ES", "coord": {"lon": -4.23051, "lat": 42.513729}}, {"id": 3111897, "name": "Rezmondo", "country": "ES", "coord": {"lon": -4.23877, "lat": 42.515652}}, {"id": 6358668, "name": "Reyero", "country": "ES", "coord": {"lon": -5.19662, "lat": 42.951561}}, {"id": 3111900, "name": "Reyero", "country": "ES", "coord": {"lon": -5.19892, "lat": 42.948818}}, {"id": 6356568, "name": "Revillarruz", "country": "ES", "coord": {"lon": -3.66208, "lat": 42.231022}}, {"id": 3111909, "name": "Revillarruz", "country": "ES", "coord": {"lon": -3.65246, "lat": 42.230061}}, {"id": 6356567, "name": "Revilla del Campo", "country": "ES", "coord": {"lon": -3.52963, "lat": 42.204369}}, {"id": 3111915, "name": "Revilla del Campo", "country": "ES", "coord": {"lon": -3.54289, "lat": 42.210812}}, {"id": 6360098, "name": "Revilla de Collazos", "country": "ES", "coord": {"lon": -4.51366, "lat": 42.636341}}, {"id": 3111916, "name": "Revilla de Collazos", "country": "ES", "coord": {"lon": -4.50343, "lat": 42.629601}}, {"id": 6360097, "name": "Revenga de Campos", "country": "ES", "coord": {"lon": -4.50552, "lat": 42.264271}}, {"id": 3111926, "name": "Revenga de Campos", "country": "ES", "coord": {"lon": -4.48218, "lat": 42.284012}}, {"id": 6362609, "name": "Revellinos", "country": "ES", "coord": {"lon": -5.55367, "lat": 41.876919}}, {"id": 3111929, "name": "Revellinos", "country": "ES", "coord": {"lon": -5.56871, "lat": 41.88982}}, {"id": 6356565, "name": "Retuerta", "country": "ES", "coord": {"lon": -3.49918, "lat": 42.033161}}, {"id": 3111940, "name": "Retuerta", "country": "ES", "coord": {"lon": -3.50679, "lat": 42.029442}}, {"id": 6361188, "name": "Retortillo de Soria", "country": "ES", "coord": {"lon": -3.02336, "lat": 41.3256}}, {"id": 3111944, "name": "Retortillo de Soria", "country": "ES", "coord": {"lon": -2.98228, "lat": 41.310921}}, {"id": 6360506, "name": "Retortillo", "country": "ES", "coord": {"lon": -6.40762, "lat": 40.800529}}, {"id": 3111948, "name": "Retortillo", "country": "ES", "coord": {"lon": -6.35951, "lat": 40.801319}}, {"id": 6358003, "name": "Retiendas", "country": "ES", "coord": {"lon": -3.28729, "lat": 40.978378}}, {"id": 3111954, "name": "Retiendas", "country": "ES", "coord": {"lon": -3.27229, "lat": 40.968349}}, {"id": 6362911, "name": "Retasc\u00f3n", "country": "ES", "coord": {"lon": -1.3873, "lat": 41.159908}}, {"id": 3111957, "name": "Retascon", "country": "ES", "coord": {"lon": -1.38376, "lat": 41.143501}}, {"id": 6360096, "name": "Respenda de la Pe\u00f1a", "country": "ES", "coord": {"lon": -4.69886, "lat": 42.74007}}, {"id": 3111966, "name": "Respenda de la Pena", "country": "ES", "coord": {"lon": -4.6854, "lat": 42.765121}}, {"id": 6360095, "name": "Requena de Campos", "country": "ES", "coord": {"lon": -4.33862, "lat": 42.310139}}, {"id": 3111976, "name": "Requena de Campos", "country": "ES", "coord": {"lon": -4.34304, "lat": 42.307961}}, {"id": 6362608, "name": "Requejo", "country": "ES", "coord": {"lon": -6.76835, "lat": 42.024761}}, {"id": 3111990, "name": "Requejo", "country": "ES", "coord": {"lon": -6.74227, "lat": 42.030441}}, {"id": 3112008, "name": "Reocin", "country": "ES", "coord": {"lon": -4.09403, "lat": 43.339149}}, {"id": 6361187, "name": "Renieblas", "country": "ES", "coord": {"lon": -2.36678, "lat": 41.801991}}, {"id": 3112013, "name": "Renieblas", "country": "ES", "coord": {"lon": -2.37236, "lat": 41.820091}}, {"id": 6358002, "name": "Renera", "country": "ES", "coord": {"lon": -3.01705, "lat": 40.490479}}, {"id": 3112014, "name": "Renera", "country": "ES", "coord": {"lon": -3.01367, "lat": 40.489761}}, {"id": 3112020, "name": "Renedo de la Vega", "country": "ES", "coord": {"lon": -4.70298, "lat": 42.45348}}, {"id": 6361364, "name": "Renau", "country": "ES", "coord": {"lon": 1.31742, "lat": 41.21793}}, {"id": 3112033, "name": "Renau", "country": "ES", "coord": {"lon": 1.31083, "lat": 41.22448}}, {"id": 6360891, "name": "Remondo", "country": "ES", "coord": {"lon": -4.4869, "lat": 41.347382}}, {"id": 3112039, "name": "Remondo", "country": "ES", "coord": {"lon": -4.4839, "lat": 41.341}}, {"id": 6362910, "name": "Remolinos", "country": "ES", "coord": {"lon": -1.18217, "lat": 41.840099}}, {"id": 3112042, "name": "Remolinos", "country": "ES", "coord": {"lon": -1.17768, "lat": 41.839458}}, {"id": 6361186, "name": "Rello", "country": "ES", "coord": {"lon": -2.74951, "lat": 41.334431}}, {"id": 3112056, "name": "Rello", "country": "ES", "coord": {"lon": -2.74925, "lat": 41.33297}}, {"id": 6360093, "name": "Reinoso de Cerrato", "country": "ES", "coord": {"lon": -4.38399, "lat": 41.95932}}, {"id": 3112072, "name": "Reinoso de Cerrato", "country": "ES", "coord": {"lon": -4.38337, "lat": 41.976238}}, {"id": 6356564, "name": "Reinoso", "country": "ES", "coord": {"lon": -3.38611, "lat": 42.50766}}, {"id": 3112073, "name": "Reinoso", "country": "ES", "coord": {"lon": -3.38466, "lat": 42.509151}}, {"id": 6360704, "name": "Reinosa", "country": "ES", "coord": {"lon": -4.13203, "lat": 43.000919}}, {"id": 3112075, "name": "Reinosa", "country": "ES", "coord": {"lon": -4.13801, "lat": 42.99958}}, {"id": 6356563, "name": "Regumiel de la Sierra", "country": "ES", "coord": {"lon": -2.97472, "lat": 41.9627}}, {"id": 3112088, "name": "Regumiel de la Sierra", "country": "ES", "coord": {"lon": -2.98843, "lat": 41.95623}}, {"id": 6358667, "name": "Regueras de Arriba", "country": "ES", "coord": {"lon": -5.85461, "lat": 42.295029}}, {"id": 3112096, "name": "Regueras de Arriba", "country": "ES", "coord": {"lon": -5.85958, "lat": 42.29414}}, {"id": 6358154, "name": "Errezil", "country": "ES", "coord": {"lon": -2.18666, "lat": 43.175201}}, {"id": 3112124, "name": "Errezil", "country": "ES", "coord": {"lon": -2.17395, "lat": 43.165051}}, {"id": 6534111, "name": "Regenc\u00f3s", "country": "ES", "coord": {"lon": 3.17084, "lat": 41.94603}}, {"id": 3112125, "name": "Regencos", "country": "ES", "coord": {"lon": 3.17006, "lat": 41.952709}}, {"id": 6359342, "name": "Redue\u00f1a", "country": "ES", "coord": {"lon": -3.59185, "lat": 40.8144}}, {"id": 3112146, "name": "Reduena", "country": "ES", "coord": {"lon": -3.59837, "lat": 40.816849}}, {"id": 6356562, "name": "Redecilla del Campo", "country": "ES", "coord": {"lon": -3.11704, "lat": 42.45903}}, {"id": 3112167, "name": "Redecilla del Campo", "country": "ES", "coord": {"lon": -3.11531, "lat": 42.466751}}, {"id": 6356561, "name": "Redecilla del Camino", "country": "ES", "coord": {"lon": -3.06562, "lat": 42.413071}}, {"id": 3112168, "name": "Redecilla del Camino", "country": "ES", "coord": {"lon": -3.06547, "lat": 42.438042}}, {"id": 6361185, "name": "Recuerda", "country": "ES", "coord": {"lon": -2.99482, "lat": 41.444111}}, {"id": 3112171, "name": "Recuerda", "country": "ES", "coord": {"lon": -2.9946, "lat": 41.474079}}, {"id": 6361805, "name": "Recas", "country": "ES", "coord": {"lon": -4.01753, "lat": 40.049252}}, {"id": 3112188, "name": "Recas", "country": "ES", "coord": {"lon": -3.9909, "lat": 40.05286}}, {"id": 6358000, "name": "Rebollosa de Jadraque", "country": "ES", "coord": {"lon": -2.84261, "lat": 41.09119}}, {"id": 3112214, "name": "Rebollosa de Jadraque", "country": "ES", "coord": {"lon": -2.84201, "lat": 41.090401}}, {"id": 6360890, "name": "Rebollo", "country": "ES", "coord": {"lon": -3.8583, "lat": 41.19268}}, {"id": 3112220, "name": "Rebollo", "country": "ES", "coord": {"lon": -3.85771, "lat": 41.19318}}, {"id": 3112222, "name": "Rebolledo de la Torre", "country": "ES", "coord": {"lon": -4.22693, "lat": 42.689308}}, {"id": 6355793, "name": "Rasueros", "country": "ES", "coord": {"lon": -5.07171, "lat": 41.016769}}, {"id": 3112264, "name": "Rasueros", "country": "ES", "coord": {"lon": -5.07377, "lat": 41.023441}}, {"id": 6361363, "name": "Rasquera", "country": "ES", "coord": {"lon": 0.61309, "lat": 40.976292}}, {"id": 3112265, "name": "Rasquera", "country": "ES", "coord": {"lon": 0.59967, "lat": 41.002659}}, {"id": 3112268, "name": "Rasines", "country": "ES", "coord": {"lon": -3.4292, "lat": 43.30505}}, {"id": 6360889, "name": "Rapariegos", "country": "ES", "coord": {"lon": -4.63018, "lat": 41.094879}}, {"id": 3112282, "name": "Rapariegos", "country": "ES", "coord": {"lon": -4.6527, "lat": 41.094978}}, {"id": 6362256, "name": "Ramiro", "country": "ES", "coord": {"lon": -4.78362, "lat": 41.233051}}, {"id": 3112310, "name": "Ramiro", "country": "ES", "coord": {"lon": -4.78608, "lat": 41.228451}}, {"id": 3112325, "name": "Ramales de la Victoria", "country": "ES", "coord": {"lon": -3.46516, "lat": 43.257198}},