[{"id": 2902858, "name": "Hockendorf", "country": "DE", "coord": {"lon": 13.58333, "lat": 50.916672}}, {"id": 6554221, "name": "H\u00f6chstenbach", "country": "DE", "coord": {"lon": 7.73333, "lat": 50.633301}}, {"id": 2902965, "name": "Hochstenbach", "country": "DE", "coord": {"lon": 7.73333, "lat": 50.633331}}, {"id": 6547436, "name": "H\u00f6chstberg", "country": "DE", "coord": {"lon": 7, "lat": 50.25}}, {"id": 2902987, "name": "Hochstberg", "country": "DE", "coord": {"lon": 7, "lat": 50.25}}, {"id": 2903011, "name": "Hochstadt bei Thiersheim", "country": "DE", "coord": {"lon": 12.08333, "lat": 50.099998}}, {"id": 2903012, "name": "Hochstadt an der Donau", "country": "DE", "coord": {"lon": 10.56816, "lat": 48.61124}}, {"id": 6548613, "name": "Hochkirch", "country": "DE", "coord": {"lon": 14.5833, "lat": 51.150002}}, {"id": 2903125, "name": "Hochkirch", "country": "DE", "coord": {"lon": 14.58333, "lat": 51.150002}}, {"id": 6550084, "name": "Hochheim", "country": "DE", "coord": {"lon": 10.6667, "lat": 51.016701}}, {"id": 2903178, "name": "Hochheim", "country": "DE", "coord": {"lon": 10.66667, "lat": 51.01667}}, {"id": 6556979, "name": "H\u00f6chheim", "country": "DE", "coord": {"lon": 10.45, "lat": 50.366699}}, {"id": 2903180, "name": "Hochheim", "country": "DE", "coord": {"lon": 10.45, "lat": 50.366669}}, {"id": 6555421, "name": "Hochdorf", "country": "DE", "coord": {"lon": 9.4615, "lat": 48.695}}, {"id": 2903290, "name": "Hochdorf", "country": "DE", "coord": {"lon": 9.46494, "lat": 48.692829}}, {"id": 6556014, "name": "Hochdorf", "country": "DE", "coord": {"lon": 9.78333, "lat": 48.033298}}, {"id": 2903295, "name": "Hochdorf", "country": "DE", "coord": {"lon": 9.78333, "lat": 48.033329}}, {"id": 2903470, "name": "Hitzacker", "country": "DE", "coord": {"lon": 11.04418, "lat": 53.152538}}, {"id": 6554439, "name": "Hisel", "country": "DE", "coord": {"lon": 6.36667, "lat": 49.966702}}, {"id": 2903489, "name": "Hisel", "country": "DE", "coord": {"lon": 6.37404, "lat": 49.963089}}, {"id": 6553405, "name": "Hirz-Maulsbach", "country": "DE", "coord": {"lon": 7.48333, "lat": 50.6833}}, {"id": 2903494, "name": "Hirz-Maulsbach", "country": "DE", "coord": {"lon": 7.48333, "lat": 50.683331}}, {"id": 2903625, "name": "Hirschhorn", "country": "DE", "coord": {"lon": 8.89806, "lat": 49.448059}}, {"id": 2903658, "name": "Hirschfelde", "country": "DE", "coord": {"lon": 14.8851, "lat": 50.94437}}, {"id": 6547406, "name": "Hirschfeld", "country": "DE", "coord": {"lon": 13.6167, "lat": 51.383301}}, {"id": 2903659, "name": "Hirschfeld", "country": "DE", "coord": {"lon": 13.61667, "lat": 51.383331}}, {"id": 6550497, "name": "Hirschfeld", "country": "DE", "coord": {"lon": 12.1833, "lat": 50.950001}}, {"id": 2903662, "name": "Hirschfeld", "country": "DE", "coord": {"lon": 12.18333, "lat": 50.950001}}, {"id": 6556618, "name": "Hirschbach", "country": "DE", "coord": {"lon": 11.5333, "lat": 49.549999}}, {"id": 2903794, "name": "Hirschbach", "country": "DE", "coord": {"lon": 11.53333, "lat": 49.549999}}, {"id": 6555107, "name": "Hinzweiler", "country": "DE", "coord": {"lon": 7.55, "lat": 49.583302}}, {"id": 2903860, "name": "Hinzweiler", "country": "DE", "coord": {"lon": 7.55, "lat": 49.583328}}, {"id": 6554637, "name": "Hinterweiler", "country": "DE", "coord": {"lon": 6.75, "lat": 50.233299}}, {"id": 2903903, "name": "Hinterweiler", "country": "DE", "coord": {"lon": 6.75, "lat": 50.23333}}, {"id": 6555330, "name": "Hinterweidenthal", "country": "DE", "coord": {"lon": 7.75419, "lat": 49.195648}}, {"id": 2903908, "name": "Hinterweidenthal", "country": "DE", "coord": {"lon": 7.75, "lat": 49.200001}}, {"id": 6553602, "name": "Hintertiefenbach", "country": "DE", "coord": {"lon": 7.35, "lat": 49.733299}}, {"id": 2903926, "name": "Hintertiefenbach", "country": "DE", "coord": {"lon": 7.35, "lat": 49.73333}}, {"id": 6558472, "name": "Hinte", "country": "DE", "coord": {"lon": 7.19717, "lat": 53.4221}}, {"id": 2904397, "name": "Hinte", "country": "DE", "coord": {"lon": 7.18333, "lat": 53.416672}}, {"id": 6548060, "name": "Hinrichshagen", "country": "DE", "coord": {"lon": 12.6667, "lat": 53.616699}}, {"id": 2904418, "name": "Hinrichshagen", "country": "DE", "coord": {"lon": 12.66667, "lat": 53.616669}}, {"id": 6554038, "name": "Himmighofen", "country": "DE", "coord": {"lon": 7.76587, "lat": 50.211948}}, {"id": 2904481, "name": "Himmighofen", "country": "DE", "coord": {"lon": 7.76553, "lat": 50.212009}}, {"id": 6552822, "name": "Himbergen", "country": "DE", "coord": {"lon": 10.7333, "lat": 53.099998}}, {"id": 2904574, "name": "Himbergen", "country": "DE", "coord": {"lon": 10.72909, "lat": 53.094181}}, {"id": 6551335, "name": "Hillgroven", "country": "DE", "coord": {"lon": 8.88333, "lat": 54.216702}}, {"id": 2904687, "name": "Hillgroven", "country": "DE", "coord": {"lon": 8.88333, "lat": 54.216671}}, {"id": 2904691, "name": "Hillesheim", "country": "DE", "coord": {"lon": 6.66667, "lat": 50.299999}}, {"id": 6552307, "name": "Hillerse", "country": "DE", "coord": {"lon": 10.4, "lat": 52.416698}}, {"id": 2904697, "name": "Hillerse", "country": "DE", "coord": {"lon": 10.4, "lat": 52.416672}}, {"id": 6553404, "name": "Hilgenroth", "country": "DE", "coord": {"lon": 7.65, "lat": 50.733299}}, {"id": 2904752, "name": "Hilgenroth", "country": "DE", "coord": {"lon": 7.65, "lat": 50.73333}}, {"id": 2904804, "name": "Hildburghausen", "country": "DE", "coord": {"lon": 10.73184, "lat": 50.425529}}, {"id": 6548519, "name": "Hilbersdorf", "country": "DE", "coord": {"lon": 13.4, "lat": 50.900002}}, {"id": 2904815, "name": "Hilbersdorf", "country": "DE", "coord": {"lon": 13.4, "lat": 50.900002}}, {"id": 6550496, "name": "Hilbersdorf", "country": "DE", "coord": {"lon": 12.15, "lat": 50.8167}}, {"id": 2904817, "name": "Hilbersdorf", "country": "DE", "coord": {"lon": 12.15, "lat": 50.816669}}, {"id": 2904906, "name": "Heyersum", "country": "DE", "coord": {"lon": 9.81265, "lat": 52.15678}}, {"id": 6559305, "name": "Heyersdorf", "country": "DE", "coord": {"lon": 12.30895, "lat": 50.893028}}, {"id": 2904907, "name": "Heyersdorf", "country": "DE", "coord": {"lon": 12.35, "lat": 50.849998}}, {"id": 6549921, "name": "Heyerode", "country": "DE", "coord": {"lon": 10.3167, "lat": 51.166698}}, {"id": 2904909, "name": "Heyerode", "country": "DE", "coord": {"lon": 10.31667, "lat": 51.166672}}, {"id": 6552510, "name": "Heyen", "country": "DE", "coord": {"lon": 9.51667, "lat": 52.016701}}, {"id": 2904915, "name": "Heyen", "country": "DE", "coord": {"lon": 9.50369, "lat": 52.00951}}, {"id": 6547431, "name": "Heuzert", "country": "DE", "coord": {"lon": 7.75, "lat": 50.700001}}, {"id": 2904962, "name": "Heuzert", "country": "DE", "coord": {"lon": 7.75978, "lat": 50.69912}}, {"id": 6555746, "name": "Heuweiler", "country": "DE", "coord": {"lon": 7.9, "lat": 48.049999}}, {"id": 2904969, "name": "Heuweiler", "country": "DE", "coord": {"lon": 7.9, "lat": 48.049999}}, {"id": 2905058, "name": "Heudeber", "country": "DE", "coord": {"lon": 10.85, "lat": 51.900002}}, {"id": 6555584, "name": "Heuchlingen", "country": "DE", "coord": {"lon": 9.94398, "lat": 48.85202}}, {"id": 2905062, "name": "Heuchlingen", "country": "DE", "coord": {"lon": 9.94391, "lat": 48.85215}}, {"id": 6550244, "name": "Hetschburg", "country": "DE", "coord": {"lon": 11.3, "lat": 50.916698}}, {"id": 2905239, "name": "Hetschburg", "country": "DE", "coord": {"lon": 11.30013, "lat": 50.91288}}, {"id": 6553692, "name": "Hesweiler", "country": "DE", "coord": {"lon": 7.28333, "lat": 50.049999}}, {"id": 2905251, "name": "Hesweiler", "country": "DE", "coord": {"lon": 7.28333, "lat": 50.049999}}, {"id": 6548358, "name": "Herzberg", "country": "DE", "coord": {"lon": 11.9333, "lat": 53.533298}}, {"id": 2905501, "name": "Herzberg", "country": "DE", "coord": {"lon": 11.92806, "lat": 53.53072}}, {"id": 6555106, "name": "Herschweiler-Pettersheim", "country": "DE", "coord": {"lon": 7.35, "lat": 49.483299}}, {"id": 2905581, "name": "Herschweiler-Pettersheim", "country": "DE", "coord": {"lon": 7.35, "lat": 49.48333}}, {"id": 6553138, "name": "Herscheid", "country": "DE", "coord": {"lon": 7.8063, "lat": 51.192299}}, {"id": 2905587, "name": "Herscheid", "country": "DE", "coord": {"lon": 7.74355, "lat": 51.179008}}, {"id": 2905591, "name": "Herschdorf", "country": "DE", "coord": {"lon": 11.53736, "lat": 50.711681}}, {"id": 6550209, "name": "Herschdorf", "country": "DE", "coord": {"lon": 11.05, "lat": 50.616699}}, {"id": 2905592, "name": "Herschdorf", "country": "DE", "coord": {"lon": 11.05, "lat": 50.616669}}, {"id": 6554140, "name": "Herschbach", "country": "DE", "coord": {"lon": 7.73333, "lat": 50.583302}}, {"id": 2905597, "name": "Herschbach", "country": "DE", "coord": {"lon": 7.73333, "lat": 50.583328}}, {"id": 6550137, "name": "Herrnschwende", "country": "DE", "coord": {"lon": 11, "lat": 51.216702}}, {"id": 2905602, "name": "Herrnschwende", "country": "DE", "coord": {"lon": 11, "lat": 51.216671}}, {"id": 6556492, "name": "Herrngiersdorf", "country": "DE", "coord": {"lon": 12.0667, "lat": 48.799999}}, {"id": 2905652, "name": "Herrngiersdorf", "country": "DE", "coord": {"lon": 12.06667, "lat": 48.799999}}, {"id": 6549841, "name": "Herrmannsacker", "country": "DE", "coord": {"lon": 10.8667, "lat": 51.549999}}, {"id": 2905682, "name": "Herrmannsacker", "country": "DE", "coord": {"lon": 10.86667, "lat": 51.549999}}, {"id": 6555911, "name": "Herrischried", "country": "DE", "coord": {"lon": 8, "lat": 47.666698}}, {"id": 2905693, "name": "Herrischried", "country": "DE", "coord": {"lon": 8, "lat": 47.666672}}, {"id": 2905706, "name": "Herrieden", "country": "DE", "coord": {"lon": 10.51667, "lat": 49.23333}}, {"id": 6553754, "name": "Herresbach", "country": "DE", "coord": {"lon": 7.01667, "lat": 50.366699}}, {"id": 2905721, "name": "Herresbach", "country": "DE", "coord": {"lon": 7.01667, "lat": 50.366669}}, {"id": 6550083, "name": "Herrenhof", "country": "DE", "coord": {"lon": 10.6833, "lat": 50.833302}}, {"id": 2905798, "name": "Herrenhof", "country": "DE", "coord": {"lon": 10.68333, "lat": 50.833328}}, {"id": 2905905, "name": "Hermsdorf", "country": "DE", "coord": {"lon": 11.47556, "lat": 52.187401}}, {"id": 6547630, "name": "Hermsdorf", "country": "DE", "coord": {"lon": 13.9, "lat": 51.416698}}, {"id": 2905907, "name": "Hermsdorf", "country": "DE", "coord": {"lon": 13.89367, "lat": 51.405472}}, {"id": 2905915, "name": "Hermsdorf", "country": "DE", "coord": {"lon": 13.7348, "lat": 50.923382}}, {"id": 2906087, "name": "Heringen", "country": "DE", "coord": {"lon": 10.87612, "lat": 51.447048}}, {"id": 6549078, "name": "Hergisdorf", "country": "DE", "coord": {"lon": 11.4833, "lat": 51.533298}}, {"id": 2906098, "name": "Hergisdorf", "country": "DE", "coord": {"lon": 11.48333, "lat": 51.533329}}, {"id": 6557205, "name": "Hergatz", "country": "DE", "coord": {"lon": 9.83333, "lat": 47.650002}}, {"id": 2906115, "name": "Hergatz", "country": "DE", "coord": {"lon": 9.83333, "lat": 47.650002}}, {"id": 6554437, "name": "Herbstm\u00fchle", "country": "DE", "coord": {"lon": 6.21667, "lat": 50}}, {"id": 2906171, "name": "Herbstmuhle", "country": "DE", "coord": {"lon": 6.21667, "lat": 50}}, {"id": 6553599, "name": "Herborn", "country": "DE", "coord": {"lon": 7.3, "lat": 49.766701}}, {"id": 2906200, "name": "Herborn", "country": "DE", "coord": {"lon": 7.3, "lat": 49.76667}}, {"id": 2906205, "name": "Herbolzheim", "country": "DE", "coord": {"lon": 7.77746, "lat": 48.218842}}, {"id": 6551334, "name": "Hennstedt", "country": "DE", "coord": {"lon": 9.172, "lat": 54.283501}}, {"id": 2906316, "name": "Hennstedt", "country": "DE", "coord": {"lon": 9.16667, "lat": 54.283329}}, {"id": 6555481, "name": "Hemmingen", "country": "DE", "coord": {"lon": 9.03755, "lat": 48.864601}}, {"id": 2906531, "name": "Hemmingen", "country": "DE", "coord": {"lon": 9.03333, "lat": 48.866669}}, {"id": 6553402, "name": "Hemmelzen", "country": "DE", "coord": {"lon": 7.58333, "lat": 50.700001}}, {"id": 2906560, "name": "Hemmelzen", "country": "DE", "coord": {"lon": 7.58151, "lat": 50.693409}}, {"id": 6551332, "name": "Hemme", "country": "DE", "coord": {"lon": 9.01667, "lat": 54.283298}}, {"id": 2906572, "name": "Hemme", "country": "DE", "coord": {"lon": 9.01667, "lat": 54.283329}}, {"id": 6547414, "name": "Helpsen", "country": "DE", "coord": {"lon": 9.12521, "lat": 52.303501}}, {"id": 2906660, "name": "Helpsen", "country": "DE", "coord": {"lon": 9.11676, "lat": 52.31131}}, {"id": 2906680, "name": "Helmstadt", "country": "DE", "coord": {"lon": 9.71, "lat": 49.761108}}, {"id": 6553401, "name": "Helmeroth", "country": "DE", "coord": {"lon": 7.73333, "lat": 50.733299}}, {"id": 2906730, "name": "Helmeroth", "country": "DE", "coord": {"lon": 7.73333, "lat": 50.73333}}, {"id": 6553400, "name": "Helmenzen", "country": "DE", "coord": {"lon": 7.61667, "lat": 50.700001}}, {"id": 2906738, "name": "Helmenzen", "country": "DE", "coord": {"lon": 7.61667, "lat": 50.700001}}, {"id": 2906744, "name": "Helmbrechts", "country": "DE", "coord": {"lon": 11.71589, "lat": 50.235569}}, {"id": 6551331, "name": "Hellschen-Heringsand-Unterschaar", "country": "DE", "coord": {"lon": 8.85, "lat": 54.200001}}, {"id": 2906766, "name": "Hellschen-Heringsand-Unterschaar", "country": "DE", "coord": {"lon": 8.85, "lat": 54.200001}}, {"id": 6554139, "name": "Helferskirchen", "country": "DE", "coord": {"lon": 7.81667, "lat": 50.516701}}, {"id": 2906957, "name": "Helferskirchen", "country": "DE", "coord": {"lon": 7.81667, "lat": 50.51667}}, {"id": 2907068, "name": "Heitersheim", "country": "DE", "coord": {"lon": 7.65721, "lat": 47.87468}}, {"id": 6553494, "name": "Heinzenberg", "country": "DE", "coord": {"lon": 7.48333, "lat": 49.8167}}, {"id": 2907177, "name": "Heinzenberg", "country": "DE", "coord": {"lon": 7.48333, "lat": 49.816669}}, {"id": 2907195, "name": "Heinsen", "country": "DE", "coord": {"lon": 9.66316, "lat": 52.062569}}, {"id": 6548457, "name": "Heinrichswalde", "country": "DE", "coord": {"lon": 13.7667, "lat": 53.616699}}, {"id": 2907207, "name": "Heinrichswalde", "country": "DE", "coord": {"lon": 13.76667, "lat": 53.616669}}, {"id": 6548456, "name": "Heinrichsruh", "country": "DE", "coord": {"lon": 13.9167, "lat": 53.650002}}, {"id": 2907213, "name": "Heinrichsruh", "country": "DE", "coord": {"lon": 13.91667, "lat": 53.650002}}, {"id": 6552417, "name": "Heiningen", "country": "DE", "coord": {"lon": 10.5667, "lat": 52.0667}}, {"id": 2907278, "name": "Heiningen", "country": "DE", "coord": {"lon": 10.56667, "lat": 52.066669}}, {"id": 6556761, "name": "Heinersreuth", "country": "DE", "coord": {"lon": 11.5333, "lat": 49.966702}}, {"id": 2907292, "name": "Heinersreuth", "country": "DE", "coord": {"lon": 11.53333, "lat": 49.966671}}, {"id": 6547710, "name": "Heinersbr\u00fcck", "country": "DE", "coord": {"lon": 14.50839, "lat": 51.82074}}, {"id": 2907309, "name": "Heinersbruck", "country": "DE", "coord": {"lon": 14.5074, "lat": 51.819859}}, {"id": 2907399, "name": "Heimenkirch", "country": "DE", "coord": {"lon": 9.91667, "lat": 47.616669}}, {"id": 2920241, "name": "Gladbach", "country": "DE", "coord": {"lon": 7.51667, "lat": 50.466671}}, {"id": 2907460, "name": "Heimbach", "country": "DE", "coord": {"lon": 7.53333, "lat": 50.450001}}, {"id": 6553597, "name": "Heimbach", "country": "DE", "coord": {"lon": 7.25, "lat": 49.616699}}, {"id": 2907464, "name": "Heimbach", "country": "DE", "coord": {"lon": 7.25, "lat": 49.616669}}, {"id": 2907546, "name": "Heiligenstadt", "country": "DE", "coord": {"lon": 11.16667, "lat": 49.866669}}, {"id": 6551108, "name": "Heiligengrabe", "country": "DE", "coord": {"lon": 12.35, "lat": 53.150002}}, {"id": 2907594, "name": "Heiligengrabe", "country": "DE", "coord": {"lon": 12.36254, "lat": 53.144611}}, {"id": 6554436, "name": "Heilenbach", "country": "DE", "coord": {"lon": 6.46667, "lat": 50.0667}}, {"id": 2907665, "name": "Heilenbach", "country": "DE", "coord": {"lon": 6.46667, "lat": 50.066669}}, {"id": 6554435, "name": "Heilbach", "country": "DE", "coord": {"lon": 6.28333, "lat": 50.049999}}, {"id": 2907676, "name": "Heilbach", "country": "DE", "coord": {"lon": 6.28333, "lat": 50.049999}}, {"id": 6551731, "name": "Heikendorf", "country": "DE", "coord": {"lon": 10.2, "lat": 54.366699}}, {"id": 2907685, "name": "Heikendorf", "country": "DE", "coord": {"lon": 10.2, "lat": 54.366669}}, {"id": 6551687, "name": "Heidgraben", "country": "DE", "coord": {"lon": 9.68333, "lat": 53.716702}}, {"id": 2907780, "name": "Heidgraben", "country": "DE", "coord": {"lon": 9.65, "lat": 53.716671}}, {"id": 2907790, "name": "Heidesheim", "country": "DE", "coord": {"lon": 8.19611, "lat": 49.580559}}, {"id": 2907852, "name": "Heidenheim", "country": "DE", "coord": {"lon": 10.75, "lat": 49.01667}}, {"id": 6552636, "name": "Heidenau", "country": "DE", "coord": {"lon": 9.66667, "lat": 53.3167}}, {"id": 2907886, "name": "Heidenau", "country": "DE", "coord": {"lon": 9.66667, "lat": 53.316669}}, {"id": 2907983, "name": "Heideck", "country": "DE", "coord": {"lon": 11.11667, "lat": 49.116669}}, {"id": 6550243, "name": "Heichelheim", "country": "DE", "coord": {"lon": 11.3167, "lat": 51.049999}}, {"id": 2908149, "name": "Heichelheim", "country": "DE", "coord": {"lon": 11.31667, "lat": 51.049999}}, {"id": 6551686, "name": "Heede", "country": "DE", "coord": {"lon": 9.8, "lat": 53.783298}}, {"id": 2908349, "name": "Heede", "country": "DE", "coord": {"lon": 9.8, "lat": 53.783329}}, {"id": 6552894, "name": "Heede", "country": "DE", "coord": {"lon": 7.3, "lat": 53}}, {"id": 2908350, "name": "Heede", "country": "DE", "coord": {"lon": 7.3, "lat": 53}}, {"id": 6551330, "name": "Hedwigenkoog", "country": "DE", "coord": {"lon": 8.85, "lat": 54.1833}}, {"id": 2908365, "name": "Hedwigenkoog", "country": "DE", "coord": {"lon": 8.85, "lat": 54.183331}}, {"id": 6549574, "name": "Hedersleben", "country": "DE", "coord": {"lon": 11.2667, "lat": 51.866699}}, {"id": 2908373, "name": "Hedersleben", "country": "DE", "coord": {"lon": 11.25, "lat": 51.859428}}, {"id": 6554739, "name": "Heddert", "country": "DE", "coord": {"lon": 6.75, "lat": 49.650002}}, {"id": 2908401, "name": "Heddert", "country": "DE", "coord": {"lon": 6.75, "lat": 49.650002}}, {"id": 6554550, "name": "Heckhuscheid", "country": "DE", "coord": {"lon": 6.21667, "lat": 50.1833}}, {"id": 2908421, "name": "Heckhuscheid", "country": "DE", "coord": {"lon": 6.22264, "lat": 50.178768}}, {"id": 6553902, "name": "Hecken", "country": "DE", "coord": {"lon": 7.4, "lat": 49.916698}}, {"id": 2908460, "name": "Hecken", "country": "DE", "coord": {"lon": 7.4, "lat": 49.916672}}, {"id": 6552587, "name": "Hechthausen", "country": "DE", "coord": {"lon": 9.24053, "lat": 53.639961}}, {"id": 2908486, "name": "Hechthausen", "country": "DE", "coord": {"lon": 9.23942, "lat": 53.640411}}, {"id": 6556135, "name": "Hebertshausen", "country": "DE", "coord": {"lon": 11.4724, "lat": 48.290199}}, {"id": 2908529, "name": "Hebertshausen", "country": "DE", "coord": {"lon": 11.46526, "lat": 48.289589}}, {"id": 6556560, "name": "Hebertsfelden", "country": "DE", "coord": {"lon": 12.8167, "lat": 48.400002}}, {"id": 2908531, "name": "Hebertsfelden", "country": "DE", "coord": {"lon": 12.81667, "lat": 48.400002}}, {"id": 2908644, "name": "Havelberg", "country": "DE", "coord": {"lon": 12.07552, "lat": 52.830879}}, {"id": 2908661, "name": "Hauzenberg", "country": "DE", "coord": {"lon": 13.63333, "lat": 48.650002}}, {"id": 6553753, "name": "Hausten", "country": "DE", "coord": {"lon": 7.11667, "lat": 50.400002}}, {"id": 2908688, "name": "Hausten", "country": "DE", "coord": {"lon": 7.11667, "lat": 50.400002}}, {"id": 6549918, "name": "Hauss\u00f6mmern", "country": "DE", "coord": {"lon": 10.8167, "lat": 51.1833}}, {"id": 2908696, "name": "Haussommern", "country": "DE", "coord": {"lon": 10.81667, "lat": 51.183331}}, {"id": 6556277, "name": "Hausham", "country": "DE", "coord": {"lon": 11.8284, "lat": 47.759701}}, {"id": 2908783, "name": "Hausham", "country": "DE", "coord": {"lon": 11.84069, "lat": 47.746601}}, {"id": 6555975, "name": "Hausen am Bussen", "country": "DE", "coord": {"lon": 9.63333, "lat": 48.216702}}, {"id": 2908859, "name": "Hausen am Bussen", "country": "DE", "coord": {"lon": 9.62514, "lat": 48.211922}}, {"id": 6549780, "name": "Hausen", "country": "DE", "coord": {"lon": 10.3667, "lat": 51.383301}}, {"id": 2908863, "name": "Hausen", "country": "DE", "coord": {"lon": 10.36667, "lat": 51.383331}}, {"id": 6556975, "name": "Hausen", "country": "DE", "coord": {"lon": 10.125, "lat": 50.5056}}, {"id": 2908875, "name": "Hausen", "country": "DE", "coord": {"lon": 10.11667, "lat": 50.5}}, {"id": 6557024, "name": "Hausen", "country": "DE", "coord": {"lon": 9.21028, "lat": 49.869701}}, {"id": 2908886, "name": "Hausen", "country": "DE", "coord": {"lon": 9.21028, "lat": 49.86972}}, {"id": 6553596, "name": "Hausen", "country": "DE", "coord": {"lon": 7.36667, "lat": 49.866699}}, {"id": 2908887, "name": "Hausen", "country": "DE", "coord": {"lon": 7.36667, "lat": 49.866669}}, {"id": 6556782, "name": "Hausen", "country": "DE", "coord": {"lon": 11.0333, "lat": 49.6833}}, {"id": 2908888, "name": "Hausen", "country": "DE", "coord": {"lon": 11.03333, "lat": 49.683331}}, {"id": 6556491, "name": "Hausen", "country": "DE", "coord": {"lon": 12, "lat": 48.849998}}, {"id": 2908896, "name": "Hausen", "country": "DE", "coord": {"lon": 12, "lat": 48.849998}}, {"id": 2908913, "name": "Hausen", "country": "DE", "coord": {"lon": 7.83986, "lat": 47.681278}}, {"id": 6553901, "name": "Hausbay", "country": "DE", "coord": {"lon": 7.55, "lat": 50.099998}}, {"id": 2908967, "name": "Hausbay", "country": "DE", "coord": {"lon": 7.55, "lat": 50.099998}}, {"id": 6556930, "name": "Haundorf", "country": "DE", "coord": {"lon": 10.7667, "lat": 49.1833}}, {"id": 2909087, "name": "Haundorf", "country": "DE", "coord": {"lon": 10.77124, "lat": 49.17598}}, {"id": 6553798, "name": "Hatzenport", "country": "DE", "coord": {"lon": 7.41667, "lat": 50.233299}}, {"id": 2909201, "name": "Hatzenport", "country": "DE", "coord": {"lon": 7.41667, "lat": 50.23333}}, {"id": 6551553, "name": "Hattstedtermarsch", "country": "DE", "coord": {"lon": 9, "lat": 54.549999}}, {"id": 2909220, "name": "Hattstedtermarsch", "country": "DE", "coord": {"lon": 9, "lat": 54.549999}}, {"id": 6556222, "name": "Hattenhofen", "country": "DE", "coord": {"lon": 11.1167, "lat": 48.216702}}, {"id": 2909253, "name": "Hattenhofen", "country": "DE", "coord": {"lon": 11.11667, "lat": 48.216671}}, {"id": 6552968, "name": "Hatten", "country": "DE", "coord": {"lon": 8.35, "lat": 53.016701}}, {"id": 2909268, "name": "Hatten", "country": "DE", "coord": {"lon": 8.38333, "lat": 53.049999}}, {"id": 6547423, "name": "Haste", "country": "DE", "coord": {"lon": 9.3874, "lat": 52.377102}}, {"id": 2909296, "name": "Haste", "country": "DE", "coord": {"lon": 9.3928, "lat": 52.38105}}, {"id": 6551854, "name": "Ha\u00dfmoor", "country": "DE", "coord": {"lon": 9.81667, "lat": 54.299999}}, {"id": 2909304, "name": "Hassmoor", "country": "DE", "coord": {"lon": 9.81667, "lat": 54.299999}}, {"id": 6555644, "name": "Ha\u00dfmersheim", "country": "DE", "coord": {"lon": 9.1418, "lat": 49.300301}}, {"id": 2909308, "name": "Hassmersheim", "country": "DE", "coord": {"lon": 9.15, "lat": 49.299999}}, {"id": 6550135, "name": "Ha\u00dfleben", "country": "DE", "coord": {"lon": 11, "lat": 51.116699}}, {"id": 2909325, "name": "Hassleben", "country": "DE", "coord": {"lon": 11, "lat": 51.116669}}, {"id": 6552024, "name": "Hasselberg", "country": "DE", "coord": {"lon": 9.98333, "lat": 54.716702}}, {"id": 2909418, "name": "Hasselberg", "country": "DE", "coord": {"lon": 9.98333, "lat": 54.716671}}, {"id": 6553399, "name": "Hasselbach", "country": "DE", "coord": {"lon": 7.51667, "lat": 50.716702}}, {"id": 2909430, "name": "Hasselbach", "country": "DE", "coord": {"lon": 7.51667, "lat": 50.716671}}, {"id": 6553900, "name": "Hasselbach", "country": "DE", "coord": {"lon": 7.45, "lat": 50.033298}}, {"id": 2909433, "name": "Hasselbach", "country": "DE", "coord": {"lon": 7.45, "lat": 50.033329}}, {"id": 2909444, "name": "Hassel", "country": "DE", "coord": {"lon": 8.83198, "lat": 52.69688}}, {"id": 6549492, "name": "Hassel", "country": "DE", "coord": {"lon": 11.9333, "lat": 52.633301}}, {"id": 2909445, "name": "Hassel", "country": "DE", "coord": {"lon": 11.92635, "lat": 52.639519}}, {"id": 2909544, "name": "Haslach", "country": "DE", "coord": {"lon": 8.05658, "lat": 48.565311}}, {"id": 6551551, "name": "Haselund", "country": "DE", "coord": {"lon": 9.18333, "lat": 54.599998}}, {"id": 2909762, "name": "Haselund", "country": "DE", "coord": {"lon": 9.18333, "lat": 54.599998}}, {"id": 6550541, "name": "Haselbach", "country": "DE", "coord": {"lon": 12.4366, "lat": 51.07}}, {"id": 2909865, "name": "Haselbach", "country": "DE", "coord": {"lon": 12.43333, "lat": 51.066669}}, {"id": 6556579, "name": "Haselbach", "country": "DE", "coord": {"lon": 12.69243, "lat": 49.003559}}, {"id": 2909873, "name": "Haselbach", "country": "DE", "coord": {"lon": 12.69183, "lat": 49.003529}}, {"id": 2909877, "name": "Haselbach", "country": "DE", "coord": {"lon": 13.4, "lat": 48.650002}}, {"id": 6551683, "name": "Haselau", "country": "DE", "coord": {"lon": 9.61667, "lat": 53.666698}}, {"id": 2909886, "name": "Haselau", "country": "DE", "coord": {"lon": 9.6201, "lat": 53.661812}}, {"id": 6549840, "name": "Harzungen", "country": "DE", "coord": {"lon": 10.8, "lat": 51.549999}}, {"id": 2909926, "name": "Harzungen", "country": "DE", "coord": {"lon": 10.8, "lat": 51.549999}}, {"id": 6555276, "name": "Harxheim", "country": "DE", "coord": {"lon": 8.26417, "lat": 49.9053}}, {"id": 2909968, "name": "Harxheim", "country": "DE", "coord": {"lon": 8.26417, "lat": 49.905281}}, {"id": 6550368, "name": "Hartmannsdorf", "country": "DE", "coord": {"lon": 11.9833, "lat": 50.966702}}, {"id": 2910047, "name": "Hartmannsdorf", "country": "DE", "coord": {"lon": 11.98333, "lat": 50.966671}}, {"id": 6550495, "name": "Hartmannsdorf", "country": "DE", "coord": {"lon": 12, "lat": 50.900002}}, {"id": 2910049, "name": "Hartmannsdorf", "country": "DE", "coord": {"lon": 12, "lat": 50.900002}}, {"id": 2910051, "name": "Hartmannsdorf", "country": "DE", "coord": {"lon": 12.43333, "lat": 50.76667}}, {"id": 6554212, "name": "H\u00e4rtlingen", "country": "DE", "coord": {"lon": 7.9, "lat": 50.533298}}, {"id": 2910068, "name": "Hartlingen", "country": "DE", "coord": {"lon": 7.9, "lat": 50.533329}}, {"id": 6556816, "name": "Harsdorf", "country": "DE", "coord": {"lon": 11.5667, "lat": 50.033298}}, {"id": 2910283, "name": "Harsdorf", "country": "DE", "coord": {"lon": 11.56667, "lat": 50.033329}}, {"id": 6553306, "name": "Harscheid", "country": "DE", "coord": {"lon": 6.9, "lat": 50.466702}}, {"id": 2910289, "name": "Harscheid", "country": "DE", "coord": {"lon": 6.89203, "lat": 50.459801}}, {"id": 2910344, "name": "Harpstedt", "country": "DE", "coord": {"lon": 8.58333, "lat": 52.900002}}, {"id": 6552635, "name": "Harmstorf", "country": "DE", "coord": {"lon": 9.98333, "lat": 53.349998}}, {"id": 2910384, "name": "Harmstorf", "country": "DE", "coord": {"lon": 9.98333, "lat": 53.349998}}, {"id": 6551651, "name": "Harmsdorf", "country": "DE", "coord": {"lon": 10.8333, "lat": 54.25}}, {"id": 2910390, "name": "Harmsdorf", "country": "DE", "coord": {"lon": 10.83333, "lat": 54.25}}, {"id": 6554548, "name": "Hargarten", "country": "DE", "coord": {"lon": 6.4, "lat": 50.099998}}, {"id": 2910493, "name": "Hargarten", "country": "DE", "coord": {"lon": 6.4, "lat": 50.099998}}, {"id": 6554216, "name": "Hardt", "country": "DE", "coord": {"lon": 7.91667, "lat": 50.633301}}, {"id": 2910560, "name": "Hardt", "country": "DE", "coord": {"lon": 7.91667, "lat": 50.633331}}, {"id": 6555643, "name": "Hardheim", "country": "DE", "coord": {"lon": 9.47655, "lat": 49.609051}}, {"id": 2910633, "name": "Hardheim", "country": "DE", "coord": {"lon": 9.47194, "lat": 49.611938}}, {"id": 6552096, "name": "Hardebek", "country": "DE", "coord": {"lon": 9.86822, "lat": 53.988258}}, {"id": 2910667, "name": "Hardebek", "country": "DE", "coord": {"lon": 9.86813, "lat": 53.988499}}, {"id": 2910686, "name": "Harburg", "country": "DE", "coord": {"lon": 10.68927, "lat": 48.786739}}, {"id": 6552481, "name": "Harbarnsen", "country": "DE", "coord": {"lon": 9.96667, "lat": 51.983299}}, {"id": 2910709, "name": "Harbarnsen", "country": "DE", "coord": {"lon": 9.96667, "lat": 51.98333}}, {"id": 6553398, "name": "Harbach", "country": "DE", "coord": {"lon": 7.83333, "lat": 50.849998}}, {"id": 2910711, "name": "Harbach", "country": "DE", "coord": {"lon": 7.83333, "lat": 50.849998}}, {"id": 2910760, "name": "Hanstedt Eins", "country": "DE", "coord": {"lon": 10.3756, "lat": 53.046299}}, {"id": 6552634, "name": "Hanstedt", "country": "DE", "coord": {"lon": 10.0167, "lat": 53.266701}}, {"id": 2910762, "name": "Hanstedt", "country": "DE", "coord": {"lon": 10.01667, "lat": 53.26667}}, {"id": 6548264, "name": "Hanshagen", "country": "DE", "coord": {"lon": 13.5333, "lat": 54.049999}}, {"id": 2910776, "name": "Hanshagen", "country": "DE", "coord": {"lon": 13.53333, "lat": 54.049999}}, {"id": 6552677, "name": "Handorf", "country": "DE", "coord": {"lon": 10.35, "lat": 53.349998}}, {"id": 2910973, "name": "Handorf", "country": "DE", "coord": {"lon": 10.35, "lat": 53.349998}}, {"id": 6552022, "name": "Handewitt", "country": "DE", "coord": {"lon": 9.3153, "lat": 54.7645}}, {"id": 2910986, "name": "Handewitt", "country": "DE", "coord": {"lon": 9.33333, "lat": 54.76667}}, {"id": 6553829, "name": "Hammerstein", "country": "DE", "coord": {"lon": 7.35, "lat": 50.483299}}, {"id": 2911073, "name": "Hammerstein", "country": "DE", "coord": {"lon": 7.35, "lat": 50.48333}}, {"id": 6550242, "name": "Hammerstedt", "country": "DE", "coord": {"lon": 11.45, "lat": 50.950001}}, {"id": 2911077, "name": "Hammerstedt", "country": "DE", "coord": {"lon": 11.45428, "lat": 50.954208}}, {"id": 6553188, "name": "Hammersbach", "country": "DE", "coord": {"lon": 8.9905, "lat": 50.224701}}, {"id": 2911099, "name": "Hammersbach", "country": "DE", "coord": {"lon": 8.98333, "lat": 50.216671}}, {"id": 6552799, "name": "Hammah", "country": "DE", "coord": {"lon": 9.36667, "lat": 53.616699}}, {"id": 2911230, "name": "Hammah", "country": "DE", "coord": {"lon": 9.36667, "lat": 53.616669}}, {"id": 6549839, "name": "Hamma", "country": "DE", "coord": {"lon": 10.8833, "lat": 51.416698}}, {"id": 2911233, "name": "Hamma", "country": "DE", "coord": {"lon": 10.88333, "lat": 51.416672}}, {"id": 2911242, "name": "Hamm", "country": "DE", "coord": {"lon": 7.66667, "lat": 50.76667}}, {"id": 6547434, "name": "Hamm", "country": "DE", "coord": {"lon": 6.41667, "lat": 50.016701}}, {"id": 2911243, "name": "Hamm", "country": "DE", "coord": {"lon": 6.41667, "lat": 50.01667}}, {"id": 6551851, "name": "Hamdorf", "country": "DE", "coord": {"lon": 9.53333, "lat": 54.233299}}, {"id": 2911282, "name": "Hamdorf", "country": "DE", "coord": {"lon": 9.53333, "lat": 54.23333}}, {"id": 6554035, "name": "Hambach", "country": "DE", "coord": {"lon": 7.98333, "lat": 50.400002}}, {"id": 2911362, "name": "Hambach", "country": "DE", "coord": {"lon": 7.98333, "lat": 50.400002}}, {"id": 6548518, "name": "Halsbr\u00fccke", "country": "DE", "coord": {"lon": 13.35, "lat": 50.950001}}, {"id": 2911426, "name": "Halsbrucke", "country": "DE", "coord": {"lon": 13.35, "lat": 50.950001}}, {"id": 6552506, "name": "Halle", "country": "DE", "coord": {"lon": 9.56667, "lat": 51.983299}}, {"id": 2911521, "name": "Halle", "country": "DE", "coord": {"lon": 9.56532, "lat": 51.991219}}, {"id": 6556203, "name": "Hallbergmoos", "country": "DE", "coord": {"lon": 11.744, "lat": 48.309502}}, {"id": 2911530, "name": "Hallbergmoos", "country": "DE", "coord": {"lon": 11.75142, "lat": 48.327469}}, {"id": 6557307, "name": "Haldenwang", "country": "DE", "coord": {"lon": 10.35, "lat": 47.799999}}, {"id": 2911580, "name": "Haldenwang", "country": "DE", "coord": {"lon": 10.35, "lat": 47.799999}}, {"id": 6554215, "name": "Halbs", "country": "DE", "coord": {"lon": 7.96667, "lat": 50.583302}}, {"id": 2911641, "name": "Halbs", "country": "DE", "coord": {"lon": 7.96667, "lat": 50.583328}}, {"id": 6557232, "name": "Halblech", "country": "DE", "coord": {"lon": 10.8276, "lat": 47.640999}}, {"id": 2911648, "name": "Halblech", "country": "DE", "coord": {"lon": 10.81398, "lat": 47.624222}}, {"id": 6547564, "name": "Halbe", "country": "DE", "coord": {"lon": 13.7, "lat": 52.116699}}, {"id": 2911691, "name": "Halbe", "country": "DE", "coord": {"lon": 13.7, "lat": 52.116669}}, {"id": 6550366, "name": "Hainichen", "country": "DE", "coord": {"lon": 11.6167, "lat": 51}}, {"id": 2911794, "name": "Hainichen", "country": "DE", "coord": {"lon": 11.61667, "lat": 51}}, {"id": 2911909, "name": "Haina", "country": "DE", "coord": {"lon": 8.96667, "lat": 51.033329}}, {"id": 6550082, "name": "Haina", "country": "DE", "coord": {"lon": 10.5333, "lat": 50.983299}}, {"id": 2911910, "name": "Haina", "country": "DE", "coord": {"lon": 10.53333, "lat": 50.98333}}, {"id": 6559294, "name": "Haina", "country": "DE", "coord": {"lon": 10.48233, "lat": 50.42915}}, {"id": 2911911, "name": "Haina", "country": "DE", "coord": {"lon": 10.53333, "lat": 50.416672}}, {"id": 6550494, "name": "Hain", "country": "DE", "coord": {"lon": 12.0833, "lat": 50.700001}}, {"id": 2911916, "name": "Hain", "country": "DE", "coord": {"lon": 12.08333, "lat": 50.707489}}, {"id": 6556099, "name": "Haiming", "country": "DE", "coord": {"lon": 12.9, "lat": 48.216702}}, {"id": 2911938, "name": "Haiming", "country": "DE", "coord": {"lon": 12.9, "lat": 48.216671}}, {"id": 2912158, "name": "Haibach", "country": "DE", "coord": {"lon": 13, "lat": 48.533329}}, {"id": 6556578, "name": "Haibach", "country": "DE", "coord": {"lon": 12.71431, "lat": 49.02454}}, {"id": 2912160, "name": "Haibach", "country": "DE", "coord": {"lon": 12.71552, "lat": 49.024052}}, {"id": 6553491, "name": "Hahnenbach", "country": "DE", "coord": {"lon": 7.41667, "lat": 49.8167}}, {"id": 2912309, "name": "Hahnenbach", "country": "DE", "coord": {"lon": 7.41667, "lat": 49.816669}}, {"id": 6554213, "name": "Hahn bei Marienberg", "country": "DE", "coord": {"lon": 7.93333, "lat": 50.633301}}, {"id": 2912347, "name": "Hahn bei Marienberg", "country": "DE", "coord": {"lon": 7.93333, "lat": 50.633331}}, {"id": 6552860, "name": "Hagermarsch", "country": "DE", "coord": {"lon": 7.29459, "lat": 53.646198}}, {"id": 2912448, "name": "Hagermarsch", "country": "DE", "coord": {"lon": 7.3, "lat": 53.650002}}, {"id": 6552586, "name": "Hagen im Bremischen", "country": "DE", "coord": {"lon": 8.65, "lat": 53.366699}}, {"id": 2912496, "name": "Hagen im Bremischen", "country": "DE", "coord": {"lon": 8.65, "lat": 53.366669}}, {"id": 6552095, "name": "Hagen", "country": "DE", "coord": {"lon": 9.82659, "lat": 53.946522}}, {"id": 2912605, "name": "Hagen", "country": "DE", "coord": {"lon": 9.82659, "lat": 53.946522}}, {"id": 6554547, "name": "Habscheid", "country": "DE", "coord": {"lon": 6.26667, "lat": 50.1833}}, {"id": 2912948, "name": "Habscheid", "country": "DE", "coord": {"lon": 6.26667, "lat": 50.183331}}, {"id": 6552557, "name": "Habighorst", "country": "DE", "coord": {"lon": 10.2333, "lat": 52.700001}}, {"id": 2912966, "name": "Habighorst", "country": "DE", "coord": {"lon": 10.22741, "lat": 52.708641}}, {"id": 6556429, "name": "Habach", "country": "DE", "coord": {"lon": 11.2833, "lat": 47.733299}}, {"id": 2913069, "name": "Habach", "country": "DE", "coord": {"lon": 11.28333, "lat": 47.73333}}, {"id": 6556527, "name": "Haarbach", "country": "DE", "coord": {"lon": 13.15, "lat": 48.5}}, {"id": 2913177, "name": "Haarbach", "country": "DE", "coord": {"lon": 13.15, "lat": 48.5}}, {"id": 2913210, "name": "Haag in Oberbayern", "country": "DE", "coord": {"lon": 12.18333, "lat": 48.166672}}, {"id": 6556760, "name": "Haag", "country": "DE", "coord": {"lon": 11.5667, "lat": 49.866699}}, {"id": 2913229, "name": "Haag", "country": "DE", "coord": {"lon": 11.56071, "lat": 49.869968}}, {"id": 6556905, "name": "Gutenstetten", "country": "DE", "coord": {"lon": 10.6333, "lat": 49.616699}}, {"id": 2913385, "name": "Gutenstetten", "country": "DE", "coord": {"lon": 10.63333, "lat": 49.616669}}, {"id": 2913405, "name": "Gutenberg", "country": "DE", "coord": {"lon": 11.96667, "lat": 51.549999}}, {"id": 6555822, "name": "G\u00fctenbach", "country": "DE", "coord": {"lon": 8.15, "lat": 48.049999}}, {"id": 2913414, "name": "Gutenbach", "country": "DE", "coord": {"lon": 8.15, "lat": 48.049999}}, {"id": 6547629, "name": "Guteborn", "country": "DE", "coord": {"lon": 13.9333, "lat": 51.416698}}, {"id": 2913421, "name": "Guteborn", "country": "DE", "coord": {"lon": 13.93333, "lat": 51.416672}}, {"id": 6555767, "name": "Gutach im Breisgau", "country": "DE", "coord": {"lon": 7.98333, "lat": 48.116699}}, {"id": 2913425, "name": "Gutach im Breisgau", "country": "DE", "coord": {"lon": 7.98333, "lat": 48.116669}}, {"id": 6548416, "name": "Gustow", "country": "DE", "coord": {"lon": 13.2167, "lat": 54.299999}}, {"id": 2913437, "name": "Gustow", "country": "DE", "coord": {"lon": 13.21667, "lat": 54.299999}}, {"id": 6557215, "name": "G\u00fcnzach", "country": "DE", "coord": {"lon": 10.45, "lat": 47.8167}}, {"id": 2913558, "name": "Gunzach", "country": "DE", "coord": {"lon": 10.45, "lat": 47.816669}}, {"id": 2913571, "name": "Gunthersdorf", "country": "DE", "coord": {"lon": 12.16667, "lat": 51.349998}}, {"id": 6549965, "name": "G\u00fcnserode", "country": "DE", "coord": {"lon": 11.05, "lat": 51.299999}}, {"id": 2913627, "name": "Gunserode", "country": "DE", "coord": {"lon": 11.05, "lat": 51.299999}}, {"id": 6556734, "name": "Gundelsheim", "country": "DE", "coord": {"lon": 10.9167, "lat": 49.9333}}, {"id": 2913692, "name": "Gundelsheim", "country": "DE", "coord": {"lon": 10.9199, "lat": 49.93708}}, {"id": 2913711, "name": "Gundelfingen", "country": "DE", "coord": {"lon": 10.36667, "lat": 48.549999}}, {"id": 6547692, "name": "Gumtow", "country": "DE", "coord": {"lon": 12.25, "lat": 52.983299}}, {"id": 2913721, "name": "Gumtow", "country": "DE", "coord": {"lon": 12.25, "lat": 52.98333}}, {"id": 6550365, "name": "Gumperda", "country": "DE", "coord": {"lon": 11.5333, "lat": 50.8167}}, {"id": 2913743, "name": "Gumperda", "country": "DE", "coord": {"lon": 11.5238, "lat": 50.80957}}, {"id": 6547832, "name": "G\u00fclzow", "country": "DE", "coord": {"lon": 12.85, "lat": 53.700001}}, {"id": 2913782, "name": "Gulzow", "country": "DE", "coord": {"lon": 12.85, "lat": 53.700001}}, {"id": 6547831, "name": "G\u00fcltz", "country": "DE", "coord": {"lon": 13.1833, "lat": 53.75}}, {"id": 2913788, "name": "Gultz", "country": "DE", "coord": {"lon": 13.18333, "lat": 53.75}}, {"id": 6553397, "name": "G\u00fcllesheim", "country": "DE", "coord": {"lon": 7.51667, "lat": 50.599998}}, {"id": 2913797, "name": "Gullesheim", "country": "DE", "coord": {"lon": 7.52855, "lat": 50.597839}}, {"id": 6547709, "name": "Guhrow", "country": "DE", "coord": {"lon": 14.22893, "lat": 51.813358}}, {"id": 2913825, "name": "Guhrow", "country": "DE", "coord": {"lon": 14.22935, "lat": 51.812038}}, {"id": 6556066, "name": "Guggenhausen", "country": "DE", "coord": {"lon": 9.45, "lat": 47.900002}}, {"id": 2913847, "name": "Guggenhausen", "country": "DE", "coord": {"lon": 9.45, "lat": 47.900002}}, {"id": 6554211, "name": "Guckheim", "country": "DE", "coord": {"lon": 7.95, "lat": 50.533298}}, {"id": 2913906, "name": "Guckheim", "country": "DE", "coord": {"lon": 7.95, "lat": 50.533329}}, {"id": 2913942, "name": "Gstadt am Chiemsee", "country": "DE", "coord": {"lon": 12.41667, "lat": 47.883331}}, {"id": 6556313, "name": "Gr\u00fcnwald", "country": "DE", "coord": {"lon": 11.5317, "lat": 48.048302}}, {"id": 2914064, "name": "Grunwald", "country": "DE", "coord": {"lon": 11.5232, "lat": 48.039471}}, {"id": 6548004, "name": "Gr\u00fcnow", "country": "DE", "coord": {"lon": 13.3167, "lat": 53.349998}}, {"id": 2914121, "name": "Grunow", "country": "DE", "coord": {"lon": 13.31667, "lat": 53.349998}}, {"id": 6547738, "name": "Gr\u00fcnow", "country": "DE", "coord": {"lon": 13.95, "lat": 53.3167}}, {"id": 2914122, "name": "Grunow", "country": "DE", "coord": {"lon": 13.95, "lat": 53.316669}}, {"id": 6556065, "name": "Gr\u00fcnkraut", "country": "DE", "coord": {"lon": 9.65, "lat": 47.75}}, {"id": 2914137, "name": "Grunkraut", "country": "DE", "coord": {"lon": 9.65, "lat": 47.75}}, {"id": 2914177, "name": "Grunheide", "country": "DE", "coord": {"lon": 13.81667, "lat": 52.416672}}, {"id": 6547628, "name": "Gr\u00fcnewald", "country": "DE", "coord": {"lon": 14, "lat": 51.400002}}, {"id": 2914215, "name": "Grunewald", "country": "DE", "coord": {"lon": 14, "lat": 51.400002}}, {"id": 6552797, "name": "Gr\u00fcnendeich", "country": "DE", "coord": {"lon": 9.61217, "lat": 53.569519}}, {"id": 2914263, "name": "Grunendeich", "country": "DE", "coord": {"lon": 9.61218, "lat": 53.569519}}, {"id": 6557194, "name": "Gr\u00fcnenbach", "country": "DE", "coord": {"lon": 10.0167, "lat": 47.616699}}, {"id": 2914279, "name": "Grunenbach", "country": "DE", "coord": {"lon": 10.01667, "lat": 47.616669}}, {"id": 6555099, "name": "Grumbach", "country": "DE", "coord": {"lon": 7.56667, "lat": 49.650002}}, {"id": 2914543, "name": "Grumbach", "country": "DE", "coord": {"lon": 7.56667, "lat": 49.650002}}, {"id": 6559293, "name": "Grub", "country": "DE", "coord": {"lon": 10.55765, "lat": 50.579041}}, {"id": 2914660, "name": "Grub", "country": "DE", "coord": {"lon": 10.63333, "lat": 50.549999}}, {"id": 2914661, "name": "Grub", "country": "DE", "coord": {"lon": 11.93333, "lat": 50.099998}}, {"id": 6551327, "name": "Groven", "country": "DE", "coord": {"lon": 8.98333, "lat": 54.299999}}, {"id": 2914741, "name": "Groven", "country": "DE", "coord": {"lon": 8.98333, "lat": 54.299999}}, {"id": 6551445, "name": "Grove", "country": "DE", "coord": {"lon": 10.4833, "lat": 53.533298}}, {"id": 2914746, "name": "Grove", "country": "DE", "coord": {"lon": 10.48333, "lat": 53.533329}}, {"id": 6551550, "name": "Grothusenkoog", "country": "DE", "coord": {"lon": 8.75, "lat": 54.299999}}, {"id": 2914769, "name": "Grothusenkoog", "country": "DE", "coord": {"lon": 8.75891, "lat": 54.301281}}, {"id": 6547882, "name": "Gro\u00df W\u00fcstenfelde", "country": "DE", "coord": {"lon": 12.55, "lat": 53.883301}}, {"id": 2914816, "name": "Gross Wustenfelde", "country": "DE", "coord": {"lon": 12.55, "lat": 53.883331}}, {"id": 6547618, "name": "Gro\u00dfwoltersdorf", "country": "DE", "coord": {"lon": 13.1, "lat": 53.0667}}, {"id": 2914828, "name": "Grosswoltersdorf", "country": "DE", "coord": {"lon": 13.1, "lat": 53.066669}}, {"id": 6547881, "name": "Gro\u00df Wokern", "country": "DE", "coord": {"lon": 12.5, "lat": 53.75}}, {"id": 2914833, "name": "Gross Wokern", "country": "DE", "coord": {"lon": 12.49249, "lat": 53.75135}}, {"id": 6556241, "name": "Gro\u00dfweil", "country": "DE", "coord": {"lon": 11.3, "lat": 47.6833}}, {"id": 2914876, "name": "Grossweil", "country": "DE", "coord": {"lon": 11.3, "lat": 47.683331}}, {"id": 2821459, "name": "Trebel", "country": "DE", "coord": {"lon": 11.31667, "lat": 53}}, {"id": 2914935, "name": "Trebel", "country": "DE", "coord": {"lon": 11.31667, "lat": 53}}, {"id": 6547830, "name": "Gro\u00df Teetzleben", "country": "DE", "coord": {"lon": 13.2333, "lat": 53.650002}}, {"id": 2914974, "name": "Gross Teetzleben", "country": "DE", "coord": {"lon": 13.23333, "lat": 53.650002}}, {"id": 6548185, "name": "Gro\u00df Stieten", "country": "DE", "coord": {"lon": 11.45, "lat": 53.8167}}, {"id": 2914999, "name": "Gross Stieten", "country": "DE", "coord": {"lon": 11.45, "lat": 53.816669}}, {"id": 6555373, "name": "Gro\u00dfsteinhausen", "country": "DE", "coord": {"lon": 7.45, "lat": 49.1833}}, {"id": 2915004, "name": "Grosssteinhausen", "country": "DE", "coord": {"lon": 7.45, "lat": 49.183331}}, {"id": 6552020, "name": "Gro\u00dfsolt", "country": "DE", "coord": {"lon": 9.51667, "lat": 54.700001}}, {"id": 2915028, "name": "Grosssolt", "country": "DE", "coord": {"lon": 9.51667, "lat": 54.700001}}, {"id": 6548184, "name": "Gro\u00df Siemz", "country": "DE", "coord": {"lon": 10.9333, "lat": 53.8167}}, {"id": 2915032, "name": "Gross Siemz", "country": "DE", "coord": {"lon": 10.93333, "lat": 53.816669}}, {"id": 6554210, "name": "Gro\u00dfseifen", "country": "DE", "coord": {"lon": 7.96667, "lat": 50.633301}}, {"id": 2915035, "name": "Grossseifen", "country": "DE", "coord": {"lon": 7.96667, "lat": 50.633331}}, {"id": 6548675, "name": "Gro\u00dfschweidnitz", "country": "DE", "coord": {"lon": 14.6333, "lat": 51.0667}}, {"id": 2915046, "name": "Grossschweidnitz", "country": "DE", "coord": {"lon": 14.63333, "lat": 51.066669}}, {"id": 6551444, "name": "Gro\u00df Schenkenberg", "country": "DE", "coord": {"lon": 10.5667, "lat": 53.799999}}, {"id": 2915081, "name": "Gross Schenkenberg", "country": "DE", "coord": {"lon": 10.56667, "lat": 53.799999}}, {"id": 6548553, "name": "Gro\u00dfr\u00fcckerswalde", "country": "DE", "coord": {"lon": 13.1167, "lat": 50.633301}}, {"id": 2915111, "name": "Grossruckerswalde", "country": "DE", "coord": {"lon": 13.11667, "lat": 50.633331}}, {"id": 6547509, "name": "Gro\u00dfrosseln", "country": "DE", "coord": {"lon": 6.84191, "lat": 49.202229}}, {"id": 2915116, "name": "Grossrosseln", "country": "DE", "coord": {"lon": 6.84148, "lat": 49.202961}}, {"id": 6547879, "name": "Gro\u00df Roge", "country": "DE", "coord": {"lon": 12.5, "lat": 53.783298}}, {"id": 2915129, "name": "Gross Roge", "country": "DE", "coord": {"lon": 12.5, "lat": 53.783329}}, {"id": 6550540, "name": "Gro\u00dfr\u00f6da", "country": "DE", "coord": {"lon": 12.3219, "lat": 50.9967}}, {"id": 2915134, "name": "Grossroda", "country": "DE", "coord": {"lon": 12.31667, "lat": 51}}, {"id": 6555563, "name": "Gro\u00dfrinderfeld", "country": "DE", "coord": {"lon": 9.75, "lat": 49.650002}}, {"id": 2915137, "name": "Grossrinderfeld", "country": "DE", "coord": {"lon": 9.75, "lat": 49.650002}}, {"id": 2915157, "name": "Grossraschen", "country": "DE", "coord": {"lon": 14, "lat": 51.583328}}, {"id": 6548263, "name": "Gro\u00df Polzin", "country": "DE", "coord": {"lon": 13.6, "lat": 53.900002}}, {"id": 2915176, "name": "Gross Polzin", "country": "DE", "coord": {"lon": 13.59318, "lat": 53.894119}}, {"id": 6548057, "name": "Gro\u00df Plasten", "country": "DE", "coord": {"lon": 12.85, "lat": 53.549999}}, {"id": 2915178, "name": "Gross Plasten", "country": "DE", "coord": {"lon": 12.85, "lat": 53.549999}}, {"id": 2915191, "name": "Gross Pankow", "country": "DE", "coord": {"lon": 12.05, "lat": 53.116669}}, {"id": 6552093, "name": "Gro\u00df Niendorf", "country": "DE", "coord": {"lon": 10.25, "lat": 53.849998}}, {"id": 2915223, "name": "Gross Niendorf", "country": "DE", "coord": {"lon": 10.25, "lat": 53.849998}}, {"id": 6548357, "name": "Gro\u00df Niendorf", "country": "DE", "coord": {"lon": 11.85, "lat": 53.583302}}, {"id": 2915224, "name": "Gross Niendorf", "country": "DE", "coord": {"lon": 11.85, "lat": 53.583328}}, {"id": 6550130, "name": "Gro\u00dfneuhausen", "country": "DE", "coord": {"lon": 11.2862, "lat": 51.159599}}, {"id": 2915231, "name": "Grossneuhausen", "country": "DE", "coord": {"lon": 11.28333, "lat": 51.150002}}, {"id": 2915241, "name": "Gross Munzel", "country": "DE", "coord": {"lon": 9.47828, "lat": 52.36554}}, {"id": 6548183, "name": "Gro\u00df Molzahn", "country": "DE", "coord": {"lon": 10.8667, "lat": 53.733299}}, {"id": 2915254, "name": "Gross Molzahn", "country": "DE", "coord": {"lon": 10.86667, "lat": 53.73333}}, {"id": 6550128, "name": "Gro\u00dfm\u00f6lsen", "country": "DE", "coord": {"lon": 11.1333, "lat": 51.033298}}, {"id": 2915255, "name": "Grossmolsen", "country": "DE", "coord": {"lon": 11.13333, "lat": 51.033329}}, {"id": 6548119, "name": "Gro\u00df Mohrdorf", "country": "DE", "coord": {"lon": 12.94799, "lat": 54.387859}}, {"id": 2915256, "name": "Gross Mohrdorf", "country": "DE", "coord": {"lon": 12.9485, "lat": 54.388}}, {"id": 6556168, "name": "Gro\u00dfmehring", "country": "DE", "coord": {"lon": 11.5333, "lat": 48.766701}}, {"id": 2915277, "name": "Grossmehring", "country": "DE", "coord": {"lon": 11.53333, "lat": 48.76667}}, {"id": 6552726, "name": "Gro\u00df Meckelsen", "country": "DE", "coord": {"lon": 9.45, "lat": 53.283298}}, {"id": 2915283, "name": "Gross Meckelsen", "country": "DE", "coord": {"lon": 9.45, "lat": 53.283329}}, {"id": 6548455, "name": "Gro\u00df Luckow", "country": "DE", "coord": {"lon": 13.8333, "lat": 53.533298}}, {"id": 2915306, "name": "Gross Luckow", "country": "DE", "coord": {"lon": 13.83333, "lat": 53.533329}}, {"id": 6550363, "name": "Gro\u00dfl\u00f6bichau", "country": "DE", "coord": {"lon": 11.6833, "lat": 50.9333}}, {"id": 2915317, "name": "Grosslobichau", "country": "DE", "coord": {"lon": 11.68333, "lat": 50.933331}}, {"id": 2915343, "name": "Grosslehna", "country": "DE", "coord": {"lon": 12.16667, "lat": 51.299999}}, {"id": 6554546, "name": "Gro\u00dflangenfeld", "country": "DE", "coord": {"lon": 6.25, "lat": 50.216702}}, {"id": 2915353, "name": "Grosslangenfeld", "country": "DE", "coord": {"lon": 6.25, "lat": 50.216671}}, {"id": 6547939, "name": "Gro\u00df Laasch", "country": "DE", "coord": {"lon": 11.55, "lat": 53.349998}}, {"id": 2915357, "name": "Gross Laasch", "country": "DE", "coord": {"lon": 11.55, "lat": 53.349998}}, {"id": 2915375, "name": "Gross Kreutz", "country": "DE", "coord": {"lon": 12.78333, "lat": 52.400002}}, {"id": 6547938, "name": "Gro\u00df Krams", "country": "DE", "coord": {"lon": 11.2667, "lat": 53.333302}}, {"id": 2915382, "name": "Gross Krams", "country": "DE", "coord": {"lon": 11.26667, "lat": 53.333328}}, {"id": 6548118, "name": "Gro\u00df Kordshagen", "country": "DE", "coord": {"lon": 12.85, "lat": 54.333302}}, {"id": 2915391, "name": "Gross Kordshagen", "country": "DE", "coord": {"lon": 12.84302, "lat": 54.331791}}, {"id": 2915392, "name": "Grosskorbetha", "country": "DE", "coord": {"lon": 12.05, "lat": 51.25}}, {"id": 6547627, "name": "Gro\u00dfkmehlen", "country": "DE", "coord": {"lon": 13.7333, "lat": 51.383301}}, {"id": 2915410, "name": "Grosskmehlen", "country": "DE", "coord": {"lon": 13.72501, "lat": 51.379009}}, {"id": 6548262, "name": "Gro\u00df Kiesow", "country": "DE", "coord": {"lon": 13.4833, "lat": 54.016701}}, {"id": 2915427, "name": "Gross Kiesow", "country": "DE", "coord": {"lon": 13.47851, "lat": 54.012611}}, {"id": 6548056, "name": "Gro\u00df Kelle", "country": "DE", "coord": {"lon": 12.55, "lat": 53.400002}}, {"id": 2915432, "name": "Gross Kelle", "country": "DE", "coord": {"lon": 12.54536, "lat": 53.40493}}, {"id": 6556366, "name": "Gro\u00dfkarolinenfeld", "country": "DE", "coord": {"lon": 12.0744, "lat": 47.885601}}, {"id": 2915438, "name": "Grosskarolinenfeld", "country": "DE", "coord": {"lon": 12.08101, "lat": 47.891022}}, {"id": 6554545, "name": "Gro\u00dfkampenberg", "country": "DE", "coord": {"lon": 6.2, "lat": 50.150002}}, {"id": 2915443, "name": "Grosskampenberg", "country": "DE", "coord": {"lon": 6.2, "lat": 50.150002}}, {"id": 6552966, "name": "Gro\u00df Ippener", "country": "DE", "coord": {"lon": 8.61667, "lat": 52.966702}}, {"id": 2915459, "name": "Gross Ippener", "country": "DE", "coord": {"lon": 8.61667, "lat": 52.966671}}, {"id": 6554135, "name": "Gro\u00dfholbach", "country": "DE", "coord": {"lon": 7.88333, "lat": 50.450001}}, {"id": 2915499, "name": "Grossholbach", "country": "DE", "coord": {"lon": 7.88333, "lat": 50.450001}}, {"id": 6550238, "name": "Gro\u00dfheringen", "country": "DE", "coord": {"lon": 11.6667, "lat": 51.099998}}, {"id": 2915520, "name": "Grossheringen", "country": "DE", "coord": {"lon": 11.66667, "lat": 51.099998}}, {"id": 6548517, "name": "Gro\u00dfhartmannsdorf", "country": "DE", "coord": {"lon": 13.3333, "lat": 50.799999}}, {"id": 2915550, "name": "Grosshartmannsdorf", "country": "DE", "coord": {"lon": 13.33333, "lat": 50.799999}}, {"id": 6551730, "name": "Gro\u00dfharrie", "country": "DE", "coord": {"lon": 10.05, "lat": 54.116699}}, {"id": 2915554, "name": "Grossharrie", "country": "DE", "coord": {"lon": 10.05, "lat": 54.116669}}, {"id": 6556876, "name": "Gro\u00dfhabersdorf", "country": "DE", "coord": {"lon": 10.7854, "lat": 49.413399}}, {"id": 2915563, "name": "Grosshabersdorf", "country": "DE", "coord": {"lon": 10.78333, "lat": 49.400002}}, {"id": 2915592, "name": "Grossgoltern", "country": "DE", "coord": {"lon": 9.50111, "lat": 52.332611}}, {"id": 6548356, "name": "Gro\u00df Godems", "country": "DE", "coord": {"lon": 11.8, "lat": 53.366699}}, {"id": 2915595, "name": "Gross Godems", "country": "DE", "coord": {"lon": 11.79726, "lat": 53.363461}}, {"id": 6548055, "name": "Gro\u00df Gievitz", "country": "DE", "coord": {"lon": 12.7833, "lat": 53.583302}}, {"id": 2915604, "name": "Gross Gievitz", "country": "DE", "coord": {"lon": 12.78333, "lat": 53.583328}}, {"id": 6550362, "name": "Gro\u00dfeutersdorf", "country": "DE", "coord": {"lon": 11.5667, "lat": 50.783298}}, {"id": 2915673, "name": "Grosseutersdorf", "country": "DE", "coord": {"lon": 11.56667, "lat": 50.783329}}, {"id": 6556866, "name": "Gro\u00dfenseebach", "country": "DE", "coord": {"lon": 10.87483, "lat": 49.632561}}, {"id": 2916584, "name": "Grossenseebach", "country": "DE", "coord": {"lon": 10.87483, "lat": 49.632511}}, {"id": 6549876, "name": "Gro\u00dfensee", "country": "DE", "coord": {"lon": 9.96667, "lat": 50.9333}}, {"id": 2916586, "name": "Grossensee", "country": "DE", "coord": {"lon": 9.96667, "lat": 50.933331}}, {"id": 6551326, "name": "Gro\u00dfenrade", "country": "DE", "coord": {"lon": 9.23333, "lat": 54.033298}}, {"id": 2916596, "name": "Grossenrade", "country": "DE", "coord": {"lon": 9.23333, "lat": 54.033329}}, {"id": 6553246, "name": "Gro\u00dfenl\u00fcder", "country": "DE", "coord": {"lon": 9.53333, "lat": 50.583302}}, {"id": 2916606, "name": "Grossenluder", "country": "DE", "coord": {"lon": 9.54231, "lat": 50.592499}}, {"id": 2916643, "name": "Grossenehrich", "country": "DE", "coord": {"lon": 10.83333, "lat": 51.25}}, {"id": 2916655, "name": "Grossenbrode", "country": "DE", "coord": {"lon": 11.08333, "lat": 54.383331}}, {"id": 6552091, "name": "Gro\u00dfenaspe", "country": "DE", "coord": {"lon": 9.96667, "lat": 53.983299}}, {"id": 2916676, "name": "Grossenaspe", "country": "DE", "coord": {"lon": 9.96667, "lat": 53.98333}}, {"id": 6556974, "name": "Gro\u00dfeibstadt", "country": "DE", "coord": {"lon": 10.4167, "lat": 50.299999}}, {"id": 2916731, "name": "Grosseibstadt", "country": "DE", "coord": {"lon": 10.41667, "lat": 50.299999}}, {"id": 6548610, "name": "Gro\u00dfdubrau", "country": "DE", "coord": {"lon": 14.4667, "lat": 51.25}}, {"id": 2916839, "name": "Grossdubrau", "country": "DE", "coord": {"lon": 14.46667, "lat": 51.25}}, {"id": 6548635, "name": "Gro\u00df D\u00fcben", "country": "DE", "coord": {"lon": 14.5667, "lat": 51.5667}}, {"id": 2916840, "name": "Gross Duben", "country": "DE", "coord": {"lon": 14.56667, "lat": 51.566669}}, {"id": 6548053, "name": "Gro\u00df Dratow", "country": "DE", "coord": {"lon": 12.8333, "lat": 53.516701}}, {"id": 2916846, "name": "Gross Dratow", "country": "DE", "coord": {"lon": 12.83333, "lat": 53.51667}}, {"id": 6551440, "name": "Gro\u00df Disnack", "country": "DE", "coord": {"lon": 10.6833, "lat": 53.75}}, {"id": 2916861, "name": "Gross Disnack", "country": "DE", "coord": {"lon": 10.68333, "lat": 53.75}}, {"id": 6547592, "name": "Gro\u00dfderschau", "country": "DE", "coord": {"lon": 12.35, "lat": 52.783298}}, {"id": 2916864, "name": "Grossderschau", "country": "DE", "coord": {"lon": 12.3682, "lat": 52.790569}}, {"id": 6555372, "name": "Gro\u00dfbundenbach", "country": "DE", "coord": {"lon": 7.41667, "lat": 49.299999}}, {"id": 2916896, "name": "Grossbundenbach", "country": "DE", "coord": {"lon": 7.41667, "lat": 49.299999}}, {"id": 2916926, "name": "Grossbreitenbach", "country": "DE", "coord": {"lon": 11.03333, "lat": 50.583328}}, {"id": 6548773, "name": "Gro\u00dfbothen", "country": "DE", "coord": {"lon": 12.75, "lat": 51.200001}}, {"id": 2916937, "name": "Grossbothen", "country": "DE", "coord": {"lon": 12.75101, "lat": 51.18784}}, {"id": 2916942, "name": "Gross Bornecke", "country": "DE", "coord": {"lon": 11.48333, "lat": 51.883331}}, {"id": 2916949, "name": "Grossbodungen", "country": "DE", "coord": {"lon": 10.48104, "lat": 51.475719}}, {"id": 6551439, "name": "Gro\u00df Boden", "country": "DE", "coord": {"lon": 10.45, "lat": 53.75}}, {"id": 2916950, "name": "Gross Boden", "country": "DE", "coord": {"lon": 10.45, "lat": 53.75}}, {"id": 6550361, "name": "Gro\u00dfbockedra", "country": "DE", "coord": {"lon": 11.65, "lat": 50.849998}}, {"id": 2916954, "name": "Grossbockedra", "country": "DE", "coord": {"lon": 11.65, "lat": 50.849998}}, {"id": 6555420, "name": "Gro\u00dfbettlingen", "country": "DE", "coord": {"lon": 9.30885, "lat": 48.590569}}, {"id": 2916972, "name": "Grossbettlingen", "country": "DE", "coord": {"lon": 9.30782, "lat": 48.590519}}, {"id": 6552892, "name": "Gro\u00df Ber\u00dfen", "country": "DE", "coord": {"lon": 7.5, "lat": 52.766701}}, {"id": 2916974, "name": "Gross Berssen", "country": "DE", "coord": {"lon": 7.5, "lat": 52.76667}}, {"id": 6549778, "name": "Gro\u00dfbartloff", "country": "DE", "coord": {"lon": 10.2167, "lat": 51.25}}, {"id": 2917002, "name": "Grossbartloff", "country": "DE", "coord": {"lon": 10.21667, "lat": 51.25}}, {"id": 6551729, "name": "Gro\u00dfbarkau", "country": "DE", "coord": {"lon": 10.1667, "lat": 54.233299}}, {"id": 2917011, "name": "Grossbarkau", "country": "DE", "coord": {"lon": 10.16667, "lat": 54.23333}}, {"id": 6556973, "name": "Gro\u00dfbardorf", "country": "DE", "coord": {"lon": 10.3667, "lat": 50.266701}}, {"id": 2917013, "name": "Grossbardorf", "country": "DE", "coord": {"lon": 10.36667, "lat": 50.26667}}, {"id": 2917014, "name": "Grossbardau", "country": "DE", "coord": {"lon": 12.69848, "lat": 51.204189}}, {"id": 6552269, "name": "Gr\u00f6nwohld", "country": "DE", "coord": {"lon": 10.4, "lat": 53.650002}}, {"id": 2917098, "name": "Gronwohld", "country": "DE", "coord": {"lon": 10.4, "lat": 53.650002}}, {"id": 2917139, "name": "Gronau", "country": "DE", "coord": {"lon": 9.78333, "lat": 52.083328}}, {"id": 2917169, "name": "Groitzsch", "country": "DE", "coord": {"lon": 12.61667, "lat": 51.216671}}, {"id": 6551962, "name": "Gr\u00f6dersby", "country": "DE", "coord": {"lon": 9.91667, "lat": 54.633301}}, {"id": 2917190, "name": "Grodersby", "country": "DE", "coord": {"lon": 9.91667, "lat": 54.633331}}, {"id": 6551549, "name": "Gr\u00f6de", "country": "DE", "coord": {"lon": 8.71667, "lat": 54.633301}}, {"id": 2917198, "name": "Grode", "country": "DE", "coord": {"lon": 8.71667, "lat": 54.633331}}, {"id": 6547471, "name": "Gr\u00f6bitz", "country": "DE", "coord": {"lon": 11.9333, "lat": 51.133301}}, {"id": 2917216, "name": "Grobitz", "country": "DE", "coord": {"lon": 11.93333, "lat": 51.133331}}, {"id": 2917217, "name": "Grobers", "country": "DE", "coord": {"lon": 12.11667, "lat": 51.433331}}, {"id": 6547829, "name": "Grischow", "country": "DE", "coord": {"lon": 13.35, "lat": 53.700001}}, {"id": 2917265, "name": "Grischow", "country": "DE", "coord": {"lon": 13.35, "lat": 53.700001}}, {"id": 2917309, "name": "Grimmen", "country": "DE", "coord": {"lon": 13.04051, "lat": 54.112148}}, {"id": 6550171, "name": "Grimmelshausen", "country": "DE", "coord": {"lon": 10.6333, "lat": 50.483299}}, {"id": 2917312, "name": "Grimmelshausen", "country": "DE", "coord": {"lon": 10.63333, "lat": 50.48333}}, {"id": 6556365, "name": "Griesst\u00e4tt", "country": "DE", "coord": {"lon": 12.1833, "lat": 48}}, {"id": 2917380, "name": "Griesstatt", "country": "DE", "coord": {"lon": 12.17727, "lat": 47.99403}}, {"id": 6555973, "name": "Griesingen", "country": "DE", "coord": {"lon": 9.78333, "lat": 48.266701}}, {"id": 2917404, "name": "Griesingen", "country": "DE", "coord": {"lon": 9.78333, "lat": 48.26667}}, {"id": 6548811, "name": "Griesen", "country": "DE", "coord": {"lon": 12.4167, "lat": 51.833302}}, {"id": 2917431, "name": "Griesen", "country": "DE", "coord": {"lon": 12.41667, "lat": 51.833328}}, {"id": 2917461, "name": "Bad Griesbach", "country": "DE", "coord": {"lon": 13.19329, "lat": 48.451809}}, {"id": 2917484, "name": "Griefstedt", "country": "DE", "coord": {"lon": 11.13333, "lat": 51.23333}}, {"id": 6548182, "name": "Grieben", "country": "DE", "coord": {"lon": 11.05, "lat": 53.833302}}, {"id": 2917502, "name": "Grieben", "country": "DE", "coord": {"lon": 11.05, "lat": 53.833328}}, {"id": 6553593, "name": "Griebelschied", "country": "DE", "coord": {"lon": 7.4, "lat": 49.799999}}, {"id": 2917505, "name": "Griebelschied", "country": "DE", "coord": {"lon": 7.4, "lat": 49.799999}}, {"id": 6547937, "name": "Greven", "country": "DE", "coord": {"lon": 10.8, "lat": 53.483299}}, {"id": 2917542, "name": "Greven", "country": "DE", "coord": {"lon": 10.8, "lat": 53.48333}}, {"id": 6557061, "name": "Grettstadt", "country": "DE", "coord": {"lon": 10.3162, "lat": 49.9837}}, {"id": 2917586, "name": "Grettstadt", "country": "DE", "coord": {"lon": 10.31667, "lat": 49.98333}}, {"id": 6547936, "name": "Gresse", "country": "DE", "coord": {"lon": 10.75, "lat": 53.4333}}, {"id": 2917618, "name": "Gresse", "country": "DE", "coord": {"lon": 10.75, "lat": 53.433331}}, {"id": 6551647, "name": "Gremersdorf", "country": "DE", "coord": {"lon": 10.9333, "lat": 54.333302}}, {"id": 2917724, "name": "Gremersdorf", "country": "DE", "coord": {"lon": 10.93333, "lat": 54.333328}}, {"id": 2917726, "name": "Gremberghoven", "country": "DE", "coord": {"lon": 7.06129, "lat": 50.90152}}, {"id": 6554325, "name": "Greimerath", "country": "DE", "coord": {"lon": 6.9, "lat": 50.033298}}, {"id": 2917775, "name": "Greimerath", "country": "DE", "coord": {"lon": 6.9, "lat": 50.033329}}, {"id": 6556256, "name": "Greifenberg", "country": "DE", "coord": {"lon": 11.0833, "lat": 48.0667}}, {"id": 2917803, "name": "Greifenberg", "country": "DE", "coord": {"lon": 11.08349, "lat": 48.070621}}, {"id": 6553238, "name": "Grebenhain", "country": "DE", "coord": {"lon": 9.3358, "lat": 50.488899}}, {"id": 2917850, "name": "Grebenhain", "country": "DE", "coord": {"lon": 9.33855, "lat": 50.489239}}, {"id": 6548355, "name": "Grebbin", "country": "DE", "coord": {"lon": 11.8667, "lat": 53.516701}}, {"id": 2917860, "name": "Grebbin", "country": "DE", "coord": {"lon": 11.86335, "lat": 53.514999}}, {"id": 2917978, "name": "Grassau", "country": "DE", "coord": {"lon": 12.45, "lat": 47.783329}}, {"id": 6548354, "name": "Granzin", "country": "DE", "coord": {"lon": 11.95, "lat": 53.5}}, {"id": 2918072, "name": "Granzin", "country": "DE", "coord": {"lon": 11.94317, "lat": 53.503059}}, {"id": 6547737, "name": "Gramzow", "country": "DE", "coord": {"lon": 14, "lat": 53.216702}}, {"id": 2918133, "name": "Gramzow", "country": "DE", "coord": {"lon": 14.00748, "lat": 53.21246}}, {"id": 2918168, "name": "Gramkow", "country": "DE", "coord": {"lon": 11.31667, "lat": 53.916672}}, {"id": 6548180, "name": "Grambow", "country": "DE", "coord": {"lon": 11.2833, "lat": 53.616699}}, {"id": 2918179, "name": "Grambow", "country": "DE", "coord": {"lon": 11.27498, "lat": 53.621738}}, {"id": 6548454, "name": "Grambin", "country": "DE", "coord": {"lon": 14.0167, "lat": 53.766701}}, {"id": 2918183, "name": "Grambin", "country": "DE", "coord": {"lon": 14.01667, "lat": 53.76667}}, {"id": 6556471, "name": "Grainet", "country": "DE", "coord": {"lon": 13.65, "lat": 48.799999}}, {"id": 2918200, "name": "Grainet", "country": "DE", "coord": {"lon": 13.65, "lat": 48.799999}}, {"id": 6556220, "name": "Grafrath", "country": "DE", "coord": {"lon": 11.1667, "lat": 48.116699}}, {"id": 2918232, "name": "Grafrath", "country": "DE", "coord": {"lon": 11.16667, "lat": 48.116669}}, {"id": 6556457, "name": "Grafling", "country": "DE", "coord": {"lon": 12.9833, "lat": 48.900002}}, {"id": 2918234, "name": "Grafling", "country": "DE", "coord": {"lon": 12.97511, "lat": 48.894909}}, {"id": 6550208, "name": "Gr\u00e4fenroda", "country": "DE", "coord": {"lon": 10.8, "lat": 50.75}}, {"id": 2918282, "name": "Grafenroda", "country": "DE", "coord": {"lon": 10.8, "lat": 50.75}}, {"id": 2918316, "name": "Grafenhausen", "country": "DE", "coord": {"lon": 7.76667, "lat": 48.283329}}, {"id": 6555909, "name": "Grafenhausen", "country": "DE", "coord": {"lon": 8.26667, "lat": 47.766701}}, {"id": 2918317, "name": "Grafenhausen", "country": "DE", "coord": {"lon": 8.26667, "lat": 47.76667}}, {"id": 2918324, "name": "Grafengehaig", "country": "DE", "coord": {"lon": 11.58333, "lat": 50.200001}}, {"id": 6557037, "name": "Gr\u00e4fendorf", "country": "DE", "coord": {"lon": 9.75, "lat": 50.116699}}, {"id": 2918338, "name": "Grafendorf", "country": "DE", "coord": {"lon": 9.75, "lat": 50.116669}}, {"id": 2918350, "name": "Grafenberg", "country": "DE", "coord": {"lon": 11.24983, "lat": 49.645401}}, {"id": 2918365, "name": "Grafenau", "country": "DE", "coord": {"lon": 13.3974, "lat": 48.857681}}, {"id": 6556311, "name": "Gr\u00e4felfing", "country": "DE", "coord": {"lon": 11.4445, "lat": 48.1185}}, {"id": 2918368, "name": "Grafelfing", "country": "DE", "coord": {"lon": 11.42939, "lat": 48.118778}}, {"id": 2918393, "name": "Grabsleben", "country": "DE", "coord": {"lon": 10.83333, "lat": 50.933331}}, {"id": 6552903, "name": "Graben", "country": "DE", "coord": {"lon": 10.8167, "lat": 48.200001}}, {"id": 2918468, "name": "Graben", "country": "DE", "coord": {"lon": 10.81667, "lat": 48.200001}}, {"id": 6552267, "name": "Grabau", "country": "DE", "coord": {"lon": 10.2833, "lat": 53.799999}}, {"id": 2918497, "name": "Grabau", "country": "DE", "coord": {"lon": 10.28333, "lat": 53.799999}}, {"id": 6551435, "name": "G\u00f6ttin", "country": "DE", "coord": {"lon": 10.7, "lat": 53.533298}}, {"id": 2918642, "name": "Gottin", "country": "DE", "coord": {"lon": 10.7, "lat": 53.533329}}, {"id": 6556603, "name": "Gottfrieding", "country": "DE", "coord": {"lon": 12.5333, "lat": 48.650002}}, {"id": 2918659, "name": "Gottfrieding", "country": "DE", "coord": {"lon": 12.53333, "lat": 48.650002}}, {"id": 6548179, "name": "Gottesgabe", "country": "DE", "coord": {"lon": 11.25, "lat": 53.633301}}, {"id": 2918679, "name": "Gottesgabe", "country": "DE", "coord": {"lon": 11.24897, "lat": 53.6311}}, {"id": 2918766, "name": "Gosswitz", "country": "DE", "coord": {"lon": 11.47737, "lat": 50.635361}}, {"id": 6550359, "name": "G\u00f6sen", "country": "DE", "coord": {"lon": 11.8833, "lat": 51}}, {"id": 2918858, "name": "Gosen", "country": "DE", "coord": {"lon": 11.88333, "lat": 51}}, {"id": 6549239, "name": "Goseck", "country": "DE", "coord": {"lon": 11.8667, "lat": 51.200001}}, {"id": 2918868, "name": "Goseck", "country": "DE", "coord": {"lon": 11.86667, "lat": 51.200001}}, {"id": 6549964, "name": "Gorsleben", "country": "DE", "coord": {"lon": 11.1833, "lat": 51.266701}}, {"id": 2918926, "name": "Gorsleben", "country": "DE", "coord": {"lon": 11.18333, "lat": 51.26667}}, {"id": 2918970, "name": "Gornau", "country": "DE", "coord": {"lon": 13.01667, "lat": 50.76667}}, {"id": 6547935, "name": "Gorlosen", "country": "DE", "coord": {"lon": 11.4667, "lat": 53.1833}}, {"id": 2918981, "name": "Gorlosen", "country": "DE", "coord": {"lon": 11.46667, "lat": 53.183331}}, {"id": 6550441, "name": "G\u00f6rkwitz", "country": "DE", "coord": {"lon": 11.7833, "lat": 50.583302}}, {"id": 2918990, "name": "Gorkwitz", "country": "DE", "coord": {"lon": 11.78333, "lat": 50.583328}}, {"id": 6547736, "name": "G\u00f6ritz", "country": "DE", "coord": {"lon": 13.9167, "lat": 53.416698}}, {"id": 2919000, "name": "Goritz", "country": "DE", "coord": {"lon": 13.91667, "lat": 53.416672}}, {"id": 6557213, "name": "G\u00f6risried", "country": "DE", "coord": {"lon": 10.5, "lat": 47.700001}}, {"id": 2919008, "name": "Gorisried", "country": "DE", "coord": {"lon": 10.5, "lat": 47.700001}}, {"id": 6553305, "name": "G\u00f6nnersdorf", "country": "DE", "coord": {"lon": 7.26667, "lat": 50.483299}}, {"id": 2919103, "name": "Gonnersdorf", "country": "DE", "coord": {"lon": 7.26667, "lat": 50.48333}}, {"id": 6554543, "name": "Gondenbrett", "country": "DE", "coord": {"lon": 6.41667, "lat": 50.233299}}, {"id": 2919120, "name": "Gondenbrett", "country": "DE", "coord": {"lon": 6.41667, "lat": 50.23333}}, {"id": 6547606, "name": "Golzow", "country": "DE", "coord": {"lon": 14.4949, "lat": 52.574699}}, {"id": 2919155, "name": "Golzow", "country": "DE", "coord": {"lon": 14.49303, "lat": 52.574001}}, {"id": 6550538, "name": "G\u00f6llnitz", "country": "DE", "coord": {"lon": 12.3243, "lat": 50.9473}}, {"id": 2919210, "name": "Gollnitz", "country": "DE", "coord": {"lon": 12.31667, "lat": 50.950001}}, {"id": 6553592, "name": "Gollenberg", "country": "DE", "coord": {"lon": 7.16667, "lat": 49.666698}}, {"id": 2919246, "name": "Gollenberg", "country": "DE", "coord": {"lon": 7.16667, "lat": 49.666672}}, {"id": 2919290, "name": "Goldkronach", "country": "DE", "coord": {"lon": 11.68333, "lat": 50.01667}}, {"id": 2919366, "name": "Goldberg", "country": "DE", "coord": {"lon": 12.08333, "lat": 53.583328}}, {"id": 7602408, "name": "Goldbeck", "country": "DE", "coord": {"lon": 11.8606, "lat": 52.716949}}, {"id": 2919415, "name": "Goldbeck", "country": "DE", "coord": {"lon": 11.8606, "lat": 52.716949}}, {"id": 2919436, "name": "Goldbach", "country": "DE", "coord": {"lon": 11.43333, "lat": 51.049999}}, {"id": 6550078, "name": "Goldbach", "country": "DE", "coord": {"lon": 10.65, "lat": 51}}, {"id": 2919437, "name": "Goldbach", "country": "DE", "coord": {"lon": 10.65, "lat": 51}}, {"id": 6547825, "name": "Golchen", "country": "DE", "coord": {"lon": 13.2833, "lat": 53.799999}}, {"id": 2919452, "name": "Golchen", "country": "DE", "coord": {"lon": 13.28333, "lat": 53.799999}}, {"id": 6550492, "name": "G\u00f6hren-D\u00f6hlen", "country": "DE", "coord": {"lon": 12.0167, "lat": 50.716702}}, {"id": 2919473, "name": "Gohren-Dohlen", "country": "DE", "coord": {"lon": 12.01667, "lat": 50.716671}}, {"id": 6548352, "name": "G\u00f6hren", "country": "DE", "coord": {"lon": 11.6, "lat": 53.533298}}, {"id": 2919474, "name": "Gohren", "country": "DE", "coord": {"lon": 11.6, "lat": 53.533329}}, {"id": 6550537, "name": "G\u00f6hren", "country": "DE", "coord": {"lon": 12.3694, "lat": 50.9674}}, {"id": 2919480, "name": "Gohren", "country": "DE", "coord": {"lon": 12.36667, "lat": 50.966671}}, {"id": 6558464, "name": "G\u00f6hrde", "country": "DE", "coord": {"lon": 10.956, "lat": 53.130901}}, {"id": 2919489, "name": "Gohrde", "country": "DE", "coord": {"lon": 10.88333, "lat": 53.150002}}, {"id": 6547934, "name": "G\u00f6hlen", "country": "DE", "coord": {"lon": 11.3667, "lat": 53.299999}}, {"id": 2919508, "name": "Gohlen", "country": "DE", "coord": {"lon": 11.36667, "lat": 53.299999}}, {"id": 6555582, "name": "G\u00f6ggingen", "country": "DE", "coord": {"lon": 9.88422, "lat": 48.861382}}, {"id": 2919524, "name": "Goggingen", "country": "DE", "coord": {"lon": 9.88398, "lat": 48.861229}}, {"id": 6548351, "name": "Godern", "country": "DE", "coord": {"lon": 11.5432, "lat": 53.618759}}, {"id": 2919565, "name": "Godern", "country": "DE", "coord": {"lon": 11.5432, "lat": 53.618759}}, {"id": 6548001, "name": "Godendorf", "country": "DE", "coord": {"lon": 13.15, "lat": 53.266701}}, {"id": 2919582, "name": "Godendorf", "country": "DE", "coord": {"lon": 13.15, "lat": 53.26667}}, {"id": 6548609, "name": "G\u00f6da", "country": "DE", "coord": {"lon": 14.3167, "lat": 51.1833}}, {"id": 2919609, "name": "Goda", "country": "DE", "coord": {"lon": 14.31667, "lat": 51.183331}}, {"id": 2919657, "name": "Gnoien", "country": "DE", "coord": {"lon": 12.71099, "lat": 53.9687}}, {"id": 6547772, "name": "Gnewitz", "country": "DE", "coord": {"lon": 12.5167, "lat": 54.083302}}, {"id": 2919667, "name": "Gnewitz", "country": "DE", "coord": {"lon": 12.51085, "lat": 54.07938}}, {"id": 6552725, "name": "Gnarrenburg", "country": "DE", "coord": {"lon": 9, "lat": 53.383301}}, {"id": 2919692, "name": "Gnarrenburg", "country": "DE", "coord": {"lon": 9, "lat": 53.383331}}, {"id": 6551325, "name": "Gl\u00fcsing", "country": "DE", "coord": {"lon": 9.21667, "lat": 54.283298}}, {"id": 2919750, "name": "Glusing", "country": "DE", "coord": {"lon": 9.21667, "lat": 54.283329}}, {"id": 6548414, "name": "Glowe", "country": "DE", "coord": {"lon": 13.4833, "lat": 54.5667}}, {"id": 2919782, "name": "Glowe", "country": "DE", "coord": {"lon": 13.48333, "lat": 54.566669}}, {"id": 6548115, "name": "Glewitz", "country": "DE", "coord": {"lon": 12.9333, "lat": 54.016701}}, {"id": 2919926, "name": "Glewitz", "country": "DE", "coord": {"lon": 12.92456, "lat": 54.020329}}, {"id": 6549001, "name": "Gleina", "country": "DE", "coord": {"lon": 11.7333, "lat": 51.266701}}, {"id": 2919979, "name": "Gleina", "country": "DE", "coord": {"lon": 11.73333, "lat": 51.26667}}, {"id": 6548654, "name": "Glaubitz", "country": "DE", "coord": {"lon": 13.3833, "lat": 51.3167}}, {"id": 2920027, "name": "Glaubitz", "country": "DE", "coord": {"lon": 13.37817, "lat": 51.324982}}, {"id": 6556945, "name": "Glattbach", "country": "DE", "coord": {"lon": 9.15, "lat": 50}}, {"id": 2920043, "name": "Glattbach", "country": "DE", "coord": {"lon": 9.15, "lat": 50}}, {"id": 6556759, "name": "Glash\u00fctten", "country": "DE", "coord": {"lon": 11.44887, "lat": 49.887058}}, {"id": 2920086, "name": "Glashutten", "country": "DE", "coord": {"lon": 11.4487, "lat": 49.88739}}, {"id": 6549777, "name": "Glasehausen", "country": "DE", "coord": {"lon": 10.1667, "lat": 51.450001}}, {"id": 2920161, "name": "Glasehausen", "country": "DE", "coord": {"lon": 10.15205, "lat": 51.442242}}, {"id": 6554321, "name": "Gladbach", "country": "DE", "coord": {"lon": 6.76667, "lat": 49.9333}}, {"id": 2920242, "name": "Gladbach", "country": "DE", "coord": {"lon": 6.76667, "lat": 49.933331}}, {"id": 6554320, "name": "Gipperath", "country": "DE", "coord": {"lon": 6.86667, "lat": 50.033298}}, {"id": 2920312, "name": "Gipperath", "country": "DE", "coord": {"lon": 6.86667, "lat": 50.033329}}, {"id": 6555095, "name": "Ginsweiler", "country": "DE", "coord": {"lon": 7.65, "lat": 49.650002}}, {"id": 2920325, "name": "Ginsweiler", "country": "DE", "coord": {"lon": 7.65, "lat": 49.650002}}, {"id": 6554432, "name": "Gindorf", "country": "DE", "coord": {"lon": 6.65, "lat": 50.016701}}, {"id": 2920350, "name": "Gindorf", "country": "DE", "coord": {"lon": 6.65, "lat": 50.01667}}, {"id": 6549159, "name": "Gimritz", "country": "DE", "coord": {"lon": 11.8667, "lat": 51.5667}}, {"id": 2920362, "name": "Gimritz", "country": "DE", "coord": {"lon": 11.86667, "lat": 51.566669}}, {"id": 6551433, "name": "Giesensdorf", "country": "DE", "coord": {"lon": 10.7, "lat": 53.6833}}, {"id": 2920538, "name": "Giesensdorf", "country": "DE", "coord": {"lon": 10.7, "lat": 53.683331}}, {"id": 6554540, "name": "Giesdorf", "country": "DE", "coord": {"lon": 6.45, "lat": 50.1833}}, {"id": 2920572, "name": "Giesdorf", "country": "DE", "coord": {"lon": 6.45, "lat": 50.183331}}, {"id": 6553395, "name": "Giershausen", "country": "DE", "coord": {"lon": 7.55, "lat": 50.6833}}, {"id": 2920588, "name": "Giershausen", "country": "DE", "coord": {"lon": 7.55, "lat": 50.683331}}, {"id": 6547823, "name": "Gielow", "country": "DE", "coord": {"lon": 12.75, "lat": 53.700001}}, {"id": 2920628, "name": "Gielow", "country": "DE", "coord": {"lon": 12.75, "lat": 53.700001}}, {"id": 6551727, "name": "Giekau", "country": "DE", "coord": {"lon": 10.5167, "lat": 54.3167}}, {"id": 2920634, "name": "Giekau", "country": "DE", "coord": {"lon": 10.51667, "lat": 54.316669}}, {"id": 6552585, "name": "Geversdorf", "country": "DE", "coord": {"lon": 9.08333, "lat": 53.799999}}, {"id": 2920744, "name": "Geversdorf", "country": "DE", "coord": {"lon": 9.08333, "lat": 53.799999}}, {"id": 6553685, "name": "Gevenich", "country": "DE", "coord": {"lon": 7.08333, "lat": 50.150002}}, {"id": 2920749, "name": "Gevenich", "country": "DE", "coord": {"lon": 7.08333, "lat": 50.150002}}, {"id": 6557193, "name": "Gestratz", "country": "DE", "coord": {"lon": 9.98333, "lat": 47.650002}}, {"id": 2920796, "name": "Gestratz", "country": "DE", "coord": {"lon": 9.98333, "lat": 47.650002}}, {"id": 6557135, "name": "Gessertshausen", "country": "DE", "coord": {"lon": 10.73105, "lat": 48.330101}}, {"id": 2920812, "name": "Gessertshausen", "country": "DE", "coord": {"lon": 10.73333, "lat": 48.333328}}, {"id": 6556842, "name": "Geslau", "country": "DE", "coord": {"lon": 10.3, "lat": 49.366699}}, {"id": 2920830, "name": "Geslau", "country": "DE", "coord": {"lon": 10.3, "lat": 49.366669}}, {"id": 2920835, "name": "Gesees", "country": "DE", "coord": {"lon": 11.66667, "lat": 50.033329}}, {"id": 6550440, "name": "Gertewitz", "country": "DE", "coord": {"lon": 11.65, "lat": 50.6833}}, {"id": 2920872, "name": "Gertewitz", "country": "DE", "coord": {"lon": 11.65, "lat": 50.683331}}, {"id": 6549776, "name": "Gerterode", "country": "DE", "coord": {"lon": 10.4833, "lat": 51.383301}}, {"id": 2920873, "name": "Gerterode", "country": "DE", "coord": {"lon": 10.48333, "lat": 51.383331}}, {"id": 6547735, "name": "Gerswalde", "country": "DE", "coord": {"lon": 13.7667, "lat": 53.166698}}, {"id": 2920881, "name": "Gerswalde", "country": "DE", "coord": {"lon": 13.74853, "lat": 53.16988}}, {"id": 6550536, "name": "Gerstenberg", "country": "DE", "coord": {"lon": 12.4414, "lat": 51.0303}}, {"id": 2920908, "name": "Gerstenberg", "country": "DE", "coord": {"lon": 12.43333, "lat": 51.033329}}, {"id": 2920926, "name": "Gersfeld", "country": "DE", "coord": {"lon": 9.91422, "lat": 50.451382}}, {"id": 2920934, "name": "Gersdorf", "country": "DE", "coord": {"lon": 12.93333, "lat": 51.116669}}, {"id": 2920959, "name": "Gerolzhofen", "country": "DE", "coord": {"lon": 10.35, "lat": 49.900002}}, {"id": 2920963, "name": "Gerolstein", "country": "DE", "coord": {"lon": 6.65984, "lat": 50.22224}}, {"id": 6556346, "name": "Gerolsbach", "country": "DE", "coord": {"lon": 11.3667, "lat": 48.5}}, {"id": 2920967, "name": "Gerolsbach", "country": "DE", "coord": {"lon": 11.36149, "lat": 48.492828}}, {"id": 6557083, "name": "Geroldshausen", "country": "DE", "coord": {"lon": 9.90222, "lat": 49.683601}}, {"id": 2920977, "name": "Geroldshausen", "country": "DE", "coord": {"lon": 9.90222, "lat": 49.683609}}, {"id": 6556801, "name": "Geroldsgr\u00fcn", "country": "DE", "coord": {"lon": 11.6, "lat": 50.333302}}, {"id": 2920979, "name": "Geroldsgrun", "country": "DE", "coord": {"lon": 11.6, "lat": 50.333328}}, {"id": 6550439, "name": "Geroda", "country": "DE", "coord": {"lon": 11.9, "lat": 50.766701}}, {"id": 2920988, "name": "Geroda", "country": "DE", "coord": {"lon": 11.9, "lat": 50.76667}}, {"id": 6549775, "name": "Gernrode", "country": "DE", "coord": {"lon": 10.4, "lat": 51.400002}}, {"id": 2921000, "name": "Gernrode", "country": "DE", "coord": {"lon": 10.4, "lat": 51.400002}}, {"id": 6549774, "name": "Gerbershausen", "country": "DE", "coord": {"lon": 9.98333, "lat": 51.333302}}, {"id": 2921179, "name": "Gerbershausen", "country": "DE", "coord": {"lon": 9.98333, "lat": 51.333328}}, {"id": 6553589, "name": "Gerach", "country": "DE", "coord": {"lon": 7.33333, "lat": 49.75}}, {"id": 2921224, "name": "Gerach", "country": "DE", "coord": {"lon": 7.33333, "lat": 49.75}}, {"id": 7602480, "name": "Georgenberg", "country": "DE", "coord": {"lon": 12.42082, "lat": 49.702969}}, {"id": 2921288, "name": "Georgenberg", "country": "DE", "coord": {"lon": 12.42082, "lat": 49.702969}}, {"id": 6547999, "name": "Genzkow", "country": "DE", "coord": {"lon": 13.5, "lat": 53.633301}}, {"id": 2921305, "name": "Genzkow", "country": "DE", "coord": {"lon": 13.5, "lat": 53.633331}}, {"id": 2921375, "name": "Gemunden an der Wohra", "country": "DE", "coord": {"lon": 8.96667, "lat": 50.966671}}, {"id": 6554207, "name": "Gem\u00fcnden", "country": "DE", "coord": {"lon": 8.01667, "lat": 50.549999}}, {"id": 2921376, "name": "Gemunden", "country": "DE", "coord": {"lon": 8.01667, "lat": 50.549999}}, {"id": 6553895, "name": "Gem\u00fcnden", "country": "DE", "coord": {"lon": 7.46667, "lat": 49.900002}}, {"id": 2921380, "name": "Gemunden", "country": "DE", "coord": {"lon": 7.46667, "lat": 49.900002}}, {"id": 6554430, "name": "Gem\u00fcnd", "country": "DE", "coord": {"lon": 6.16667, "lat": 49.983299}}, {"id": 2921384, "name": "Gemund", "country": "DE", "coord": {"lon": 6.16667, "lat": 49.98333}}, {"id": 6554031, "name": "Gemmerich", "country": "DE", "coord": {"lon": 7.75806, "lat": 50.22805}}, {"id": 2921393, "name": "Gemmerich", "country": "DE", "coord": {"lon": 7.75858, "lat": 50.227879}}, {"id": 6552018, "name": "Gelting", "country": "DE", "coord": {"lon": 9.9, "lat": 54.75}}, {"id": 2921444, "name": "Gelting", "country": "DE", "coord": {"lon": 9.9, "lat": 54.75}}, {"id": 6549773, "name": "Geismar", "country": "DE", "coord": {"lon": 10.16549, "lat": 51.231689}}, {"id": 2921642, "name": "Geismar", "country": "DE", "coord": {"lon": 10.16548, "lat": 51.231689}}, {"id": 6554030, "name": "Geisig", "country": "DE", "coord": {"lon": 7.8, "lat": 50.25}}, {"id": 2921685, "name": "Geisig", "country": "DE", "coord": {"lon": 7.8, "lat": 50.25}}, {"id": 2921709, "name": "Geisenhausen", "country": "DE", "coord": {"lon": 12.25, "lat": 48.466671}}, {"id": 6550357, "name": "Geisenhain", "country": "DE", "coord": {"lon": 11.7167, "lat": 50.833302}}, {"id": 2921711, "name": "Geisenhain", "country": "DE", "coord": {"lon": 11.71667, "lat": 50.833328}}, {"id": 2921713, "name": "Geisenfeld", "country": "DE", "coord": {"lon": 11.61667, "lat": 48.683331}}, {"id": 2921736, "name": "Geiselhoring", "country": "DE", "coord": {"lon": 12.38333, "lat": 48.833328}}, {"id": 6556944, "name": "Geiselbach", "country": "DE", "coord": {"lon": 9.2, "lat": 50.116699}}, {"id": 2921755, "name": "Geiselbach", "country": "DE", "coord": {"lon": 9.2, "lat": 50.116669}}, {"id": 6556545, "name": "Geiersthal", "country": "DE", "coord": {"lon": 12.9833, "lat": 49.049999}}, {"id": 2921886, "name": "Geiersthal", "country": "DE", "coord": {"lon": 12.98333, "lat": 49.049999}}, {"id": 6554947, "name": "Gehrweiler", "country": "DE", "coord": {"lon": 7.76667, "lat": 49.583302}}, {"id": 2921957, "name": "Gehrweiler", "country": "DE", "coord": {"lon": 7.76667, "lat": 49.583328}}, {"id": 6554206, "name": "Gehlert", "country": "DE", "coord": {"lon": 7.83333, "lat": 50.650002}}, {"id": 2922028, "name": "Gehlert", "country": "DE", "coord": {"lon": 7.83333, "lat": 50.650002}}, {"id": 6547435, "name": "Gefell", "country": "DE", "coord": {"lon": 6.91667, "lat": 50.233299}}, {"id": 2922091, "name": "Gefell", "country": "DE", "coord": {"lon": 6.91667, "lat": 50.23333}}, {"id": 6550237, "name": "Gebstedt", "country": "DE", "coord": {"lon": 11.5, "lat": 51.099998}}, {"id": 2922140, "name": "Gebstedt", "country": "DE", "coord": {"lon": 11.5, "lat": 51.099998}}, {"id": 6553488, "name": "Gebroth", "country": "DE", "coord": {"lon": 7.65, "lat": 49.883301}}, {"id": 2922143, "name": "Gebroth", "country": "DE", "coord": {"lon": 7.65, "lat": 49.883331}}, {"id": 6556617, "name": "Gebenbach", "country": "DE", "coord": {"lon": 11.8833, "lat": 49.533298}}, {"id": 2922207, "name": "Gebenbach", "country": "DE", "coord": {"lon": 11.88333, "lat": 49.533329}}, {"id": 2922419, "name": "Garz", "country": "DE", "coord": {"lon": 13.35, "lat": 54.316669}}, {"id": 2922432, "name": "Gartz", "country": "DE", "coord": {"lon": 14.39226, "lat": 53.20829}}, {"id": 2922438, "name": "Gartow", "country": "DE", "coord": {"lon": 11.462, "lat": 53.0247}}, {"id": 2922502, "name": "Gars", "country": "DE", "coord": {"lon": 12.28333, "lat": 48.150002}}, {"id": 2922580, "name": "Gardelegen", "country": "DE", "coord": {"lon": 11.39523, "lat": 52.5252}}, {"id": 2922583, "name": "Garching an der Alz", "country": "DE", "coord": {"lon": 12.6, "lat": 48.133331}}, {"id": 6553750, "name": "Gappenach", "country": "DE", "coord": {"lon": 7.35, "lat": 50.266701}}, {"id": 2922604, "name": "Gappenach", "country": "DE", "coord": {"lon": 7.34505, "lat": 50.272991}}, {"id": 6553070, "name": "Gangelt", "country": "DE", "coord": {"lon": 6, "lat": 50.983299}}, {"id": 2922722, "name": "Gangelt", "country": "DE", "coord": {"lon": 5.99802, "lat": 50.99247}}, {"id": 6551839, "name": "Gammelby", "country": "DE", "coord": {"lon": 9.8, "lat": 54.5}}, {"id": 2922768, "name": "Gammelby", "country": "DE", "coord": {"lon": 9.8, "lat": 54.5}}, {"id": 6553684, "name": "Gamlen", "country": "DE", "coord": {"lon": 7.2, "lat": 50.233299}}, {"id": 2922770, "name": "Gamlen", "country": "DE", "coord": {"lon": 7.2, "lat": 50.23333}}, {"id": 6556902, "name": "Gallmersgarten", "country": "DE", "coord": {"lon": 10.2667, "lat": 49.450001}}, {"id": 2922805, "name": "Gallmersgarten", "country": "DE", "coord": {"lon": 10.26667, "lat": 49.450001}}, {"id": 6547931, "name": "Gallin", "country": "DE", "coord": {"lon": 10.83316, "lat": 53.49353}}, {"id": 2922816, "name": "Gallin", "country": "DE", "coord": {"lon": 10.83317, "lat": 53.49353}}, {"id": 6553350, "name": "Galenberg", "country": "DE", "coord": {"lon": 7.2, "lat": 50.4333}}, {"id": 2923234, "name": "Galenberg", "country": "DE", "coord": {"lon": 7.2, "lat": 50.433331}}, {"id": 7602571, "name": "Galenbeck", "country": "DE", "coord": {"lon": 13, "lat": 53.650002}}, {"id": 2923237, "name": "Galenbeck", "country": "DE", "coord": {"lon": 13, "lat": 53.650002}}, {"id": 6548412, "name": "Gager", "country": "DE", "coord": {"lon": 13.6833, "lat": 54.299999}}, {"id": 2923369, "name": "Gager", "country": "DE", "coord": {"lon": 13.68433, "lat": 54.309662}}, {"id": 6548177, "name": "G\u00e4gelow", "country": "DE", "coord": {"lon": 11.3833, "lat": 53.9021}}, {"id": 2923370, "name": "Gagelow", "country": "DE", "coord": {"lon": 11.38333, "lat": 53.900002}}, {"id": 6556998, "name": "G\u00e4dheim", "country": "DE", "coord": {"lon": 10.35, "lat": 50.033298}}, {"id": 2923386, "name": "Gadheim", "country": "DE", "coord": {"lon": 10.35, "lat": 50.033329}}, {"id": 6548942, "name": "Gadegast", "country": "DE", "coord": {"lon": 12.9, "lat": 51.883301}}, {"id": 2923408, "name": "Gadegast", "country": "DE", "coord": {"lon": 12.9, "lat": 51.883331}}, {"id": 6548634, "name": "Gablenz", "country": "DE", "coord": {"lon": 14.6667, "lat": 51.533298}}, {"id": 2923444, "name": "Gablenz", "country": "DE", "coord": {"lon": 14.66667, "lat": 51.533329}}, {"id": 6556522, "name": "Bad F\u00fcssing", "country": "DE", "coord": {"lon": 13.31122, "lat": 48.351799}}, {"id": 2923500, "name": "Bad Fussing", "country": "DE", "coord": {"lon": 13.312, "lat": 48.351002}}, {"id": 2923521, "name": "Furtwangen im Schwarzwald", "country": "DE", "coord": {"lon": 8.2, "lat": 48.049999}}, {"id": 6553157, "name": "F\u00fcrth", "country": "DE", "coord": {"lon": 8.78472, "lat": 49.650799}}, {"id": 2923543, "name": "Furth", "country": "DE", "coord": {"lon": 8.78472, "lat": 49.650829}}, {"id": 6556505, "name": "Furth", "country": "DE", "coord": {"lon": 12.0333, "lat": 48.599998}}, {"id": 2923549, "name": "Furth", "country": "DE", "coord": {"lon": 12.03333, "lat": 48.599998}}, {"id": 2923553, "name": "Furth", "country": "DE", "coord": {"lon": 12.38333, "lat": 48.400002}}, {"id": 2923584, "name": "Furstenzell", "country": "DE", "coord": {"lon": 13.31667, "lat": 48.533329}}, {"id": 6556526, "name": "F\u00fcrstenstein", "country": "DE", "coord": {"lon": 13.3333, "lat": 48.716702}}, {"id": 2923595, "name": "Furstenstein", "country": "DE", "coord": {"lon": 13.33333, "lat": 48.716671}}, {"id": 6556470, "name": "F\u00fcrsteneck", "country": "DE", "coord": {"lon": 13.4667, "lat": 48.716702}}, {"id": 2923626, "name": "Fursteneck", "country": "DE", "coord": {"lon": 13.46667, "lat": 48.716671}}, {"id": 6552504, "name": "F\u00fcrstenberg", "country": "DE", "coord": {"lon": 9.4, "lat": 51.733299}}, {"id": 2923638, "name": "Furstenberg", "country": "DE", "coord": {"lon": 9.4, "lat": 51.73333}}, {"id": 6553487, "name": "F\u00fcrfeld", "country": "DE", "coord": {"lon": 7.9, "lat": 49.783298}}, {"id": 2923706, "name": "Furfeld", "country": "DE", "coord": {"lon": 7.9, "lat": 49.783329}}, {"id": 6551432, "name": "Fuhlenhagen", "country": "DE", "coord": {"lon": 10.5167, "lat": 53.5667}}, {"id": 2923860, "name": "Fuhlenhagen", "country": "DE", "coord": {"lon": 10.51667, "lat": 53.566669}}, {"id": 6548114, "name": "Fuhlendorf", "country": "DE", "coord": {"lon": 12.6, "lat": 54.366699}}, {"id": 2923861, "name": "Fuhlendorf", "country": "DE", "coord": {"lon": 12.60188, "lat": 54.360481}}, {"id": 6552087, "name": "Fuhlendorf", "country": "DE", "coord": {"lon": 9.88685, "lat": 53.943661}}, {"id": 2923862, "name": "Fuhlendorf", "country": "DE", "coord": {"lon": 9.88684, "lat": 53.943661}}, {"id": 6556962, "name": "Fuchsstadt", "country": "DE", "coord": {"lon": 9.9262, "lat": 50.107601}}, {"id": 2923900, "name": "Fuchsstadt", "country": "DE", "coord": {"lon": 9.9337, "lat": 50.10825}}, {"id": 6550076, "name": "Fr\u00f6ttst\u00e4dt", "country": "DE", "coord": {"lon": 10.5833, "lat": 50.9333}}, {"id": 2924128, "name": "Frottstadt", "country": "DE", "coord": {"lon": 10.58333, "lat": 50.933331}}, {"id": 6553893, "name": "Fronhofen", "country": "DE", "coord": {"lon": 7.46667, "lat": 49.983299}}, {"id": 2924195, "name": "Fronhofen", "country": "DE", "coord": {"lon": 7.46667, "lat": 49.98333}}, {"id": 6550535, "name": "Frohnsdorf", "country": "DE", "coord": {"lon": 12.5858, "lat": 50.935902}}, {"id": 2924242, "name": "Frohnsdorf", "country": "DE", "coord": {"lon": 12.58333, "lat": 50.933331}}, {"id": 6555270, "name": "Friesenheim", "country": "DE", "coord": {"lon": 8.25694, "lat": 49.836399}}, {"id": 2924381, "name": "Friesenheim", "country": "DE", "coord": {"lon": 8.25694, "lat": 49.836391}}, {"id": 6553271, "name": "Frielendorf", "country": "DE", "coord": {"lon": 9.33333, "lat": 50.983299}}, {"id": 2924428, "name": "Frielendorf", "country": "DE", "coord": {"lon": 9.33333, "lat": 50.98333}}, {"id": 6551546, "name": "Friedrich-Wilhelm-L\u00fcbke-Koog", "country": "DE", "coord": {"lon": 8.63333, "lat": 54.866699}}, {"id": 2924434, "name": "Friedrich-Wilhelm-Lubke-Koog", "country": "DE", "coord": {"lon": 8.63333, "lat": 54.866669}}, {"id": 6549837, "name": "Friedrichsthal", "country": "DE", "coord": {"lon": 10.5833, "lat": 51.483299}}, {"id": 2924466, "name": "Friedrichsthal", "country": "DE", "coord": {"lon": 10.58333, "lat": 51.48333}}, {"id": 6548347, "name": "Friedrichsruhe", "country": "DE", "coord": {"lon": 11.7667, "lat": 53.533298}}, {"id": 2924483, "name": "Friedrichsruhe", "country": "DE", "coord": {"lon": 11.75125, "lat": 53.52766}}, {"id": 6551837, "name": "Friedrichsgraben", "country": "DE", "coord": {"lon": 9.41667, "lat": 54.266701}}, {"id": 2924593, "name": "Friedrichsgraben", "country": "DE", "coord": {"lon": 9.41667, "lat": 54.26667}}, {"id": 6553390, "name": "Friedewald", "country": "DE", "coord": {"lon": 7.96667, "lat": 50.716702}}, {"id": 2924704, "name": "Friedewald", "country": "DE", "coord": {"lon": 7.96667, "lat": 50.716671}}, {"id": 2924722, "name": "Friedersdorf", "country": "DE", "coord": {"lon": 14.56667, "lat": 51.033329}}, {"id": 6550202, "name": "Friedersdorf", "country": "DE", "coord": {"lon": 11.0333, "lat": 50.616699}}, {"id": 2924724, "name": "Friedersdorf", "country": "DE", "coord": {"lon": 11.03333, "lat": 50.616669}}, {"id": 6556716, "name": "Friedenfels", "country": "DE", "coord": {"lon": 12.1167, "lat": 49.883301}}, {"id": 2924766, "name": "Friedenfels", "country": "DE", "coord": {"lon": 12.11667, "lat": 49.883331}}, {"id": 6550012, "name": "Friedelshausen", "country": "DE", "coord": {"lon": 10.2333, "lat": 50.666698}}, {"id": 2924775, "name": "Friedelshausen", "country": "DE", "coord": {"lon": 10.23333, "lat": 50.666672}}, {"id": 6556398, "name": "Fridolfing", "country": "DE", "coord": {"lon": 12.82534, "lat": 47.997559}}, {"id": 2924819, "name": "Fridolfing", "country": "DE", "coord": {"lon": 12.82628, "lat": 47.99773}}, {"id": 6556040, "name": "Frickingen", "country": "DE", "coord": {"lon": 9.26667, "lat": 47.8167}}, {"id": 2924826, "name": "Frickingen", "country": "DE", "coord": {"lon": 9.26667, "lat": 47.816669}}, {"id": 2924836, "name": "Frickenhausen", "country": "DE", "coord": {"lon": 10.08333, "lat": 49.666672}}, {"id": 2924862, "name": "Freyburg", "country": "DE", "coord": {"lon": 11.76667, "lat": 51.200001}}, {"id": 6555479, "name": "Freudental", "country": "DE", "coord": {"lon": 9.0564, "lat": 49.0065}}, {"id": 2924888, "name": "Freudental", "country": "DE", "coord": {"lon": 9.05917, "lat": 49.00972}}, {"id": 2924916, "name": "Freudenberg", "country": "DE", "coord": {"lon": 9.32917, "lat": 49.744999}}, {"id": 6556616, "name": "Freudenberg", "country": "DE", "coord": {"lon": 11.9833, "lat": 49.483299}}, {"id": 2924917, "name": "Freudenberg", "country": "DE", "coord": {"lon": 11.98333, "lat": 49.48333}}, {"id": 6549771, "name": "Fretterode", "country": "DE", "coord": {"lon": 10, "lat": 51.3167}}, {"id": 2924936, "name": "Fretterode", "country": "DE", "coord": {"lon": 10, "lat": 51.316669}}, {"id": 2924967, "name": "Freren", "country": "DE", "coord": {"lon": 7.55, "lat": 52.48333}}, {"id": 6554847, "name": "Freimersheim", "country": "DE", "coord": {"lon": 8.08917, "lat": 49.708302}}, {"id": 2925062, "name": "Freimersheim", "country": "DE", "coord": {"lon": 8.08917, "lat": 49.708328}}, {"id": 6554129, "name": "Freilingen", "country": "DE", "coord": {"lon": 7.83333, "lat": 50.5667}}, {"id": 2925069, "name": "Freilingen", "country": "DE", "coord": {"lon": 7.83333, "lat": 50.566669}}, {"id": 6549770, "name": "Freienhagen", "country": "DE", "coord": {"lon": 10.05, "lat": 51.416698}}, {"id": 2925153, "name": "Freienhagen", "country": "DE", "coord": {"lon": 10.05, "lat": 51.416672}}, {"id": 2925181, "name": "Freiburg", "country": "DE", "coord": {"lon": 9.28333, "lat": 53.833328}}, {"id": 2925234, "name": "Freden", "country": "DE", "coord": {"lon": 9.9, "lat": 51.933331}}, {"id": 6551431, "name": "Fredeburg", "country": "DE", "coord": {"lon": 10.7167, "lat": 53.666698}}, {"id": 2925239, "name": "Fredeburg", "country": "DE", "coord": {"lon": 10.71667, "lat": 53.666672}}, {"id": 2925240, "name": "Bad Fredeburg", "country": "DE", "coord": {"lon": 8.30978, "lat": 51.189301}}, {"id": 6556183, "name": "Fraunberg", "country": "DE", "coord": {"lon": 12, "lat": 48.366699}}, {"id": 2925274, "name": "Fraunberg", "country": "DE", "coord": {"lon": 12, "lat": 48.366669}}, {"id": 2925383, "name": "Fraueneuharting", "country": "DE", "coord": {"lon": 12.0478, "lat": 48.038731}}, {"id": 6553588, "name": "Frauenberg", "country": "DE", "coord": {"lon": 7.28333, "lat": 49.666698}}, {"id": 2925411, "name": "Frauenberg", "country": "DE", "coord": {"lon": 7.28333, "lat": 49.666672}}, {"id": 6556544, "name": "Frauenau", "country": "DE", "coord": {"lon": 13.3, "lat": 48.983299}}, {"id": 2925440, "name": "Frauenau", "country": "DE", "coord": {"lon": 13.30067, "lat": 48.988949}}, {"id": 6556364, "name": "Frasdorf", "country": "DE", "coord": {"lon": 12.3078, "lat": 47.792198}}, {"id": 2925458, "name": "Frasdorf", "country": "DE", "coord": {"lon": 12.28512, "lat": 47.803761}}, {"id": 6555033, "name": "Frankenstein", "country": "DE", "coord": {"lon": 7.98333, "lat": 49.4333}}, {"id": 2925558, "name": "Frankenstein", "country": "DE", "coord": {"lon": 7.98333, "lat": 49.433331}}, {"id": 2925589, "name": "Frankenheim", "country": "DE", "coord": {"lon": 10.08333, "lat": 50.533329}}, {"id": 6552770, "name": "Frankenfeld", "country": "DE", "coord": {"lon": 9.41667, "lat": 52.766701}}, {"id": 2925611, "name": "Frankenfeld", "country": "DE", "coord": {"lon": 9.42987, "lat": 52.768398}}, {"id": 6550236, "name": "Frankendorf", "country": "DE", "coord": {"lon": 11.45, "lat": 50.966702}}, {"id": 2925617, "name": "Frankendorf", "country": "DE", "coord": {"lon": 11.45, "lat": 50.966671}}, {"id": 6553389, "name": "Forstmehren", "country": "DE", "coord": {"lon": 7.53333, "lat": 50.700001}}, {"id": 2925720, "name": "Forstmehren", "country": "DE", "coord": {"lon": 7.53333, "lat": 50.700001}}, {"id": 6555607, "name": "Forst", "country": "DE", "coord": {"lon": 8.5825, "lat": 49.1539}}, {"id": 2925848, "name": "Forst", "country": "DE", "coord": {"lon": 8.58083, "lat": 49.158611}}, {"id": 2925890, "name": "Foritz", "country": "DE", "coord": {"lon": 11.2318, "lat": 50.34174}}, {"id": 6555766, "name": "Forchheim", "country": "DE", "coord": {"lon": 7.7, "lat": 48.166698}}, {"id": 2925914, "name": "Forchheim", "country": "DE", "coord": {"lon": 7.7, "lat": 48.166672}}, {"id": 6555628, "name": "Forbach", "country": "DE", "coord": {"lon": 8.35, "lat": 48.6833}}, {"id": 2925924, "name": "Forbach", "country": "DE", "coord": {"lon": 8.35, "lat": 48.683331}}, {"id": 6550534, "name": "Fockendorf", "country": "DE", "coord": {"lon": 12.4668, "lat": 51.0495}}, {"id": 2926009, "name": "Fockendorf", "country": "DE", "coord": {"lon": 12.46667, "lat": 51.049999}}, {"id": 6555093, "name": "F\u00f6ckelberg", "country": "DE", "coord": {"lon": 7.48333, "lat": 49.533298}}, {"id": 2926013, "name": "Fockelberg", "country": "DE", "coord": {"lon": 7.48333, "lat": 49.533329}}, {"id": 6551836, "name": "Fockbek", "country": "DE", "coord": {"lon": 9.6014, "lat": 54.3041}}, {"id": 2926017, "name": "Fockbek", "country": "DE", "coord": {"lon": 9.6, "lat": 54.299999}}, {"id": 6554318, "name": "Flu\u00dfbach", "country": "DE", "coord": {"lon": 6.93333, "lat": 50.016701}}, {"id": 2926036, "name": "Flussbach", "country": "DE", "coord": {"lon": 6.93333, "lat": 50.01667}}, {"id": 6550235, "name": "Flurstedt", "country": "DE", "coord": {"lon": 11.55, "lat": 51.0667}}, {"id": 2926037, "name": "Flurstedt", "country": "DE", "coord": {"lon": 11.55, "lat": 51.066669}}, {"id": 2926119, "name": "Floss", "country": "DE", "coord": {"lon": 12.27593, "lat": 49.723949}}, {"id": 2926170, "name": "Flintsbach", "country": "DE", "coord": {"lon": 12.12419, "lat": 47.725761}}, {"id": 6554539, "name": "Fleringen", "country": "DE", "coord": {"lon": 6.5, "lat": 50.216702}}, {"id": 2926261, "name": "Fleringen", "country": "DE", "coord": {"lon": 6.5, "lat": 50.216671}}, {"id": 6549656, "name": "Fleetmark", "country": "DE", "coord": {"lon": 11.3833, "lat": 52.799999}}, {"id": 2926317, "name": "Fleetmark", "country": "DE", "coord": {"lon": 11.38333, "lat": 52.799999}}, {"id": 6554027, "name": "Flacht", "country": "DE", "coord": {"lon": 8.05, "lat": 50.349998}}, {"id": 2926419, "name": "Flacht", "country": "DE", "coord": {"lon": 8.05, "lat": 50.349998}}, {"id": 6551430, "name": "Fitzen", "country": "DE", "coord": {"lon": 10.64713, "lat": 53.494701}}, {"id": 2926447, "name": "Fitzen", "country": "DE", "coord": {"lon": 10.64661, "lat": 53.494888}}, {"id": 6556276, "name": "Fischbachau", "country": "DE", "coord": {"lon": 11.95, "lat": 47.716702}}, {"id": 2926586, "name": "Fischbachau", "country": "DE", "coord": {"lon": 11.95081, "lat": 47.719521}}, {"id": 6553586, "name": "Fischbach", "country": "DE", "coord": {"lon": 7.4, "lat": 49.733299}}, {"id": 2926631, "name": "Fischbach", "country": "DE", "coord": {"lon": 7.4, "lat": 49.73333}}, {"id": 6555031, "name": "Fischbach", "country": "DE", "coord": {"lon": 7.91667, "lat": 49.450001}}, {"id": 2926632, "name": "Fischbach", "country": "DE", "coord": {"lon": 7.91667, "lat": 49.450001}}, {"id": 2926638, "name": "Fischbach", "country": "DE", "coord": {"lon": 7.71667, "lat": 49.083328}}, {"id": 2926654, "name": "Fischach", "country": "DE", "coord": {"lon": 10.65592, "lat": 48.29047}}, {"id": 6554730, "name": "Fisch", "country": "DE", "coord": {"lon": 6.48333, "lat": 49.616699}}, {"id": 2926655, "name": "Fisch", "country": "DE", "coord": {"lon": 6.48333, "lat": 49.616669}}, {"id": 6554944, "name": "Finkenbach-Gersweiler", "country": "DE", "coord": {"lon": 7.75, "lat": 49.6833}}, {"id": 2926804, "name": "Finkenbach-Gersweiler", "country": "DE", "coord": {"lon": 7.75, "lat": 49.683331}}, {"id": 6548048, "name": "Fincken", "country": "DE", "coord": {"lon": 12.4333, "lat": 53.349998}}, {"id": 2926834, "name": "Fincken", "country": "DE", "coord": {"lon": 12.44133, "lat": 53.354752}}, {"id": 6553385, "name": "Fiersbach", "country": "DE", "coord": {"lon": 7.5, "lat": 50.700001}}, {"id": 2926891, "name": "Fiersbach", "country": "DE", "coord": {"lon": 7.5, "lat": 50.700001}},