[{"id": 3120895, "name": "Gusendos de los Oteros", "country": "ES", "coord": {"lon": -5.43088, "lat": 42.378181}}, {"id": 6358350, "name": "Gurrea de G\u00e1llego", "country": "ES", "coord": {"lon": -0.76654, "lat": 42.028011}}, {"id": 3120898, "name": "Gurrea de Gallego", "country": "ES", "coord": {"lon": -0.7615, "lat": 42.015411}}, {"id": 3120903, "name": "Guntin", "country": "ES", "coord": {"lon": -7.69259, "lat": 42.88702}}, {"id": 3120928, "name": "Guitiriz", "country": "ES", "coord": {"lon": -7.89656, "lat": 43.18169}}, {"id": 6355695, "name": "Guisando", "country": "ES", "coord": {"lon": -5.14093, "lat": 40.214931}}, {"id": 3120931, "name": "Guisando", "country": "ES", "coord": {"lon": -5.1395, "lat": 40.222252}}, {"id": 6358854, "name": "Guimer\u00e0", "country": "ES", "coord": {"lon": 1.18275, "lat": 41.564091}}, {"id": 3120944, "name": "Guimera", "country": "ES", "coord": {"lon": 1.18528, "lat": 41.564499}}, {"id": 6357607, "name": "Guils de Cerdanya", "country": "ES", "coord": {"lon": 1.86467, "lat": 42.457481}}, {"id": 3120951, "name": "Guils de Cerdanya", "country": "ES", "coord": {"lon": 1.88012, "lat": 42.447399}}, {"id": 6356787, "name": "Guijo de Santa B\u00e1rbara", "country": "ES", "coord": {"lon": -5.64696, "lat": 40.16581}}, {"id": 3120966, "name": "Guijo de Santa Barbara", "country": "ES", "coord": {"lon": -5.65414, "lat": 40.154099}}, {"id": 6356785, "name": "Guijo de Galisteo", "country": "ES", "coord": {"lon": -6.38759, "lat": 40.037258}}, {"id": 3120968, "name": "Guijo de Galisteo", "country": "ES", "coord": {"lon": -6.41007, "lat": 40.093819}}, {"id": 6356784, "name": "Guijo de Coria", "country": "ES", "coord": {"lon": -6.4612, "lat": 40.056862}}, {"id": 3120969, "name": "Guijo de Coria", "country": "ES", "coord": {"lon": -6.46383, "lat": 40.100979}}, {"id": 6360397, "name": "Guijo de \u00c1vila", "country": "ES", "coord": {"lon": -5.63548, "lat": 40.524979}}, {"id": 3120970, "name": "Guijo de Avila", "country": "ES", "coord": {"lon": -5.6397, "lat": 40.530781}}, {"id": 6358128, "name": "Getaria", "country": "ES", "coord": {"lon": -2.20685, "lat": 43.300011}}, {"id": 3120985, "name": "Getaria", "country": "ES", "coord": {"lon": -2.20444, "lat": 43.303261}}, {"id": 6361532, "name": "G\u00fadar", "country": "ES", "coord": {"lon": -0.69119, "lat": 40.43232}}, {"id": 3121014, "name": "Gudar", "country": "ES", "coord": {"lon": -0.72048, "lat": 40.441071}}, {"id": 6360043, "name": "Guaza de Campos", "country": "ES", "coord": {"lon": -4.89559, "lat": 42.128021}}, {"id": 3121015, "name": "Guaza de Campos", "country": "ES", "coord": {"lon": -4.90949, "lat": 42.133652}}, {"id": 3121030, "name": "Guardiola de Bergueda", "country": "ES", "coord": {"lon": 1.87716, "lat": 42.234901}}, {"id": 6356128, "name": "Sant Salvador de Guardiola", "country": "ES", "coord": {"lon": 1.77219, "lat": 41.669182}}, {"id": 3121032, "name": "Sant Salvador de Guardiola", "country": "ES", "coord": {"lon": 1.76667, "lat": 41.683331}}, {"id": 6534068, "name": "Gualta", "country": "ES", "coord": {"lon": 3.11784, "lat": 42.0243}}, {"id": 3121044, "name": "Gualta", "country": "ES", "coord": {"lon": 3.10312, "lat": 42.02953}}, {"id": 6360396, "name": "Guadramiro", "country": "ES", "coord": {"lon": -6.50295, "lat": 41.007751}}, {"id": 3121051, "name": "Guadramiro", "country": "ES", "coord": {"lon": -6.49369, "lat": 41.017029}}, {"id": 6359293, "name": "Guadalix de la Sierra", "country": "ES", "coord": {"lon": -3.6776, "lat": 40.770889}}, {"id": 3121065, "name": "Guadalix de la Sierra", "country": "ES", "coord": {"lon": -3.69347, "lat": 40.784962}}, {"id": 6361531, "name": "Guadalaviar", "country": "ES", "coord": {"lon": -1.74385, "lat": 40.406502}}, {"id": 3121068, "name": "Guadalaviar", "country": "ES", "coord": {"lon": -1.71803, "lat": 40.388241}}, {"id": 6360224, "name": "Grove (O)", "country": "ES", "coord": {"lon": -8.88778, "lat": 42.478481}}, {"id": 3121078, "name": "O Grove", "country": "ES", "coord": {"lon": -8.86502, "lat": 42.494438}}, {"id": 6362813, "name": "Gris\u00e9n", "country": "ES", "coord": {"lon": -1.15955, "lat": 41.744591}}, {"id": 3121101, "name": "Grisen", "country": "ES", "coord": {"lon": -1.1626, "lat": 41.745239}}, {"id": 6362812, "name": "Grisel", "country": "ES", "coord": {"lon": -1.71745, "lat": 41.870972}}, {"id": 3121102, "name": "Grisel", "country": "ES", "coord": {"lon": -1.72794, "lat": 41.87109}}, {"id": 6356446, "name": "Grisale\u00f1a", "country": "ES", "coord": {"lon": -3.26434, "lat": 42.59549}}, {"id": 3121103, "name": "Grisalena", "country": "ES", "coord": {"lon": -3.26416, "lat": 42.591221}}, {"id": 6359292, "name": "Gri\u00f1\u00f3n", "country": "ES", "coord": {"lon": -3.84203, "lat": 40.2216}}, {"id": 3121105, "name": "Grinon", "country": "ES", "coord": {"lon": -3.85482, "lat": 40.21249}}, {"id": 6356445, "name": "Grijalba", "country": "ES", "coord": {"lon": -4.12673, "lat": 42.431129}}, {"id": 3121118, "name": "Grijalba", "country": "ES", "coord": {"lon": -4.11896, "lat": 42.430019}}, {"id": 6361530, "name": "Griegos", "country": "ES", "coord": {"lon": -1.71699, "lat": 40.44202}}, {"id": 3121120, "name": "Griegos", "country": "ES", "coord": {"lon": -1.71201, "lat": 40.427219}}, {"id": 6359060, "name": "Gr\u00e1valos", "country": "ES", "coord": {"lon": -1.9858, "lat": 42.113892}}, {"id": 3121134, "name": "Gravalos", "country": "ES", "coord": {"lon": -1.99874, "lat": 42.10836}}, {"id": 6362530, "name": "Granucillo", "country": "ES", "coord": {"lon": -5.91599, "lat": 42.048431}}, {"id": 3121142, "name": "Granucillo", "country": "ES", "coord": {"lon": -5.92777, "lat": 42.05209}}, {"id": 6359059, "name": "Gra\u00f1\u00f3n", "country": "ES", "coord": {"lon": -3.02002, "lat": 42.43845}}, {"id": 3121143, "name": "Granon", "country": "ES", "coord": {"lon": -3.02767, "lat": 42.449921}}, {"id": 6362529, "name": "Granja de Moreruela", "country": "ES", "coord": {"lon": -5.75077, "lat": 41.820492}}, {"id": 3121149, "name": "Granja de Moreruela", "country": "ES", "coord": {"lon": -5.73893, "lat": 41.810261}}, {"id": 6358850, "name": "la Granja d'Escarp", "country": "ES", "coord": {"lon": 0.38404, "lat": 41.40934}}, {"id": 3121150, "name": "la Granja dEscarp", "country": "ES", "coord": {"lon": 0.36667, "lat": 41.416672}}, {"id": 6356125, "name": "Granera", "country": "ES", "coord": {"lon": 2.06766, "lat": 41.727039}}, {"id": 3121158, "name": "Granera", "country": "ES", "coord": {"lon": 2.05924, "lat": 41.727409}}, {"id": 6358849, "name": "la Granadella", "country": "ES", "coord": {"lon": 0.66146, "lat": 41.349289}}, {"id": 3121216, "name": "la Granadella", "country": "ES", "coord": {"lon": 0.66667, "lat": 41.349998}}, {"id": 6360831, "name": "Grajera", "country": "ES", "coord": {"lon": -3.61024, "lat": 41.37336}}, {"id": 3121230, "name": "Grajera", "country": "ES", "coord": {"lon": -3.61304, "lat": 41.373192}}, {"id": 6358624, "name": "Grajal de Campos", "country": "ES", "coord": {"lon": -5.01695, "lat": 42.319241}}, {"id": 3121233, "name": "Grajal de Campos", "country": "ES", "coord": {"lon": -5.01938, "lat": 42.320728}}, {"id": 3121238, "name": "Grado", "country": "ES", "coord": {"lon": -6.07433, "lat": 43.388008}}, {"id": 3121241, "name": "Gradefes", "country": "ES", "coord": {"lon": -5.22691, "lat": 42.623959}}, {"id": 6362811, "name": "Gotor", "country": "ES", "coord": {"lon": -1.65545, "lat": 41.551151}}, {"id": 3121268, "name": "Gotor", "country": "ES", "coord": {"lon": -1.64915, "lat": 41.54583}}, {"id": 6355693, "name": "Gotarrendura", "country": "ES", "coord": {"lon": -4.7318, "lat": 40.827911}}, {"id": 3121270, "name": "Gotarrendura", "country": "ES", "coord": {"lon": -4.7409, "lat": 40.826519}}, {"id": 6358848, "name": "G\u00f3sol", "country": "ES", "coord": {"lon": 1.68054, "lat": 42.203739}}, {"id": 3121271, "name": "Gosol", "country": "ES", "coord": {"lon": 1.6601, "lat": 42.236969}}, {"id": 6361147, "name": "Gormaz", "country": "ES", "coord": {"lon": -3.01404, "lat": 41.510761}}, {"id": 3121285, "name": "Gormaz", "country": "ES", "coord": {"lon": -3.005, "lat": 41.492321}}, {"id": 6362387, "name": "Gorliz", "country": "ES", "coord": {"lon": -2.93972, "lat": 43.42255}}, {"id": 3121286, "name": "Gorliz-Elexalde", "country": "ES", "coord": {"lon": -2.93678, "lat": 43.414902}}, {"id": 6358622, "name": "Gordoncillo", "country": "ES", "coord": {"lon": -5.40354, "lat": 42.133091}}, {"id": 3121290, "name": "Gordoncillo", "country": "ES", "coord": {"lon": -5.4018, "lat": 42.135571}}, {"id": 6358621, "name": "Gordaliza del Pino", "country": "ES", "coord": {"lon": -5.13854, "lat": 42.332321}}, {"id": 3121295, "name": "Gordaliza del Pino", "country": "ES", "coord": {"lon": -5.15731, "lat": 42.343571}}, {"id": 6359666, "name": "Go\u00f1i", "country": "ES", "coord": {"lon": -1.88796, "lat": 42.83392}}, {"id": 3121311, "name": "Goni", "country": "ES", "coord": {"lon": -1.90358, "lat": 42.851669}}, {"id": 3121316, "name": "Gondomar", "country": "ES", "coord": {"lon": -8.74971, "lat": 42.111549}}, {"id": 6360395, "name": "Gomecello", "country": "ES", "coord": {"lon": -5.53698, "lat": 41.036819}}, {"id": 3121329, "name": "Gomecello", "country": "ES", "coord": {"lon": -5.53585, "lat": 41.042801}}, {"id": 6361146, "name": "G\u00f3mara", "country": "ES", "coord": {"lon": -2.22196, "lat": 41.590672}}, {"id": 3121333, "name": "Gomara", "country": "ES", "coord": {"lon": -2.22493, "lat": 41.62347}}, {"id": 6360394, "name": "Golpejas", "country": "ES", "coord": {"lon": -5.91075, "lat": 41.00251}}, {"id": 3121339, "name": "Golpejas", "country": "ES", "coord": {"lon": -5.90687, "lat": 40.999802}}, {"id": 6359665, "name": "Goizueta", "country": "ES", "coord": {"lon": -1.84923, "lat": 43.194859}}, {"id": 3121357, "name": "Goizueta", "country": "ES", "coord": {"lon": -1.86411, "lat": 43.171871}}, {"id": 6362810, "name": "Godojos", "country": "ES", "coord": {"lon": -1.87327, "lat": 41.264061}}, {"id": 3121370, "name": "Godojos", "country": "ES", "coord": {"lon": -1.8641, "lat": 41.268379}}, {"id": 6358346, "name": "Gista\u00edn", "country": "ES", "coord": {"lon": 0.36957, "lat": 42.670609}}, {"id": 3121394, "name": "Gistain", "country": "ES", "coord": {"lon": 0.33478, "lat": 42.591099}}, {"id": 6356082, "name": "Casserres", "country": "ES", "coord": {"lon": 1.84602, "lat": 42.011921}}, {"id": 3121397, "name": "Gironella", "country": "ES", "coord": {"lon": 1.88019, "lat": 42.034328}}, {"id": 3121404, "name": "Xinzo de Limia", "country": "ES", "coord": {"lon": -7.72459, "lat": 42.063499}}, {"id": 3121411, "name": "Ginestar", "country": "ES", "coord": {"lon": 0.6329, "lat": 41.04184}}, {"id": 6359058, "name": "Gimileo", "country": "ES", "coord": {"lon": -2.81833, "lat": 42.553509}}, {"id": 3121415, "name": "Gimileo", "country": "ES", "coord": {"lon": -2.82237, "lat": 42.549919}}, {"id": 6355692, "name": "Gimialc\u00f3n", "country": "ES", "coord": {"lon": -5.12704, "lat": 40.869148}}, {"id": 3121416, "name": "Gimialcon", "country": "ES", "coord": {"lon": -5.12308, "lat": 40.877048}}, {"id": 3121461, "name": "Geria", "country": "ES", "coord": {"lon": -4.87663, "lat": 41.578678}}, {"id": 6357605, "name": "Ger", "country": "ES", "coord": {"lon": 1.82485, "lat": 42.437851}}, {"id": 3121467, "name": "Ger", "country": "ES", "coord": {"lon": 1.84536, "lat": 42.410591}}, {"id": 6359664, "name": "Genevilla", "country": "ES", "coord": {"lon": -2.39457, "lat": 42.647888}}, {"id": 3121469, "name": "Genevilla", "country": "ES", "coord": {"lon": -2.39021, "lat": 42.645199}}, {"id": 6355689, "name": "Gemu\u00f1o", "country": "ES", "coord": {"lon": -4.77405, "lat": 40.589821}}, {"id": 3121480, "name": "Gemuno", "country": "ES", "coord": {"lon": -4.78178, "lat": 40.591591}}, {"id": 6362528, "name": "Gema", "country": "ES", "coord": {"lon": -5.6265, "lat": 41.403278}}, {"id": 3121482, "name": "Gema", "country": "ES", "coord": {"lon": -5.64906, "lat": 41.418549}}, {"id": 6362739, "name": "Belchite", "country": "ES", "coord": {"lon": -0.68885, "lat": 41.335011}}, {"id": 3121485, "name": "Gelsa", "country": "ES", "coord": {"lon": -0.46158, "lat": 41.407661}}, {"id": 6356121, "name": "Gelida", "country": "ES", "coord": {"lon": 1.86212, "lat": 41.44038}}, {"id": 3121486, "name": "Gelida", "country": "ES", "coord": {"lon": 1.86667, "lat": 41.433331}}, {"id": 6360393, "name": "Gejuelo del Barro", "country": "ES", "coord": {"lon": -6.10135, "lat": 41.066689}}, {"id": 3121490, "name": "Gejuelo del Barro", "country": "ES", "coord": {"lon": -6.12332, "lat": 41.076328}}, {"id": 6361528, "name": "Gea de Albarrac\u00edn", "country": "ES", "coord": {"lon": -1.34881, "lat": 40.398811}}, {"id": 3121495, "name": "Gea de Albarracin", "country": "ES", "coord": {"lon": -1.34823, "lat": 40.41114}}, {"id": 6358127, "name": "Gabiria", "country": "ES", "coord": {"lon": -2.28758, "lat": 43.056431}}, {"id": 3121507, "name": "Gabiria", "country": "ES", "coord": {"lon": -2.27962, "lat": 43.049339}}, {"id": 6355688, "name": "Gavilanes", "country": "ES", "coord": {"lon": -4.85843, "lat": 40.262218}}, {"id": 3121513, "name": "Gavilanes", "country": "ES", "coord": {"lon": -4.85321, "lat": 40.277908}}, {"id": 6362198, "name": "Gat\u00f3n de Campos", "country": "ES", "coord": {"lon": -4.97958, "lat": 42.04406}}, {"id": 3121522, "name": "Gaton de Campos", "country": "ES", "coord": {"lon": -4.98078, "lat": 42.049839}}, {"id": 6362385, "name": "Gatika", "country": "ES", "coord": {"lon": -2.88193, "lat": 43.360352}}, {"id": 3121527, "name": "Gatika", "country": "ES", "coord": {"lon": -2.86667, "lat": 43.366669}}, {"id": 6357911, "name": "Gascue\u00f1a de Bornova", "country": "ES", "coord": {"lon": -3.00294, "lat": 41.142849}}, {"id": 3121533, "name": "Gascuena de Bornova", "country": "ES", "coord": {"lon": -3.01924, "lat": 41.142429}}, {"id": 6357443, "name": "Gascue\u00f1a", "country": "ES", "coord": {"lon": -2.52483, "lat": 40.302368}}, {"id": 3121534, "name": "Gascuena", "country": "ES", "coord": {"lon": -2.51856, "lat": 40.29937}}, {"id": 6359290, "name": "Gascones", "country": "ES", "coord": {"lon": -3.66149, "lat": 41.02898}}, {"id": 3121535, "name": "Gascones", "country": "ES", "coord": {"lon": -3.64217, "lat": 41.018429}}, {"id": 6534066, "name": "Garriguella", "country": "ES", "coord": {"lon": 3.06514, "lat": 42.34177}}, {"id": 3121545, "name": "Garriguella", "country": "ES", "coord": {"lon": 3.06506, "lat": 42.343922}}, {"id": 6534065, "name": "Garrigoles", "country": "ES", "coord": {"lon": 3.02461, "lat": 42.104759}}, {"id": 3121546, "name": "Garrigoles", "country": "ES", "coord": {"lon": 3.03333, "lat": 42.099998}}, {"id": 3121548, "name": "Garrigas", "country": "ES", "coord": {"lon": 2.95438, "lat": 42.193432}}, {"id": 6359663, "name": "Garralda", "country": "ES", "coord": {"lon": -1.30283, "lat": 42.956478}}, {"id": 3121554, "name": "Garralda", "country": "ES", "coord": {"lon": -1.28624, "lat": 42.948181}}, {"id": 3121555, "name": "Garrafe de Torio", "country": "ES", "coord": {"lon": -5.5236, "lat": 42.732849}}, {"id": 6359662, "name": "Gar\u00ednoain", "country": "ES", "coord": {"lon": -1.66553, "lat": 42.595959}}, {"id": 3121569, "name": "Garinoain", "country": "ES", "coord": {"lon": -1.64434, "lat": 42.600361}}, {"id": 6356777, "name": "Garg\u00fcera", "country": "ES", "coord": {"lon": -5.92884, "lat": 40.022301}}, {"id": 3121575, "name": "Garguera", "country": "ES", "coord": {"lon": -5.92782, "lat": 40.061298}}, {"id": 6356776, "name": "Gargantilla", "country": "ES", "coord": {"lon": -5.90204, "lat": 40.235001}}, {"id": 3121582, "name": "Gargantilla", "country": "ES", "coord": {"lon": -5.92068, "lat": 40.248348}}, {"id": 6356775, "name": "Garganta la Olla", "country": "ES", "coord": {"lon": -5.77609, "lat": 40.119659}}, {"id": 3121586, "name": "Garganta la Olla", "country": "ES", "coord": {"lon": -5.77665, "lat": 40.110489}}, {"id": 6355687, "name": "Garganta del Villar", "country": "ES", "coord": {"lon": -5.11771, "lat": 40.452869}}, {"id": 3121589, "name": "Garganta del Villar", "country": "ES", "coord": {"lon": -5.1042, "lat": 40.44965}}, {"id": 6361527, "name": "Gargallo", "country": "ES", "coord": {"lon": -0.58883, "lat": 40.83152}}, {"id": 3121598, "name": "Gargallo", "country": "ES", "coord": {"lon": -0.58442, "lat": 40.835831}}, {"id": 6359661, "name": "Garde", "country": "ES", "coord": {"lon": -0.8896, "lat": 42.780231}}, {"id": 3121602, "name": "Garde", "country": "ES", "coord": {"lon": -0.92589, "lat": 42.789371}}, {"id": 6360392, "name": "Garcirrey", "country": "ES", "coord": {"lon": -6.14253, "lat": 40.884708}}, {"id": 3121605, "name": "Garcirrey", "country": "ES", "coord": {"lon": -6.1312, "lat": 40.90049}}, {"id": 6360829, "name": "Garcill\u00e1n", "country": "ES", "coord": {"lon": -4.26558, "lat": 40.993771}}, {"id": 3121608, "name": "Garcillan", "country": "ES", "coord": {"lon": -4.26577, "lat": 40.977711}}, {"id": 6360391, "name": "Garcihern\u00e1ndez", "country": "ES", "coord": {"lon": -5.43159, "lat": 40.863461}}, {"id": 3121609, "name": "Garcihernandez", "country": "ES", "coord": {"lon": -5.43567, "lat": 40.860958}}, {"id": 6360390, "name": "Garcibuey", "country": "ES", "coord": {"lon": -5.97026, "lat": 40.504848}}, {"id": 3121610, "name": "Garcibuey", "country": "ES", "coord": {"lon": -5.9944, "lat": 40.515518}}, {"id": 6361308, "name": "Garcia", "country": "ES", "coord": {"lon": 0.65274, "lat": 41.14151}}, {"id": 3121611, "name": "Garcia", "country": "ES", "coord": {"lon": 0.65, "lat": 41.133331}}, {"id": 6359660, "name": "Garaioa", "country": "ES", "coord": {"lon": -1.24231, "lat": 42.921051}}, {"id": 3121617, "name": "Garaioa", "country": "ES", "coord": {"lon": -1.23333, "lat": 42.933331}}, {"id": 6361307, "name": "Gandesa", "country": "ES", "coord": {"lon": 0.4326, "lat": 41.0481}}, {"id": 3121642, "name": "Gandesa", "country": "ES", "coord": {"lon": 0.4385, "lat": 41.053749}}, {"id": 6362527, "name": "Gamones", "country": "ES", "coord": {"lon": -6.17711, "lat": 41.46714}}, {"id": 3121659, "name": "Gamones", "country": "ES", "coord": {"lon": -6.17621, "lat": 41.4669}}, {"id": 6357910, "name": "Galve de Sorbe", "country": "ES", "coord": {"lon": -3.20828, "lat": 41.210381}}, {"id": 3121677, "name": "Galve de Sorbe", "country": "ES", "coord": {"lon": -3.18333, "lat": 41.216671}}, {"id": 6361526, "name": "Galve", "country": "ES", "coord": {"lon": -0.87617, "lat": 40.647709}}, {"id": 3121678, "name": "Galve", "country": "ES", "coord": {"lon": -0.88217, "lat": 40.65591}}, {"id": 6362808, "name": "Gallur", "country": "ES", "coord": {"lon": -1.31534, "lat": 41.86721}}, {"id": 3121679, "name": "Gallur", "country": "ES", "coord": {"lon": -1.31577, "lat": 41.868301}}, {"id": 6362807, "name": "Gallocanta", "country": "ES", "coord": {"lon": -1.52489, "lat": 40.99398}}, {"id": 3121682, "name": "Gallocanta", "country": "ES", "coord": {"lon": -1.50774, "lat": 40.996239}}, {"id": 6359658, "name": "Gallipienzo", "country": "ES", "coord": {"lon": -1.41392, "lat": 42.503819}}, {"id": 3121687, "name": "Gallipienzo", "country": "ES", "coord": {"lon": -1.41115, "lat": 42.524502}}, {"id": 6359057, "name": "Gallinero de Cameros", "country": "ES", "coord": {"lon": -2.61193, "lat": 42.174789}}, {"id": 3121690, "name": "Gallinero de Cameros", "country": "ES", "coord": {"lon": -2.61793, "lat": 42.172291}}, {"id": 6356117, "name": "Gallifa", "country": "ES", "coord": {"lon": 2.11421, "lat": 41.692692}}, {"id": 3121697, "name": "Gallifa", "country": "ES", "coord": {"lon": 2.11346, "lat": 41.692429}}, {"id": 6355686, "name": "Gallegos de Sobrinos", "country": "ES", "coord": {"lon": -5.14117, "lat": 40.701939}}, {"id": 3121702, "name": "Gallegos de Sobrinos", "country": "ES", "coord": {"lon": -5.11224, "lat": 40.71693}}, {"id": 6362526, "name": "Gallegos del R\u00edo", "country": "ES", "coord": {"lon": -6.17481, "lat": 41.735371}}, {"id": 3121704, "name": "Gallegos del Rio", "country": "ES", "coord": {"lon": -6.17435, "lat": 41.73497}}, {"id": 6362525, "name": "Gallegos del Pan", "country": "ES", "coord": {"lon": -5.58023, "lat": 41.600609}}, {"id": 3121705, "name": "Gallegos del Pan", "country": "ES", "coord": {"lon": -5.58117, "lat": 41.59985}}, {"id": 6362197, "name": "Gallegos de Hornija", "country": "ES", "coord": {"lon": -5.08753, "lat": 41.60891}}, {"id": 3121707, "name": "Gallegos de Hornija", "country": "ES", "coord": {"lon": -5.09768, "lat": 41.609798}}, {"id": 6360388, "name": "Gallegos de Arga\u00f1\u00e1n", "country": "ES", "coord": {"lon": -6.69226, "lat": 40.623779}}, {"id": 3121709, "name": "Gallegos de Arganan", "country": "ES", "coord": {"lon": -6.70246, "lat": 40.631458}}, {"id": 6360828, "name": "Gallegos", "country": "ES", "coord": {"lon": -3.77468, "lat": 41.068829}}, {"id": 3121715, "name": "Gallegos", "country": "ES", "coord": {"lon": -3.78591, "lat": 41.075081}}, {"id": 6360387, "name": "Galisancho", "country": "ES", "coord": {"lon": -5.54299, "lat": 40.72287}}, {"id": 3121728, "name": "Galisancho", "country": "ES", "coord": {"lon": -5.55471, "lat": 40.744179}}, {"id": 6360385, "name": "Galindo y Perahuy", "country": "ES", "coord": {"lon": -5.81674, "lat": 40.942101}}, {"id": 3121732, "name": "Galindo y Perahuy", "country": "ES", "coord": {"lon": -5.8741, "lat": 40.94397}}, {"id": 6359056, "name": "Galilea", "country": "ES", "coord": {"lon": -2.23099, "lat": 42.363441}}, {"id": 3121736, "name": "Galilea", "country": "ES", "coord": {"lon": -2.23605, "lat": 42.347031}}, {"id": 6359055, "name": "Galb\u00e1rruli", "country": "ES", "coord": {"lon": -2.95722, "lat": 42.620899}}, {"id": 3121752, "name": "Galbarruli", "country": "ES", "coord": {"lon": -2.96087, "lat": 42.621811}}, {"id": 6356443, "name": "Galbarros", "country": "ES", "coord": {"lon": -3.44522, "lat": 42.523109}}, {"id": 3121753, "name": "Galbarros", "country": "ES", "coord": {"lon": -3.43827, "lat": 42.52729}}, {"id": 3121762, "name": "Galar", "country": "ES", "coord": {"lon": -1.69881, "lat": 42.761471}}, {"id": 6357909, "name": "Gal\u00e1pagos", "country": "ES", "coord": {"lon": -3.3476, "lat": 40.708611}}, {"id": 3121763, "name": "Galapagos", "country": "ES", "coord": {"lon": -3.33537, "lat": 40.69347}}, {"id": 6360384, "name": "Gajates", "country": "ES", "coord": {"lon": -5.36857, "lat": 40.791359}}, {"id": 3121769, "name": "Gajates", "country": "ES", "coord": {"lon": -5.36506, "lat": 40.782539}}, {"id": 6357908, "name": "Gajanejos", "country": "ES", "coord": {"lon": -2.88527, "lat": 40.83984}}, {"id": 3121772, "name": "Gajanejos", "country": "ES", "coord": {"lon": -2.89229, "lat": 40.841469}}, {"id": 6358126, "name": "Gaintza", "country": "ES", "coord": {"lon": -2.12614, "lat": 43.055698}}, {"id": 3121774, "name": "Gainza", "country": "ES", "coord": {"lon": -2.1329, "lat": 43.052711}}, {"id": 6359656, "name": "Fusti\u00f1ana", "country": "ES", "coord": {"lon": -1.45476, "lat": 42.021729}}, {"id": 3121796, "name": "Fustinana", "country": "ES", "coord": {"lon": -1.48526, "lat": 42.02087}}, {"id": 6359655, "name": "Funes", "country": "ES", "coord": {"lon": -1.7912, "lat": 42.29147}}, {"id": 3121806, "name": "Funes", "country": "ES", "coord": {"lon": -1.80017, "lat": 42.31562}}, {"id": 6358845, "name": "Fulleda", "country": "ES", "coord": {"lon": 1.03804, "lat": 41.457748}}, {"id": 3121813, "name": "Fulleda", "country": "ES", "coord": {"lon": 1.02395, "lat": 41.463341}}, {"id": 6359286, "name": "Fuentidue\u00f1a de Tajo", "country": "ES", "coord": {"lon": -3.16454, "lat": 40.11364}}, {"id": 3121819, "name": "Fuentiduena de Tajo", "country": "ES", "coord": {"lon": -3.15718, "lat": 40.115742}}, {"id": 6360827, "name": "Fuentidue\u00f1a", "country": "ES", "coord": {"lon": -3.98115, "lat": 41.40287}}, {"id": 3121820, "name": "Fuentiduena", "country": "ES", "coord": {"lon": -3.97899, "lat": 41.442261}}, {"id": 6361143, "name": "Fuentestr\u00fan", "country": "ES", "coord": {"lon": -2.09369, "lat": 41.862999}}, {"id": 3121826, "name": "Fuentestrun", "country": "ES", "coord": {"lon": -2.08283, "lat": 41.87466}}, {"id": 6362523, "name": "Fuentespreadas", "country": "ES", "coord": {"lon": -5.62888, "lat": 41.331108}}, {"id": 3121828, "name": "Fuentespreadas", "country": "ES", "coord": {"lon": -5.62798, "lat": 41.326271}}, {"id": 6356442, "name": "Fuentespina", "country": "ES", "coord": {"lon": -3.68126, "lat": 41.629681}}, {"id": 3121829, "name": "Fuentespina", "country": "ES", "coord": {"lon": -3.68475, "lat": 41.630798}}, {"id": 6361525, "name": "Fuentespalda", "country": "ES", "coord": {"lon": 0.06766, "lat": 40.820549}}, {"id": 3121830, "name": "Fuentespalda", "country": "ES", "coord": {"lon": 0.06517, "lat": 40.80666}}, {"id": 6360826, "name": "Fuentesoto", "country": "ES", "coord": {"lon": -3.90666, "lat": 41.451191}}, {"id": 3121831, "name": "Fuentesoto", "country": "ES", "coord": {"lon": -3.91835, "lat": 41.456638}}, {"id": 6362522, "name": "Fuentesecas", "country": "ES", "coord": {"lon": -5.47931, "lat": 41.628731}}, {"id": 3121834, "name": "Fuentesecas", "country": "ES", "coord": {"lon": -5.47252, "lat": 41.630772}}, {"id": 6360040, "name": "Fuentes de Valdepero", "country": "ES", "coord": {"lon": -4.48822, "lat": 42.061539}}, {"id": 3121835, "name": "Fuentes de Valdepero", "country": "ES", "coord": {"lon": -4.5005, "lat": 42.075321}}, {"id": 6361524, "name": "Fuentes de Rubielos", "country": "ES", "coord": {"lon": -0.59947, "lat": 40.165958}}, {"id": 3121837, "name": "Fuentes de Rubielos", "country": "ES", "coord": {"lon": -0.61667, "lat": 40.166672}}, {"id": 6362521, "name": "Fuentes de Ropel", "country": "ES", "coord": {"lon": -5.56885, "lat": 42.0233}}, {"id": 3121838, "name": "Fuentes de Ropel", "country": "ES", "coord": {"lon": -5.54532, "lat": 42.003769}}, {"id": 6360039, "name": "Fuentes de Nava", "country": "ES", "coord": {"lon": -4.76499, "lat": 42.092159}}, {"id": 3121841, "name": "Fuentes de Nava", "country": "ES", "coord": {"lon": -4.78333, "lat": 42.083328}}, {"id": 6361142, "name": "Fuentes de Maga\u00f1a", "country": "ES", "coord": {"lon": -2.20067, "lat": 41.929501}}, {"id": 3121843, "name": "Fuentes de Magana", "country": "ES", "coord": {"lon": -2.1795, "lat": 41.935211}}, {"id": 6362806, "name": "Fuentes de Jiloca", "country": "ES", "coord": {"lon": -1.54825, "lat": 41.22324}}, {"id": 3121847, "name": "Fuentes de Jiloca", "country": "ES", "coord": {"lon": -1.53616, "lat": 41.228588}}, {"id": 6358619, "name": "Fuentes de Carbajal", "country": "ES", "coord": {"lon": -5.4545, "lat": 42.181808}}, {"id": 3121853, "name": "Fuentes de Carbajal", "country": "ES", "coord": {"lon": -5.44606, "lat": 42.177761}}, {"id": 6360382, "name": "Fuentes de B\u00e9jar", "country": "ES", "coord": {"lon": -5.69521, "lat": 40.511051}}, {"id": 3121854, "name": "Fuentes de Bejar", "country": "ES", "coord": {"lon": -5.6927, "lat": 40.508148}}, {"id": 6357016, "name": "Fuentes de Ay\u00f3dar", "country": "ES", "coord": {"lon": -0.42518, "lat": 40.019348}}, {"id": 3121855, "name": "Fuentes de Ayodar", "country": "ES", "coord": {"lon": -0.41667, "lat": 40.033329}}, {"id": 6355684, "name": "Fuentes de A\u00f1o", "country": "ES", "coord": {"lon": -4.91127, "lat": 41.02512}}, {"id": 3121856, "name": "Fuentes de Ano", "country": "ES", "coord": {"lon": -4.89908, "lat": 41.017689}}, {"id": 6361523, "name": "Fuentes Claras", "country": "ES", "coord": {"lon": -1.32551, "lat": 40.864262}}, {"id": 3121860, "name": "Fuentes Claras", "country": "ES", "coord": {"lon": -1.32266, "lat": 40.86375}}, {"id": 6361522, "name": "Fuentes Calientes", "country": "ES", "coord": {"lon": -0.97546, "lat": 40.690128}}, {"id": 3121862, "name": "Fuentes Calientes", "country": "ES", "coord": {"lon": -0.96667, "lat": 40.700001}}, {"id": 6360825, "name": "Fuentesa\u00faco de Fuentidue\u00f1a", "country": "ES", "coord": {"lon": -4.06135, "lat": 41.429649}}, {"id": 3121865, "name": "Fuentesauco de Fuentiduena", "country": "ES", "coord": {"lon": -4.06215, "lat": 41.42445}}, {"id": 6362520, "name": "Fuentesa\u00faco", "country": "ES", "coord": {"lon": -5.50375, "lat": 41.242001}}, {"id": 3121867, "name": "Fuentesauco", "country": "ES", "coord": {"lon": -5.49722, "lat": 41.230431}}, {"id": 6360381, "name": "Fuenterroble de Salvatierra", "country": "ES", "coord": {"lon": -5.73817, "lat": 40.551701}}, {"id": 3121877, "name": "Fuenterroble de Salvatierra", "country": "ES", "coord": {"lon": -5.73379, "lat": 40.564659}}, {"id": 6361141, "name": "Fuentepinilla", "country": "ES", "coord": {"lon": -2.74577, "lat": 41.553452}}, {"id": 3121885, "name": "Fuentepinilla", "country": "ES", "coord": {"lon": -2.76288, "lat": 41.56683}}, {"id": 6360823, "name": "Fuentepi\u00f1el", "country": "ES", "coord": {"lon": -4.03662, "lat": 41.407871}}, {"id": 3121886, "name": "Fuentepinel", "country": "ES", "coord": {"lon": -4.04295, "lat": 41.398918}}, {"id": 6360822, "name": "Fuentepelayo", "country": "ES", "coord": {"lon": -4.17095, "lat": 41.228409}}, {"id": 3121887, "name": "Fuentepelayo", "country": "ES", "coord": {"lon": -4.1757, "lat": 41.222488}}, {"id": 6357907, "name": "Fuentenovilla", "country": "ES", "coord": {"lon": -3.10175, "lat": 40.37632}}, {"id": 3121892, "name": "Fuentenovilla", "country": "ES", "coord": {"lon": -3.09102, "lat": 40.36248}}, {"id": 6356441, "name": "Fuentenebro", "country": "ES", "coord": {"lon": -3.75003, "lat": 41.514198}}, {"id": 3121893, "name": "Fuentenebro", "country": "ES", "coord": {"lon": -3.75449, "lat": 41.528728}}, {"id": 6356440, "name": "Fuentemolinos", "country": "ES", "coord": {"lon": -3.85286, "lat": 41.608429}}, {"id": 3121895, "name": "Fuentemolinos", "country": "ES", "coord": {"lon": -3.85005, "lat": 41.604771}}, {"id": 6357906, "name": "Fuentelviejo", "country": "ES", "coord": {"lon": -2.98829, "lat": 40.520191}}, {"id": 3121899, "name": "Fuentelviejo", "country": "ES", "coord": {"lon": -2.9843, "lat": 40.526371}}, {"id": 6361140, "name": "Fuentelsaz de Soria", "country": "ES", "coord": {"lon": -2.42579, "lat": 41.868961}}, {"id": 3121900, "name": "Fuentelsaz de Soria", "country": "ES", "coord": {"lon": -2.41525, "lat": 41.86586}}, {"id": 6357905, "name": "Fuentelsaz", "country": "ES", "coord": {"lon": -1.81754, "lat": 41.056221}}, {"id": 3121901, "name": "Fuentelsaz", "country": "ES", "coord": {"lon": -1.83108, "lat": 41.073589}}, {"id": 6356439, "name": "Fuentelisendo", "country": "ES", "coord": {"lon": -3.90361, "lat": 41.62146}}, {"id": 3121904, "name": "Fuentelisendo", "country": "ES", "coord": {"lon": -3.90129, "lat": 41.622742}}, {"id": 6357904, "name": "Fuentelencina", "country": "ES", "coord": {"lon": -2.8735, "lat": 40.508221}}, {"id": 3121909, "name": "Fuentelencina", "country": "ES", "coord": {"lon": -2.88226, "lat": 40.517811}}, {"id": 6356438, "name": "Fuentelc\u00e9sped", "country": "ES", "coord": {"lon": -3.63772, "lat": 41.603191}}, {"id": 3121910, "name": "Fuentelcesped", "country": "ES", "coord": {"lon": -3.64064, "lat": 41.591621}}, {"id": 6357015, "name": "Fuente la Reina", "country": "ES", "coord": {"lon": -0.60842, "lat": 40.061008}}, {"id": 3121913, "name": "Fuente la Reina", "country": "ES", "coord": {"lon": -0.6, "lat": 40.066669}}, {"id": 6362519, "name": "Fuentelape\u00f1a", "country": "ES", "coord": {"lon": -5.38855, "lat": 41.24791}}, {"id": 3121916, "name": "Fuentelapena", "country": "ES", "coord": {"lon": -5.38325, "lat": 41.251438}}, {"id": 6357903, "name": "Fuentelahiguera de Albatages", "country": "ES", "coord": {"lon": -3.30851, "lat": 40.773338}}, {"id": 3121917, "name": "Fuentelahiguera de Albatages", "country": "ES", "coord": {"lon": -3.30492, "lat": 40.783119}}, {"id": 6360379, "name": "Fuenteguinaldo", "country": "ES", "coord": {"lon": -6.67417, "lat": 40.42017}}, {"id": 3121921, "name": "Fuenteguinaldo", "country": "ES", "coord": {"lon": -6.67528, "lat": 40.428761}}, {"id": 6362518, "name": "Fuente Encalada", "country": "ES", "coord": {"lon": -6.00032, "lat": 42.12318}}, {"id": 3121924, "name": "Fuente Encalada", "country": "ES", "coord": {"lon": -5.99622, "lat": 42.110111}}, {"id": 6362195, "name": "Fuente el Sol", "country": "ES", "coord": {"lon": -4.93273, "lat": 41.17215}}, {"id": 3121925, "name": "Fuente el Sol", "country": "ES", "coord": {"lon": -4.9343, "lat": 41.176029}}, {"id": 3121926, "name": "Fuente el Saz", "country": "ES", "coord": {"lon": -3.51146, "lat": 40.63216}}, {"id": 6360819, "name": "Fuente de Santa Cruz", "country": "ES", "coord": {"lon": -4.62357, "lat": 41.212978}}, {"id": 3121932, "name": "Fuente de Santa Cruz", "country": "ES", "coord": {"lon": -4.6353, "lat": 41.209721}}, {"id": 6361138, "name": "Fuentecantos", "country": "ES", "coord": {"lon": -2.4323, "lat": 41.84425}}, {"id": 3121943, "name": "Fuentecantos", "country": "ES", "coord": {"lon": -2.42846, "lat": 41.849289}}, {"id": 6361137, "name": "Fuentecambr\u00f3n", "country": "ES", "coord": {"lon": -3.33711, "lat": 41.490311}}, {"id": 3121945, "name": "Fuentecambron", "country": "ES", "coord": {"lon": -3.32872, "lat": 41.505791}}, {"id": 6356436, "name": "Fuentebureba", "country": "ES", "coord": {"lon": -3.23383, "lat": 42.633091}}, {"id": 3121947, "name": "Fuentebureba", "country": "ES", "coord": {"lon": -3.2351, "lat": 42.633999}}, {"id": 6361136, "name": "Fuentearmegil", "country": "ES", "coord": {"lon": -3.18863, "lat": 41.715462}}, {"id": 3121950, "name": "Fuentearmegil", "country": "ES", "coord": {"lon": -3.18362, "lat": 41.714958}}, {"id": 3121956, "name": "Fuensalida", "country": "ES", "coord": {"lon": -4.20718, "lat": 40.052879}}, {"id": 6359054, "name": "Fuenmayor", "country": "ES", "coord": {"lon": -2.5842, "lat": 42.474831}}, {"id": 3121959, "name": "Fuenmayor", "country": "ES", "coord": {"lon": -2.56153, "lat": 42.467289}}, {"id": 6361521, "name": "Fuenferrada", "country": "ES", "coord": {"lon": -1.01271, "lat": 40.866119}}, {"id": 3121963, "name": "Fuenferrada", "country": "ES", "coord": {"lon": -1.0118, "lat": 40.869228}}, {"id": 6362804, "name": "Fuendetodos", "country": "ES", "coord": {"lon": -0.91885, "lat": 41.360149}}, {"id": 3121964, "name": "Fuendetodos", "country": "ES", "coord": {"lon": -0.95988, "lat": 41.342449}}, {"id": 6357902, "name": "Fuencemill\u00e1n", "country": "ES", "coord": {"lon": -3.09255, "lat": 40.920139}}, {"id": 3121968, "name": "Fuencemillan", "country": "ES", "coord": {"lon": -3.09818, "lat": 40.920631}}, {"id": 6357901, "name": "Fuembellida", "country": "ES", "coord": {"lon": -2.03862, "lat": 40.74194}}, {"id": 3121975, "name": "Fuembellida", "country": "ES", "coord": {"lon": -1.99861, "lat": 40.75589}}, {"id": 6360818, "name": "Frumales", "country": "ES", "coord": {"lon": -4.18781, "lat": 41.374722}}, {"id": 3121981, "name": "Frumales", "country": "ES", "coord": {"lon": -4.18631, "lat": 41.383331}}, {"id": 6360038, "name": "Fr\u00f3mista", "country": "ES", "coord": {"lon": -4.41104, "lat": 42.269798}}, {"id": 3121995, "name": "Fromista", "country": "ES", "coord": {"lon": -4.40546, "lat": 42.26667}}, {"id": 6362517, "name": "Friera de Valverde", "country": "ES", "coord": {"lon": -5.86465, "lat": 41.902271}}, {"id": 3122010, "name": "Friera de Valverde", "country": "ES", "coord": {"lon": -5.84153, "lat": 41.91214}}, {"id": 6361520, "name": "Fr\u00edas de Albarrac\u00edn", "country": "ES", "coord": {"lon": -1.61455, "lat": 40.33532}}, {"id": 3122014, "name": "Frias de Albarracin", "country": "ES", "coord": {"lon": -1.6147, "lat": 40.33754}}, {"id": 6356435, "name": "Fr\u00edas", "country": "ES", "coord": {"lon": -3.28164, "lat": 42.751438}}, {"id": 3122015, "name": "Frias", "country": "ES", "coord": {"lon": -3.29394, "lat": 42.762249}}, {"id": 6362193, "name": "Fresno el Viejo", "country": "ES", "coord": {"lon": -5.16445, "lat": 41.180408}}, {"id": 3122021, "name": "Fresno El Viejo", "country": "ES", "coord": {"lon": -5.14413, "lat": 41.197521}}, {"id": 3122022, "name": "Fresno de Torote", "country": "ES", "coord": {"lon": -3.41003, "lat": 40.590401}}, {"id": 6362516, "name": "Fresno de Sayago", "country": "ES", "coord": {"lon": -5.98003, "lat": 41.31781}}, {"id": 3122023, "name": "Fresno de Sayago", "country": "ES", "coord": {"lon": -5.97129, "lat": 41.318481}}, {"id": 6356434, "name": "Fresno de Rodilla", "country": "ES", "coord": {"lon": -3.48404, "lat": 42.42004}}, {"id": 3122024, "name": "Fresno de Rodilla", "country": "ES", "coord": {"lon": -3.48507, "lat": 42.42054}}, {"id": 6360037, "name": "Fresno del R\u00edo", "country": "ES", "coord": {"lon": -4.844, "lat": 42.686062}}, {"id": 3122027, "name": "Fresno del Rio", "country": "ES", "coord": {"lon": -4.81734, "lat": 42.681759}}, {"id": 6358618, "name": "Fresno de la Vega", "country": "ES", "coord": {"lon": -5.53377, "lat": 42.344978}}, {"id": 3122030, "name": "Fresno de la Vega", "country": "ES", "coord": {"lon": -5.53587, "lat": 42.345451}}, {"id": 6362515, "name": "Fresno de la Ribera", "country": "ES", "coord": {"lon": -5.56229, "lat": 41.545139}}, {"id": 3122032, "name": "Fresno de la Ribera", "country": "ES", "coord": {"lon": -5.56658, "lat": 41.529259}}, {"id": 6362514, "name": "Fresno de la Polvorosa", "country": "ES", "coord": {"lon": -5.76686, "lat": 42.08604}}, {"id": 3122033, "name": "Fresno de la Polvorosa", "country": "ES", "coord": {"lon": -5.7697, "lat": 42.083099}}, {"id": 6360817, "name": "Fresno de la Fuente", "country": "ES", "coord": {"lon": -3.64322, "lat": 41.403759}}, {"id": 3122034, "name": "Fresno de la Fuente", "country": "ES", "coord": {"lon": -3.64491, "lat": 41.392429}}, {"id": 6361135, "name": "Fresno de Caracena", "country": "ES", "coord": {"lon": -3.1031, "lat": 41.458809}}, {"id": 3122036, "name": "Fresno de Caracena", "country": "ES", "coord": {"lon": -3.09123, "lat": 41.452469}}, {"id": 6360816, "name": "Fresno de Cantespino", "country": "ES", "coord": {"lon": -3.49055, "lat": 41.363918}}, {"id": 3122037, "name": "Fresno de Cantespino", "country": "ES", "coord": {"lon": -3.4995, "lat": 41.368198}}, {"id": 6356432, "name": "Fresnillo de las Due\u00f1as", "country": "ES", "coord": {"lon": -3.63297, "lat": 41.640862}}, {"id": 3122045, "name": "Fresnillo de las Duenas", "country": "ES", "coord": {"lon": -3.64558, "lat": 41.646999}}, {"id": 6356431, "name": "Fresne\u00f1a", "country": "ES", "coord": {"lon": -3.1313, "lat": 42.405811}}, {"id": 3122048, "name": "Fresnena", "country": "ES", "coord": {"lon": -3.13452, "lat": 42.413658}}, {"id": 6360376, "name": "Fresnedoso", "country": "ES", "coord": {"lon": -5.7149, "lat": 40.437531}}, {"id": 3122050, "name": "Fresnedoso", "country": "ES", "coord": {"lon": -5.7097, "lat": 40.43618}}, {"id": 3122060, "name": "Fresnedillas", "country": "ES", "coord": {"lon": -4.17146, "lat": 40.487041}}, {"id": 6355681, "name": "Fresnedilla", "country": "ES", "coord": {"lon": -4.6533, "lat": 40.238972}}, {"id": 3122061, "name": "Fresnedilla", "country": "ES", "coord": {"lon": -4.62201, "lat": 40.232342}}, {"id": 6356430, "name": "Fresneda de la Sierra Tir\u00f3n", "country": "ES", "coord": {"lon": -3.12887, "lat": 42.282318}}, {"id": 3122066, "name": "Fresneda de la Sierra Tiron", "country": "ES", "coord": {"lon": -3.13596, "lat": 42.31535}}, {"id": 6357434, "name": "Fresneda de la Sierra", "country": "ES", "coord": {"lon": -2.11714, "lat": 40.405529}}, {"id": 3122067, "name": "Fresneda de la Sierra", "country": "ES", "coord": {"lon": -2.14233, "lat": 40.39101}}, {"id": 6360815, "name": "Fresneda de Cu\u00e9llar", "country": "ES", "coord": {"lon": -4.46181, "lat": 41.297031}}, {"id": 3122068, "name": "Fresneda de Cuellar", "country": "ES", "coord": {"lon": -4.44938, "lat": 41.31905}}, {"id": 6362802, "name": "Fr\u00e9scano", "country": "ES", "coord": {"lon": -1.45614, "lat": 41.87907}}, {"id": 3122077, "name": "Frescano", "country": "ES", "coord": {"lon": -1.45, "lat": 41.883331}}, {"id": 6361134, "name": "Frechilla de Almaz\u00e1n", "country": "ES", "coord": {"lon": -2.51611, "lat": 41.421921}}, {"id": 3122107, "name": "Frechilla de Almazan", "country": "ES", "coord": {"lon": -2.51444, "lat": 41.426559}}, {"id": 6360036, "name": "Frechilla", "country": "ES", "coord": {"lon": -4.82662, "lat": 42.136761}}, {"id": 3122108, "name": "Frechilla", "country": "ES", "coord": {"lon": -4.84112, "lat": 42.13768}}, {"id": 6360374, "name": "Frades de la Sierra", "country": "ES", "coord": {"lon": -5.77768, "lat": 40.658482}}, {"id": 3122159, "name": "Frades de la Sierra", "country": "ES", "coord": {"lon": -5.78223, "lat": 40.656872}}, {"id": 6534001, "name": "Frades", "country": "ES", "coord": {"lon": -8.28332, "lat": 43.042381}}, {"id": 3122160, "name": "Frades", "country": "ES", "coord": {"lon": -8.29391, "lat": 43.05011}}, {"id": 6361518, "name": "Foz-Calanda", "country": "ES", "coord": {"lon": -0.26919, "lat": 40.913448}}, {"id": 3122167, "name": "Foz-Calanda", "country": "ES", "coord": {"lon": -0.26484, "lat": 40.922081}}, {"id": 6359167, "name": "Barreiros", "country": "ES", "coord": {"lon": -7.21842, "lat": 43.527229}}, {"id": 3122172, "name": "Foz", "country": "ES", "coord": {"lon": -7.2544, "lat": 43.569199}}, {"id": 6362440, "name": "Forua", "country": "ES", "coord": {"lon": -2.67629, "lat": 43.338501}}, {"id": 3122180, "name": "Forua", "country": "ES", "coord": {"lon": -2.67504, "lat": 43.333431}}, {"id": 6534063, "name": "Forti\u00e0", "country": "ES", "coord": {"lon": 3.04019, "lat": 42.242451}}, {"id": 3122182, "name": "Fortia", "country": "ES", "coord": {"lon": 3.03881, "lat": 42.243198}}, {"id": 6361517, "name": "Fortanete", "country": "ES", "coord": {"lon": -0.53263, "lat": 40.498192}}, {"id": 3122184, "name": "Fortanete", "country": "ES", "coord": {"lon": -0.52283, "lat": 40.505329}}, {"id": 6361516, "name": "F\u00f3rnoles", "country": "ES", "coord": {"lon": -0.00863, "lat": 40.892139}}, {"id": 3122188, "name": "Fornoles", "country": "ES", "coord": {"lon": -0.00383, "lat": 40.893589}}, {"id": 3122198, "name": "Fornelos de Montes", "country": "ES", "coord": {"lon": -8.45291, "lat": 42.341259}}, {"id": 3122229, "name": "Forfoleda", "country": "ES", "coord": {"lon": -5.74979, "lat": 41.09779}}, {"id": 6361304, "name": "For\u00e8s", "country": "ES", "coord": {"lon": 1.23693, "lat": 41.50108}}, {"id": 3122231, "name": "Fores", "country": "ES", "coord": {"lon": 1.23333, "lat": 41.48333}}, {"id": 3122238, "name": "Forcall", "country": "ES", "coord": {"lon": -0.19992, "lat": 40.64542}}, {"id": 3122251, "name": "Fonzaleche", "country": "ES", "coord": {"lon": -3.01218, "lat": 42.581139}}, {"id": 6355680, "name": "Fontiveros", "country": "ES", "coord": {"lon": -4.96189, "lat": 40.923}}, {"id": 3122258, "name": "Fontiveros", "country": "ES", "coord": {"lon": -4.96445, "lat": 40.92997}}, {"id": 6356428, "name": "Fontioso", "country": "ES", "coord": {"lon": -3.74891, "lat": 41.918831}}, {"id": 3122260, "name": "Fontioso", "country": "ES", "coord": {"lon": -3.73872, "lat": 41.94273}}, {"id": 6362192, "name": "Fontihoyuelo", "country": "ES", "coord": {"lon": -5.05439, "lat": 42.168709}}, {"id": 3122261, "name": "Fontihoyuelo", "country": "ES", "coord": {"lon": -5.05791, "lat": 42.161919}}, {"id": 6359654, "name": "Fontellas", "country": "ES", "coord": {"lon": -1.56839, "lat": 42.014}}, {"id": 3122271, "name": "Fontellas", "country": "ES", "coord": {"lon": -1.57648, "lat": 42.026939}}, {"id": 6534060, "name": "Fontcoberta", "country": "ES", "coord": {"lon": 2.80546, "lat": 42.136021}}, {"id": 3122288, "name": "Fontcoberta", "country": "ES", "coord": {"lon": 2.8, "lat": 42.133331}}, {"id": 6534059, "name": "Fontanilles", "country": "ES", "coord": {"lon": 3.10359, "lat": 42.018291}}, {"id": 3122297, "name": "Fontanilles", "country": "ES", "coord": {"lon": 3.10776, "lat": 42.011169}}, {"id": 6357900, "name": "Fontanar", "country": "ES", "coord": {"lon": -3.18255, "lat": 40.73019}}, {"id": 3122304, "name": "Fontanar", "country": "ES", "coord": {"lon": -3.17309, "lat": 40.724659}}, {"id": 3122313, "name": "Fonsagrada", "country": "ES", "coord": {"lon": -7.0679, "lat": 43.123981}}, {"id": 6356040, "name": "Aguilar de Segarra", "country": "ES", "coord": {"lon": 1.61586, "lat": 41.72974}}, {"id": 3122315, "name": "Fonollosa", "country": "ES", "coord": {"lon": 1.66867, "lat": 41.763031}}, {"id": 3122321, "name": "Fonfria", "country": "ES", "coord": {"lon": -6.14082, "lat": 41.63493}}, {"id": 6361514, "name": "Fonfr\u00eda", "country": "ES", "coord": {"lon": -1.08514, "lat": 40.990108}}, {"id": 3122322, "name": "Fonfria", "country": "ES", "coord": {"lon": -1.08475, "lat": 40.995659}}, {"id": 6359052, "name": "Foncea", "country": "ES", "coord": {"lon": -3.04224, "lat": 42.611969}}, {"id": 3122334, "name": "Foncea", "country": "ES", "coord": {"lon": -3.03897, "lat": 42.61528}}, {"id": 6362191, "name": "Fompedraza", "country": "ES", "coord": {"lon": -4.14468, "lat": 41.51857}}, {"id": 3122338, "name": "Fompedraza", "country": "ES", "coord": {"lon": -4.14483, "lat": 41.535412}}, {"id": 6362799, "name": "Fombuena", "country": "ES", "coord": {"lon": -1.18965, "lat": 41.170792}}, {"id": 3122339, "name": "Fombuena", "country": "ES", "coord": {"lon": -1.19266, "lat": 41.144421}}, {"id": 6362190, "name": "Fombellida", "country": "ES", "coord": {"lon": -4.18805, "lat": 41.749569}}, {"id": 3122342, "name": "Fombellida", "country": "ES", "coord": {"lon": -4.18409, "lat": 41.76693}}, {"id": 6356113, "name": "Fogars de Montcl\u00fas", "country": "ES", "coord": {"lon": 2.43925, "lat": 41.75341}}, {"id": 3122393, "name": "Fogars de Montclus", "country": "ES", "coord": {"lon": 2.45, "lat": 41.73333}}, {"id": 6360372, "name": "Florida de Li\u00e9bana", "country": "ES", "coord": {"lon": -5.7637, "lat": 41.011478}}, {"id": 3122399, "name": "Florida de Liebana", "country": "ES", "coord": {"lon": -5.76252, "lat": 41.023621}}, {"id": 6355679, "name": "Flores de \u00c1vila", "country": "ES", "coord": {"lon": -5.08348, "lat": 40.942108}}, {"id": 3122401, "name": "Flores de Avila", "country": "ES", "coord": {"lon": -5.07914, "lat": 40.933578}}, {"id": 6361303, "name": "Flix", "country": "ES", "coord": {"lon": 0.54794, "lat": 41.228771}}, {"id": 3122407, "name": "Flix", "country": "ES", "coord": {"lon": 0.55008, "lat": 41.23074}}, {"id": 6534057, "name": "Fla\u00e7\u00e0", "country": "ES", "coord": {"lon": 2.96152, "lat": 42.048168}}, {"id": 3122409, "name": "Flaca", "country": "ES", "coord": {"lon": 2.96667, "lat": 42.066669}}, {"id": 6357307, "name": "Fisterra", "country": "ES", "coord": {"lon": -9.26653, "lat": 42.922401}}, {"id": 3122426, "name": "Fisterra", "country": "ES", "coord": {"lon": -9.26289, "lat": 42.904919}}, {"id": 6362798, "name": "Figueruelas", "country": "ES", "coord": {"lon": -1.1842, "lat": 41.769299}}, {"id": 3122440, "name": "Figueruelas", "country": "ES", "coord": {"lon": -1.17473, "lat": 41.76651}}, {"id": 6362512, "name": "Figueruela de Arriba", "country": "ES", "coord": {"lon": -6.46356, "lat": 41.864899}}, {"id": 3122442, "name": "Figueruela de Arriba", "country": "ES", "coord": {"lon": -6.44454, "lat": 41.868671}}, {"id": 6357013, "name": "Figueroles", "country": "ES", "coord": {"lon": -0.21337, "lat": 40.131771}}, {"id": 3122445, "name": "Figueroles", "country": "ES", "coord": {"lon": -0.23333, "lat": 40.116669}}, {"id": 6361513, "name": "Ferreruela de Huerva", "country": "ES", "coord": {"lon": -1.23774, "lat": 41.05603}}, {"id": 3122495, "name": "Ferreruela de Huerva", "country": "ES", "coord": {"lon": -1.2335, "lat": 41.063251}}, {"id": 6362511, "name": "Ferreruela", "country": "ES", "coord": {"lon": -6.03751, "lat": 41.789612}}, {"id": 3122496, "name": "Ferreruela", "country": "ES", "coord": {"lon": -6.07215, "lat": 41.766731}}, {"id": 6362510, "name": "Ferreras de Arriba", "country": "ES", "coord": {"lon": -6.20726, "lat": 41.920502}}, {"id": 3122503, "name": "Ferreras de Arriba", "country": "ES", "coord": {"lon": -6.19462, "lat": 41.898781}}, {"id": 6362509, "name": "Ferreras de Abajo", "country": "ES", "coord": {"lon": -6.06241, "lat": 41.909351}}, {"id": 3122504, "name": "Ferreras de Abajo", "country": "ES", "coord": {"lon": -6.07904, "lat": 41.896511}}, {"id": 6362508, "name": "Fermoselle", "country": "ES", "coord": {"lon": -6.39613, "lat": 41.310081}}, {"id": 3122558, "name": "Fermoselle", "country": "ES", "coord": {"lon": -6.39584, "lat": 41.317379}}, {"id": 6362796, "name": "Fay\u00f3n", "country": "ES", "coord": {"lon": 0.31859, "lat": 41.265362}}, {"id": 3122595, "name": "Fayon", "country": "ES", "coord": {"lon": 0.33302, "lat": 41.23851}}, {"id": 6361299, "name": "la Fatarella", "country": "ES", "coord": {"lon": 0.48756, "lat": 41.159679}}, {"id": 3122600, "name": "la Fatarella", "country": "ES", "coord": {"lon": 0.48333, "lat": 41.166672}}, {"id": 6362795, "name": "Farlete", "country": "ES", "coord": {"lon": -0.52764, "lat": 41.695511}}, {"id": 3122621, "name": "Farlete", "country": "ES", "coord": {"lon": -0.50678, "lat": 41.681221}}, {"id": 6362507, "name": "Fariza", "country": "ES", "coord": {"lon": -6.25812, "lat": 41.422539}}, {"id": 3122622, "name": "Fariza", "country": "ES", "coord": {"lon": -6.26667, "lat": 41.416672}}, {"id": 3122636, "name": "Faramontanos de Tabara", "country": "ES", "coord": {"lon": -5.88883, "lat": 41.83469}}, {"id": 6357012, "name": "Fanzara", "country": "ES", "coord": {"lon": -0.31311, "lat": 40.015121}}, {"id": 3122641, "name": "Fanzara", "country": "ES", "coord": {"lon": -0.31667, "lat": 40.01667}}, {"id": 6361319, "name": "Mar\u00e7\u00e0", "country": "ES", "coord": {"lon": 0.80607, "lat": 41.1241}}, {"id": 3122656, "name": "Falset", "country": "ES", "coord": {"lon": 0.81979, "lat": 41.14576}}, {"id": 6359652, "name": "Falces", "country": "ES", "coord": {"lon": -1.79993, "lat": 42.4235}}, {"id": 3122667, "name": "Falces", "country": "ES", "coord": {"lon": -1.79321, "lat": 42.38966}}, {"id": 3122671, "name": "Fago", "country": "ES", "coord": {"lon": -0.88131, "lat": 42.734402}}, {"id": 3122695, "name": "Fabero", "country": "ES", "coord": {"lon": -6.62651, "lat": 42.768028}}, {"id": 6362794, "name": "Fabara", "country": "ES", "coord": {"lon": 0.16673, "lat": 41.201778}}, {"id": 3122697, "name": "Fabara", "country": "ES", "coord": {"lon": 0.16908, "lat": 41.177502}}, {"id": 6359650, "name": "Ezkurra", "country": "ES", "coord": {"lon": -1.83962, "lat": 43.109959}}, {"id": 3122707, "name": "Ezkurra", "country": "ES", "coord": {"lon": -1.81667, "lat": 43.083328}}, {"id": 6359648, "name": "Eulate", "country": "ES", "coord": {"lon": -2.20528, "lat": 42.7663}}, {"id": 3122718, "name": "Eulate", "country": "ES", "coord": {"lon": -2.20638, "lat": 42.776409}}, {"id": 6359647, "name": "Etayo", "country": "ES", "coord": {"lon": -2.17544, "lat": 42.613529}}, {"id": 3122724, "name": "Etayo", "country": "ES", "coord": {"lon": -2.15447, "lat": 42.616951}}, {"id": 6357899, "name": "Estri\u00e9gana", "country": "ES", "coord": {"lon": -2.53131, "lat": 41.06443}}, {"id": 3122727, "name": "Estriegana", "country": "ES", "coord": {"lon": -2.52363, "lat": 41.058208}}, {"id": 6359281, "name": "Estremera", "country": "ES", "coord": {"lon": -3.09374, "lat": 40.140171}}, {"id": 3122730, "name": "Estremera", "country": "ES", "coord": {"lon": -3.1, "lat": 40.183331}}, {"id": 6359050, "name": "Estollo", "country": "ES", "coord": {"lon": -2.84415, "lat": 42.320721}}, {"id": 3122740, "name": "Estollo", "country": "ES", "coord": {"lon": -2.85092, "lat": 42.329529}}, {"id": 6361512, "name": "Estercuel", "country": "ES", "coord": {"lon": -0.62508, "lat": 40.88736}}, {"id": 3122752, "name": "Estercuel", "country": "ES", "coord": {"lon": -0.63208, "lat": 40.855}}, {"id": 6356427, "name": "Est\u00e9par", "country": "ES", "coord": {"lon": -3.89774, "lat": 42.277309}}, {"id": 3122758, "name": "Estepar", "country": "ES", "coord": {"lon": -3.89946, "lat": 42.277309}}, {"id": 6361133, "name": "Estepa de San Juan", "country": "ES", "coord": {"lon": -2.32035, "lat": 41.938839}}, {"id": 3122759, "name": "Estepa de San Juan", "country": "ES", "coord": {"lon": -2.33322, "lat": 41.926609}}, {"id": 3122762, "name": "Estella", "country": "ES", "coord": {"lon": -2.03226, "lat": 42.671822}}, {"id": 6358337, "name": "Estadilla", "country": "ES", "coord": {"lon": 0.2447, "lat": 42.044651}}, {"id": 3122794, "name": "Estadilla", "country": "ES", "coord": {"lon": 0.24343, "lat": 42.056568}}, {"id": 6358336, "name": "Estada", "country": "ES", "coord": {"lon": 0.24606, "lat": 42.075809}}, {"id": 3122795, "name": "Estada", "country": "ES", "coord": {"lon": 0.23219, "lat": 42.07201}}, {"id": 6357898, "name": "Establ\u00e9s", "country": "ES", "coord": {"lon": -2.03596, "lat": 41.014179}}, {"id": 3122806, "name": "Estables", "country": "ES", "coord": {"lon": -2.02438, "lat": 41.007671}}, {"id": 6361724, "name": "Esquivias", "country": "ES", "coord": {"lon": -3.75169, "lat": 40.10833}}, {"id": 3122807, "name": "Esquivias", "country": "ES", "coord": {"lon": -3.76677, "lat": 40.104401}}, {"id": 6359644, "name": "Espronceda", "country": "ES", "coord": {"lon": -2.29984, "lat": 42.594929}}, {"id": 3122816, "name": "Espronceda", "country": "ES", "coord": {"lon": -2.30524, "lat": 42.597069}}, {"id": 6358835, "name": "Espot", "country": "ES", "coord": {"lon": 1.04098, "lat": 42.57243}}, {"id": 3122817, "name": "Espot", "country": "ES", "coord": {"lon": 1.08666, "lat": 42.578381}}, {"id": 6534055, "name": "Esponell\u00e0", "country": "ES", "coord": {"lon": 2.80403, "lat": 42.173611}}, {"id": 3122823, "name": "Esponella", "country": "ES", "coord": {"lon": 2.8, "lat": 42.166672}}, {"id": 6534054, "name": "Espolla", "country": "ES", "coord": {"lon": 2.99998, "lat": 42.390659}}, {"id": 3122824, "name": "Espolla", "country": "ES", "coord": {"lon": 3.00064, "lat": 42.391201}}, {"id": 6358335, "name": "Espl\u00fas", "country": "ES", "coord": {"lon": 0.29953, "lat": 41.767929}}, {"id": 3122825, "name": "Esplus", "country": "ES", "coord": {"lon": 0.27586, "lat": 41.798698}}, {"id": 6357897, "name": "Esplegares", "country": "ES", "coord": {"lon": -2.36807, "lat": 40.860691}}, {"id": 3122830, "name": "Esplegares", "country": "ES", "coord": {"lon": -2.37084, "lat": 40.856499}}, {"id": 3122832, "name": "Espirdo", "country": "ES", "coord": {"lon": -4.07331, "lat": 40.997639}}, {"id": 6360035, "name": "Espinosa de Villagonzalo", "country": "ES", "coord": {"lon": -4.3667, "lat": 42.480888}}, {"id": 3122837, "name": "Espinosa de Villagonzalo", "country": "ES", "coord": {"lon": -4.37218, "lat": 42.479488}}, {"id": 6356425, "name": "Espinosa del Camino", "country": "ES", "coord": {"lon": -3.28143, "lat": 42.402729}}, {"id": 3122841, "name": "Espinosa del Camino", "country": "ES", "coord": {"lon": -3.2802, "lat": 42.405899}}, {"id": 6357896, "name": "Espinosa de Henares", "country": "ES", "coord": {"lon": -3.0466, "lat": 40.895699}}, {"id": 3122844, "name": "Espinosa de Henares", "country": "ES", "coord": {"lon": -3.06956, "lat": 40.900539}}, {"id": 6356424, "name": "Espinosa de Cervera", "country": "ES", "coord": {"lon": -3.47361, "lat": 41.902302}}, {"id": 3122845, "name": "Espinosa de Cervera", "country": "ES", "coord": {"lon": -3.46858, "lat": 41.896832}}, {"id": 6360034, "name": "Espinosa de Cerrato", "country": "ES", "coord": {"lon": -3.95703, "lat": 41.95409}}, {"id": 3122846, "name": "Espinosa de Cerrato", "country": "ES", "coord": {"lon": -3.95346, "lat": 41.966789}}, {"id": 6360371, "name": "Espino de la Orbada", "country": "ES", "coord": {"lon": -5.41297, "lat": 41.118679}}, {"id": 3122850, "name": "Espino de la Orbada", "country": "ES", "coord": {"lon": -5.42515, "lat": 41.10693}}, {"id": 6361132, "name": "Espej\u00f3n", "country": "ES", "coord": {"lon": -3.26815, "lat": 41.856491}}, {"id": 3122892, "name": "Espejon", "country": "ES", "coord": {"lon": -3.25936, "lat": 41.830231}}, {"id": 6361131, "name": "Espeja de San Marcelino", "country": "ES", "coord": {"lon": -3.23546, "lat": 41.78363}}, {"id": 3122895, "name": "Espeja de San Marcelino", "country": "ES", "coord": {"lon": -3.2223, "lat": 41.802269}}, {"id": 6360370, "name": "Espeja", "country": "ES", "coord": {"lon": -6.74113, "lat": 40.525219}}, {"id": 3122897, "name": "Espeja", "country": "ES", "coord": {"lon": -6.71582, "lat": 40.565639}}, {"id": 6357011, "name": "Espadilla", "country": "ES", "coord": {"lon": -0.36155, "lat": 40.02647}}, {"id": 3122917, "name": "Espadilla", "country": "ES", "coord": {"lon": -0.35, "lat": 40.033329}}, {"id": 6362505, "name": "Espada\u00f1edo", "country": "ES", "coord": {"lon": -6.41854, "lat": 42.143661}}, {"id": 3122918, "name": "Espadanedo", "country": "ES", "coord": {"lon": -6.39419, "lat": 42.11618}}, {"id": 6360369, "name": "Espada\u00f1a", "country": "ES", "coord": {"lon": -6.26584, "lat": 41.052891}}, {"id": 3122920, "name": "Espadana", "country": "ES", "coord": {"lon": -6.28457, "lat": 41.060848}}, {"id": 6359642, "name": "Eslava", "country": "ES", "coord": {"lon": -1.46553, "lat": 42.570759}}, {"id": 3122929, "name": "Eslava", "country": "ES", "coord": {"lon": -1.45947, "lat": 42.56459}}, {"id": 6362189, "name": "Esguevillas de Esgueva", "country": "ES", "coord": {"lon": -4.37514, "lat": 41.753368}}, {"id": 3122934, "name": "Esguevillas de Esgueva", "country": "ES", "coord": {"lon": -4.38062, "lat": 41.750179}}, {"id": 3122936, "name": "Esgos", "country": "ES", "coord": {"lon": -7.69691, "lat": 42.325489}}, {"id": 6360368, "name": "Escurial de la Sierra", "country": "ES", "coord": {"lon": -5.95411, "lat": 40.615631}}, {"id": 3122946, "name": "Escurial de la Sierra", "country": "ES", "coord": {"lon": -5.9552, "lat": 40.617298}}, {"id": 6361510, "name": "Escorihuela", "country": "ES", "coord": {"lon": -0.94614, "lat": 40.530041}}, {"id": 3122969, "name": "Escorihuela", "country": "ES", "coord": {"lon": -0.97078, "lat": 40.543999}}, {"id": 3122970, "name": "Eskoriatza", "country": "ES", "coord": {"lon": -2.52598, "lat": 43.018291}}, {"id": 6357895, "name": "Escopete", "country": "ES", "coord": {"lon": -3.00324, "lat": 40.41581}}, {"id": 3122974, "name": "Escopete", "country": "ES", "coord": {"lon": -3.0046, "lat": 40.413239}}, {"id": 6361130, "name": "Escobosa de Almaz\u00e1n", "country": "ES", "coord": {"lon": -2.36862, "lat": 41.487728}}, {"id": 3122977, "name": "Escobosa de Almazan", "country": "ES", "coord": {"lon": -2.3714, "lat": 41.486259}}, {"id": 6360812, "name": "Escobar de Polendos", "country": "ES", "coord": {"lon": -4.10863, "lat": 41.10284}}, {"id": 3122985, "name": "Escobar de Polendos", "country": "ES", "coord": {"lon": -4.13117, "lat": 41.09079}}, {"id": 6358615, "name": "Escobar de Campos", "country": "ES", "coord": {"lon": -4.95916, "lat": 42.322632}}, {"id": 3122986, "name": "Escobar de Campos", "country": "ES", "coord": {"lon": -4.96573, "lat": 42.31337}}, {"id": 6362793, "name": "Escatr\u00f3n", "country": "ES", "coord": {"lon": -0.28389, "lat": 41.267399}}, {"id": 3122995, "name": "Escatron", "country": "ES", "coord": {"lon": -0.32308, "lat": 41.291489}}, {"id": 6357894, "name": "Escariche", "country": "ES", "coord": {"lon": -3.06659, "lat": 40.40316}}, {"id": 3123001, "name": "Escariche", "country": "ES", "coord": {"lon": -3.0531, "lat": 40.405529}}, {"id": 6360811, "name": "Escarabajosa de Cabezas", "country": "ES", "coord": {"lon": -4.17908, "lat": 41.10857}}, {"id": 3123006, "name": "Escarabajosa de Cabezas", "country": "ES", "coord": {"lon": -4.19411, "lat": 41.104698}}, {"id": 6357893, "name": "Escamilla", "country": "ES", "coord": {"lon": -2.56381, "lat": 40.556419}}, {"id": 3123017, "name": "Escamilla", "country": "ES", "coord": {"lon": -2.56292, "lat": 40.549789}}, {"id": 6360810, "name": "Escalona del Prado", "country": "ES", "coord": {"lon": -4.11486, "lat": 41.16526}}, {"id": 3123021, "name": "Escalona del Prado", "country": "ES", "coord": {"lon": -4.12272, "lat": 41.166821}}, {"id": 6361721, "name": "Escalona", "country": "ES", "coord": {"lon": -4.38532, "lat": 40.152279}}, {"id": 3123024, "name": "Escalona", "country": "ES", "coord": {"lon": -4.40484, "lat": 40.166901}}, {"id": 6360676, "name": "Escalante", "country": "ES", "coord": {"lon": -3.50624, "lat": 43.43668}}, {"id": 3123034, "name": "Escalante", "country": "ES", "coord": {"lon": -3.51347, "lat": 43.436779}}, {"id": 6362792, "name": "Erla", "country": "ES", "coord": {"lon": -0.98458, "lat": 42.111519}}, {"id": 3123068, "name": "Erla", "country": "ES", "coord": {"lon": -0.95019, "lat": 42.117321}}, {"id": 6359638, "name": "Eratsun", "country": "ES", "coord": {"lon": -1.80999, "lat": 43.109081}}, {"id": 3123100, "name": "Eratsun", "country": "ES", "coord": {"lon": -1.8, "lat": 43.083328}}, {"id": 6362791, "name": "\u00c9pila", "country": "ES", "coord": {"lon": -1.33241, "lat": 41.591}}, {"id": 3123106, "name": "Epila", "country": "ES", "coord": {"lon": -1.28007, "lat": 41.60046}}, {"id": 6359848, "name": "Entrimo", "country": "ES", "coord": {"lon": -8.13322, "lat": 41.94281}}, {"id": 3123113, "name": "Entrimo", "country": "ES", "coord": {"lon": -8.11725, "lat": 41.932968}}, {"id": 6359049, "name": "Entrena", "country": "ES", "coord": {"lon": -2.51514, "lat": 42.395802}}, {"id": 3123124, "name": "Entrena", "country": "ES", "coord": {"lon": -2.53066, "lat": 42.387821}}, {"id": 6359637, "name": "En\u00e9riz", "country": "ES", "coord": {"lon": -1.74387, "lat": 42.663078}}, {"id": 3123156, "name": "Eneriz", "country": "ES", "coord": {"lon": -1.72794, "lat": 42.670952}}, {"id": 3123160, "name": "Endrinal", "country": "ES", "coord": {"lon": -5.80411, "lat": 40.591091}}, {"id": 6359048, "name": "Enciso", "country": "ES", "coord": {"lon": -2.24938, "lat": 42.139771}}, {"id": 3123168, "name": "Enciso", "country": "ES", "coord": {"lon": -2.26953, "lat": 42.14946}}, {"id": 6356423, "name": "Enc\u00edo", "country": "ES", "coord": {"lon": -3.10163, "lat": 42.68166}}, {"id": 3123169, "name": "Encio", "country": "ES", "coord": {"lon": -3.0868, "lat": 42.67115}}, {"id": 6360809, "name": "Encinillas", "country": "ES", "coord": {"lon": -4.14932, "lat": 41.02668}}, {"id": 3123170, "name": "Encinillas", "country": "ES", "coord": {"lon": -4.15784, "lat": 41.018089}}, {"id": 6358613, "name": "Encinedo", "country": "ES", "coord": {"lon": -6.62024, "lat": 42.2729}}, {"id": 3123173, "name": "Encinedo", "country": "ES", "coord": {"lon": -6.59368, "lat": 42.270489}}, {"id": 6360366, "name": "Encinasola de los Comendadores", "country": "ES", "coord": {"lon": -6.54609, "lat": 41.014149}}, {"id": 3123174, "name": "Encinasola de los Comendadores", "country": "ES", "coord": {"lon": -6.53261, "lat": 41.030891}}, {"id": 6362188, "name": "Encinas de Esgueva", "country": "ES", "coord": {"lon": -4.08317, "lat": 41.7612}}, {"id": 3123175, "name": "Encinas de Esgueva", "country": "ES", "coord": {"lon": -4.10357, "lat": 41.756519}}, {"id": 6360365, "name": "Encinas de Arriba", "country": "ES", "coord": {"lon": -5.56403, "lat": 40.771229}}, {"id": 3123176, "name": "Encinas de Arriba", "country": "ES", "coord": {"lon": -5.55661, "lat": 40.771198}}, {"id": 6360364, "name": "Encinas de Abajo", "country": "ES", "coord": {"lon": -5.45553, "lat": 40.915112}}, {"id": 3123177, "name": "Encinas de Abajo", "country": "ES", "coord": {"lon": -5.47037, "lat": 40.934929}}, {"id": 6360808, "name": "Encinas", "country": "ES", "coord": {"lon": -3.67913, "lat": 41.398579}}, {"id": 3123179, "name": "Encinas", "country": "ES", "coord": {"lon": -3.66762, "lat": 41.375111}}, {"id": 6360363, "name": "Encina de San Silvestre", "country": "ES", "coord": {"lon": -6.09752, "lat": 41.013409}}, {"id": 3123181, "name": "Encina de San Silvestre", "country": "ES", "coord": {"lon": -6.09268, "lat": 41.01442}}, {"id": 6362790, "name": "Encinacorba", "country": "ES", "coord": {"lon": -1.27574, "lat": 41.285858}}, {"id": 3123182, "name": "Encinacorba", "country": "ES", "coord": {"lon": -1.27516, "lat": 41.28516}}, {"id": 6362789, "name": "Embid de Ariza", "country": "ES", "coord": {"lon": -1.95363, "lat": 41.384392}}, {"id": 3123199, "name": "Embid de Ariza", "country": "ES", "coord": {"lon": -1.97373, "lat": 41.3783}}, {"id": 6357892, "name": "Embid", "country": "ES", "coord": {"lon": -1.71117, "lat": 40.972359}}, {"id": 3123200, "name": "Embid", "country": "ES", "coord": {"lon": -1.71206, "lat": 40.972561}}, {"id": 6361858, "name": "Viso de San Juan (El)", "country": "ES", "coord": {"lon": -3.97427, "lat": 40.15131}}, {"id": 3123206, "name": "El Viso de San Juan", "country": "ES", "coord": {"lon": -3.91817, "lat": 40.141541}}, {"id": 6359387, "name": "Vell\u00f3n (El)", "country": "ES", "coord": {"lon": -3.55809, "lat": 40.76963}}, {"id": 3123219, "name": "El Vellon", "country": "ES", "coord": {"lon": -3.57969, "lat": 40.76495}}, {"id": 6361804, "name": "Real de San Vicente (El)", "country": "ES", "coord": {"lon": -4.67668, "lat": 40.167309}}, {"id": 3123303, "name": "El Real de San Vicente", "country": "ES", "coord": {"lon": -4.69095, "lat": 40.135609}}, {"id": 3123398, "name": "Elorz", "country": "ES", "coord": {"lon": -1.56152, "lat": 42.732578}}, {"id": 6362377, "name": "Elorrio", "country": "ES", "coord": {"lon": -2.53683, "lat": 43.128319}}, {"id": 3123399, "name": "Elorrio", "country": "ES", "coord": {"lon": -2.54056, "lat": 43.129238}}, {"id": 3123421, "name": "El Molar", "country": "ES", "coord": {"lon": -3.57969, "lat": 40.732159}}, {"id": 3123445, "name": "Eller", "country": "ES", "coord": {"lon": 1.79223, "lat": 42.416359}}, {"id": 6356769, "name": "Eljas", "country": "ES", "coord": {"lon": -6.83367, "lat": 40.221481}}, {"id": 3123449, "name": "Eljas", "country": "ES", "coord": {"lon": -6.84616, "lat": 40.21648}}, {"id": 6355706, "name": "Hoyo de Pinares (El)", "country": "ES", "coord": {"lon": -4.39821, "lat": 40.507038}}, {"id": 3123455, "name": "El Hoyo de Pinares", "country": "ES", "coord": {"lon": -4.42357, "lat": 40.500839}}, {"id": 6358123, "name": "Elgeta", "country": "ES", "coord": {"lon": -2.4929, "lat": 43.15733}}, {"id": 3123468, "name": "Elgeta", "country": "ES", "coord": {"lon": -2.48862, "lat": 43.137032}}, {"id": 3123473, "name": "Empuriabrava", "country": "ES", "coord": {"lon": 3.12059, "lat": 42.24691}}, {"id": 6359635, "name": "Elgorriaga", "country": "ES", "coord": {"lon": -1.69121, "lat": 43.13533}}, {"id": 3123476, "name": "Elgorriaga", "country": "ES", "coord": {"lon": -1.68658, "lat": 43.13858}}, {"id": 6356163, "name": "Figar\u00f3-Montmany", "country": "ES", "coord": {"lon": 2.26919, "lat": 41.720211}}, {"id": 3123491, "name": "Figaro", "country": "ES", "coord": {"lon": 2.27297, "lat": 41.721218}}, {"id": 6358121, "name": "Elduain", "country": "ES", "coord": {"lon": -1.9637, "lat": 43.162479}}, {"id": 3123515, "name": "Elduayen", "country": "ES", "coord": {"lon": -2.00102, "lat": 43.140171}}, {"id": 6355260, "name": "Elciego", "country": "ES", "coord": {"lon": -2.6199, "lat": 42.50293}}, {"id": 3123547, "name": "Elciego", "country": "ES", "coord": {"lon": -2.61897, "lat": 42.51569}}, {"id": 6361491, "name": "El Castellar", "country": "ES", "coord": {"lon": -0.83619, "lat": 40.384521}}, {"id": 3123574, "name": "El Castellar", "country": "ES", "coord": {"lon": -0.81734, "lat": 40.365311}}, {"id": 6361701, "name": "Casar de Escalona (El)", "country": "ES", "coord": {"lon": -4.52315, "lat": 40.056221}}, {"id": 3123579, "name": "El Casar de Escalona", "country": "ES", "coord": {"lon": -4.52507, "lat": 40.046398}}, {"id": 6355633, "name": "Barco de \u00c1vila (El)", "country": "ES", "coord": {"lon": -5.52063, "lat": 40.361801}}, {"id": 3123659, "name": "El Barco de Avila", "country": "ES", "coord": {"lon": -5.52365, "lat": 40.357101}}, {"id": 6362376, "name": "Elantxobe", "country": "ES", "coord": {"lon": -2.63981, "lat": 43.402802}}, {"id": 3123677, "name": "Elantxobe", "country": "ES", "coord": {"lon": -2.63912, "lat": 43.402431}}, {"id": 6359230, "name": "\u00c1lamo (El)", "country": "ES", "coord": {"lon": -3.9873, "lat": 40.232841}}, {"id": 3123682, "name": "El Alamo", "country": "ES", "coord": {"lon": -3.99447, "lat": 40.230659}}, {"id": 6361509, "name": "Ejulve", "country": "ES", "coord": {"lon": -0.56223, "lat": 40.752781}}, {"id": 3123686, "name": "Ejulve", "country": "ES", "coord": {"lon": -0.55344, "lat": 40.776329}}, {"id": 6360361, "name": "Ejeme", "country": "ES", "coord": {"lon": -5.52152, "lat": 40.766769}}, {"id": 3123687, "name": "Ejeme", "country": "ES", "coord": {"lon": -5.53828, "lat": 40.76685}}, {"id": 6359632, "name": "Etxarri-Aranatz", "country": "ES", "coord": {"lon": -2.07573, "lat": 42.932449}}, {"id": 3123738, "name": "Echarri-Aranaz", "country": "ES", "coord": {"lon": -2.06474, "lat": 42.907909}}, {"id": 6359631, "name": "Echarri", "country": "ES", "coord": {"lon": -1.82816, "lat": 42.781139}}, {"id": 3123740, "name": "Echarri", "country": "ES", "coord": {"lon": -1.82525, "lat": 42.78017}}, {"id": 6359630, "name": "Etxalar", "country": "ES", "coord": {"lon": -1.63338, "lat": 43.243481}}, {"id": 3123745, "name": "Etxalar", "country": "ES", "coord": {"lon": -1.63671, "lat": 43.233761}}, {"id": 6361129, "name": "Duruelo de la Sierra", "country": "ES", "coord": {"lon": -2.92531, "lat": 41.966099}}, {"id": 3123765, "name": "Duruelo de la Sierra", "country": "ES", "coord": {"lon": -2.93086, "lat": 41.954479}}, {"id": 6360807, "name": "Duruelo", "country": "ES", "coord": {"lon": -3.64252, "lat": 41.222672}}, {"id": 3123766, "name": "Duruelo", "country": "ES", "coord": {"lon": -3.64914, "lat": 41.236221}}, {"id": 6357891, "name": "Dur\u00f3n", "country": "ES", "coord": {"lon": -2.70553, "lat": 40.634529}}, {"id": 3123770, "name": "Duron", "country": "ES", "coord": {"lon": -2.72662, "lat": 40.625301}}, {"id": 3123779, "name": "Dumbria", "country": "ES", "coord": {"lon": -9.11328, "lat": 43.008362}}, {"id": 6357890, "name": "Driebes", "country": "ES", "coord": {"lon": -3.04132, "lat": 40.244678}}, {"id": 3123793, "name": "Driebes", "country": "ES", "coord": {"lon": -3.04165, "lat": 40.24498}}, {"id": 6360218, "name": "Doz\u00f3n", "country": "ES", "coord": {"lon": -8.0404, "lat": 42.587872}}, {"id": 3123797, "name": "Dozon", "country": "ES", "coord": {"lon": -8.01667, "lat": 42.583328}}, {"id": 6361296, "name": "Duesaig\u00fces", "country": "ES", "coord": {"lon": 0.9255, "lat": 41.162109}}, {"id": 3123808, "name": "Duesaiguees", "country": "ES", "coord": {"lon": 0.93333, "lat": 41.150002}}, {"id": 6355677, "name": "Donvidas", "country": "ES", "coord": {"lon": -4.80263, "lat": 41.080898}}, {"id": 3123828, "name": "Donvidas", "country": "ES", "coord": {"lon": -4.80634, "lat": 41.089539}}, {"id": 6355676, "name": "Donjimeno", "country": "ES", "coord": {"lon": -4.85036, "lat": 40.961971}}, {"id": 3123832, "name": "Donjimeno", "country": "ES", "coord": {"lon": -4.84627, "lat": 40.959782}}, {"id": 6360806, "name": "Donhierro", "country": "ES", "coord": {"lon": -4.69699, "lat": 41.111099}}, {"id": 3123840, "name": "Donhierro", "country": "ES", "coord": {"lon": -4.6967, "lat": 41.116421}}, {"id": 6360805, "name": "Domingo Garc\u00eda", "country": "ES", "coord": {"lon": -4.3935, "lat": 41.120819}}, {"id": 3123856, "name": "Domingo Garcia", "country": "ES", "coord": {"lon": -4.37927, "lat": 41.11528}}, {"id": 6360358, "name": "Dios le Guarde", "country": "ES", "coord": {"lon": -6.31334, "lat": 40.642479}}, {"id": 3123885, "name": "Dios le Guarde", "country": "ES", "coord": {"lon": -6.31511, "lat": 40.64283}}, {"id": 6359628, "name": "Dicastillo", "country": "ES", "coord": {"lon": -2.03535, "lat": 42.56794}}, {"id": 3123894, "name": "Dicastillo", "country": "ES", "coord": {"lon": -2.02666, "lat": 42.596481}}, {"id": 6361128, "name": "Deza", "country": "ES", "coord": {"lon": -2.02108, "lat": 41.48201}}, {"id": 3123897, "name": "Deza", "country": "ES", "coord": {"lon": -2.02046, "lat": 41.46373}}, {"id": 3123910, "name": "Deba", "country": "ES", "coord": {"lon": -2.35213, "lat": 43.295712}}, {"id": 6358612, "name": "Destriana", "country": "ES", "coord": {"lon": -6.09684, "lat": 42.32148}}, {"id": 3123913, "name": "Destriana", "country": "ES", "coord": {"lon": -6.09573, "lat": 42.32729}}, {"id": 6359627, "name": "Desojo", "country": "ES", "coord": {"lon": -2.26766, "lat": 42.58913}}, {"id": 3123916, "name": "Desojo", "country": "ES", "coord": {"lon": -2.27438, "lat": 42.587898}}, {"id": 6356768, "name": "Descargamar\u00eda", "country": "ES", "coord": {"lon": -6.51183, "lat": 40.3032}}, {"id": 3123919, "name": "Descargamaria", "country": "ES", "coord": {"lon": -6.48666, "lat": 40.304459}}, {"id": 3123921, "name": "Derio", "country": "ES", "coord": {"lon": -2.88116, "lat": 43.305439}}, {"id": 6360032, "name": "Dehesa de Romanos", "country": "ES", "coord": {"lon": -4.44307, "lat": 42.63834}}, {"id": 3123941, "name": "Dehesa de Romanos", "country": "ES", "coord": {"lon": -4.43518, "lat": 42.63876}}, {"id": 6360031, "name": "Dehesa de Montejo", "country": "ES", "coord": {"lon": -4.51038, "lat": 42.820229}}, {"id": 3123942, "name": "Dehesa de Montejo", "country": "ES", "coord": {"lon": -4.51019, "lat": 42.819389}}, {"id": 3123960, "name": "Degana", "country": "ES", "coord": {"lon": -6.56935, "lat": 42.93969}}, {"id": 3123966, "name": "Das", "country": "ES", "coord": {"lon": 1.87051, "lat": 42.361431}}, {"id": 6362787, "name": "Daroca", "country": "ES", "coord": {"lon": -1.41436, "lat": 41.114578}}, {"id": 3123969, "name": "Daroca", "country": "ES", "coord": {"lon": -1.41492, "lat": 41.11475}}, {"id": 6534052, "name": "Darnius", "country": "ES", "coord": {"lon": 2.83093, "lat": 42.36845}}, {"id": 3123971, "name": "Darnius", "country": "ES", "coord": {"lon": 2.83333, "lat": 42.366669}}, {"id": 6357302, "name": "Curtis", "country": "ES", "coord": {"lon": -8.04912, "lat": 43.147629}}, {"id": 3124001, "name": "Curtis", "country": "ES", "coord": {"lon": -8.05, "lat": 43.116669}}, {"id": 6362187, "name": "Curiel de Duero", "country": "ES", "coord": {"lon": -4.09074, "lat": 41.645241}}, {"id": 3124014, "name": "Curiel de Duero", "country": "ES", "coord": {"lon": -4.1011, "lat": 41.643269}}, {"id": 6357005, "name": "Culla", "country": "ES", "coord": {"lon": -0.13489, "lat": 40.30611}}, {"id": 3124042, "name": "Culla", "country": "ES", "coord": {"lon": -0.16569, "lat": 40.336498}}, {"id": 6361508, "name": "Cuevas Labradas", "country": "ES", "coord": {"lon": -1.00745, "lat": 40.452999}}, {"id": 3124064, "name": "Cuevas Labradas", "country": "ES", "coord": {"lon": -1.05008, "lat": 40.453499}}, {"id": 6357004, "name": "Coves de Vinrom\u00e0 (les)", "country": "ES", "coord": {"lon": 0.09511, "lat": 40.317471}}, {"id": 3124065, "name": "Cuevas de Vinroma", "country": "ES", "coord": {"lon": 0.12084, "lat": 40.309761}}, {"id": 6356422, "name": "Cuevas de San Clemente", "country": "ES", "coord": {"lon": -3.5808, "lat": 42.13031}}, {"id": 3124068, "name": "Cuevas de San Clemente", "country": "ES", "coord": {"lon": -3.5684, "lat": 42.130089}}, {"id": 6360954, "name": "Cuevas de Provanco", "country": "ES", "coord": {"lon": -3.93553, "lat": 41.539631}}, {"id": 3124069, "name": "Cuevas de Provanco", "country": "ES", "coord": {"lon": -3.96203, "lat": 41.54208}}, {"id": 6355674, "name": "Cuevas del Valle", "country": "ES", "coord": {"lon": -5.02589, "lat": 40.291538}}, {"id": 3124071, "name": "Cuevas del Valle", "country": "ES", "coord": {"lon": -5.00938, "lat": 40.294182}}, {"id": 6361507, "name": "Cuevas de Almud\u00e9n", "country": "ES", "coord": {"lon": -0.81453, "lat": 40.733662}}, {"id": 3124075, "name": "Cuevas de Almuden", "country": "ES", "coord": {"lon": -0.82958, "lat": 40.713421}}, {"id": 6357430, "name": "Cueva del Hierro", "country": "ES", "coord": {"lon": -2.00123, "lat": 40.572601}}, {"id": 3124085, "name": "Cueva del Hierro", "country": "ES", "coord": {"lon": -2.03612, "lat": 40.582581}}, {"id": 6361126, "name": "Cueva de \u00c1greda", "country": "ES", "coord": {"lon": -1.88381, "lat": 41.7593}}, {"id": 3124087, "name": "Cueva de Agreda", "country": "ES", "coord": {"lon": -1.88818, "lat": 41.7631}}, {"id": 6362186, "name": "Cuenca de Campos", "country": "ES", "coord": {"lon": -5.0536, "lat": 42.044601}}, {"id": 3124128, "name": "Cuenca de Campos", "country": "ES", "coord": {"lon": -5.05538, "lat": 42.059269}}, {"id": 3124136, "name": "Cuellar", "country": "ES", "coord": {"lon": -4.31474, "lat": 41.40155}}, {"id": 6362503, "name": "Cuelgamures", "country": "ES", "coord": {"lon": -5.66062, "lat": 41.299149}}, {"id": 3124139, "name": "Cuelgamures", "country": "ES", "coord": {"lon": -5.65769, "lat": 41.307381}}, {"id": 6361505, "name": "Cucal\u00f3n", "country": "ES", "coord": {"lon": -1.191, "lat": 41.078602}}, {"id": 3124150, "name": "Cucalon", "country": "ES", "coord": {"lon": -1.21475, "lat": 41.086079}}, {"id": 6361125, "name": "Cubo de la Solana", "country": "ES", "coord": {"lon": -2.471, "lat": 41.6087}}, {"id": 3124152, "name": "Cubo de la Solana", "country": "ES", "coord": {"lon": -2.42179, "lat": 41.602242}}, {"id": 6356420, "name": "Cubo de Bureba", "country": "ES", "coord": {"lon": -3.20694, "lat": 42.638241}}, {"id": 3124155, "name": "Cubo de Bureba", "country": "ES", "coord": {"lon": -3.20626, "lat": 42.64011}}, {"id": 6362501, "name": "Cubo de Benavente", "country": "ES", "coord": {"lon": -6.15836, "lat": 42.13052}}, {"id": 3124156, "name": "Cubo de Benavente", "country": "ES", "coord": {"lon": -6.16342, "lat": 42.124901}}, {"id": 6361504, "name": "Cubla", "country": "ES", "coord": {"lon": -1.05957, "lat": 40.21558}}, {"id": 3124161, "name": "Cubla", "country": "ES", "coord": {"lon": -1.07917, "lat": 40.209782}}, {"id": 6362500, "name": "Cubillos", "country": "ES", "coord": {"lon": -5.74686, "lat": 41.584679}}, {"id": 3124166, "name": "Cubillos", "country": "ES", "coord": {"lon": -5.7392, "lat": 41.57436}}, {"id": 6360802, "name": "Cubillo", "country": "ES", "coord": {"lon": -3.91645, "lat": 41.107819}}, {"id": 3124178, "name": "Cubillo", "country": "ES", "coord": {"lon": -3.90878, "lat": 41.12138}}, {"id": 6362185, "name": "Cubillas de Santa Marta", "country": "ES", "coord": {"lon": -4.60306, "lat": 41.818111}}, {"id": 3124184, "name": "Cubillas de Santa Marta", "country": "ES", "coord": {"lon": -4.61463, "lat": 41.83358}}, {"id": 6358609, "name": "Cubillas de Rueda", "country": "ES", "coord": {"lon": -5.15518, "lat": 42.655979}}, {"id": 3124185, "name": "Cubillas de Rueda", "country": "ES", "coord": {"lon": -5.17528, "lat": 42.656261}}, {"id": 6358608, "name": "Cubillas de los Oteros", "country": "ES", "coord": {"lon": -5.50763, "lat": 42.380611}}, {"id": 3124187, "name": "Cubillas de los Oteros", "country": "ES", "coord": {"lon": -5.50877, "lat": 42.37199}}, {"id": 6360030, "name": "Cubillas de Cerrato", "country": "ES", "coord": {"lon": -4.46184, "lat": 41.79525}}, {"id": 3124188, "name": "Cubillas de Cerrato", "country": "ES", "coord": {"lon": -4.4672, "lat": 41.798439}}, {"id": 6361124, "name": "Cubilla", "country": "ES", "coord": {"lon": -2.94077, "lat": 41.734741}}, {"id": 3124194, "name": "Cubilla", "country": "ES", "coord": {"lon": -2.93717, "lat": 41.74905}}, {"id": 6358833, "name": "Cubells", "country": "ES", "coord": {"lon": 0.95383, "lat": 41.826981}}, {"id": 3124200, "name": "Cubells", "country": "ES", "coord": {"lon": 0.959, "lat": 41.85062}}, {"id": 6356106, "name": "Cubelles", "country": "ES", "coord": {"lon": 1.66992, "lat": 41.20668}}, {"id": 3124201, "name": "Cubelles", "country": "ES", "coord": {"lon": 1.67267, "lat": 41.207722}}, {"id": 3124205, "name": "Cubel", "country": "ES", "coord": {"lon": -1.6373, "lat": 41.096039}}, {"id": 3124215, "name": "Cuarte de Huerva", "country": "ES", "coord": {"lon": -0.93268, "lat": 41.594662}}, {"id": 3124221, "name": "Cuadros", "country": "ES", "coord": {"lon": -5.63828, "lat": 42.711632}}, {"id": 6361502, "name": "Crivill\u00e9n", "country": "ES", "coord": {"lon": -0.57944, "lat": 40.900249}}, {"id": 3124261, "name": "Crivillen", "country": "ES", "coord": {"lon": -0.57666, "lat": 40.883251}}, {"id": 6363000, "name": "Crist\u00f3bal", "country": "ES", "coord": {"lon": -5.90022, "lat": 40.468128}}, {"id": 3124264, "name": "Cristobal", "country": "ES", "coord": {"lon": -5.88967, "lat": 40.469231}}, {"id": 6355673, "name": "Crespos", "country": "ES", "coord": {"lon": -4.96848, "lat": 40.863499}}, {"id": 3124279, "name": "Crespos", "country": "ES", "coord": {"lon": -4.97094, "lat": 40.871281}}, {"id": 6534050, "name": "Crespi\u00e0", "country": "ES", "coord": {"lon": 2.80413, "lat": 42.196362}}, {"id": 3124280, "name": "Crespia", "country": "ES", "coord": {"lon": 2.8, "lat": 42.183331}}, {"id": 6358606, "name": "Cr\u00e9menes", "country": "ES", "coord": {"lon": -5.12372, "lat": 42.929642}}, {"id": 3124283, "name": "Cremenes", "country": "ES", "coord": {"lon": -5.14374, "lat": 42.903568}}, {"id": 6361293, "name": "Creixell", "country": "ES", "coord": {"lon": 1.43177, "lat": 41.184601}}, {"id": 3124285, "name": "Creixell", "country": "ES", "coord": {"lon": 1.44032, "lat": 41.16618}}, {"id": 6360951, "name": "Cozuelos de Fuentidue\u00f1a", "country": "ES", "coord": {"lon": -4.08487, "lat": 41.398281}}, {"id": 3124290, "name": "Cozuelos de Fuentiduena", "country": "ES", "coord": {"lon": -4.09564, "lat": 41.390862}}, {"id": 6360215, "name": "Covelo", "country": "ES", "coord": {"lon": -8.34425, "lat": 42.271252}}, {"id": 3124297, "name": "Covelo", "country": "ES", "coord": {"lon": -8.35, "lat": 42.23333}}, {"id": 6356418, "name": "Covarrubias", "country": "ES", "coord": {"lon": -3.54963, "lat": 42.036839}}, {"id": 3124312, "name": "Covarrubias", "country": "ES", "coord": {"lon": -3.51956, "lat": 42.059261}}, {"id": 6361123, "name": "Covaleda", "country": "ES", "coord": {"lon": -2.87017, "lat": 41.950668}}, {"id": 3124316, "name": "Covaleda", "country": "ES", "coord": {"lon": -2.88325, "lat": 41.934929}}, {"id": 6362781, "name": "Cosuenda", "country": "ES", "coord": {"lon": -1.31159, "lat": 41.361938}}, {"id": 3124391, "name": "Cosuenda", "country": "ES", "coord": {"lon": -1.29867, "lat": 41.365582}}, {"id": 6357003, "name": "Costur", "country": "ES", "coord": {"lon": -0.15656, "lat": 40.12989}}, {"id": 3124392, "name": "Costur", "country": "ES", "coord": {"lon": -0.17385, "lat": 40.119709}}, {"id": 6361122, "name": "Coscurita", "country": "ES", "coord": {"lon": -2.47827, "lat": 41.43996}}, {"id": 3124410, "name": "Coscurita", "country": "ES", "coord": {"lon": -2.47571, "lat": 41.43483}}, {"id": 6361500, "name": "Cosa", "country": "ES", "coord": {"lon": -1.1256, "lat": 40.80402}}, {"id": 3124418, "name": "Cosa", "country": "ES", "coord": {"lon": -1.1365, "lat": 40.83392}}, {"id": 3124439, "name": "Coruna del Conde", "country": "ES", "coord": {"lon": -3.39059, "lat": 41.765659}}, {"id": 6362441, "name": "Kortezubi", "country": "ES", "coord": {"lon": -2.64298, "lat": 43.333351}}, {"id": 3124462, "name": "Kortezubi", "country": "ES", "coord": {"lon": -2.65, "lat": 43.333328}}, {"id": 6357002, "name": "Cortes de Arenoso", "country": "ES", "coord": {"lon": -0.53321, "lat": 40.160149}}, {"id": 3124465, "name": "Cortes de Arenoso", "country": "ES", "coord": {"lon": -0.54195, "lat": 40.188122}}, {"id": 6361499, "name": "Cortes de Arag\u00f3n", "country": "ES", "coord": {"lon": -0.8172, "lat": 40.982201}}, {"id": 3124466, "name": "Cortes de Aragon", "country": "ES", "coord": {"lon": -0.83575, "lat": 40.97366}}, {"id": 6359626, "name": "Cortes", "country": "ES", "coord": {"lon": -1.43961, "lat": 41.939461}}, {"id": 3124473, "name": "Cortes", "country": "ES", "coord": {"lon": -1.42045, "lat": 41.922691}}, {"id": 3124480, "name": "Cortegada", "country": "ES", "coord": {"lon": -8.1682, "lat": 42.209831}}, {"id": 3124487, "name": "Corca", "country": "ES", "coord": {"lon": 3.01667, "lat": 41.98333}}, {"id": 6362184, "name": "Corrales de Duero", "country": "ES", "coord": {"lon": -4.05796, "lat": 41.677189}}, {"id": 3124515, "name": "Corrales de Duero", "country": "ES", "coord": {"lon": -4.04817, "lat": 41.67205}}, {"id": 6362498, "name": "Corrales", "country": "ES", "coord": {"lon": -5.7243, "lat": 41.320919}}, {"id": 3124519, "name": "Corrales", "country": "ES", "coord": {"lon": -5.72479, "lat": 41.358002}}, {"id": 6360801, "name": "Corral de Ayll\u00f3n", "country": "ES", "coord": {"lon": -3.45316, "lat": 41.38998}}, {"id": 3124525, "name": "Corral de Ayllon", "country": "ES", "coord": {"lon": -3.45856, "lat": 41.3908}}, {"id": 6359274, "name": "Corpa", "country": "ES", "coord": {"lon": -3.2505, "lat": 40.424709}}, {"id": 3124533, "name": "Corpa", "country": "ES", "coord": {"lon": -3.26003, "lat": 40.423271}}, {"id": 3124568, "name": "Cornella del Terri", "country": "ES", "coord": {"lon": 2.81667, "lat": 42.083328}}, {"id": 6359044, "name": "Cornago", "country": "ES", "coord": {"lon": -2.10273, "lat": 42.066441}}, {"id": 3124582, "name": "Cornago", "country": "ES", "coord": {"lon": -2.09486, "lat": 42.064442}}, {"id": 3124594, "name": "Corgo", "country": "ES", "coord": {"lon": -7.4314, "lat": 42.94434}}, {"id": 6362497, "name": "Coreses", "country": "ES", "coord": {"lon": -5.60881, "lat": 41.538639}}, {"id": 3124595, "name": "Coreses", "country": "ES", "coord": {"lon": -5.62252, "lat": 41.547939}}, {"id": 6359043, "name": "Corera", "country": "ES", "coord": {"lon": -2.21456, "lat": 42.35408}}, {"id": 3124599, "name": "Corera", "country": "ES", "coord": {"lon": -2.22023, "lat": 42.343441}}, {"id": 6359625, "name": "Corella", "country": "ES", "coord": {"lon": -1.79225, "lat": 42.104301}}, {"id": 3124600, "name": "Corella", "country": "ES", "coord": {"lon": -1.78563, "lat": 42.11507}}, {"id": 6357884, "name": "Corduente", "country": "ES", "coord": {"lon": -2.02726, "lat": 40.8293}}, {"id": 3124602, "name": "Corduente", "country": "ES", "coord": {"lon": -1.97841, "lat": 40.84304}}, {"id": 6359042, "name": "Cordov\u00edn", "country": "ES", "coord": {"lon": -2.80854, "lat": 42.38839}}, {"id": 3124605, "name": "Cordovin", "country": "ES", "coord": {"lon": -2.815, "lat": 42.385571}}, {"id": 6360029, "name": "Cordovilla la Real", "country": "ES", "coord": {"lon": -4.23221, "lat": 42.09745}}, {"id": 3124606, "name": "Cordovilla la Real", "country": "ES", "coord": {"lon": -4.25988, "lat": 42.079609}}, {"id": 6360355, "name": "Cordovilla", "country": "ES", "coord": {"lon": -5.41231, "lat": 40.939308}}, {"id": 3124608, "name": "Cordovilla", "country": "ES", "coord": {"lon": -5.40725, "lat": 40.950951}}, {"id": 6357298, "name": "Corcubi\u00f3n", "country": "ES", "coord": {"lon": -9.19733, "lat": 42.927799}}, {"id": 3124614, "name": "Corcubion", "country": "ES", "coord": {"lon": -9.1926, "lat": 42.944141}}, {"id": 6362183, "name": "Corcos", "country": "ES", "coord": {"lon": -4.66379, "lat": 41.793678}}, {"id": 3124617, "name": "Corcos", "country": "ES", "coord": {"lon": -4.6927, "lat": 41.80946}}, {"id": 3124624, "name": "Corbins", "country": "ES", "coord": {"lon": 0.7, "lat": 41.683331}}, {"id": 6358604, "name": "Corbillos de los Oteros", "country": "ES", "coord": {"lon": -5.46428, "lat": 42.419441}}, {"id": 3124625, "name": "Corbillos de los Oteros", "country": "ES", "coord": {"lon": -5.45964, "lat": 42.407688}}, {"id": 6356104, "name": "Corbera de Llobregat", "country": "ES", "coord": {"lon": 1.9346, "lat": 41.426121}}, {"id": 3124628, "name": "Corbera de Llobregat", "country": "ES", "coord": {"lon": 1.9197, "lat": 41.417019}}, {"id": 6361498, "name": "Corbal\u00e1n", "country": "ES", "coord": {"lon": -0.97256, "lat": 40.410591}}, {"id": 3124635, "name": "Corbalan", "country": "ES", "coord": {"lon": -0.98525, "lat": 40.40308}}, {"id": 6357883, "name": "Copernal", "country": "ES", "coord": {"lon": -3.05039, "lat": 40.873821}}, {"id": 3124644, "name": "Copernal", "country": "ES", "coord": {"lon": -3.05396, "lat": 40.864632}}, {"id": 6362496, "name": "Coomonte", "country": "ES", "coord": {"lon": -5.81778, "lat": 42.109909}}, {"id": 3124645, "name": "Coomonte", "country": "ES", "coord": {"lon": -5.81316, "lat": 42.115459}}, {"id": 6356416, "name": "Contreras", "country": "ES", "coord": {"lon": -3.43392, "lat": 42.028042}}, {"id": 3124649, "name": "Contreras", "country": "ES", "coord": {"lon": -3.41084, "lat": 42.020039}}, {"id": 6362780, "name": "Contamina", "country": "ES", "coord": {"lon": -1.92991, "lat": 41.261318}}, {"id": 3124657, "name": "Contamina", "country": "ES", "coord": {"lon": -1.91731, "lat": 41.305351}}, {"id": 6355672, "name": "Constanzana", "country": "ES", "coord": {"lon": -4.88176, "lat": 40.929939}}, {"id": 3124659, "name": "Constanzana", "country": "ES", "coord": {"lon": -4.87515, "lat": 40.93821}}, {"id": 6357882, "name": "Congostrina", "country": "ES", "coord": {"lon": -2.97362, "lat": 41.047619}}, {"id": 3124672, "name": "Congostrina", "country": "ES", "coord": {"lon": -2.98569, "lat": 41.037189}}, {"id": 6360028, "name": "Congosto de Valdavia", "country": "ES", "coord": {"lon": -4.65829, "lat": 42.710442}}, {"id": 3124673, "name": "Congosto de Valdavia", "country": "ES", "coord": {"lon": -4.63366, "lat": 42.715839}}, {"id": 3124675, "name": "Congosto", "country": "ES", "coord": {"lon": -6.52048, "lat": 42.61755}}, {"id": 6361289, "name": "Conesa", "country": "ES", "coord": {"lon": 1.28158, "lat": 41.5168}}, {"id": 3124685, "name": "Conesa", "country": "ES", "coord": {"lon": 1.3, "lat": 41.51667}}, {"id": 6357881, "name": "Condemios de Arriba", "country": "ES", "coord": {"lon": -3.10077, "lat": 41.187462}}, {"id": 3124693, "name": "Condemios de Arriba", "country": "ES", "coord": {"lon": -3.12543, "lat": 41.216438}}, {"id": 6357880, "name": "Condemios de Abajo", "country": "ES", "coord": {"lon": -3.10252, "lat": 41.21146}}, {"id": 3124694, "name": "Condemios de Abajo", "country": "ES", "coord": {"lon": -3.1, "lat": 41.216671}}, {"id": 3124736, "name": "Combarro", "country": "ES", "coord": {"lon": -8.70649, "lat": 42.431881}}, {"id": 6358331, "name": "Colungo", "country": "ES", "coord": {"lon": 0.0652, "lat": 42.19067}}, {"id": 3124749, "name": "Colungo", "country": "ES", "coord": {"lon": 0.06812, "lat": 42.171249}}, {"id": 6534047, "name": "Colomers", "country": "ES", "coord": {"lon": 2.98529, "lat": 42.085098}}, {"id": 3124760, "name": "Colomers", "country": "ES", "coord": {"lon": 2.98333, "lat": 42.083328}}, {"id": 6359270, "name": "Colmenarejo", "country": "ES", "coord": {"lon": -4.0161, "lat": 40.530251}}, {"id": 3124768, "name": "Colmenarejo", "country": "ES", "coord": {"lon": -4.01713, "lat": 40.560631}}, {"id": 3124770, "name": "Colmenar de Montemayor", "country": "ES", "coord": {"lon": -5.95618, "lat": 40.39957}}, {"id": 3124772, "name": "Colmenar del Arroyo", "country": "ES", "coord": {"lon": -4.19845, "lat": 40.418968}}, {"id": 6356102, "name": "Collsuspina", "country": "ES", "coord": {"lon": 2.17306, "lat": 41.824928}}, {"id": 3124775, "name": "Collsuspina", "country": "ES", "coord": {"lon": 2.17546, "lat": 41.825802}}, {"id": 3124783, "name": "Coll de Nargo", "country": "ES", "coord": {"lon": 1.31694, "lat": 42.174728}}, {"id": 6361288, "name": "Colldejou", "country": "ES", "coord": {"lon": 0.88457, "lat": 41.099018}}, {"id": 3124784, "name": "Colldejou", "country": "ES", "coord": {"lon": 0.88717, "lat": 41.099701}}, {"id": 3124786, "name": "Collbato", "country": "ES", "coord": {"lon": 1.82712, "lat": 41.570091}}, {"id": 6360027, "name": "Collazos de Boedo", "country": "ES", "coord": {"lon": -4.48965, "lat": 42.636551}}, {"id": 3124787, "name": "Collazos de Boedo", "country": "ES", "coord": {"lon": -4.48294, "lat": 42.62009}}, {"id": 6360799, "name": "Collado Hermoso", "country": "ES", "coord": {"lon": -3.90678, "lat": 41.021912}}, {"id": 3124799, "name": "Collado Hermoso", "country": "ES", "coord": {"lon": -3.9186, "lat": 41.038689}}, {"id": 6355671, "name": "Collado del Mir\u00f3n", "country": "ES", "coord": {"lon": -5.36141, "lat": 40.552921}}, {"id": 3124800, "name": "Collado del Miron", "country": "ES", "coord": {"lon": -5.35398, "lat": 40.55307}}, {"id": 6355670, "name": "Collado de Contreras", "country": "ES", "coord": {"lon": -4.92872, "lat": 40.883221}}, {"id": 3124802, "name": "Collado de Contreras", "country": "ES", "coord": {"lon": -4.9314, "lat": 40.887428}}, {"id": 6356762, "name": "Collado", "country": "ES", "coord": {"lon": -5.68148, "lat": 40.0359}}, {"id": 3124810, "name": "Collado", "country": "ES", "coord": {"lon": -5.72052, "lat": 40.057289}}, {"id": 6360670, "name": "Colindres", "country": "ES", "coord": {"lon": -3.43533, "lat": 43.386391}}, {"id": 3124821, "name": "Colindres", "country": "ES", "coord": {"lon": -3.45361, "lat": 43.396671}}, {"id": 6534046, "name": "Colera", "country": "ES", "coord": {"lon": 3.15557, "lat": 42.404671}}, {"id": 3124829, "name": "Colera", "country": "ES", "coord": {"lon": 3.15153, "lat": 42.403938}}, {"id": 6357297, "name": "Coir\u00f3s", "country": "ES", "coord": {"lon": -8.15188, "lat": 43.25412}}, {"id": 3124837, "name": "Coiros", "country": "ES", "coord": {"lon": -8.16667, "lat": 43.25}}, {"id": 6358830, "name": "el Cogul", "country": "ES", "coord": {"lon": 0.69778, "lat": 41.452419}}, {"id": 3124847, "name": "el Cogul", "country": "ES", "coord": {"lon": 0.68333, "lat": 41.466671}}, {"id": 3124852, "name": "Cogollos", "country": "ES", "coord": {"lon": -3.70005, "lat": 42.199821}}, {"id": 6357878, "name": "Cogollor", "country": "ES", "coord": {"lon": -2.73748, "lat": 40.845058}}, {"id": 3124853, "name": "Cogollor", "country": "ES", "coord": {"lon": -2.74426, "lat": 40.848179}}, {"id": 6362182, "name": "Cogeces del Monte", "country": "ES", "coord": {"lon": -4.33446, "lat": 41.54245}}, {"id": 3124857, "name": "Cogeces del Monte", "country": "ES", "coord": {"lon": -4.3172, "lat": 41.5103}}, {"id": 6362779, "name": "Codos", "country": "ES", "coord": {"lon": -1.35798, "lat": 41.285221}}, {"id": 3124874, "name": "Codos", "country": "ES", "coord": {"lon": -1.37425, "lat": 41.29266}}, {"id": 6360798, "name": "Codorniz", "country": "ES", "coord": {"lon": -4.60865, "lat": 41.06007}}, {"id": 3124875, "name": "Codorniz", "country": "ES", "coord": {"lon": -4.60021, "lat": 41.067451}}, {"id": 6360353, "name": "Coca de Alba", "country": "ES", "coord": {"lon": -5.35792, "lat": 40.87888}}, {"id": 3124894, "name": "Coca de Alba", "country": "ES", "coord": {"lon": -5.36537, "lat": 40.87833}}, {"id": 6362495, "name": "Cobreros", "country": "ES", "coord": {"lon": -6.68131, "lat": 42.071789}}, {"id": 3124898, "name": "Cobreros", "country": "ES", "coord": {"lon": -6.70302, "lat": 42.07452}}, {"id": 6360796, "name": "Cobos de Fuentidue\u00f1a", "country": "ES", "coord": {"lon": -3.91958, "lat": 41.386089}}, {"id": 3124903, "name": "Cobos de Fuentiduena", "country": "ES", "coord": {"lon": -3.92723, "lat": 41.382648}}, {"id": 6360026, "name": "Cobos de Cerrato", "country": "ES", "coord": {"lon": -4.03683, "lat": 42.01202}}, {"id": 3124904, "name": "Cobos de Cerrato", "country": "ES", "coord": {"lon": -4.00251, "lat": 42.02808}}, {"id": 6357877, "name": "Cobeta", "country": "ES", "coord": {"lon": -2.13669, "lat": 40.880692}}, {"id": 3124908, "name": "Cobeta", "country": "ES", "coord": {"lon": -2.14211, "lat": 40.865601}}, {"id": 6359267, "name": "Cobe\u00f1a", "country": "ES", "coord": {"lon": -3.50784, "lat": 40.57299}}, {"id": 3124911, "name": "Cobena", "country": "ES", "coord": {"lon": -3.5, "lat": 40.566669}}, {"id": 6361711, "name": "Cobeja", "country": "ES", "coord": {"lon": -3.84905, "lat": 40.009579}}, {"id": 3124914, "name": "Cobeja", "country": "ES", "coord": {"lon": -3.85599, "lat": 40.02076}}, {"id": 6362777, "name": "Clar\u00e9s de Ribota", "country": "ES", "coord": {"lon": -1.83743, "lat": 41.534161}}, {"id": 3124940, "name": "Clares de Ribota", "country": "ES", "coord": {"lon": -1.83773, "lat": 41.529572}}, {"id": 6358118, "name": "Zizurkil", "country": "ES", "coord": {"lon": -2.07748, "lat": 43.213219}}, {"id": 3124953, "name": "Zizurkil", "country": "ES", "coord": {"lon": -2.0742, "lat": 43.199169}}, {"id": 6359818, "name": "Zizur Mayor/Zizur Nagusia", "country": "ES", "coord": {"lon": -1.6923, "lat": 42.7925}}, {"id": 3124955, "name": "Cizur Mayor", "country": "ES", "coord": {"lon": -1.69065, "lat": 42.787949}}, {"id": 6358828, "name": "Ciutadilla", "country": "ES", "coord": {"lon": 1.15462, "lat": 41.537849}}, {"id": 3124959, "name": "Ciutadilla", "country": "ES", "coord": {"lon": 1.13935, "lat": 41.561131}}, {"id": 6534149, "name": "Siurana", "country": "ES", "coord": {"lon": 2.99463, "lat": 42.208431}}, {"id": 3124962, "name": "Siurana", "country": "ES", "coord": {"lon": 2.99392, "lat": 42.20916}}, {"id": 6534045, "name": "Cistella", "country": "ES", "coord": {"lon": 2.84868, "lat": 42.268391}}, {"id": 3124972, "name": "Cistella", "country": "ES", "coord": {"lon": 2.8478, "lat": 42.2687}}, {"id": 6360025, "name": "Cisneros", "country": "ES", "coord": {"lon": -4.85607, "lat": 42.214191}}, {"id": 3124974, "name": "Cisneros", "country": "ES", "coord": {"lon": -4.85807, "lat": 42.220459}}, {"id": 6355668, "name": "Cisla", "country": "ES", "coord": {"lon": -5.01561, "lat": 40.969372}}, {"id": 3124975, "name": "Cisla", "country": "ES", "coord": {"lon": -5.01406, "lat": 40.966621}}, {"id": 6361121, "name": "Cirujales del R\u00edo", "country": "ES", "coord": {"lon": -2.3251, "lat": 41.86882}}, {"id": 3124977, "name": "Cirujales del Rio", "country": "ES", "coord": {"lon": -2.32549, "lat": 41.866909}}, {"id": 6359040, "name": "Cirue\u00f1a", "country": "ES", "coord": {"lon": -2.87766, "lat": 42.4245}}, {"id": 3124980, "name": "Ciruena", "country": "ES", "coord": {"lon": -2.89593, "lat": 42.41214}}, {"id": 6356414, "name": "Ciruelos de Cervera", "country": "ES", "coord": {"lon": -3.52673, "lat": 41.924351}}, {"id": 3124982, "name": "Ciruelos de Cervera", "country": "ES", "coord": {"lon": -3.53015, "lat": 41.905621}}, {"id": 6357875, "name": "Ciruelas", "country": "ES", "coord": {"lon": -3.10063, "lat": 40.752022}}, {"id": 3124988, "name": "Ciruelas", "country": "ES", "coord": {"lon": -3.0858, "lat": 40.75021}}, {"id": 6359623, "name": "Ciriza", "country": "ES", "coord": {"lon": -1.82342, "lat": 42.79155}}, {"id": 3124991, "name": "Ciriza", "country": "ES", "coord": {"lon": -1.82822, "lat": 42.790192}}, {"id": 6361120, "name": "Ciria", "country": "ES", "coord": {"lon": -1.95677, "lat": 41.635151}}, {"id": 3124997, "name": "Ciria", "country": "ES", "coord": {"lon": -1.96578, "lat": 41.618309}}, {"id": 6359622, "name": "Cirauqui", "country": "ES", "coord": {"lon": -1.89811, "lat": 42.661549}}, {"id": 3125001, "name": "Cirauqui", "country": "ES", "coord": {"lon": -1.89115, "lat": 42.675961}}, {"id": 6357001, "name": "Cirat", "country": "ES", "coord": {"lon": -0.45596, "lat": 40.05167}}, {"id": 3125002, "name": "Cirat", "country": "ES", "coord": {"lon": -0.45, "lat": 40.049999}}, {"id": 6360351, "name": "Cip\u00e9rez", "country": "ES", "coord": {"lon": -6.24301, "lat": 40.970909}}, {"id": 3125006, "name": "Ciperez", "country": "ES", "coord": {"lon": -6.26552, "lat": 40.962101}}, {"id": 6359621, "name": "Ziordia", "country": "ES", "coord": {"lon": -2.22834, "lat": 42.8703}}, {"id": 3125007, "name": "Ziordia", "country": "ES", "coord": {"lon": -2.22954, "lat": 42.870682}}, {"id": 6359620, "name": "Cintru\u00e9nigo", "country": "ES", "coord": {"lon": -1.8088, "lat": 42.07769}}, {"id": 3125009, "name": "Cintruenigo", "country": "ES", "coord": {"lon": -1.80458, "lat": 42.079369}}, {"id": 3125016, "name": "Cinctorres", "country": "ES", "coord": {"lon": -0.21667, "lat": 40.583328}}, {"id": 6357874, "name": "Cincovillas", "country": "ES", "coord": {"lon": -2.81807, "lat": 41.195438}}, {"id": 6362776, "name": "Cinco Olivas", "country": "ES", "coord": {"lon": -0.36803, "lat": 41.338959}}, {"id": 3125020, "name": "Cinco Olivas", "country": "ES", "coord": {"lon": -0.37116, "lat": 41.339661}}, {"id": 6362775, "name": "Cimballa", "country": "ES", "coord": {"lon": -1.76401, "lat": 41.089581}}, {"id": 3125024, "name": "Cimballa", "country": "ES", "coord": {"lon": -1.77352, "lat": 41.101181}}, {"id": 6358601, "name": "Cimanes del Tejar", "country": "ES", "coord": {"lon": -5.78861, "lat": 42.601669}}, {"id": 3125025, "name": "Cimanes del Tejar", "country": "ES", "coord": {"lon": -5.80506, "lat": 42.617889}}, {"id": 6358600, "name": "Cimanes de la Vega", "country": "ES", "coord": {"lon": -5.60804, "lat": 42.104691}}, {"id": 3125026, "name": "Cimanes de la Vega", "country": "ES", "coord": {"lon": -5.59852, "lat": 42.116459}}, {"id": 6360795, "name": "Cilleruelo de San Mam\u00e9s", "country": "ES", "coord": {"lon": -3.58893, "lat": 41.440559}}, {"id": 3125039, "name": "Cilleruelo de San Mames", "country": "ES", "coord": {"lon": -3.56614, "lat": 41.432201}},