[{"id": 2778636, "name": "Gersdorf an der Feistritz", "country": "AT", "coord": {"lon": 15.85, "lat": 47.166672}}, {"id": 7871880, "name": "Gerersdorf", "country": "AT", "coord": {"lon": 15.55375, "lat": 48.194901}}, {"id": 2778682, "name": "Gerersdorf", "country": "AT", "coord": {"lon": 15.55, "lat": 48.183331}}, {"id": 7871946, "name": "Gerasdorf bei Wien", "country": "AT", "coord": {"lon": 16.475571, "lat": 48.314281}}, {"id": 2778690, "name": "Gerasdorf bei Wien", "country": "AT", "coord": {"lon": 16.467649, "lat": 48.294472}}, {"id": 7871776, "name": "Geras", "country": "AT", "coord": {"lon": 15.66489, "lat": 48.780998}}, {"id": 2778691, "name": "Geras", "country": "AT", "coord": {"lon": 15.67268, "lat": 48.797249}}, {"id": 7873542, "name": "Geistthal", "country": "AT", "coord": {"lon": 15.15067, "lat": 47.163712}}, {"id": 2778718, "name": "Geistthal", "country": "AT", "coord": {"lon": 15.16667, "lat": 47.166672}}, {"id": 7872914, "name": "Gedersdorf", "country": "AT", "coord": {"lon": 15.69746, "lat": 48.41119}}, {"id": 2778763, "name": "Gedersdorf", "country": "AT", "coord": {"lon": 15.68865, "lat": 48.433189}}, {"id": 7871839, "name": "Gaweinstal", "country": "AT", "coord": {"lon": 16.59613, "lat": 48.49707}}, {"id": 2778772, "name": "Gaweinstal", "country": "AT", "coord": {"lon": 16.58333, "lat": 48.466671}}, {"id": 7872956, "name": "Gaubitsch", "country": "AT", "coord": {"lon": 16.380079, "lat": 48.65955}}, {"id": 2778785, "name": "Gaubitsch", "country": "AT", "coord": {"lon": 16.383329, "lat": 48.650002}}, {"id": 7872715, "name": "Gattendorf", "country": "AT", "coord": {"lon": 16.983549, "lat": 48.009029}}, {"id": 2778794, "name": "Gattendorf", "country": "AT", "coord": {"lon": 16.98333, "lat": 48.01667}}, {"id": 7873044, "name": "Gastern", "country": "AT", "coord": {"lon": 15.21793, "lat": 48.894138}}, {"id": 2778805, "name": "Gastern", "country": "AT", "coord": {"lon": 15.22027, "lat": 48.894459}}, {"id": 7872507, "name": "Gasen", "country": "AT", "coord": {"lon": 15.57722, "lat": 47.38377}}, {"id": 2778832, "name": "Gasen", "country": "AT", "coord": {"lon": 15.56667, "lat": 47.383331}}, {"id": 7872142, "name": "Garsten", "country": "AT", "coord": {"lon": 14.40349, "lat": 47.998711}}, {"id": 2778843, "name": "Garsten", "country": "AT", "coord": {"lon": 14.40747, "lat": 48.0224}}, {"id": 7871775, "name": "Gars am Kamp", "country": "AT", "coord": {"lon": 15.65692, "lat": 48.59462}}, {"id": 2778845, "name": "Gars am Kamp", "country": "AT", "coord": {"lon": 15.65, "lat": 48.583328}}, {"id": 7873350, "name": "Garanas", "country": "AT", "coord": {"lon": 15.0721, "lat": 46.7836}}, {"id": 2778864, "name": "Garanas", "country": "AT", "coord": {"lon": 15.11667, "lat": 46.76667}}, {"id": 7873349, "name": "Bad Gams", "country": "AT", "coord": {"lon": 15.18144, "lat": 46.875641}}, {"id": 2778897, "name": "Bad Gams", "country": "AT", "coord": {"lon": 15.22472, "lat": 46.871109}}, {"id": 7873492, "name": "Gams bei Hieflau", "country": "AT", "coord": {"lon": 14.83777, "lat": 47.661331}}, {"id": 2778926, "name": "Gams bei Hieflau", "country": "AT", "coord": {"lon": 14.78333, "lat": 47.666672}}, {"id": 7873258, "name": "Gampern", "country": "AT", "coord": {"lon": 13.5526, "lat": 47.997478}}, {"id": 2778929, "name": "Gampern", "country": "AT", "coord": {"lon": 13.55927, "lat": 47.98745}}, {"id": 7872400, "name": "Gamlitz", "country": "AT", "coord": {"lon": 15.52799, "lat": 46.710312}}, {"id": 2778945, "name": "Gamlitz", "country": "AT", "coord": {"lon": 15.55333, "lat": 46.72028}}, {"id": 7872577, "name": "Galt\u00fcr", "country": "AT", "coord": {"lon": 10.17996, "lat": 46.922279}}, {"id": 2778953, "name": "Galtur", "country": "AT", "coord": {"lon": 10.18333, "lat": 46.966671}}, {"id": 7872628, "name": "Gallzein", "country": "AT", "coord": {"lon": 11.76925, "lat": 47.35548}}, {"id": 2778961, "name": "Gallzein", "country": "AT", "coord": {"lon": 11.76667, "lat": 47.366669}}, {"id": 7873236, "name": "Gallneukirchen", "country": "AT", "coord": {"lon": 14.41269, "lat": 48.354309}}, {"id": 2778966, "name": "Gallneukirchen", "country": "AT", "coord": {"lon": 14.41604, "lat": 48.35363}}, {"id": 7873541, "name": "Gallmannsegg", "country": "AT", "coord": {"lon": 15.08686, "lat": 47.185169}}, {"id": 2778967, "name": "Gallmannsegg", "country": "AT", "coord": {"lon": 15.06667, "lat": 47.183331}}, {"id": 7871674, "name": "Gallizien", "country": "AT", "coord": {"lon": 14.50446, "lat": 46.5471}}, {"id": 2778968, "name": "Gallizien", "country": "AT", "coord": {"lon": 14.51667, "lat": 46.549999}}, {"id": 7872658, "name": "Gai\u00dfau", "country": "AT", "coord": {"lon": 9.58646, "lat": 47.484741}}, {"id": 2778996, "name": "Gaissau", "country": "AT", "coord": {"lon": 9.6, "lat": 47.466671}}, {"id": 7872141, "name": "Gaflenz", "country": "AT", "coord": {"lon": 14.70496, "lat": 47.894192}}, {"id": 2779048, "name": "Gaflenz", "country": "AT", "coord": {"lon": 14.71667, "lat": 47.883331}}, {"id": 7873069, "name": "Gablitz", "country": "AT", "coord": {"lon": 16.135281, "lat": 48.23082}}, {"id": 2779061, "name": "Gablitz", "country": "AT", "coord": {"lon": 16.154369, "lat": 48.228561}}, {"id": 7872399, "name": "Gabersdorf", "country": "AT", "coord": {"lon": 15.60099, "lat": 46.78986}}, {"id": 2779064, "name": "Gabersdorf", "country": "AT", "coord": {"lon": 15.58417, "lat": 46.777222}}, {"id": 7873449, "name": "Gaal", "country": "AT", "coord": {"lon": 14.65726, "lat": 47.310219}}, {"id": 2779073, "name": "Gaal", "country": "AT", "coord": {"lon": 14.66667, "lat": 47.26667}}, {"id": 7872976, "name": "Gaaden", "country": "AT", "coord": {"lon": 16.218031, "lat": 48.052608}}, {"id": 2779074, "name": "Gaaden", "country": "AT", "coord": {"lon": 16.200029, "lat": 48.053638}}, {"id": 7873732, "name": "Fu\u00dfach", "country": "AT", "coord": {"lon": 9.65103, "lat": 47.488819}}, {"id": 2779082, "name": "Fussach", "country": "AT", "coord": {"lon": 9.66278, "lat": 47.479328}}, {"id": 7872206, "name": "Fuschl am See", "country": "AT", "coord": {"lon": 13.30735, "lat": 47.7948}}, {"id": 2779084, "name": "Fuschl am See", "country": "AT", "coord": {"lon": 13.3, "lat": 47.799999}}, {"id": 7872836, "name": "Furth an der Triesting", "country": "AT", "coord": {"lon": 15.95128, "lat": 47.971008}}, {"id": 2779094, "name": "Furth an der Triesting", "country": "AT", "coord": {"lon": 15.97326, "lat": 47.973259}}, {"id": 7873605, "name": "Fulpmes", "country": "AT", "coord": {"lon": 11.34691, "lat": 47.138988}}, {"id": 2779143, "name": "Fulpmes", "country": "AT", "coord": {"lon": 11.35, "lat": 47.166672}}, {"id": 7872627, "name": "F\u00fcgen", "country": "AT", "coord": {"lon": 11.85457, "lat": 47.347111}}, {"id": 2779154, "name": "Fugen", "country": "AT", "coord": {"lon": 11.85, "lat": 47.349998}}, {"id": 7872328, "name": "Frohnleiten", "country": "AT", "coord": {"lon": 15.27515, "lat": 47.283859}}, {"id": 2779202, "name": "Frohnleiten", "country": "AT", "coord": {"lon": 15.31667, "lat": 47.26667}}, {"id": 7873604, "name": "Fritzens", "country": "AT", "coord": {"lon": 11.59547, "lat": 47.310051}}, {"id": 2779214, "name": "Fritzens", "country": "AT", "coord": {"lon": 11.58333, "lat": 47.299999}}, {"id": 7872801, "name": "Fresach", "country": "AT", "coord": {"lon": 13.70847, "lat": 46.72345}}, {"id": 2779271, "name": "Fresach", "country": "AT", "coord": {"lon": 13.69083, "lat": 46.715561}}, {"id": 7872263, "name": "Freiland bei Deutschlandsberg", "country": "AT", "coord": {"lon": 15.14863, "lat": 46.852501}}, {"id": 2779288, "name": "Freiland bei Deutschlandsberg", "country": "AT", "coord": {"lon": 15.13333, "lat": 46.833328}}, {"id": 7873742, "name": "Fraxern", "country": "AT", "coord": {"lon": 9.69947, "lat": 47.323952}}, {"id": 2779308, "name": "Fraxern", "country": "AT", "coord": {"lon": 9.67391, "lat": 47.31498}}, {"id": 7871586, "name": "Frauenkirchen", "country": "AT", "coord": {"lon": 16.922239, "lat": 47.828732}}, {"id": 2779324, "name": "Frauenkirchen", "country": "AT", "coord": {"lon": 16.92581, "lat": 47.836781}}, {"id": 7872256, "name": "Frauenberg", "country": "AT", "coord": {"lon": 15.37091, "lat": 47.42728}}, {"id": 2779339, "name": "Frauenberg", "country": "AT", "coord": {"lon": 15.34206, "lat": 47.428551}}, {"id": 7873370, "name": "Frannach", "country": "AT", "coord": {"lon": 15.62539, "lat": 46.913631}}, {"id": 2779372, "name": "Frannach", "country": "AT", "coord": {"lon": 15.63361, "lat": 46.913059}}, {"id": 7873011, "name": "Frankenfels", "country": "AT", "coord": {"lon": 15.32267, "lat": 47.980148}}, {"id": 2779379, "name": "Frankenfels", "country": "AT", "coord": {"lon": 15.32593, "lat": 47.982342}}, {"id": 2779380, "name": "Frankenburg", "country": "AT", "coord": {"lon": 13.49065, "lat": 48.068439}}, {"id": 7873255, "name": "Fornach", "country": "AT", "coord": {"lon": 13.4166, "lat": 48.030701}}, {"id": 2779424, "name": "Fornach", "country": "AT", "coord": {"lon": 13.42941, "lat": 48.02277}}, {"id": 7873685, "name": "Forchach", "country": "AT", "coord": {"lon": 10.60472, "lat": 47.414379}}, {"id": 2779433, "name": "Forchach", "country": "AT", "coord": {"lon": 10.58333, "lat": 47.416672}}, {"id": 7872378, "name": "Fohnsdorf", "country": "AT", "coord": {"lon": 14.68186, "lat": 47.218269}}, {"id": 2779450, "name": "Fohnsdorf", "country": "AT", "coord": {"lon": 14.68333, "lat": 47.200001}}, {"id": 7873558, "name": "Floing", "country": "AT", "coord": {"lon": 15.74534, "lat": 47.257141}}, {"id": 2779477, "name": "Floing", "country": "AT", "coord": {"lon": 15.75, "lat": 47.26667}}, {"id": 7873662, "name": "Flirsch", "country": "AT", "coord": {"lon": 10.41488, "lat": 47.14109}}, {"id": 2779480, "name": "Flirsch", "country": "AT", "coord": {"lon": 10.4, "lat": 47.150002}}, {"id": 7873603, "name": "Flaurling", "country": "AT", "coord": {"lon": 11.11393, "lat": 47.253792}}, {"id": 2779499, "name": "Flaurling", "country": "AT", "coord": {"lon": 11.11667, "lat": 47.283329}}, {"id": 7871652, "name": "Flattach", "country": "AT", "coord": {"lon": 13.06153, "lat": 46.967609}}, {"id": 2779504, "name": "Flattach", "country": "AT", "coord": {"lon": 13.13444, "lat": 46.93861}}, {"id": 7872394, "name": "Flatschach", "country": "AT", "coord": {"lon": 14.74563, "lat": 47.223801}}, {"id": 2779506, "name": "Flatschach", "country": "AT", "coord": {"lon": 14.75, "lat": 47.216671}}, {"id": 7873369, "name": "Fladnitz im Raabtal", "country": "AT", "coord": {"lon": 15.79368, "lat": 46.996738}}, {"id": 2779514, "name": "Fladnitz im Raabtal", "country": "AT", "coord": {"lon": 15.78528, "lat": 46.991669}}, {"id": 7873310, "name": "Flachau", "country": "AT", "coord": {"lon": 13.39906, "lat": 47.292042}}, {"id": 2779522, "name": "Flachau", "country": "AT", "coord": {"lon": 13.39148, "lat": 47.344059}}, {"id": 7872575, "name": "Fiss", "country": "AT", "coord": {"lon": 10.58841, "lat": 47.075489}}, {"id": 2779525, "name": "Fiss", "country": "AT", "coord": {"lon": 10.61667, "lat": 47.049999}}, {"id": 7873557, "name": "Fischbach", "country": "AT", "coord": {"lon": 15.64292, "lat": 47.442902}}, {"id": 2779545, "name": "Fischbach", "country": "AT", "coord": {"lon": 15.65, "lat": 47.433331}}, {"id": 2779549, "name": "Fischamend Dorf", "country": "AT", "coord": {"lon": 16.612869, "lat": 48.118839}}, {"id": 7873309, "name": "Filzmoos", "country": "AT", "coord": {"lon": 13.51746, "lat": 47.45042}}, {"id": 2779579, "name": "Filzmoos", "country": "AT", "coord": {"lon": 13.51667, "lat": 47.433331}}, {"id": 7872556, "name": "Fieberbrunn", "country": "AT", "coord": {"lon": 12.55518, "lat": 47.450989}}, {"id": 2779595, "name": "Fieberbrunn", "country": "AT", "coord": {"lon": 12.55, "lat": 47.48333}}, {"id": 7872821, "name": "Ferschnitz", "country": "AT", "coord": {"lon": 14.98865, "lat": 48.094471}}, {"id": 2779622, "name": "Ferschnitz", "country": "AT", "coord": {"lon": 15, "lat": 48.083328}}, {"id": 7872327, "name": "Fernitz", "country": "AT", "coord": {"lon": 15.51614, "lat": 46.972179}}, {"id": 2779631, "name": "Fernitz", "country": "AT", "coord": {"lon": 15.50111, "lat": 46.973888}}, {"id": 7871664, "name": "Ferndorf", "country": "AT", "coord": {"lon": 13.65098, "lat": 46.756729}}, {"id": 2779634, "name": "Ferndorf", "country": "AT", "coord": {"lon": 13.6375, "lat": 46.739719}}, {"id": 7872761, "name": "Ferlach", "country": "AT", "coord": {"lon": 14.28307, "lat": 46.49675}}, {"id": 2779640, "name": "Ferlach", "country": "AT", "coord": {"lon": 14.30194, "lat": 46.526939}}, {"id": 7873037, "name": "Fels am Wagram", "country": "AT", "coord": {"lon": 15.82823, "lat": 48.456451}}, {"id": 2779651, "name": "Fels am Wagram", "country": "AT", "coord": {"lon": 15.81667, "lat": 48.433331}}, {"id": 7871683, "name": "Feldkirchen in K\u00e4rnten", "country": "AT", "coord": {"lon": 14.09889, "lat": 46.724979}}, {"id": 2779669, "name": "Feldkirchen in Karnten", "country": "AT", "coord": {"lon": 14.0958, "lat": 46.723679}}, {"id": 7873398, "name": "Feldkirchen bei Graz", "country": "AT", "coord": {"lon": 15.45256, "lat": 46.996651}}, {"id": 2779671, "name": "Feldkirchen bei Graz", "country": "AT", "coord": {"lon": 15.45, "lat": 47.01667}}, {"id": 7873235, "name": "Feldkirchen an der Donau", "country": "AT", "coord": {"lon": 14.05229, "lat": 48.344898}}, {"id": 2779672, "name": "Feldkirchen an der Donau", "country": "AT", "coord": {"lon": 14.05134, "lat": 48.345242}}, {"id": 7872799, "name": "Feld am See", "country": "AT", "coord": {"lon": 13.7531, "lat": 46.771622}}, {"id": 2779686, "name": "Feld am See", "country": "AT", "coord": {"lon": 13.74778, "lat": 46.77639}}, {"id": 7872804, "name": "Feistritz ob Bleiburg", "country": "AT", "coord": {"lon": 14.77031, "lat": 46.547852}}, {"id": 2779703, "name": "Feistritz ob Bleiburg", "country": "AT", "coord": {"lon": 14.76667, "lat": 46.549999}}, {"id": 7872393, "name": "Feistritz bei Knittelfeld", "country": "AT", "coord": {"lon": 14.90353, "lat": 47.271858}}, {"id": 2779710, "name": "Feistritz bei Knittelfeld", "country": "AT", "coord": {"lon": 14.88333, "lat": 47.26667}}, {"id": 7871663, "name": "Feistritz an der Gail", "country": "AT", "coord": {"lon": 13.56698, "lat": 46.571812}}, {"id": 2779718, "name": "Feistritz an der Gail", "country": "AT", "coord": {"lon": 13.60667, "lat": 46.577499}}, {"id": 7872990, "name": "Feistritz am Wechsel", "country": "AT", "coord": {"lon": 16.05443, "lat": 47.604149}}, {"id": 2779720, "name": "Feistritz am Wechsel", "country": "AT", "coord": {"lon": 16.049999, "lat": 47.599998}}, {"id": 7872288, "name": "Fehring", "country": "AT", "coord": {"lon": 16.01988, "lat": 46.92421}}, {"id": 2779767, "name": "Fehring", "country": "AT", "coord": {"lon": 16.00806, "lat": 46.939999}}, {"id": 7871838, "name": "Fallbach", "country": "AT", "coord": {"lon": 16.43931, "lat": 48.64888}}, {"id": 2779814, "name": "Fallbach", "country": "AT", "coord": {"lon": 16.41667, "lat": 48.650002}}, {"id": 7872955, "name": "Falkenstein", "country": "AT", "coord": {"lon": 16.5909, "lat": 48.714458}}, {"id": 2779819, "name": "Falkenstein", "country": "AT", "coord": {"lon": 16.58333, "lat": 48.716671}}, {"id": 2779827, "name": "St. Ruprecht-Falkendorf", "country": "AT", "coord": {"lon": 14.01752, "lat": 47.101101}}, {"id": 7872205, "name": "Faistenau", "country": "AT", "coord": {"lon": 13.261, "lat": 47.76424}}, {"id": 2779838, "name": "Faistenau", "country": "AT", "coord": {"lon": 13.23333, "lat": 47.76667}}, {"id": 7872820, "name": "Euratsfeld", "country": "AT", "coord": {"lon": 14.93721, "lat": 48.067322}}, {"id": 2779879, "name": "Euratsfeld", "country": "AT", "coord": {"lon": 14.93154, "lat": 48.08181}}, {"id": 7873294, "name": "Eugendorf", "country": "AT", "coord": {"lon": 13.15189, "lat": 47.858189}}, {"id": 2779883, "name": "Eugendorf", "country": "AT", "coord": {"lon": 13.11667, "lat": 47.866669}}, {"id": 7872928, "name": "Eschenau", "country": "AT", "coord": {"lon": 15.56043, "lat": 48.046009}}, {"id": 2779922, "name": "Eschenau", "country": "AT", "coord": {"lon": 15.56694, "lat": 48.048248}}, {"id": 7872905, "name": "Ernstbrunn", "country": "AT", "coord": {"lon": 16.34161, "lat": 48.53286}}, {"id": 2779947, "name": "Ernstbrunn", "country": "AT", "coord": {"lon": 16.35, "lat": 48.533329}}, {"id": 7872941, "name": "Erlauf", "country": "AT", "coord": {"lon": 15.18907, "lat": 48.182251}}, {"id": 2779968, "name": "Erlauf", "country": "AT", "coord": {"lon": 15.18333, "lat": 48.183331}}, {"id": 7871928, "name": "Erlach", "country": "AT", "coord": {"lon": 16.21039, "lat": 47.714931}}, {"id": 2779973, "name": "Erlach", "country": "AT", "coord": {"lon": 16.216669, "lat": 47.716671}}, {"id": 7873648, "name": "Erl", "country": "AT", "coord": {"lon": 12.21398, "lat": 47.698971}}, {"id": 2779982, "name": "Erl", "country": "AT", "coord": {"lon": 12.18333, "lat": 47.683331}}, {"id": 7872903, "name": "Enzersfeld", "country": "AT", "coord": {"lon": 16.42098, "lat": 48.357079}}, {"id": 2780014, "name": "Enzersfeld", "country": "AT", "coord": {"lon": 16.41667, "lat": 48.349998}}, {"id": 7871718, "name": "Enzersdorf an der Fischa", "country": "AT", "coord": {"lon": 16.613529, "lat": 48.062111}}, {"id": 2780017, "name": "Enzersdorf an der Fischa", "country": "AT", "coord": {"lon": 16.6, "lat": 48.083328}}, {"id": 7871860, "name": "Enzenreith", "country": "AT", "coord": {"lon": 15.97247, "lat": 47.66713}}, {"id": 2780021, "name": "Enzenreith", "country": "AT", "coord": {"lon": 15.95249, "lat": 47.668388}}, {"id": 7872818, "name": "Ennsdorf", "country": "AT", "coord": {"lon": 14.50529, "lat": 48.215141}}, {"id": 2780043, "name": "Ennsdorf", "country": "AT", "coord": {"lon": 14.5029, "lat": 48.211811}}, {"id": 7872050, "name": "Enns", "country": "AT", "coord": {"lon": 14.47783, "lat": 48.214149}}, {"id": 2780048, "name": "Enns", "country": "AT", "coord": {"lon": 14.47612, "lat": 48.213459}}, {"id": 7873234, "name": "Engerwitzdorf", "country": "AT", "coord": {"lon": 14.44239, "lat": 48.343929}}, {"id": 2780057, "name": "Engerwitzdorf", "country": "AT", "coord": {"lon": 14.44204, "lat": 48.34507}}, {"id": 7873463, "name": "Empersdorf", "country": "AT", "coord": {"lon": 15.58471, "lat": 46.993629}}, {"id": 2780089, "name": "Empersdorf", "country": "AT", "coord": {"lon": 15.6, "lat": 46.98333}}, {"id": 7871835, "name": "Emmersdorf an der Donau", "country": "AT", "coord": {"lon": 15.3261, "lat": 48.255562}}, {"id": 2780092, "name": "Emmersdorf an der Donau", "country": "AT", "coord": {"lon": 15.33721, "lat": 48.241402}}, {"id": 7872702, "name": "Eltendorf", "country": "AT", "coord": {"lon": 16.210699, "lat": 47.019531}}, {"id": 2780109, "name": "Eltendorf", "country": "AT", "coord": {"lon": 16.200001, "lat": 47}}, {"id": 7872613, "name": "Elmen", "country": "AT", "coord": {"lon": 10.53978, "lat": 47.345509}}, {"id": 2780123, "name": "Elmen", "country": "AT", "coord": {"lon": 10.53333, "lat": 47.333328}}, {"id": 7872566, "name": "Ellmau", "country": "AT", "coord": {"lon": 12.29204, "lat": 47.5131}}, {"id": 2780135, "name": "Ellmau", "country": "AT", "coord": {"lon": 12.29937, "lat": 47.513779}}, {"id": 7873292, "name": "Elixhausen", "country": "AT", "coord": {"lon": 13.06463, "lat": 47.872219}}, {"id": 2780147, "name": "Elixhausen", "country": "AT", "coord": {"lon": 13.06667, "lat": 47.866669}}, {"id": 7873684, "name": "Elbigenalp", "country": "AT", "coord": {"lon": 10.41259, "lat": 47.29607}}, {"id": 2780153, "name": "Elbigenalp", "country": "AT", "coord": {"lon": 10.43333, "lat": 47.299999}}, {"id": 7872874, "name": "Eisgarn", "country": "AT", "coord": {"lon": 15.10546, "lat": 48.918201}}, {"id": 2780176, "name": "Eisgarn", "country": "AT", "coord": {"lon": 15.1, "lat": 48.900002}}, {"id": 7872422, "name": "Eisenerz", "country": "AT", "coord": {"lon": 14.88837, "lat": 47.54607}}, {"id": 2780207, "name": "Eisenerz", "country": "AT", "coord": {"lon": 14.88333, "lat": 47.533329}}, {"id": 7873397, "name": "Eisbach", "country": "AT", "coord": {"lon": 15.27246, "lat": 47.13377}}, {"id": 2780218, "name": "Eisbach", "country": "AT", "coord": {"lon": 15.26667, "lat": 47.116669}}, {"id": 7873233, "name": "Eidenberg", "country": "AT", "coord": {"lon": 14.23339, "lat": 48.394562}}, {"id": 2780250, "name": "Eidenberg", "country": "AT", "coord": {"lon": 14.23313, "lat": 48.39439}}, {"id": 7873533, "name": "Eichfeld", "country": "AT", "coord": {"lon": 15.75064, "lat": 46.73653}}, {"id": 2780260, "name": "Eichfeld", "country": "AT", "coord": {"lon": 15.76806, "lat": 46.725281}}, {"id": 7873731, "name": "Eichenberg", "country": "AT", "coord": {"lon": 9.7966, "lat": 47.535488}}, {"id": 2780264, "name": "Eichenberg", "country": "AT", "coord": {"lon": 9.78333, "lat": 47.533329}}, {"id": 7872356, "name": "Eichberg", "country": "AT", "coord": {"lon": 15.95595, "lat": 47.38818}}, {"id": 2780274, "name": "Eichberg", "country": "AT", "coord": {"lon": 15.96667, "lat": 47.383331}}, {"id": 7872262, "name": "Eibiswald", "country": "AT", "coord": {"lon": 15.24585, "lat": 46.68483}}, {"id": 2780283, "name": "Eibiswald", "country": "AT", "coord": {"lon": 15.24722, "lat": 46.686668}}, {"id": 7873461, "name": "Ehrenhausen", "country": "AT", "coord": {"lon": 15.58686, "lat": 46.722069}}, {"id": 2780316, "name": "Ehrenhausen", "country": "AT", "coord": {"lon": 15.58667, "lat": 46.724171}}, {"id": 7872612, "name": "Ehenbichl", "country": "AT", "coord": {"lon": 10.69042, "lat": 47.459492}}, {"id": 2780323, "name": "Ehenbichl", "country": "AT", "coord": {"lon": 10.7, "lat": 47.466671}}, {"id": 7872326, "name": "Eggersdorf bei Graz", "country": "AT", "coord": {"lon": 15.59184, "lat": 47.11541}}, {"id": 2780331, "name": "Eggersdorf bei Graz", "country": "AT", "coord": {"lon": 15.58333, "lat": 47.116669}}, {"id": 7871751, "name": "Eggern", "country": "AT", "coord": {"lon": 15.1595, "lat": 48.904388}}, {"id": 2780335, "name": "Eggern", "country": "AT", "coord": {"lon": 15.14877, "lat": 48.908291}}, {"id": 7871774, "name": "Eggenburg", "country": "AT", "coord": {"lon": 15.8306, "lat": 48.64896}}, {"id": 2780360, "name": "Eggenburg", "country": "AT", "coord": {"lon": 15.81903, "lat": 48.63892}}, {"id": 7873730, "name": "Egg", "country": "AT", "coord": {"lon": 9.9885, "lat": 47.407909}}, {"id": 2780380, "name": "Egg", "country": "AT", "coord": {"lon": 9.89556, "lat": 47.431938}}, {"id": 7872183, "name": "Edt bei Lambach", "country": "AT", "coord": {"lon": 13.89981, "lat": 48.106022}}, {"id": 2780397, "name": "Edt bei Lambach", "country": "AT", "coord": {"lon": 13.88333, "lat": 48.116669}}, {"id": 7871859, "name": "Edlitz", "country": "AT", "coord": {"lon": 16.161921, "lat": 47.59441}}, {"id": 2780409, "name": "Edlitz", "country": "AT", "coord": {"lon": 16.133329, "lat": 47.583328}}, {"id": 7871597, "name": "Edelstal", "country": "AT", "coord": {"lon": 16.99671, "lat": 48.09753}}, {"id": 2780448, "name": "Edelstal", "country": "AT", "coord": {"lon": 16.98333, "lat": 48.099998}}, {"id": 7872325, "name": "Edelsgrub", "country": "AT", "coord": {"lon": 15.60747, "lat": 47.02916}}, {"id": 2780450, "name": "Edelsgrub", "country": "AT", "coord": {"lon": 15.6, "lat": 47.033329}}, {"id": 7873540, "name": "Edelschrott", "country": "AT", "coord": {"lon": 15.0521, "lat": 46.999249}}, {"id": 2780452, "name": "Edelschrott", "country": "AT", "coord": {"lon": 15.05, "lat": 47.01667}}, {"id": 7872285, "name": "Edelsbach bei Feldbach", "country": "AT", "coord": {"lon": 15.83066, "lat": 46.996849}}, {"id": 2780454, "name": "Edelsbach bei Feldbach", "country": "AT", "coord": {"lon": 15.83694, "lat": 46.989441}}, {"id": 7871732, "name": "Eckartsau", "country": "AT", "coord": {"lon": 16.80073, "lat": 48.1483}}, {"id": 2780490, "name": "Eckartsau", "country": "AT", "coord": {"lon": 16.797371, "lat": 48.145069}}, {"id": 7873079, "name": "Echsenbach", "country": "AT", "coord": {"lon": 15.21261, "lat": 48.714279}}, {"id": 2780497, "name": "Echsenbach", "country": "AT", "coord": {"lon": 15.21667, "lat": 48.716671}}, {"id": 7872835, "name": "Ebreichsdorf", "country": "AT", "coord": {"lon": 16.41729, "lat": 47.964081}}, {"id": 2780501, "name": "Ebreichsdorf", "country": "AT", "coord": {"lon": 16.4, "lat": 47.950001}}, {"id": 7872768, "name": "Eberstein", "country": "AT", "coord": {"lon": 14.59468, "lat": 46.794209}}, {"id": 2780512, "name": "Eberstein", "country": "AT", "coord": {"lon": 14.56, "lat": 46.80806}}, {"id": 7873423, "name": "Ebersdorf", "country": "AT", "coord": {"lon": 15.95601, "lat": 47.201012}}, {"id": 2780522, "name": "Ebersdorf", "country": "AT", "coord": {"lon": 15.95, "lat": 47.200001}}, {"id": 7873068, "name": "Ebergassing", "country": "AT", "coord": {"lon": 16.52334, "lat": 48.054401}}, {"id": 2780536, "name": "Ebergassing", "country": "AT", "coord": {"lon": 16.51709, "lat": 48.04567}}, {"id": 7872692, "name": "Eberau", "country": "AT", "coord": {"lon": 16.447821, "lat": 47.100731}}, {"id": 2780539, "name": "Eberau", "country": "AT", "coord": {"lon": 16.466669, "lat": 47.099998}}, {"id": 7871731, "name": "Ebenthal", "country": "AT", "coord": {"lon": 16.788549, "lat": 48.431911}}, {"id": 2780543, "name": "Ebenthal", "country": "AT", "coord": {"lon": 16.783331, "lat": 48.433331}}, {"id": 2780544, "name": "Ebenthal", "country": "AT", "coord": {"lon": 14.36417, "lat": 46.608059}}, {"id": 7873134, "name": "Ebensee", "country": "AT", "coord": {"lon": 13.77849, "lat": 47.806931}}, {"id": 2780547, "name": "Ebensee", "country": "AT", "coord": {"lon": 13.779, "lat": 47.807159}}, {"id": 7872222, "name": "Eben im Pongau", "country": "AT", "coord": {"lon": 13.40569, "lat": 47.425579}}, {"id": 2780551, "name": "Eben im Pongau", "country": "AT", "coord": {"lon": 13.4, "lat": 47.400002}}, {"id": 7871927, "name": "Ebenfurth", "country": "AT", "coord": {"lon": 16.33139, "lat": 47.8881}}, {"id": 2780553, "name": "Ebenfurth", "country": "AT", "coord": {"lon": 16.366671, "lat": 47.866669}}, {"id": 7873291, "name": "Ebenau", "country": "AT", "coord": {"lon": 13.17936, "lat": 47.782021}}, {"id": 2780563, "name": "Ebenau", "country": "AT", "coord": {"lon": 13.17527, "lat": 47.79073}}, {"id": 7872463, "name": "D\u00fcrnstein in der Steiermark", "country": "AT", "coord": {"lon": 14.40499, "lat": 47.004688}}, {"id": 2780603, "name": "Durnstein in der Steiermark", "country": "AT", "coord": {"lon": 14.39167, "lat": 46.988331}}, {"id": 7871730, "name": "D\u00fcrnkrut", "country": "AT", "coord": {"lon": 16.833639, "lat": 48.484409}}, {"id": 2780607, "name": "Durnkrut", "country": "AT", "coord": {"lon": 16.85062, "lat": 48.473148}}, {"id": 7872675, "name": "D\u00fcns", "country": "AT", "coord": {"lon": 9.71275, "lat": 47.225201}}, {"id": 2780641, "name": "Duns", "country": "AT", "coord": {"lon": 9.71667, "lat": 47.216671}}, {"id": 7871729, "name": "Dr\u00f6sing", "country": "AT", "coord": {"lon": 16.90196, "lat": 48.53783}}, {"id": 2780665, "name": "Drosing", "country": "AT", "coord": {"lon": 16.902639, "lat": 48.539001}}, {"id": 7872953, "name": "Drasenhofen", "country": "AT", "coord": {"lon": 16.63756, "lat": 48.755562}}, {"id": 2780715, "name": "Drasenhofen", "country": "AT", "coord": {"lon": 16.65, "lat": 48.75}}, {"id": 7871813, "name": "Dorfstetten", "country": "AT", "coord": {"lon": 14.99061, "lat": 48.3405}}, {"id": 2780760, "name": "Dorfstetten", "country": "AT", "coord": {"lon": 14.98218, "lat": 48.325729}}, {"id": 7872221, "name": "Dorfgastein", "country": "AT", "coord": {"lon": 13.09087, "lat": 47.244061}}, {"id": 2780798, "name": "Dorfgastein", "country": "AT", "coord": {"lon": 13.1, "lat": 47.25}}, {"id": 7872204, "name": "Dorfbeuern", "country": "AT", "coord": {"lon": 13.01975, "lat": 48.016541}}, {"id": 2780811, "name": "Dorfbeuern", "country": "AT", "coord": {"lon": 13.01667, "lat": 48.01667}}, {"id": 7872657, "name": "Doren", "country": "AT", "coord": {"lon": 9.87735, "lat": 47.494308}}, {"id": 2780832, "name": "Doren", "country": "AT", "coord": {"lon": 9.87972, "lat": 47.492779}}, {"id": 7872685, "name": "Donnerskirchen", "country": "AT", "coord": {"lon": 16.66301, "lat": 47.892639}}, {"id": 2780842, "name": "Donnerskirchen", "country": "AT", "coord": {"lon": 16.646351, "lat": 47.894249}}, {"id": 2780847, "name": "Donnersbach", "country": "AT", "coord": {"lon": 14.11667, "lat": 47.466671}}, {"id": 2780846, "name": "Donnersbach", "country": "AT", "coord": {"lon": 14.12972, "lat": 47.461391}}, {"id": 7872591, "name": "D\u00f6lsach", "country": "AT", "coord": {"lon": 12.83808, "lat": 46.848888}}, {"id": 2780859, "name": "Dolsach", "country": "AT", "coord": {"lon": 12.84528, "lat": 46.828331}}, {"id": 7873043, "name": "Dobersberg", "country": "AT", "coord": {"lon": 15.31026, "lat": 48.928471}}, {"id": 2780901, "name": "Dobersberg", "country": "AT", "coord": {"lon": 15.31667, "lat": 48.900002}}, {"id": 7871672, "name": "Diex", "country": "AT", "coord": {"lon": 14.64888, "lat": 46.745869}}, {"id": 2780936, "name": "Diex", "country": "AT", "coord": {"lon": 14.6, "lat": 46.75}}, {"id": 7873532, "name": "Dietersdorf am Gnasbach", "country": "AT", "coord": {"lon": 15.81612, "lat": 46.80698}}, {"id": 2780964, "name": "Dietersdorf am Gnasbach", "country": "AT", "coord": {"lon": 15.81167, "lat": 46.80917}}, {"id": 7873327, "name": "Dienten am Hochk\u00f6nig", "country": "AT", "coord": {"lon": 13.01576, "lat": 47.369492}}, {"id": 2780988, "name": "Dienten am Hochkonig", "country": "AT", "coord": {"lon": 13.00369, "lat": 47.38324}}, {"id": 7873422, "name": "Dienersdorf", "country": "AT", "coord": {"lon": 15.90922, "lat": 47.24794}}, {"id": 2780991, "name": "Dienersdorf", "country": "AT", "coord": {"lon": 15.88333, "lat": 47.23333}}, {"id": 7871598, "name": "Deutschkreutz", "country": "AT", "coord": {"lon": 16.633459, "lat": 47.59354}}, {"id": 2781024, "name": "Deutschkreutz", "country": "AT", "coord": {"lon": 16.633329, "lat": 47.599998}}, {"id": 7872701, "name": "Deutsch Kaltenbrunn", "country": "AT", "coord": {"lon": 16.118719, "lat": 47.097561}}, {"id": 2781025, "name": "Deutsch Kaltenbrunn", "country": "AT", "coord": {"lon": 16.107929, "lat": 47.087891}}, {"id": 7872714, "name": "Deutsch Jahrndorf", "country": "AT", "coord": {"lon": 17.10638, "lat": 48.003632}}, {"id": 2781026, "name": "Deutsch Jahrndorf", "country": "AT", "coord": {"lon": 17.1, "lat": 48.01667}}, {"id": 7872484, "name": "Deutsch Goritz", "country": "AT", "coord": {"lon": 15.84713, "lat": 46.75927}}, {"id": 2781033, "name": "Deutsch Goritz", "country": "AT", "coord": {"lon": 15.82944, "lat": 46.750832}}, {"id": 7873254, "name": "Desselbrunn", "country": "AT", "coord": {"lon": 13.77042, "lat": 48.008942}}, {"id": 2781049, "name": "Desselbrunn", "country": "AT", "coord": {"lon": 13.76667, "lat": 48.01667}}, {"id": 7871651, "name": "Dellach im Drautal", "country": "AT", "coord": {"lon": 13.07322, "lat": 46.760021}}, {"id": 2781054, "name": "Dellach im Drautal", "country": "AT", "coord": {"lon": 13.07833, "lat": 46.737499}}, {"id": 7871628, "name": "Dellach", "country": "AT", "coord": {"lon": 13.07949, "lat": 46.658772}}, {"id": 2781061, "name": "Dellach", "country": "AT", "coord": {"lon": 13.08333, "lat": 46.666672}}, {"id": 7873421, "name": "Dechantskirchen", "country": "AT", "coord": {"lon": 16.011009, "lat": 47.43045}}, {"id": 2781079, "name": "Dechantskirchen", "country": "AT", "coord": {"lon": 16.01667, "lat": 47.416672}}, {"id": 7872645, "name": "Dalaas", "country": "AT", "coord": {"lon": 10.03634, "lat": 47.156689}}, {"id": 2781119, "name": "Dalaas", "country": "AT", "coord": {"lon": 9.99104, "lat": 47.124458}}, {"id": 7872644, "name": "B\u00fcrs", "country": "AT", "coord": {"lon": 9.79679, "lat": 47.124199}}, {"id": 2781161, "name": "Buers", "country": "AT", "coord": {"lon": 9.8, "lat": 47.149719}}, {"id": 7873389, "name": "Burgau", "country": "AT", "coord": {"lon": 16.087749, "lat": 47.140919}}, {"id": 2781196, "name": "Burgau", "country": "AT", "coord": {"lon": 16.09643, "lat": 47.142681}}, {"id": 7873274, "name": "Buchkirchen", "country": "AT", "coord": {"lon": 14.04211, "lat": 48.223309}}, {"id": 2781224, "name": "Buchkirchen", "country": "AT", "coord": {"lon": 14.02242, "lat": 48.22427}}, {"id": 7872624, "name": "Buch bei Jenbach", "country": "AT", "coord": {"lon": 11.78126, "lat": 47.37553}}, {"id": 2781269, "name": "Buch bei Jenbach", "country": "AT", "coord": {"lon": 11.75, "lat": 47.366669}}, {"id": 7871773, "name": "Brunn an der Wild", "country": "AT", "coord": {"lon": 15.49124, "lat": 48.696442}}, {"id": 2781317, "name": "Brunn an der Wild", "country": "AT", "coord": {"lon": 15.52008, "lat": 48.694248}}, {"id": 7872975, "name": "Brunn am Gebirge", "country": "AT", "coord": {"lon": 16.29204, "lat": 48.109169}}, {"id": 2781321, "name": "Brunn am Gebirge", "country": "AT", "coord": {"lon": 16.28466, "lat": 48.106972}}, {"id": 7871585, "name": "Bruckneudorf", "country": "AT", "coord": {"lon": 16.76343, "lat": 48.000271}}, {"id": 2781361, "name": "Bruckneudorf", "country": "AT", "coord": {"lon": 16.783331, "lat": 48.01667}}, {"id": 7872767, "name": "Br\u00fcckl", "country": "AT", "coord": {"lon": 14.52298, "lat": 46.733189}}, {"id": 2781364, "name": "Bruckl", "country": "AT", "coord": {"lon": 14.53667, "lat": 46.751671}}, {"id": 7873336, "name": "Bruck an der Mur", "country": "AT", "coord": {"lon": 15.29515, "lat": 47.403629}}, {"id": 2781371, "name": "Bruck an der Mur", "country": "AT", "coord": {"lon": 15.28333, "lat": 47.416672}}, {"id": 2781374, "name": "Bruck an der Grossglocknerstrasse", "country": "AT", "coord": {"lon": 12.8231, "lat": 47.284939}}, {"id": 2781376, "name": "Bruck am Ziller", "country": "AT", "coord": {"lon": 11.85124, "lat": 47.38998}}, {"id": 7871940, "name": "Bromberg", "country": "AT", "coord": {"lon": 16.233549, "lat": 47.655331}}, {"id": 2781387, "name": "Bromberg", "country": "AT", "coord": {"lon": 16.200001, "lat": 47.666672}}, {"id": 7872564, "name": "Brixlegg", "country": "AT", "coord": {"lon": 11.91675, "lat": 47.428329}}, {"id": 2781391, "name": "Brixlegg", "country": "AT", "coord": {"lon": 11.87794, "lat": 47.42942}}, {"id": 7873633, "name": "Brixen im Thale", "country": "AT", "coord": {"lon": 12.25473, "lat": 47.446239}}, {"id": 2781394, "name": "Brixen im Thale", "country": "AT", "coord": {"lon": 12.25, "lat": 47.450001}}, {"id": 7872376, "name": "Bretstein", "country": "AT", "coord": {"lon": 14.37449, "lat": 47.363079}}, {"id": 2781411, "name": "Bretstein", "country": "AT", "coord": {"lon": 14.41667, "lat": 47.333328}}, {"id": 7873683, "name": "Breitenwang", "country": "AT", "coord": {"lon": 10.77353, "lat": 47.47908}}, {"id": 2781449, "name": "Breitenwang", "country": "AT", "coord": {"lon": 10.73333, "lat": 47.48333}}, {"id": 2781464, "name": "Breitenfurt bei Wien", "country": "AT", "coord": {"lon": 16.157181, "lat": 48.13858}}, {"id": 2781463, "name": "Breitenfurt bei Wien", "country": "AT", "coord": {"lon": 16.15, "lat": 48.133331}}, {"id": 7872284, "name": "Breitenfeld an der Rittschein", "country": "AT", "coord": {"lon": 15.95263, "lat": 47.039688}}, {"id": 2781465, "name": "Breitenfeld an der Rittschein", "country": "AT", "coord": {"lon": 15.95, "lat": 47.033329}}, {"id": 7873460, "name": "Breitenfeld am Tannenriegel", "country": "AT", "coord": {"lon": 15.62768, "lat": 46.851639}}, {"id": 2781466, "name": "Breitenfeld am Tannenriegel", "country": "AT", "coord": {"lon": 15.63333, "lat": 46.849998}}, {"id": 7871532, "name": "Breitenbrunn", "country": "AT", "coord": {"lon": 16.736151, "lat": 47.93647}}, {"id": 2781472, "name": "Breitenbrunn", "country": "AT", "coord": {"lon": 16.731489, "lat": 47.944519}}, {"id": 7873647, "name": "Breitenbach am Inn", "country": "AT", "coord": {"lon": 11.97235, "lat": 47.49934}}, {"id": 2781480, "name": "Breitenbach am Inn", "country": "AT", "coord": {"lon": 11.96667, "lat": 47.48333}}, {"id": 7872988, "name": "Breitenau", "country": "AT", "coord": {"lon": 16.14015, "lat": 47.738041}}, {"id": 2781487, "name": "Breitenau", "country": "AT", "coord": {"lon": 16.143379, "lat": 47.733551}}, {"id": 7873646, "name": "Brandenberg", "country": "AT", "coord": {"lon": 11.87825, "lat": 47.540539}}, {"id": 2781567, "name": "Brandenberg", "country": "AT", "coord": {"lon": 11.89459, "lat": 47.490528}}, {"id": 7872237, "name": "Bramberg am Wildkogel", "country": "AT", "coord": {"lon": 12.34497, "lat": 47.248699}}, {"id": 2781587, "name": "Bramberg am Wildkogel", "country": "AT", "coord": {"lon": 12.35, "lat": 47.26667}}, {"id": 7873008, "name": "B\u00f6heimkirchen", "country": "AT", "coord": {"lon": 15.7549, "lat": 48.201191}}, {"id": 2781612, "name": "Boheimkirchen", "country": "AT", "coord": {"lon": 15.76178, "lat": 48.197788}}, {"id": 7871548, "name": "Bocksdorf", "country": "AT", "coord": {"lon": 16.18519, "lat": 47.141861}}, {"id": 2781653, "name": "Bocksdorf", "country": "AT", "coord": {"lon": 16.16667, "lat": 47.133331}}, {"id": 7871837, "name": "Bockflie\u00df", "country": "AT", "coord": {"lon": 16.611219, "lat": 48.34671}}, {"id": 2781658, "name": "Bockfliess", "country": "AT", "coord": {"lon": 16.603889, "lat": 48.360001}}, {"id": 7872315, "name": "Bad Blumau", "country": "AT", "coord": {"lon": 16.036751, "lat": 47.11367}}, {"id": 2781668, "name": "Bad Blumau", "country": "AT", "coord": {"lon": 16.049999, "lat": 47.116669}}, {"id": 7872643, "name": "Bludesch", "country": "AT", "coord": {"lon": 9.73596, "lat": 47.194149}}, {"id": 2781678, "name": "Bludesch", "country": "AT", "coord": {"lon": 9.73306, "lat": 47.200001}}, {"id": 7872642, "name": "Blons", "country": "AT", "coord": {"lon": 9.84634, "lat": 47.240829}}, {"id": 2781683, "name": "Blons", "country": "AT", "coord": {"lon": 9.83414, "lat": 47.22327}}, {"id": 7872940, "name": "Blindenmarkt", "country": "AT", "coord": {"lon": 14.99405, "lat": 48.138641}}, {"id": 2781692, "name": "Blindenmarkt", "country": "AT", "coord": {"lon": 14.98333, "lat": 48.133331}}, {"id": 7873419, "name": "Blaindorf", "country": "AT", "coord": {"lon": 15.86778, "lat": 47.183731}}, {"id": 2781727, "name": "Blaindorf", "country": "AT", "coord": {"lon": 15.85, "lat": 47.166672}}, {"id": 7872655, "name": "Bizau", "country": "AT", "coord": {"lon": 9.96708, "lat": 47.366032}}, {"id": 2781730, "name": "Bizau", "country": "AT", "coord": {"lon": 9.92333, "lat": 47.368889}}, {"id": 7872939, "name": "Bischofstetten", "country": "AT", "coord": {"lon": 15.46927, "lat": 48.125679}}, {"id": 2781734, "name": "Bischofstetten", "country": "AT", "coord": {"lon": 15.46909, "lat": 48.122219}}, {"id": 7872220, "name": "Bischofshofen", "country": "AT", "coord": {"lon": 13.21713, "lat": 47.410019}}, {"id": 2781735, "name": "Bischofshofen", "country": "AT", "coord": {"lon": 13.21667, "lat": 47.416672}}, {"id": 7873556, "name": "Birkfeld", "country": "AT", "coord": {"lon": 15.69093, "lat": 47.349201}}, {"id": 2781748, "name": "Birkfeld", "country": "AT", "coord": {"lon": 15.68333, "lat": 47.349998}}, {"id": 7873602, "name": "Birgitz", "country": "AT", "coord": {"lon": 11.30263, "lat": 47.223782}}, {"id": 2781753, "name": "Birgitz", "country": "AT", "coord": {"lon": 11.29922, "lat": 47.235359}}, {"id": 7872654, "name": "Bildstein", "country": "AT", "coord": {"lon": 9.79324, "lat": 47.460499}}, {"id": 2781764, "name": "Bildstein", "country": "AT", "coord": {"lon": 9.76667, "lat": 47.450001}}, {"id": 7873531, "name": "Bierbaum am Auersbach", "country": "AT", "coord": {"lon": 15.79273, "lat": 46.82655}}, {"id": 2781773, "name": "Bierbaum am Auersbach", "country": "AT", "coord": {"lon": 15.78333, "lat": 46.833328}}, {"id": 7871850, "name": "Biedermannsdorf", "country": "AT", "coord": {"lon": 16.34795, "lat": 48.08733}}, {"id": 2781780, "name": "Biedermannsdorf", "country": "AT", "coord": {"lon": 16.345421, "lat": 48.083931}}, {"id": 7872611, "name": "Bichlbach", "country": "AT", "coord": {"lon": 10.81255, "lat": 47.422859}}, {"id": 2781790, "name": "Bichlbach", "country": "AT", "coord": {"lon": 10.78333, "lat": 47.416672}}, {"id": 7873682, "name": "Biberwier", "country": "AT", "coord": {"lon": 10.87632, "lat": 47.36657}}, {"id": 2781800, "name": "Biberwier", "country": "AT", "coord": {"lon": 10.9, "lat": 47.383331}}, {"id": 7871689, "name": "Biberbach", "country": "AT", "coord": {"lon": 14.71634, "lat": 48.025612}}, {"id": 2781804, "name": "Biberbach", "country": "AT", "coord": {"lon": 14.7, "lat": 48.01667}}, {"id": 7873729, "name": "Bezau", "country": "AT", "coord": {"lon": 9.99422, "lat": 47.37196}}, {"id": 2781806, "name": "Bezau", "country": "AT", "coord": {"lon": 9.90167, "lat": 47.384998}}, {"id": 7872610, "name": "Berwang", "country": "AT", "coord": {"lon": 10.74735, "lat": 47.40786}}, {"id": 2781814, "name": "Berwang", "country": "AT", "coord": {"lon": 10.74735, "lat": 47.40807}}, {"id": 7871616, "name": "Bernstein", "country": "AT", "coord": {"lon": 16.26259, "lat": 47.417229}}, {"id": 2781820, "name": "Bernstein", "country": "AT", "coord": {"lon": 16.25, "lat": 47.400002}}, {"id": 7873290, "name": "Berndorf bei Salzburg", "country": "AT", "coord": {"lon": 13.06181, "lat": 47.990459}}, {"id": 2781833, "name": "Berndorf bei Salzburg", "country": "AT", "coord": {"lon": 13.06667, "lat": 47.98333}}, {"id": 7871704, "name": "Berndorf", "country": "AT", "coord": {"lon": 16.12636, "lat": 47.942169}}, {"id": 2781837, "name": "Berndorf", "country": "AT", "coord": {"lon": 16.10973, "lat": 47.945671}}, {"id": 7873289, "name": "Bergheim", "country": "AT", "coord": {"lon": 13.03253, "lat": 47.85257}}, {"id": 2781859, "name": "Bergheim", "country": "AT", "coord": {"lon": 13.03333, "lat": 47.833328}}, {"id": 7872848, "name": "Berg", "country": "AT", "coord": {"lon": 17.03323, "lat": 48.104252}}, {"id": 2781897, "name": "Berg", "country": "AT", "coord": {"lon": 17.033331, "lat": 48.099998}}, {"id": 7872817, "name": "Behamberg", "country": "AT", "coord": {"lon": 14.48704, "lat": 48.042881}}, {"id": 2781924, "name": "Behamberg", "country": "AT", "coord": {"lon": 14.48333, "lat": 48.01667}}, {"id": 7873601, "name": "Baumkirchen", "country": "AT", "coord": {"lon": 11.562, "lat": 47.30191}}, {"id": 2781935, "name": "Baumkirchen", "country": "AT", "coord": {"lon": 11.56667, "lat": 47.299999}}, {"id": 7873366, "name": "Baumgarten bei Gnas", "country": "AT", "coord": {"lon": 15.76242, "lat": 46.91021}}, {"id": 2781941, "name": "Baumgarten bei Gnas", "country": "AT", "coord": {"lon": 15.76667, "lat": 46.916672}}, {"id": 7873715, "name": "Bartholom\u00e4berg", "country": "AT", "coord": {"lon": 9.91726, "lat": 47.106621}}, {"id": 2781975, "name": "Bartholomaberg", "country": "AT", "coord": {"lon": 9.9, "lat": 47.083328}}, {"id": 7871956, "name": "B\u00e4rnkopf", "country": "AT", "coord": {"lon": 15.01895, "lat": 48.396851}}, {"id": 2781982, "name": "Barnkopf", "country": "AT", "coord": {"lon": 15, "lat": 48.400002}}, {"id": 2781992, "name": "Barnbach", "country": "AT", "coord": {"lon": 15.85, "lat": 47.033329}}, {"id": 7871650, "name": "Baldramsdorf", "country": "AT", "coord": {"lon": 13.44501, "lat": 46.791771}}, {"id": 2782023, "name": "Baldramsdorf", "country": "AT", "coord": {"lon": 13.45333, "lat": 46.801109}}, {"id": 7873365, "name": "Bairisch K\u00f6lldorf", "country": "AT", "coord": {"lon": 15.93449, "lat": 46.87521}}, {"id": 2782027, "name": "Bairisch Kolldorf", "country": "AT", "coord": {"lon": 15.93333, "lat": 46.866669}}, {"id": 7873273, "name": "Bad Wimsbach-Neydharting", "country": "AT", "coord": {"lon": 13.8928, "lat": 48.048359}}, {"id": 2782042, "name": "Bad Wimsbach-Neydharting", "country": "AT", "coord": {"lon": 13.9, "lat": 48.066669}}, {"id": 7871615, "name": "Bad Tatzmannsdorf", "country": "AT", "coord": {"lon": 16.235319, "lat": 47.335899}}, {"id": 2782045, "name": "Bad Tatzmannsdorf", "country": "AT", "coord": {"lon": 16.216669, "lat": 47.333328}}, {"id": 7871926, "name": "Bad Sch\u00f6nau", "country": "AT", "coord": {"lon": 16.246639, "lat": 47.482891}}, {"id": 2782047, "name": "Bad Schonau", "country": "AT", "coord": {"lon": 16.23333, "lat": 47.48333}}, {"id": 7873140, "name": "Bad Schallerbach", "country": "AT", "coord": {"lon": 13.91899, "lat": 48.229931}}, {"id": 2782048, "name": "Bad Schallerbach", "country": "AT", "coord": {"lon": 13.91925, "lat": 48.229988}}, {"id": 2782049, "name": "Bad Sankt Leonhard im Lavanttal", "country": "AT", "coord": {"lon": 14.79167, "lat": 46.96278}}, {"id": 7873133, "name": "Bad Ischl", "country": "AT", "coord": {"lon": 13.62167, "lat": 47.713001}}, {"id": 2782052, "name": "Bad Ischl", "country": "AT", "coord": {"lon": 13.61893, "lat": 47.71109}}, {"id": 2782053, "name": "Bad Hofgastein", "country": "AT", "coord": {"lon": 13.1, "lat": 47.166672}}, {"id": 7872140, "name": "Bad Hall", "country": "AT", "coord": {"lon": 14.2073, "lat": 48.039009}}, {"id": 2782054, "name": "Bad Hall", "country": "AT", "coord": {"lon": 14.20773, "lat": 48.038319}}, {"id": 7872008, "name": "Bad Goisern", "country": "AT", "coord": {"lon": 13.61429, "lat": 47.646709}}, {"id": 2782055, "name": "Bad Goisern", "country": "AT", "coord": {"lon": 13.61609, "lat": 47.642521}}, {"id": 7872283, "name": "Bad Gleichenberg", "country": "AT", "coord": {"lon": 15.90373, "lat": 46.887421}}, {"id": 2782056, "name": "Bad Gleichenberg", "country": "AT", "coord": {"lon": 15.90861, "lat": 46.875561}}, {"id": 7872754, "name": "Badersdorf", "country": "AT", "coord": {"lon": 16.37394, "lat": 47.196651}}, {"id": 2782061, "name": "Badersdorf", "country": "AT", "coord": {"lon": 16.366671, "lat": 47.200001}}, {"id": 7871717, "name": "Bad Deutsch-Altenburg", "country": "AT", "coord": {"lon": 16.90494, "lat": 48.11285}}, {"id": 2782068, "name": "Bad Deutsch-Altenburg", "country": "AT", "coord": {"lon": 16.90624, "lat": 48.134251}}, {"id": 7873491, "name": "Bad Aussee", "country": "AT", "coord": {"lon": 13.78204, "lat": 47.58651}}, {"id": 2782070, "name": "Bad Aussee", "country": "AT", "coord": {"lon": 13.78243, "lat": 47.609982}}, {"id": 7872182, "name": "Bachmanning", "country": "AT", "coord": {"lon": 13.79434, "lat": 48.133781}}, {"id": 2782079, "name": "Bachmanning", "country": "AT", "coord": {"lon": 13.8, "lat": 48.116669}}, {"id": 7873600, "name": "Axams", "country": "AT", "coord": {"lon": 11.28694, "lat": 47.208118}}, {"id": 2782106, "name": "Axams", "country": "AT", "coord": {"lon": 11.27892, "lat": 47.23111}}, {"id": 7872590, "name": "Au\u00dfervillgraten", "country": "AT", "coord": {"lon": 12.4476, "lat": 46.825748}}, {"id": 2782118, "name": "Ausservillgraten", "country": "AT", "coord": {"lon": 12.43139, "lat": 46.787498}}, {"id": 7872157, "name": "Aurach am Hongar", "country": "AT", "coord": {"lon": 13.67402, "lat": 47.944469}}, {"id": 2782163, "name": "Aurach am Hongar", "country": "AT", "coord": {"lon": 13.67291, "lat": 47.95182}}, {"id": 7871728, "name": "Auersthal", "country": "AT", "coord": {"lon": 16.641239, "lat": 48.367321}}, {"id": 2782204, "name": "Auersthal", "country": "AT", "coord": {"lon": 16.633329, "lat": 48.366669}}, {"id": 7872282, "name": "Auersbach", "country": "AT", "coord": {"lon": 15.86586, "lat": 47.002369}}, {"id": 2782206, "name": "Auersbach", "country": "AT", "coord": {"lon": 15.86667, "lat": 47.01667}}, {"id": 7872684, "name": "Au am Leithaberge", "country": "AT", "coord": {"lon": 16.563669, "lat": 47.91774}}, {"id": 2782242, "name": "Au am Leithaberge", "country": "AT", "coord": {"lon": 16.549999, "lat": 47.916672}}, {"id": 7873728, "name": "Au", "country": "AT", "coord": {"lon": 9.96673, "lat": 47.308861}}, {"id": 2782259, "name": "Au", "country": "AT", "coord": {"lon": 9.97583, "lat": 47.322781}}, {"id": 7872104, "name": "Atzesberg", "country": "AT", "coord": {"lon": 13.86981, "lat": 48.53894}}, {"id": 2782274, "name": "Atzesberg", "country": "AT", "coord": {"lon": 13.9241, "lat": 48.498489}}, {"id": 7871907, "name": "Atzenbrugg", "country": "AT", "coord": {"lon": 15.88116, "lat": 48.304291}}, {"id": 2782278, "name": "Atzenbrugg", "country": "AT", "coord": {"lon": 15.90614, "lat": 48.291191}}, {"id": 7873253, "name": "Atzbach", "country": "AT", "coord": {"lon": 13.71275, "lat": 48.083271}}, {"id": 2782283, "name": "Atzbach", "country": "AT", "coord": {"lon": 13.70347, "lat": 48.083641}}, {"id": 7873393, "name": "Attendorf", "country": "AT", "coord": {"lon": 15.34075, "lat": 47.018341}}, {"id": 2782292, "name": "Attendorf", "country": "AT", "coord": {"lon": 15.31667, "lat": 47.01667}}, {"id": 7873161, "name": "Asten", "country": "AT", "coord": {"lon": 14.4187, "lat": 48.218781}}, {"id": 2782302, "name": "Asten", "country": "AT", "coord": {"lon": 14.41784, "lat": 48.21941}}, {"id": 7873007, "name": "Asperhofen", "country": "AT", "coord": {"lon": 15.94131, "lat": 48.234131}}, {"id": 2782317, "name": "Asperhofen", "country": "AT", "coord": {"lon": 15.92606, "lat": 48.245831}}, {"id": 7872951, "name": "Asparn an der Zaya", "country": "AT", "coord": {"lon": 16.468321, "lat": 48.588211}}, {"id": 2782319, "name": "Asparn an der Zaya", "country": "AT", "coord": {"lon": 16.5, "lat": 48.583328}}, {"id": 7872524, "name": "Arzl im Pitztal", "country": "AT", "coord": {"lon": 10.76402, "lat": 47.189301}}, {"id": 2782382, "name": "Arzl im Pitztal", "country": "AT", "coord": {"lon": 10.76667, "lat": 47.200001}}, {"id": 7872503, "name": "Arzberg", "country": "AT", "coord": {"lon": 15.50603, "lat": 47.24234}}, {"id": 2782389, "name": "Arzberg", "country": "AT", "coord": {"lon": 15.51667, "lat": 47.25}}, {"id": 7872798, "name": "Arriach", "country": "AT", "coord": {"lon": 13.88404, "lat": 46.736488}}, {"id": 2782402, "name": "Arriach", "country": "AT", "coord": {"lon": 13.85194, "lat": 46.731941}}, {"id": 7873458, "name": "Arnfels", "country": "AT", "coord": {"lon": 15.41479, "lat": 46.678429}}, {"id": 2782410, "name": "Arnfels", "country": "AT", "coord": {"lon": 15.40306, "lat": 46.676392}}, {"id": 7872436, "name": "Ardning", "country": "AT", "coord": {"lon": 14.36971, "lat": 47.602901}}, {"id": 2782434, "name": "Ardning", "country": "AT", "coord": {"lon": 14.35, "lat": 47.583328}}, {"id": 7873078, "name": "Arbesbach", "country": "AT", "coord": {"lon": 14.94617, "lat": 48.484989}}, {"id": 2782443, "name": "Arbesbach", "country": "AT", "coord": {"lon": 14.95, "lat": 48.48333}}, {"id": 7872392, "name": "Apfelberg", "country": "AT", "coord": {"lon": 14.83832, "lat": 47.190891}}, {"id": 2782453, "name": "Apfelberg", "country": "AT", "coord": {"lon": 14.83333, "lat": 47.200001}}, {"id": 7871584, "name": "Apetlon", "country": "AT", "coord": {"lon": 16.834629, "lat": 47.740391}}, {"id": 2782454, "name": "Apetlon", "country": "AT", "coord": {"lon": 16.8302, "lat": 47.743938}}, {"id": 7873288, "name": "Anthering", "country": "AT", "coord": {"lon": 13.01198, "lat": 47.8908}}, {"id": 2782475, "name": "Anthering", "country": "AT", "coord": {"lon": 13.01667, "lat": 47.883331}}, {"id": 7871581, "name": "Antau", "country": "AT", "coord": {"lon": 16.484301, "lat": 47.77615}}, {"id": 2782479, "name": "Antau", "country": "AT", "coord": {"lon": 16.48333, "lat": 47.76667}}, {"id": 7872049, "name": "Ansfelden", "country": "AT", "coord": {"lon": 14.28892, "lat": 48.209229}}, {"id": 2782480, "name": "Ansfelden", "country": "AT", "coord": {"lon": 14.29004, "lat": 48.20969}}, {"id": 2782482, "name": "Anras", "country": "AT", "coord": {"lon": 12.56083, "lat": 46.773891}}, {"id": 2782496, "name": "Annaberg", "country": "AT", "coord": {"lon": 15.37648, "lat": 47.871342}}, {"id": 7873287, "name": "Anif", "country": "AT", "coord": {"lon": 13.06531, "lat": 47.742519}}, {"id": 2782504, "name": "Anif", "country": "AT", "coord": {"lon": 13.06667, "lat": 47.75}}, {"id": 7871727, "name": "Angern an der March", "country": "AT", "coord": {"lon": 16.81852, "lat": 48.401279}}, {"id": 2782511, "name": "Angern an der March", "country": "AT", "coord": {"lon": 16.82806, "lat": 48.377781}}, {"id": 7872502, "name": "Anger", "country": "AT", "coord": {"lon": 15.69169, "lat": 47.274818}}, {"id": 2782528, "name": "Anger", "country": "AT", "coord": {"lon": 15.68333, "lat": 47.26667}}, {"id": 7873644, "name": "Angath", "country": "AT", "coord": {"lon": 12.06503, "lat": 47.509281}}, {"id": 2782534, "name": "Angath", "country": "AT", "coord": {"lon": 12.06667, "lat": 47.5}}, {"id": 7872856, "name": "Andlersdorf", "country": "AT", "coord": {"lon": 16.67605, "lat": 48.181671}}, {"id": 2782544, "name": "Andlersdorf", "country": "AT", "coord": {"lon": 16.66667, "lat": 48.183331}}, {"id": 7872653, "name": "Andelsbuch", "country": "AT", "coord": {"lon": 9.90295, "lat": 47.403702}}, {"id": 2782551, "name": "Andelsbuch", "country": "AT", "coord": {"lon": 9.89559, "lat": 47.41357}}, {"id": 7872713, "name": "Andau", "country": "AT", "coord": {"lon": 17.041109, "lat": 47.773621}}, {"id": 2782552, "name": "Andau", "country": "AT", "coord": {"lon": 17.03293, "lat": 47.77441}}, {"id": 7872588, "name": "Amlach", "country": "AT", "coord": {"lon": 12.76552, "lat": 46.78001}}, {"id": 2782572, "name": "Amlach", "country": "AT", "coord": {"lon": 12.76361, "lat": 46.816391}}, {"id": 7873132, "name": "Altm\u00fcnster", "country": "AT", "coord": {"lon": 13.76415, "lat": 47.900921}}, {"id": 2782627, "name": "Altmunster", "country": "AT", "coord": {"lon": 13.76415, "lat": 47.902191}}, {"id": 7871961, "name": "Altmelon", "country": "AT", "coord": {"lon": 14.96474, "lat": 48.437271}}, {"id": 2782628, "name": "Altmelon", "country": "AT", "coord": {"lon": 14.96667, "lat": 48.450001}}, {"id": 7871836, "name": "Altlichtenwarth", "country": "AT", "coord": {"lon": 16.800501, "lat": 48.651421}}, {"id": 2782633, "name": "Altlichtenwarth", "country": "AT", "coord": {"lon": 16.799999, "lat": 48.633331}}, {"id": 7873006, "name": "Altlengbach", "country": "AT", "coord": {"lon": 15.93414, "lat": 48.144989}}, {"id": 2782635, "name": "Altlengbach", "country": "AT", "coord": {"lon": 15.92606, "lat": 48.153549}}, {"id": 7871640, "name": "Althofen", "country": "AT", "coord": {"lon": 14.46755, "lat": 46.88179}}, {"id": 2782645, "name": "Althofen", "country": "AT", "coord": {"lon": 14.47449, "lat": 46.872978}}, {"id": 7871965, "name": "Altheim", "country": "AT", "coord": {"lon": 13.23149, "lat": 48.251942}}, {"id": 2782649, "name": "Altheim", "country": "AT", "coord": {"lon": 13.23406, "lat": 48.251541}}, {"id": 7873306, "name": "Altenmarkt im Pongau", "country": "AT", "coord": {"lon": 13.44097, "lat": 47.333569}}, {"id": 2782673, "name": "Altenmarkt im Pongau", "country": "AT", "coord": {"lon": 13.41667, "lat": 47.383331}}, {"id": 7872314, "name": "Altenmarkt bei F\u00fcrstenfeld", "country": "AT", "coord": {"lon": 16.052361, "lat": 47.070831}}, {"id": 2782678, "name": "Altenmarkt bei Furstenfeld", "country": "AT", "coord": {"lon": 16.049999, "lat": 47.049999}}, {"id": 7871702, "name": "Altenmarkt an der Triesting", "country": "AT", "coord": {"lon": 15.97059, "lat": 48.035801}}, {"id": 2782679, "name": "Altenmarkt an der Triesting", "country": "AT", "coord": {"lon": 15.99661, "lat": 48.01553}}, {"id": 7872985, "name": "Altendorf", "country": "AT", "coord": {"lon": 16.00808, "lat": 47.655991}}, {"id": 2782693, "name": "Altendorf", "country": "AT", "coord": {"lon": 16.01667, "lat": 47.650002}}, {"id": 7872895, "name": "Altenburg", "country": "AT", "coord": {"lon": 15.58086, "lat": 48.64423}}, {"id": 2782697, "name": "Altenburg", "country": "AT", "coord": {"lon": 15.58333, "lat": 48.633331}}, {"id": 7872149, "name": "Altenberg bei Linz", "country": "AT", "coord": {"lon": 14.35012, "lat": 48.373409}}, {"id": 2782700, "name": "Altenberg bei Linz", "country": "AT", "coord": {"lon": 14.35029, "lat": 48.372841}}, {"id": 7872434, "name": "Altaussee", "country": "AT", "coord": {"lon": 13.78453, "lat": 47.6698}}, {"id": 2782724, "name": "Altaussee", "country": "AT", "coord": {"lon": 13.76667, "lat": 47.633331}}, {"id": 7873740, "name": "Altach", "country": "AT", "coord": {"lon": 9.64752, "lat": 47.357071}}, {"id": 2782728, "name": "Altach", "country": "AT", "coord": {"lon": 9.65, "lat": 47.349998}}, {"id": 7872814, "name": "Allhartsberg", "country": "AT", "coord": {"lon": 14.80809, "lat": 48.025719}}, {"id": 2782782, "name": "Allhartsberg", "country": "AT", "coord": {"lon": 14.79009, "lat": 48.026329}}, {"id": 7872455, "name": "Allerheiligen im M\u00fcrztal", "country": "AT", "coord": {"lon": 15.43824, "lat": 47.4552}}, {"id": 2782795, "name": "Allerheiligen im Murztal", "country": "AT", "coord": {"lon": 15.4, "lat": 47.466671}}, {"id": 7873457, "name": "Allerheiligen bei Wildon", "country": "AT", "coord": {"lon": 15.57112, "lat": 46.912121}}, {"id": 2782797, "name": "Allerheiligen bei Wildon", "country": "AT", "coord": {"lon": 15.55444, "lat": 46.914169}}, {"id": 7873077, "name": "Allentsteig", "country": "AT", "coord": {"lon": 15.33062, "lat": 48.683739}}, {"id": 2782800, "name": "Allentsteig", "country": "AT", "coord": {"lon": 15.32756, "lat": 48.69725}}, {"id": 7872531, "name": "Aldrans", "country": "AT", "coord": {"lon": 11.47191, "lat": 47.240582}}, {"id": 2782813, "name": "Aldrans", "country": "AT", "coord": {"lon": 11.45, "lat": 47.25}}, {"id": 7873231, "name": "Alberndorf in der Riedmark", "country": "AT", "coord": {"lon": 14.41578, "lat": 48.406071}}, {"id": 2782830, "name": "Alberndorf in der Riedmark", "country": "AT", "coord": {"lon": 14.41441, "lat": 48.406071}}, {"id": 7873674, "name": "Ainet", "country": "AT", "coord": {"lon": 12.69985, "lat": 46.897831}}, {"id": 2782852, "name": "Ainet", "country": "AT", "coord": {"lon": 12.70139, "lat": 46.866112}}, {"id": 7873490, "name": "Aigen im Ennstal", "country": "AT", "coord": {"lon": 14.18888, "lat": 47.48632}}, {"id": 2782861, "name": "Aigen im Ennstal", "country": "AT", "coord": {"lon": 14.13333, "lat": 47.51667}}, {"id": 7872181, "name": "Aichkirchen", "country": "AT", "coord": {"lon": 13.78109, "lat": 48.114849}}, {"id": 2782887, "name": "Aichkirchen", "country": "AT", "coord": {"lon": 13.78333, "lat": 48.099998}}, {"id": 7872433, "name": "Aich", "country": "AT", "coord": {"lon": 13.81773, "lat": 47.438389}}, {"id": 2782915, "name": "Aich", "country": "AT", "coord": {"lon": 13.81667, "lat": 47.416672}}, {"id": 7873346, "name": "Aibl", "country": "AT", "coord": {"lon": 15.1763, "lat": 46.675789}}, {"id": 2782926, "name": "Aibl", "country": "AT", "coord": {"lon": 15.21667, "lat": 46.683331}}, {"id": 2782957, "name": "Aggsbach", "country": "AT", "coord": {"lon": 15.41667, "lat": 48.283329}}, {"id": 2782955, "name": "Aggsbach", "country": "AT", "coord": {"lon": 15.40382, "lat": 48.294041}}, {"id": 7872253, "name": "Aflenz Kurort", "country": "AT", "coord": {"lon": 15.22619, "lat": 47.573952}}, {"id": 2782967, "name": "Aflenz Kurort", "country": "AT", "coord": {"lon": 15.23333, "lat": 47.533329}}, {"id": 7872195, "name": "Adnet", "country": "AT", "coord": {"lon": 13.16122, "lat": 47.710732}}, {"id": 2782976, "name": "Adnet", "country": "AT", "coord": {"lon": 13.13333, "lat": 47.683331}}, {"id": 7872432, "name": "Admont", "country": "AT", "coord": {"lon": 14.47188, "lat": 47.56155}}, {"id": 2782979, "name": "Admont", "country": "AT", "coord": {"lon": 14.46075, "lat": 47.575371}}, {"id": 7872855, "name": "Aderklaa", "country": "AT", "coord": {"lon": 16.53336, "lat": 48.277401}}, {"id": 2782991, "name": "Aderklaa", "country": "AT", "coord": {"lon": 16.533331, "lat": 48.283329}}, {"id": 7872622, "name": "Achenkirch", "country": "AT", "coord": {"lon": 11.69183, "lat": 47.53627}}, {"id": 2783035, "name": "Achenkirch", "country": "AT", "coord": {"lon": 11.70559, "lat": 47.526588}}, {"id": 7871849, "name": "Achau", "country": "AT", "coord": {"lon": 16.38772, "lat": 48.079029}}, {"id": 2783040, "name": "Achau", "country": "AT", "coord": {"lon": 16.38611, "lat": 48.080261}}, {"id": 7873283, "name": "Abtenau", "country": "AT", "coord": {"lon": 13.34556, "lat": 47.564541}}, {"id": 2783050, "name": "Abtenau", "country": "AT", "coord": {"lon": 13.34599, "lat": 47.563728}}, {"id": 7873599, "name": "Absam", "country": "AT", "coord": {"lon": 11.49926, "lat": 47.33453}}, {"id": 2783058, "name": "Absam", "country": "AT", "coord": {"lon": 11.5, "lat": 47.299999}}, {"id": 7872587, "name": "Abfaltersbach", "country": "AT", "coord": {"lon": 12.51362, "lat": 46.766319}}, {"id": 2783062, "name": "Abfaltersbach", "country": "AT", "coord": {"lon": 12.54194, "lat": 46.760281}}, {"id": 2765938, "name": "Schlaiten", "country": "AT", "coord": {"lon": 12.65, "lat": 46.866669}}, {"id": 3217367, "name": "Schlaiten", "country": "AT", "coord": {"lon": 12.65417, "lat": 46.87944}}, {"id": 2763653, "name": "Thurn", "country": "AT", "coord": {"lon": 12.76667, "lat": 46.849998}}, {"id": 3217418, "name": "Thurn", "country": "AT", "coord": {"lon": 12.76861, "lat": 46.850559}}, {"id": 2762603, "name": "Untertilliach", "country": "AT", "coord": {"lon": 12.68333, "lat": 46.700001}}, {"id": 3217911, "name": "Untertilliach", "country": "AT", "coord": {"lon": 12.70861, "lat": 46.70417}}, {"id": 3219446, "name": "Molbling", "country": "AT", "coord": {"lon": 14.44806, "lat": 46.862221}}, {"id": 7873252, "name": "Attnang-Puchheim", "country": "AT", "coord": {"lon": 13.71499, "lat": 48.011211}}, {"id": 3233832, "name": "Attnang-Puchheim", "country": "AT", "coord": {"lon": 13.71667, "lat": 48.008331}}, {"id": 2769901, "name": "Obernberg am Brenner", "country": "AT", "coord": {"lon": 11.41667, "lat": 47.01667}}, {"id": 3319486, "name": "Obernberg am Brenner", "country": "AT", "coord": {"lon": 11.41667, "lat": 47.01667}}, {"id": 7872540, "name": "M\u00fchlbachl", "country": "AT", "coord": {"lon": 11.4236, "lat": 47.129719}}, {"id": 3319503, "name": "Muhlbachl", "country": "AT", "coord": {"lon": 11.45, "lat": 47.133331}}, {"id": 7872538, "name": "Leutasch", "country": "AT", "coord": {"lon": 11.15122, "lat": 47.380989}}, {"id": 3319549, "name": "Leutasch", "country": "AT", "coord": {"lon": 11.14404, "lat": 47.3689}}, {"id": 2770909, "name": "Navis", "country": "AT", "coord": {"lon": 11.53333, "lat": 47.116669}}, {"id": 3319571, "name": "Navis", "country": "AT", "coord": {"lon": 11.53333, "lat": 47.116669}}, {"id": 2780146, "name": "Ellb\u00f6gen", "country": "AT", "coord": {"lon": 11.45, "lat": 47.166672}}, {"id": 3319572, "name": "Ellbogen", "country": "AT", "coord": {"lon": 11.45, "lat": 47.166672}}, {"id": 2765179, "name": "Sellrain", "country": "AT", "coord": {"lon": 11.23333, "lat": 47.216671}}, {"id": 3319573, "name": "Sellrain", "country": "AT", "coord": {"lon": 11.21667, "lat": 47.216671}}, {"id": 2769841, "name": "Oberperfuss", "country": "AT", "coord": {"lon": 11.25, "lat": 47.23333}}, {"id": 3319575, "name": "Oberperfuss", "country": "AT", "coord": {"lon": 11.25, "lat": 47.23333}}, {"id": 2769555, "name": "Obsteig", "country": "AT", "coord": {"lon": 10.93333, "lat": 47.299999}}, {"id": 3319578, "name": "Obsteig", "country": "AT", "coord": {"lon": 10.93333, "lat": 47.299999}}, {"id": 2773772, "name": "Kolsassberg", "country": "AT", "coord": {"lon": 11.63333, "lat": 47.299999}}, {"id": 3319579, "name": "Kolsassberg", "country": "AT", "coord": {"lon": 11.63333, "lat": 47.299999}}, {"id": 2778430, "name": "Gnadenwald", "country": "AT", "coord": {"lon": 11.58333, "lat": 47.333328}}, {"id": 3319580, "name": "Gnadenwald", "country": "AT", "coord": {"lon": 11.56667, "lat": 47.316669}}, {"id": 2780307, "name": "Ehrwald", "country": "AT", "coord": {"lon": 10.91667, "lat": 47.400002}}, {"id": 3319581, "name": "Ehrwald", "country": "AT", "coord": {"lon": 10.91667, "lat": 47.400002}}, {"id": 7873071, "name": "Lanzendorf", "country": "AT", "coord": {"lon": 16.43251, "lat": 48.111481}}, {"id": 3322673, "name": "Lanzendorf", "country": "AT", "coord": {"lon": 16.445, "lat": 48.110561}}, {"id": 7872609, "name": "Heinfels", "country": "AT", "coord": {"lon": 12.44903, "lat": 46.750462}}, {"id": 3323819, "name": "Heinfels", "country": "AT", "coord": {"lon": 12.45, "lat": 46.75}}, {"id": 2778659, "name": "Gerlosberg", "country": "AT", "coord": {"lon": 11.93333, "lat": 47.216671}}, {"id": 3323920, "name": "Gerlosberg", "country": "AT", "coord": {"lon": 11.93333, "lat": 47.216671}}, {"id": 2778661, "name": "Gerlos", "country": "AT", "coord": {"lon": 12.03333, "lat": 47.23333}}, {"id": 3323921, "name": "Gerlos", "country": "AT", "coord": {"lon": 12, "lat": 47.216671}}, {"id": 2773437, "name": "Krimml", "country": "AT", "coord": {"lon": 12.18333, "lat": 47.216671}}, {"id": 3323923, "name": "Krimml", "country": "AT", "coord": {"lon": 12.18333, "lat": 47.216671}}, {"id": 2767278, "name": "Rohrberg", "country": "AT", "coord": {"lon": 11.9, "lat": 47.23333}}, {"id": 3323924, "name": "Rohrberg", "country": "AT", "coord": {"lon": 11.91667, "lat": 47.23333}}, {"id": 2767467, "name": "Ried im Zillertal", "country": "AT", "coord": {"lon": 11.86667, "lat": 47.299999}}, {"id": 3323944, "name": "Ried im Zillertal", "country": "AT", "coord": {"lon": 11.86667, "lat": 47.299999}}, {"id": 2782758, "name": "Alpbach", "country": "AT", "coord": {"lon": 11.93333, "lat": 47.383331}}, {"id": 3323982, "name": "Alpbach", "country": "AT", "coord": {"lon": 11.94373, "lat": 47.398781}}, {"id": 2775168, "name": "Itter", "country": "AT", "coord": {"lon": 12.13333, "lat": 47.466671}}, {"id": 3324013, "name": "Itter", "country": "AT", "coord": {"lon": 12.13333, "lat": 47.466671}}, {"id": 2781584, "name": "Brand", "country": "AT", "coord": {"lon": 9.74334, "lat": 47.109871}}, {"id": 3324292, "name": "Brand", "country": "AT", "coord": {"lon": 9.73722, "lat": 47.10083}}, {"id": 7871645, "name": "Liebenfels", "country": "AT", "coord": {"lon": 14.2556, "lat": 46.752861}}, {"id": 3324633, "name": "Liebenfels", "country": "AT", "coord": {"lon": 14.28667, "lat": 46.737782}}, {"id": 7871648, "name": "Frauenstein", "country": "AT", "coord": {"lon": 14.30737, "lat": 46.805031}}, {"id": 3324645, "name": "Frauenstein", "country": "AT", "coord": {"lon": 14.29417, "lat": 46.814171}}, {"id": 7872377, "name": "Eppenstein", "country": "AT", "coord": {"lon": 14.75007, "lat": 47.1147}}, {"id": 3324790, "name": "Eppenstein", "country": "AT", "coord": {"lon": 14.7375, "lat": 47.12833}}, {"id": 3324882, "name": "Bretstein", "country": "AT", "coord": {"lon": 14.41972, "lat": 47.3325}}, {"id": 7872962, "name": "Hochleithen", "country": "AT", "coord": {"lon": 16.53093, "lat": 48.448818}}, {"id": 3333673, "name": "Hochleithen", "country": "AT", "coord": {"lon": 16.533331, "lat": 48.466671}}, {"id": 2766467, "name": "Sankt Oswald ob Eibiswald", "country": "AT", "coord": {"lon": 15.13333, "lat": 46.700001}}, {"id": 3339261, "name": "Sankt Oswald ob Eibiswald", "country": "AT", "coord": {"lon": 15.14667, "lat": 46.708328}}, {"id": 7872573, "name": "Wildsch\u00f6nau", "country": "AT", "coord": {"lon": 12.03896, "lat": 47.406059}}, {"id": 6355129, "name": "Wildschoenau", "country": "AT", "coord": {"lon": 12.03784, "lat": 47.406189}}, {"id": 2772986, "name": "Langkampfen", "country": "AT", "coord": {"lon": 12.1, "lat": 47.533329}}, {"id": 6559656, "name": "Langkampfen", "country": "AT", "coord": {"lon": 12.09325, "lat": 47.551109}}, {"id": 7872332, "name": "Hart bei Graz", "country": "AT", "coord": {"lon": 15.52512, "lat": 47.059341}}, {"id": 6619861, "name": "Hart bei Graz", "country": "AT", "coord": {"lon": 15.51527, "lat": 47.04311}}, {"id": 7872776, "name": "Berg im Drautal", "country": "AT", "coord": {"lon": 13.13489, "lat": 46.743752}}, {"id": 6692402, "name": "Berg im Drautal", "country": "AT", "coord": {"lon": 13.13536, "lat": 46.749149}}, {"id": 7871604, "name": "Lockenhaus", "country": "AT", "coord": {"lon": 16.41062, "lat": 47.391399}}, {"id": 6692403, "name": "Lockenhaus", "country": "AT", "coord": {"lon": 16.416229, "lat": 47.407532}}, {"id": 7872777, "name": "Gro\u00dfkirchheim", "country": "AT", "coord": {"lon": 12.89276, "lat": 46.984631}}, {"id": 6942812, "name": "Grosskirchheim", "country": "AT", "coord": {"lon": 12.90482, "lat": 46.973518}}, {"id": 2781105, "name": "Dam\u00fcls", "country": "AT", "coord": {"lon": 9.88333, "lat": 47.283329}}, {"id": 6949508, "name": "Damuels", "country": "AT", "coord": {"lon": 9.89164, "lat": 47.280338}}, {"id": 7872372, "name": "Bad Waltersdorf", "country": "AT", "coord": {"lon": 16.00668, "lat": 47.153111}}, {"id": 6950966, "name": "Bad Waltersdorf", "country": "AT", "coord": {"lon": 16.008699, "lat": 47.169601}}, {"id": 7873232, "name": "Bad Leonfelden", "country": "AT", "coord": {"lon": 14.29579, "lat": 48.521099}}, {"id": 7279898, "name": "Bad Leonfelden", "country": "AT", "coord": {"lon": 14.29459, "lat": 48.52047}}, {"id": 2768931, "name": "Pfarrwerfen", "country": "AT", "coord": {"lon": 13.2, "lat": 47.450001}}, {"id": 7290052, "name": "Pfarrwerfen", "country": "AT", "coord": {"lon": 13.20531, "lat": 47.457291}}, {"id": 2763767, "name": "Thal", "country": "AT", "coord": {"lon": 15.36667, "lat": 47.066669}}, {"id": 7304078, "name": "Thal", "country": "AT", "coord": {"lon": 15.36052, "lat": 47.076439}}, {"id": 2781160, "name": "B\u00fcrserberg", "country": "AT", "coord": {"lon": 9.76667, "lat": 47.149719}}, {"id": 7580215, "name": "Buerserberg", "country": "AT", "coord": {"lon": 9.77736, "lat": 47.146439}}, {"id": 7873688, "name": "Holzgau", "country": "AT", "coord": {"lon": 10.32684, "lat": 47.273109}}, {"id": 7581189, "name": "Holzgau", "country": "AT", "coord": {"lon": 10.34419, "lat": 47.260448}}, {"id": 2765595, "name": "Schr\u00f6cken", "country": "AT", "coord": {"lon": 10.08333, "lat": 47.25}}, {"id": 7667386, "name": "Schroecken", "country": "AT", "coord": {"lon": 10.09272, "lat": 47.257401}}, {"id": 7872045, "name": "Rossleithen", "country": "AT", "coord": {"lon": 14.2751, "lat": 47.701099}}, {"id": 7871049, "name": "Rossleithen", "country": "AT", "coord": {"lon": 14.2736, "lat": 47.701698}}, {"id": 2766704, "name": "Sankt Georgen am Walde", "country": "AT", "coord": {"lon": 14.89789, "lat": 48.359039}}, {"id": 7871067, "name": "Sankt Georgen am Walde", "country": "AT", "coord": {"lon": 14.90235, "lat": 48.359791}}, {"id": 2770905, "name": "Nebelberg", "country": "AT", "coord": {"lon": 13.84561, "lat": 48.628429}}, {"id": 7909799, "name": "Nebelberg", "country": "AT", "coord": {"lon": 13.84629, "lat": 48.62854}}, {"id": 2058304, "name": "Williamstown", "country": "AU", "coord": {"lon": 138.866669, "lat": -34.666672}}, {"id": 2059470, "name": "Victor Harbor", "country": "AU", "coord": {"lon": 138.616669, "lat": -35.566669}}, {"id": 2059895, "name": "Trigg", "country": "AU", "coord": {"lon": 115.757103, "lat": -31.86939}}, {"id": 2060994, "name": "Stoneville", "country": "AU", "coord": {"lon": 121.76667, "lat": -30.866671}}, {"id": 2061261, "name": "South Perth", "country": "AU", "coord": {"lon": 115.866669, "lat": -31.98333}}, {"id": 2061840, "name": "Scarborough", "country": "AU", "coord": {"lon": 115.764313, "lat": -31.895781}}, {"id": 2062057, "name": "Safety Bay", "country": "AU", "coord": {"lon": 115.699997, "lat": -32.299999}}, {"id": 7839457, "name": "Roxby Downs", "country": "AU", "coord": {"lon": 136.883774, "lat": -30.54892}}, {"id": 2062151, "name": "Roxby Downs", "country": "AU", "coord": {"lon": 136.895462, "lat": -30.563049}}, {"id": 2062428, "name": "Maida Vale", "country": "AU", "coord": {"lon": 116.027641, "lat": -31.95187}}, {"id": 7839454, "name": "Prospect", "country": "AU", "coord": {"lon": 138.600388, "lat": -34.884571}}, {"id": 2062944, "name": "Prospect", "country": "AU", "coord": {"lon": 138.593307, "lat": -34.882408}}, {"id": 7839410, "name": "Victoria-Daly", "country": "AU", "coord": {"lon": 130.761658, "lat": -15.9292}}, {"id": 2063039, "name": "Port Keats", "country": "AU", "coord": {"lon": 129.550003, "lat": -14.25}}, {"id": 2063059, "name": "Port Adelaide", "country": "AU", "coord": {"lon": 138.466675, "lat": -34.849998}}, {"id": 7839448, "name": "Peterborough", "country": "AU", "coord": {"lon": 139.026077, "lat": -32.84787}}, {"id": 2063518, "name": "Peterborough", "country": "AU", "coord": {"lon": 138.833328, "lat": -32.966671}}, {"id": 2063705, "name": "Pearce", "country": "AU", "coord": {"lon": 116.01667, "lat": -31.66667}}, {"id": 2064546, "name": "North Beach", "country": "AU", "coord": {"lon": 115.756241, "lat": -31.86298}}, {"id": 2064549, "name": "Northampton", "country": "AU", "coord": {"lon": 114.616669, "lat": -28.35}}, {"id": 2064655, "name": "Noarlunga", "country": "AU", "coord": {"lon": 138.5, "lat": -35.183331}}, {"id": 2064874, "name": "Nedlands", "country": "AU", "coord": {"lon": 115.800003, "lat": -31.98333}}, {"id": 2065666, "name": "Mount Barker", "country": "AU", "coord": {"lon": 117.666672, "lat": -34.633331}}, {"id": 2065710, "name": "Mosman Park", "country": "AU", "coord": {"lon": 115.75, "lat": -32}}, {"id": 2066338, "name": "Midland", "country": "AU", "coord": {"lon": 116, "lat": -31.9}}, {"id": 2066524, "name": "Melville", "country": "AU", "coord": {"lon": 116.73333, "lat": -28.183331}}, {"id": 2066626, "name": "Meadows", "country": "AU", "coord": {"lon": 138.75, "lat": -35.183331}}, {"id": 2067074, "name": "Manning", "country": "AU", "coord": {"lon": 115.867142, "lat": -32.015942}}, {"id": 2067307, "name": "Macclesfield", "country": "AU", "coord": {"lon": 138.833328, "lat": -35.183331}}, {"id": 2067929, "name": "Largs Bay", "country": "AU", "coord": {"lon": 138.466675, "lat": -34.799999}}, {"id": 2068429, "name": "Kingscote", "country": "AU", "coord": {"lon": 137.633331, "lat": -35.666672}}, {"id": 2070478, "name": "Grasmere", "country": "AU", "coord": {"lon": 117.755562, "lat": -35.018059}}, {"id": 2070515, "name": "Grange", "country": "AU", "coord": {"lon": 138.483337, "lat": -34.900002}}, {"id": 2070667, "name": "Goolwa", "country": "AU", "coord": {"lon": 138.784622, "lat": -35.502609}}, {"id": 2071860, "name": "Esperance", "country": "AU", "coord": {"lon": 121.900002, "lat": -33.866669}}, {"id": 2071961, "name": "Encounter Bay", "country": "AU", "coord": {"lon": 138.600006, "lat": -35.583328}}, {"id": 2072728, "name": "Chidlow", "country": "AU", "coord": {"lon": 116.27243, "lat": -31.860941}}, {"id": 2072945, "name": "Denmark", "country": "AU", "coord": {"lon": 117.35321, "lat": -34.96067}}, {"id": 2073139, "name": "Darlington", "country": "AU", "coord": {"lon": 138.566666, "lat": -35.033329}}, {"id": 2073200, "name": "Dampier", "country": "AU", "coord": {"lon": 116.699997, "lat": -20.66667}}, {"id": 2073523, "name": "Craigburn Farm", "country": "AU", "coord": {"lon": 138.616669, "lat": -35.049999}}, {"id": 2073969, "name": "Coogee", "country": "AU", "coord": {"lon": 115.76667, "lat": -32.116669}}, {"id": 2074685, "name": "Ceduna", "country": "AU", "coord": {"lon": 133.666672, "lat": -32.116669}}, {"id": 2074865, "name": "Carnarvon", "country": "AU", "coord": {"lon": 113.633331, "lat": -24.866671}}, {"id": 2075056, "name": "Campbelltown", "country": "AU", "coord": {"lon": 138.666672, "lat": -34.883331}}, {"id": 2075265, "name": "Busselton", "country": "AU", "coord": {"lon": 115.333328, "lat": -33.650002}}, {"id": 2076526, "name": "Birkenhead", "country": "AU", "coord": {"lon": 138.5, "lat": -34.833328}}, {"id": 2076817, "name": "Bellevue", "country": "AU", "coord": {"lon": 116.01667, "lat": -31.9}}, {"id": 2078766, "name": "Quinns Rocks", "country": "AU", "coord": {"lon": 115.67778, "lat": -31.68611}}, {"id": 2079020, "name": "Jurien Bay", "country": "AU", "coord": {"lon": 115.037498, "lat": -30.304171}}, {"id": 7839517, "name": "Joondalup", "country": "AU", "coord": {"lon": 115.764977, "lat": -31.779619}}, {"id": 2079189, "name": "Mullaloo", "country": "AU", "coord": {"lon": 115.736763, "lat": -31.778959}}, {"id": 2079691, "name": "Larrakeyah", "country": "AU", "coord": {"lon": 130.831726, "lat": -12.45527}}, {"id": 2079707, "name": "Glen Iris", "country": "AU", "coord": {"lon": 115.666672, "lat": -33.341671}}, {"id": 2142930, "name": "Woorim", "country": "AU", "coord": {"lon": 153.216675, "lat": -27.066669}}, {"id": 2144033, "name": "Westcourt", "country": "AU", "coord": {"lon": 150.149994, "lat": -26.799999}}, {"id": 2144044, "name": "Westbury", "country": "AU", "coord": {"lon": 146.850006, "lat": -41.51667}}, {"id": 2144157, "name": "Wellington Point", "country": "AU", "coord": {"lon": 153.25, "lat": -27.48333}}, {"id": 2145532, "name": "Ulverstone", "country": "AU", "coord": {"lon": 146.166672, "lat": -41.150002}}, {"id": 2146334, "name": "Toolooa", "country": "AU", "coord": {"lon": 151.283325, "lat": -23.933331}}, {"id": 2146567, "name": "Tin Can Bay", "country": "AU", "coord": {"lon": 153, "lat": -25.91667}}, {"id": 2146945, "name": "The Entrance", "country": "AU", "coord": {"lon": 151.5, "lat": -33.349998}}, {"id": 2147347, "name": "Taroom", "country": "AU", "coord": {"lon": 149.800003, "lat": -25.65}}, {"id": 2148070, "name": "Strathpine", "country": "AU", "coord": {"lon": 152.989777, "lat": -27.30414}}, {"id": 2149106, "name": "Sorrento", "country": "AU", "coord": {"lon": 144.733337, "lat": -38.316669}}, {"id": 2149254, "name": "Smithton", "country": "AU", "coord": {"lon": 145.116669, "lat": -40.833328}}, {"id": 2149687, "name": "Sheffield", "country": "AU", "coord": {"lon": 146.333328, "lat": -41.383331}}, {"id": 2149936, "name": "Sebastopol", "country": "AU", "coord": {"lon": 143.839523, "lat": -37.58532}}, {"id": 2150483, "name": "Sandgate", "country": "AU", "coord": {"lon": 153.069504, "lat": -27.32198}}, {"id": 2150679, "name": "St Helens", "country": "AU", "coord": {"lon": 148.238892, "lat": -41.320278}}, {"id": 2151513, "name": "Riverview", "country": "AU", "coord": {"lon": 152.850006, "lat": -27.6}}, {"id": 2151682, "name": "Rhodes", "country": "AU", "coord": {"lon": 151.083328, "lat": -33.833328}}, {"id": 2151735, "name": "Renmark West", "country": "AU", "coord": {"lon": 140.699997, "lat": -34.166672}}, {"id": 2151892, "name": "Redland Bay", "country": "AU", "coord": {"lon": 153.302444, "lat": -27.61343}}, {"id": 2151905, "name": "Red Hill", "country": "AU", "coord": {"lon": 148.5, "lat": -20.316669}}, {"id": 2151932, "name": "Redfern", "country": "AU", "coord": {"lon": 151.204147, "lat": -33.892792}}, {"id": 2152272, "name": "Queenstown", "country": "AU", "coord": {"lon": 145.550003, "lat": -42.083328}}, {"id": 2152279, "name": "Queenscliff", "country": "AU", "coord": {"lon": 144.649994, "lat": -38.26667}}, {"id": 2152669, "name": "Port Kennedy", "country": "AU", "coord": {"lon": 142.217773, "lat": -10.585}}, {"id": 2152671, "name": "Port Kembla", "country": "AU", "coord": {"lon": 150.899994, "lat": -34.466671}}, {"id": 2152820, "name": "Point Clare", "country": "AU", "coord": {"lon": 151.333328, "lat": -33.450001}}, {"id": 2153336, "name": "Phillip", "country": "AU", "coord": {"lon": 150.850006, "lat": -31.133329}}, {"id": 2153633, "name": "Peak Hill", "country": "AU", "coord": {"lon": 148.183334, "lat": -32.73333}}, {"id": 2153924, "name": "Palm Beach", "country": "AU", "coord": {"lon": 151.323837, "lat": -33.596642}}, {"id": 2154949, "name": "North Haven", "country": "AU", "coord": {"lon": 152.816666, "lat": -31.633329}}, {"id": 2155135, "name": "Noosa Heads", "country": "AU", "coord": {"lon": 153.149994, "lat": -26.383329}}, {"id": 2155562, "name": "Nelson Bay", "country": "AU", "coord": {"lon": 152.149994, "lat": -32.716671}}, {"id": 2155745, "name": "Narrabeen", "country": "AU", "coord": {"lon": 151.297363, "lat": -33.712769}}, {"id": 2155848, "name": "Nana Glen", "country": "AU", "coord": {"lon": 153.016663, "lat": -30.133329}}, {"id": 2155859, "name": "Nambucca", "country": "AU", "coord": {"lon": 152.983337, "lat": -30.633329}}, {"id": 2156404, "name": "Mudgee", "country": "AU", "coord": {"lon": 149.587097, "lat": -32.594261}}, {"id": 2156853, "name": "Mortdale", "country": "AU", "coord": {"lon": 151.083328, "lat": -33.966671}}, {"id": 2157343, "name": "Moe", "country": "AU", "coord": {"lon": 146.266663, "lat": -38.166672}}, {"id": 2157601, "name": "Milton", "country": "AU", "coord": {"lon": 150.433334, "lat": -35.316669}}, {"id": 2158745, "name": "Margate", "country": "AU", "coord": {"lon": 153.098083, "lat": -27.24761}}, {"id": 2160944, "name": "Kuranda", "country": "AU", "coord": {"lon": 145.649994, "lat": -16.816669}}, {"id": 2161029, "name": "Kotara", "country": "AU", "coord": {"lon": 151.683334, "lat": -32.950001}}, {"id": 2161251, "name": "Kirribilli", "country": "AU", "coord": {"lon": 151.216675, "lat": -33.849998}}, {"id": 2161313, "name": "Kingston", "country": "AU", "coord": {"lon": 140.350006, "lat": -34.23333}}, {"id": 2161515, "name": "Kiama", "country": "AU", "coord": {"lon": 150.866669, "lat": -34.683331}}, {"id": 2161863, "name": "Kanwal", "country": "AU", "coord": {"lon": 151.491776, "lat": -33.25391}}, {"id": 2163697, "name": "Heathcote", "country": "AU", "coord": {"lon": 151.016663, "lat": -34.083328}}, {"id": 2163755, "name": "Haymarket", "country": "AU", "coord": {"lon": 151.205261, "lat": -33.878681}}, {"id": 2163788, "name": "Hawks Nest", "country": "AU", "coord": {"lon": 152.166672, "lat": -32.666672}}, {"id": 2164123, "name": "Haberfield", "country": "AU", "coord": {"lon": 151.199997, "lat": -33.883331}}, {"id": 2164700, "name": "Granton", "country": "AU", "coord": {"lon": 147.227951, "lat": -42.751492}}, {"id": 2164849, "name": "Gosford", "country": "AU", "coord": {"lon": 151.350006, "lat": -33.433331}}, {"id": 2164904, "name": "Gordon", "country": "AU", "coord": {"lon": 152.716675, "lat": -29.299999}}, {"id": 2165065, "name": "Gol Gol", "country": "AU", "coord": {"lon": 142.216675, "lat": -34.183331}}, {"id": 2165291, "name": "Glen Innes", "country": "AU", "coord": {"lon": 151.733337, "lat": -29.73333}}, {"id": 2165692, "name": "Gerringong", "country": "AU", "coord": {"lon": 150.850006, "lat": -34.75}}, {"id": 2166160, "name": "Franklin", "country": "AU", "coord": {"lon": 147, "lat": -43.083328}}, {"id": 2166814, "name": "Federal", "country": "AU", "coord": {"lon": 153.449997, "lat": -28.65}}, {"id": 2166893, "name": "Falls Creek", "country": "AU", "coord": {"lon": 150.600006, "lat": -34.966671}}, {"id": 2167145, "name": "Eulomogo", "country": "AU", "coord": {"lon": 148.683334, "lat": -32.26667}}, {"id": 2167185, "name": "Ettalong", "country": "AU", "coord": {"lon": 151.350006, "lat": -33.51667}}, {"id": 2167391, "name": "Empire Bay", "country": "AU", "coord": {"lon": 151.366669, "lat": -33.5}}, {"id": 2167426, "name": "Emerald", "country": "AU", "coord": {"lon": 148.166672, "lat": -23.533331}}, {"id": 2169302, "name": "Davistown", "country": "AU", "coord": {"lon": 151.366669, "lat": -33.48333}}, {"id": 2169378, "name": "Darlinghurst", "country": "AU", "coord": {"lon": 151.219254, "lat": -33.879391}}, {"id": 2169413, "name": "Darch", "country": "AU", "coord": {"lon": 145.116669, "lat": -37.75}}, {"id": 2170162, "name": "Cowes", "country": "AU", "coord": {"lon": 145.233337, "lat": -38.450001}}, {"id": 2170581, "name": "Coolum Beach", "country": "AU", "coord": {"lon": 153.100006, "lat": -26.533331}}, {"id": 2171320, "name": "Clifton Springs", "country": "AU", "coord": {"lon": 144.566666, "lat": -38.150002}}, {"id": 2171360, "name": "Cleveland", "country": "AU", "coord": {"lon": 153.266663, "lat": -27.533331}}, {"id": 2171476, "name": "Claremont", "country": "AU", "coord": {"lon": 147.25, "lat": -42.783329}}, {"id": 2171522, "name": "Churchill", "country": "AU", "coord": {"lon": 152.750214, "lat": -27.64233}}, {"id": 2171589, "name": "Chippendale", "country": "AU", "coord": {"lon": 151.197449, "lat": -33.88673}}, {"id": 2171594, "name": "Chinderah", "country": "AU", "coord": {"lon": 153.550003, "lat": -28.23333}}, {"id": 2171766, "name": "Charlestown", "country": "AU", "coord": {"lon": 151.666672, "lat": -32.950001}}, {"id": 2172563, "name": "Camperdown", "country": "AU", "coord": {"lon": 151.176422, "lat": -33.889648}}, {"id": 2172586, "name": "Campbelltown", "country": "AU", "coord": {"lon": 150.816666, "lat": -34.066669}}, {"id": 2173306, "name": "Bundanoon", "country": "AU", "coord": {"lon": 150.300003, "lat": -34.650002}}, {"id": 2173310, "name": "Bundamba", "country": "AU", "coord": {"lon": 152.811325, "lat": -27.60947}}, {"id": 2173592, "name": "Budgewoi", "country": "AU", "coord": {"lon": 151.566666, "lat": -33.23333}}, {"id": 2173738, "name": "Brunswick Heads", "country": "AU", "coord": {"lon": 153.550003, "lat": -28.549999}}, {"id": 2173824, "name": "Broulee", "country": "AU", "coord": {"lon": 150.17392, "lat": -35.854691}}, {"id": 2173964, "name": "Broadmeadows", "country": "AU", "coord": {"lon": 144.918777, "lat": -37.680149}}, {"id": 2174040, "name": "Brighton", "country": "AU", "coord": {"lon": 153.057205, "lat": -27.29582}}, {"id": 2174066, "name": "Bridport", "country": "AU", "coord": {"lon": 147.399994, "lat": -41}}, {"id": 2174853, "name": "Booker Bay", "country": "AU", "coord": {"lon": 151.350006, "lat": -33.51667}}, {"id": 2174976, "name": "Bomaderry", "country": "AU", "coord": {"lon": 150.616669, "lat": -34.849998}}, {"id": 2175375, "name": "Blair Athol", "country": "AU", "coord": {"lon": 150.199997, "lat": -30.65}}, {"id": 2175527, "name": "Blackmans Bay", "country": "AU", "coord": {"lon": 147.316666, "lat": -43.01667}}, {"id": 2176053, "name": "Berry", "country": "AU", "coord": {"lon": 150.699997, "lat": -34.783329}}, {"id": 2176123, "name": "Bentleigh", "country": "AU", "coord": {"lon": 145.035446, "lat": -37.91806}}, {"id": 2176263, "name": "Belmont", "country": "AU", "coord": {"lon": 151.666672, "lat": -33.033329}}, {"id": 2177394, "name": "Bacchus Marsh", "country": "AU", "coord": {"lon": 144.438293, "lat": -37.67268}}, {"id": 2177481, "name": "Austins Ferry", "country": "AU", "coord": {"lon": 147.25, "lat": -42.76667}}, {"id": 2205977, "name": "Bundeena", "country": "AU", "coord": {"lon": 151.149994, "lat": -34.083328}}, {"id": 2205988, "name": "Oyster Bay", "country": "AU", "coord": {"lon": 151.066666, "lat": -34}}, {"id": 2205989, "name": "Grays Point", "country": "AU", "coord": {"lon": 151.083328, "lat": -34.049999}}, {"id": 2206006, "name": "Lugarno", "country": "AU", "coord": {"lon": 151.033325, "lat": -33.98333}}, {"id": 2206117, "name": "Mount Saint Thomas", "country": "AU", "coord": {"lon": 150.872223, "lat": -34.443329}}, {"id": 2206599, "name": "Palm Cove", "country": "AU", "coord": {"lon": 145.666672, "lat": -16.75}}, {"id": 2207841, "name": "Clontarf", "country": "AU", "coord": {"lon": 151.256668, "lat": -33.809719}}, {"id": 2207901, "name": "Point Piper", "country": "AU", "coord": {"lon": 151.25, "lat": -33.866669}}, {"id": 2207908, "name": "Darling Point", "country": "AU", "coord": {"lon": 151.238892, "lat": -33.870831}}, {"id": 2208288, "name": "Bronte", "country": "AU", "coord": {"lon": 151.266663, "lat": -33.900002}}, {"id": 6254975, "name": "Blairgowrie", "country": "AU", "coord": {"lon": 144.779556, "lat": -38.361309}}, {"id": 6255012, "name": "Flinders", "country": "AU", "coord": {"lon": 150.855164, "lat": -34.583328}}, {"id": 6533368, "name": "Moranbah", "country": "AU", "coord": {"lon": 148.046616, "lat": -22.001631}}, {"id": 6615520, "name": "Heyfield", "country": "AU", "coord": {"lon": 146.785583, "lat": -37.9813}}, {"id": 6619483, "name": "Kaleen", "country": "AU", "coord": {"lon": 149.105164, "lat": -35.21814}}, {"id": 6621336, "name": "Hillarys", "country": "AU", "coord": {"lon": 115.740448, "lat": -31.80698}}, {"id": 6621337, "name": "Kingsford", "country": "AU", "coord": {"lon": 151.227493, "lat": -33.923988}}, {"id": 6621338, "name": "Klemzig", "country": "AU", "coord": {"lon": 138.63562, "lat": -34.87928}}, {"id": 6621354, "name": "Osborne Park", "country": "AU", "coord": {"lon": 115.810829, "lat": -31.90066}}, {"id": 6690772, "name": "Corlette", "country": "AU", "coord": {"lon": 152.108459, "lat": -32.720139}}, {"id": 6692202, "name": "Burswood", "country": "AU", "coord": {"lon": 115.903961, "lat": -31.958719}}, {"id": 6692248, "name": "Howrah", "country": "AU", "coord": {"lon": 147.405533, "lat": -42.88728}}, {"id": 6693094, "name": "Springfield Lakes", "country": "AU", "coord": {"lon": 152.924881, "lat": -27.66757}}, {"id": 6695255, "name": "Joondalup", "country": "AU", "coord": {"lon": 115.768349, "lat": -31.74445}}, {"id": 6697124, "name": "East Lismore", "country": "AU", "coord": {"lon": 153.28743, "lat": -28.81933}}, {"id": 6697141, "name": "Mindarie", "country": "AU", "coord": {"lon": 115.706978, "lat": -31.68932}}, {"id": 6697150, "name": "Clarkson", "country": "AU", "coord": {"lon": 115.724701, "lat": -31.682819}}, {"id": 6697151, "name": "Kinross", "country": "AU", "coord": {"lon": 115.738388, "lat": -31.718679}}, {"id": 6697152, "name": "Currambine", "country": "AU", "coord": {"lon": 115.747658, "lat": -31.733061}}, {"id": 6697153, "name": "Iluka", "country": "AU", "coord": {"lon": 115.730583, "lat": -31.73554}}, {"id": 6697155, "name": "Heathridge", "country": "AU", "coord": {"lon": 115.758949, "lat": -31.76244}}, {"id": 6776556, "name": "Girraween", "country": "AU", "coord": {"lon": 150.942993, "lat": -33.799}}, {"id": 6930431, "name": "Freshwater", "country": "AU", "coord": {"lon": 151.28569, "lat": -33.778671}}, {"id": 6930555, "name": "Tieri", "country": "AU", "coord": {"lon": 148.344635, "lat": -23.03829}}, {"id": 6931018, "name": "Taringa", "country": "AU", "coord": {"lon": 152.978607, "lat": -27.49061}}, {"id": 6931021, "name": "Inala", "country": "AU", "coord": {"lon": 152.974319, "lat": -27.597151}}, {"id": 6941781, "name": "Main Beach", "country": "AU", "coord": {"lon": 153.426605, "lat": -27.97879}}, {"id": 6943454, "name": "Paradise", "country": "AU", "coord": {"lon": 138.668961, "lat": -34.873611}}, {"id": 6943455, "name": "Blair Athol", "country": "AU", "coord": {"lon": 138.596558, "lat": -34.858891}}, {"id": 6943555, "name": "Zillmere", "country": "AU", "coord": {"lon": 153.044525, "lat": -27.355909}}, {"id": 6943568, "name": "Woolloongabba", "country": "AU", "coord": {"lon": 153.036545, "lat": -27.48855}}, {"id": 6943572, "name": "Toowong", "country": "AU", "coord": {"lon": 152.989426, "lat": -27.483601}}, {"id": 6943579, "name": "Windsor", "country": "AU", "coord": {"lon": 153.028824, "lat": -27.43631}}, {"id": 6944968, "name": "Twin Waters", "country": "AU", "coord": {"lon": 153, "lat": -26.610001}}, {"id": 6949375, "name": "Canada Bay", "country": "AU", "coord": {"lon": 151.149994, "lat": -33.849998}}, {"id": 6949377, "name": "Canterbury", "country": "AU", "coord": {"lon": 151.100006, "lat": -33.916698}}, {"id": 6951335, "name": "Forresters Beach", "country": "AU", "coord": {"lon": 151.475998, "lat": -33.407001}}, {"id": 6952201, "name": "East Melbourne", "country": "AU", "coord": {"lon": 144.9879, "lat": -37.816669}}, {"id": 7281804, "name": "North Melbourne", "country": "AU", "coord": {"lon": 144.948166, "lat": -37.802891}}, {"id": 7281818, "name": "West Melbourne", "country": "AU", "coord": {"lon": 144.949997, "lat": -37.810139}}, {"id": 7281823, "name": "Rouse Hill", "country": "AU", "coord": {"lon": 150.915405, "lat": -33.682072}}, {"id": 7281844, "name": "Macquarie", "country": "AU", "coord": {"lon": 149.063614, "lat": -35.251259}}, {"id": 7302189, "name": "Macarthur", "country": "AU", "coord": {"lon": 149.131958, "lat": -35.408562}}, {"id": 7302624, "name": "Phillip Island", "country": "AU", "coord": {"lon": 145.231018, "lat": -38.48349}}, {"id": 7302625, "name": "Springwood", "country": "AU", "coord": {"lon": 153.128983, "lat": -27.61183}}, {"id": 7302629, "name": "Erskine", "country": "AU", "coord": {"lon": 115.706573, "lat": -32.557171}}, {"id": 7302634, "name": "Varsity Lakes", "country": "AU", "coord": {"lon": 153.412201, "lat": -28.089399}}, {"id": 7302635, "name": "Roselands", "country": "AU", "coord": {"lon": 151.073196, "lat": -33.93317}}, {"id": 7302638, "name": "Oxenford", "country": "AU", "coord": {"lon": 153.313095, "lat": -27.890329}}, {"id": 7302640, "name": "Toormina", "country": "AU", "coord": {"lon": 153.090286, "lat": -30.352619}}, {"id": 7303211, "name": "Magnetic Island", "country": "AU", "coord": {"lon": 146.848495, "lat": -19.15514}}, {"id": 7932573, "name": "Melton West", "country": "AU", "coord": {"lon": 144.568832, "lat": -37.67852}}, {"id": 7932574, "name": "Brookfield", "country": "AU", "coord": {"lon": 144.560257, "lat": -37.700802}}, {"id": 7932575, "name": "Kurunjang", "country": "AU", "coord": {"lon": 144.596893, "lat": -37.675869}}, {"id": 7932610, "name": "Ashburton", "country": "AU", "coord": {"lon": 145.079361, "lat": -37.862591}}, {"id": 7932611, "name": "Ashwood", "country": "AU", "coord": {"lon": 145.10553, "lat": -37.866589}}, {"id": 7932614, "name": "Toorak", "country": "AU", "coord": {"lon": 145.009567, "lat": -37.840771}}, {"id": 7932615, "name": "Armadale", "country": "AU", "coord": {"lon": 145.021759, "lat": -37.855202}}, {"id": 7932616, "name": "Windsor", "country": "AU", "coord": {"lon": 144.992676, "lat": -37.854801}}, {"id": 7932617, "name": "Balaclava", "country": "AU", "coord": {"lon": 144.997726, "lat": -37.86916}}, {"id": 7932618, "name": "Caulfield North", "country": "AU", "coord": {"lon": 145.022614, "lat": -37.872551}}, {"id": 7932619, "name": "Elsternwick", "country": "AU", "coord": {"lon": 145.004333, "lat": -37.884411}}, {"id": 7932622, "name": "Burwood", "country": "AU", "coord": {"lon": 145.119003, "lat": -37.849781}}, {"id": 7932623, "name": "Box Hill South", "country": "AU", "coord": {"lon": 145.120987, "lat": -37.832359}}, {"id": 7932624, "name": "Blackburn", "country": "AU", "coord": {"lon": 145.153259, "lat": -37.819012}}, {"id": 7932625, "name": "Canterbury", "country": "AU", "coord": {"lon": 145.084763, "lat": -37.824699}}, {"id": 7932626, "name": "Surrey Hills", "country": "AU", "coord": {"lon": 145.100388, "lat": -37.825241}}, {"id": 7932627, "name": "Hawthorn East", "country": "AU", "coord": {"lon": 145.046402, "lat": -37.824841}}, {"id": 7932628, "name": "Kew East", "country": "AU", "coord": {"lon": 145.053787, "lat": -37.797581}}, {"id": 7932630, "name": "Mont Albert North", "country": "AU", "coord": {"lon": 145.108276, "lat": -37.80043}}, {"id": 7932631, "name": "Box Hill North", "country": "AU", "coord": {"lon": 145.126556, "lat": -37.802662}}, {"id": 7932632, "name": "Blackburn North", "country": "AU", "coord": {"lon": 145.151794, "lat": -37.809311}}, {"id": 7932633, "name": "Forest Hill", "country": "AU", "coord": {"lon": 145.165192, "lat": -37.836559}}, {"id": 7932634, "name": "Blackburn South", "country": "AU", "coord": {"lon": 145.155487, "lat": -37.839748}}, {"id": 7932635, "name": "Chadstone", "country": "AU", "coord": {"lon": 145.095184, "lat": -37.887661}}, {"id": 7932637, "name": "Glen Huntly", "country": "AU", "coord": {"lon": 145.046051, "lat": -37.889488}}, {"id": 7932639, "name": "Murrumbeena", "country": "AU", "coord": {"lon": 145.071121, "lat": -37.890228}}, {"id": 7932640, "name": "Oakleigh South", "country": "AU", "coord": {"lon": 145.091461, "lat": -37.92416}}, {"id": 7932641, "name": "Oakleigh East", "country": "AU", "coord": {"lon": 145.105713, "lat": -37.89904}}, {"id": 7932643, "name": "Caulfield South", "country": "AU", "coord": {"lon": 145.027344, "lat": -37.896729}}, {"id": 7932648, "name": "Hampton", "country": "AU", "coord": {"lon": 145.004593, "lat": -37.937229}}, {"id": 7932649, "name": "Hampton East", "country": "AU", "coord": {"lon": 145.028625, "lat": -37.936951}}, {"id": 7932650, "name": "Bentleigh", "country": "AU", "coord": {"lon": 145.035843, "lat": -37.9184}}, {"id": 7932652, "name": "Black Rock", "country": "AU", "coord": {"lon": 145.016357, "lat": -37.973572}}, {"id": 7932653, "name": "Aspendale Gardens", "country": "AU", "coord": {"lon": 145.117981, "lat": -38.02277}}, {"id": 7932655, "name": "North Booval", "country": "AU", "coord": {"lon": 152.794846, "lat": -27.60392}}, {"id": 7932658, "name": "North Ipswich", "country": "AU", "coord": {"lon": 152.761459, "lat": -27.602859}}, {"id": 7932659, "name": "Brassall", "country": "AU", "coord": {"lon": 152.747543, "lat": -27.59753}}, {"id": 7932660, "name": "Silkstone", "country": "AU", "coord": {"lon": 152.787674, "lat": -27.62126}}, {"id": 7932663, "name": "Eastern Heights", "country": "AU", "coord": {"lon": 152.778275, "lat": -27.62849}}, {"id": 7932664, "name": "Raceview", "country": "AU", "coord": {"lon": 152.775192, "lat": -27.63472}}, {"id": 7932666, "name": "Flinders View", "country": "AU", "coord": {"lon": 152.774506, "lat": -27.650459}}, {"id": 7932667, "name": "Deebing Heights", "country": "AU", "coord": {"lon": 152.748672, "lat": -27.667191}}, {"id": 7932668, "name": "Yamanto", "country": "AU", "coord": {"lon": 152.738632, "lat": -27.660271}}, {"id": 7932670, "name": "Redbank Plains", "country": "AU", "coord": {"lon": 152.85965, "lat": -27.64613}}, {"id": 7932671, "name": "Collingwood Park", "country": "AU", "coord": {"lon": 152.860077, "lat": -27.61282}}, {"id": 7932687, "name": "Clontarf", "country": "AU", "coord": {"lon": 153.078354, "lat": -27.25341}}, {"id": 7932688, "name": "Woody Point", "country": "AU", "coord": {"lon": 153.104263, "lat": -27.256081}}, {"id": 8014922, "name": "Ballarat Central", "country": "AU", "coord": {"lon": 143.850815, "lat": -37.562061}}, {"id": 8015184, "name": "Golden Point", "country": "AU", "coord": {"lon": 143.868698, "lat": -37.574928}}, {"id": 8015185, "name": "Delacombe", "country": "AU", "coord": {"lon": 143.814713, "lat": -37.589111}}, {"id": 8029783, "name": "St Leonards", "country": "AU", "coord": {"lon": 151.198364, "lat": -33.823441}}, {"id": 8029812, "name": "St Kilda West", "country": "AU", "coord": {"lon": 144.972198, "lat": -37.860168}}, {"id": 8029813, "name": "Eleebana", "country": "AU", "coord": {"lon": 151.636414, "lat": -32.989601}}, {"id": 8029814, "name": "Summer Hill", "country": "AU", "coord": {"lon": 151.138245, "lat": -33.89146}}, {"id": 3577282, "name": "Arasji", "country": "AW", "coord": {"lon": -70.066673, "lat": 12.61667}}, {"id": 632425, "name": "V\u00e5rd\u00f6", "country": "AX", "coord": {"lon": 20.41667, "lat": 60.25}}, {"id": 632421, "name": "Vardoe", "country": "AX", "coord": {"lon": 20.383329, "lat": 60.25}}, {"id": 635817, "name": "Sund", "country": "AX", "coord": {"lon": 20.16667, "lat": 60.25}}, {"id": 635815, "name": "Sund", "country": "AX", "coord": {"lon": 20.116671, "lat": 60.25}}, {"id": 636159, "name": "Sottunga", "country": "AX", "coord": {"lon": 20.75, "lat": 60.116669}}, {"id": 636158, "name": "Sottunga", "country": "AX", "coord": {"lon": 20.66683, "lat": 60.13023}}, {"id": 637880, "name": "Saltvik", "country": "AX", "coord": {"lon": 20.116671, "lat": 60.333328}}, {"id": 637878, "name": "Saltvik", "country": "AX", "coord": {"lon": 20.049999, "lat": 60.283329}}, {"id": 647457, "name": "Lumparland", "country": "AX", "coord": {"lon": 20.25, "lat": 60.116669}}, {"id": 647455, "name": "Lumparland", "country": "AX", "coord": {"lon": 20.25819, "lat": 60.116951}}, {"id": 648384, "name": "Lemland", "country": "AX", "coord": {"lon": 20.08333, "lat": 60.083328}}, {"id": 650397, "name": "Kumlinge", "country": "AX", "coord": {"lon": 20.75, "lat": 60.333328}}, {"id": 650395, "name": "Kumlinge", "country": "AX", "coord": {"lon": 20.778919, "lat": 60.260132}}, {"id": 651989, "name": "K\u00f6kar", "country": "AX", "coord": {"lon": 21, "lat": 59.916672}}, {"id": 651986, "name": "Koekar", "country": "AX", "coord": {"lon": 20.908831, "lat": 59.920509}}, {"id": 659949, "name": "Foegloe", "country": "AX", "coord": {"lon": 20.41667, "lat": 60.01667}}, {"id": 660528, "name": "Br\u00e4nd\u00f6", "country": "AX", "coord": {"lon": 21, "lat": 60.416672}}, {"id": 660521, "name": "Braendoe", "country": "AX", "coord": {"lon": 21.04534, "lat": 60.411652}}, {"id": 3041760, "name": "Jomala", "country": "AX", "coord": {"lon": 19.951, "lat": 60.149021}}, {"id": 3041777, "name": "Hammarland", "country": "AX", "coord": {"lon": 19.75, "lat": 60.25}}, {"id": 3041776, "name": "Hammarland", "country": "AX", "coord": {"lon": 19.75, "lat": 60.216671}}, {"id": 3041792, "name": "Geta", "country": "AX", "coord": {"lon": 19.844549, "lat": 60.374531}}, {"id": 3041799, "name": "Finstr\u00f6m", "country": "AX", "coord": {"lon": 19.91667, "lat": 60.25}}, {"id": 3041798, "name": "Finstroem", "country": "AX", "coord": {"lon": 19.933331, "lat": 60.26667}}, {"id": 3041809, "name": "Ecker\u00f6", "country": "AX", "coord": {"lon": 19.554979, "lat": 60.222939}}, {"id": 3041807, "name": "Eckeroe", "country": "AX", "coord": {"lon": 19.61442, "lat": 60.21249}}, {"id": 146862, "name": "Prishibinskoye", "country": "AZ", "coord": {"lon": 48.593609, "lat": 39.119579}}, {"id": 146900, "name": "Zangilan Rayon", "country": "AZ", "coord": {"lon": 46.666672, "lat": 39.083328}},