[{"id": 540078, "name": "Kubachi", "country": "RU", "coord": {"lon": 47.603378, "lat": 42.085979}}, {"id": 540121, "name": "Kshenskiy", "country": "RU", "coord": {"lon": 37.713612, "lat": 51.840832}}, {"id": 540259, "name": "Krym", "country": "RU", "coord": {"lon": 39.516369, "lat": 47.300251}}, {"id": 540267, "name": "Krylovskaya", "country": "RU", "coord": {"lon": 39.971111, "lat": 46.319439}}, {"id": 540268, "name": "Krylovskaya", "country": "RU", "coord": {"lon": 39.303501, "lat": 46.109699}}, {"id": 540690, "name": "Kruglolesskoye", "country": "RU", "coord": {"lon": 42.814171, "lat": 44.65889}}, {"id": 540740, "name": "Krotovka", "country": "RU", "coord": {"lon": 51.168598, "lat": 53.285801}}, {"id": 540769, "name": "Kropachevo", "country": "RU", "coord": {"lon": 57.989601, "lat": 55.0112}}, {"id": 540797, "name": "Krivyanskaya", "country": "RU", "coord": {"lon": 40.166199, "lat": 47.396252}}, {"id": 541116, "name": "Kresttsy", "country": "RU", "coord": {"lon": 32.516479, "lat": 58.245201}}, {"id": 541256, "name": "Krechevitsy", "country": "RU", "coord": {"lon": 31.401011, "lat": 58.617031}}, {"id": 541288, "name": "Krasyukovskaya", "country": "RU", "coord": {"lon": 40.108849, "lat": 47.552219}}, {"id": 541341, "name": "Krasnyy Yar", "country": "RU", "coord": {"lon": 46.421669, "lat": 51.629169}}, {"id": 541344, "name": "Krasnyy Yar", "country": "RU", "coord": {"lon": 44.727921, "lat": 50.696522}}, {"id": 541349, "name": "Krasnyy Yar", "country": "RU", "coord": {"lon": 48.345589, "lat": 46.533138}}, {"id": 541401, "name": "Krasnyy Tkach", "country": "RU", "coord": {"lon": 39.08017, "lat": 55.472099}}, {"id": 541446, "name": "Krasnyy Profintern", "country": "RU", "coord": {"lon": 40.43502, "lat": 57.744591}}, {"id": 541549, "name": "Krasnyy Oktyabr", "country": "RU", "coord": {"lon": 38.883331, "lat": 56.116669}}, {"id": 541550, "name": "Krasnyy Oktyabr", "country": "RU", "coord": {"lon": 41.383949, "lat": 56.10347}}, {"id": 541573, "name": "Krasnyy Oktyabr", "country": "RU", "coord": {"lon": 45.703819, "lat": 51.54018}}, {"id": 541629, "name": "Krasnyy Luch", "country": "RU", "coord": {"lon": 30.090321, "lat": 57.066761}}, {"id": 541647, "name": "Krasnyy Kut", "country": "RU", "coord": {"lon": 46.966671, "lat": 50.950001}}, {"id": 541661, "name": "Krasnyy Kurgan", "country": "RU", "coord": {"lon": 42.610828, "lat": 43.942219}}, {"id": 541679, "name": "Krasnyy Klyuch", "country": "RU", "coord": {"lon": 56.65287, "lat": 55.38625}}, {"id": 541704, "name": "Krasnyy Kholm", "country": "RU", "coord": {"lon": 37.120319, "lat": 58.060699}}, {"id": 541722, "name": "Krasnyy Gulyay", "country": "RU", "coord": {"lon": 48.333271, "lat": 54.02821}}, {"id": 541791, "name": "Krasnyye Chetai", "country": "RU", "coord": {"lon": 46.138649, "lat": 55.688709}}, {"id": 541795, "name": "Krasnyye Barrikady", "country": "RU", "coord": {"lon": 47.8535, "lat": 46.204498}}, {"id": 541796, "name": "Krasnyye Baki", "country": "RU", "coord": {"lon": 45.15992, "lat": 57.131001}}, {"id": 541826, "name": "Krasnyy Bor", "country": "RU", "coord": {"lon": 30.66806, "lat": 59.681938}}, {"id": 542109, "name": "Krasnoye", "country": "RU", "coord": {"lon": 38.79353, "lat": 52.864491}}, {"id": 542121, "name": "Krasnoye", "country": "RU", "coord": {"lon": 38.681702, "lat": 50.929699}}, {"id": 542125, "name": "Krasnoye", "country": "RU", "coord": {"lon": 39.564499, "lat": 46.737301}}, {"id": 542143, "name": "Krasnoyarskaya", "country": "RU", "coord": {"lon": 42.0443, "lat": 47.650101}}, {"id": 542182, "name": "Krasnovka", "country": "RU", "coord": {"lon": 40.092258, "lat": 48.817692}}, {"id": 542298, "name": "Krasnomayskiy", "country": "RU", "coord": {"lon": 34.409882, "lat": 57.6194}}, {"id": 542312, "name": "Krasnokumskoye", "country": "RU", "coord": {"lon": 43.501942, "lat": 44.178059}}, {"id": 542322, "name": "Krasnokholm", "country": "RU", "coord": {"lon": 54.1567, "lat": 51.59787}}, {"id": 542333, "name": "Krasnogvardeyskoye", "country": "RU", "coord": {"lon": 38.403599, "lat": 50.6492}}, {"id": 542335, "name": "Krasnogvardeyskoye", "country": "RU", "coord": {"lon": 39.57246, "lat": 45.1278}}, {"id": 542345, "name": "Krasnogvardeyets", "country": "RU", "coord": {"lon": 52.363499, "lat": 52.680401}}, {"id": 542356, "name": "Krasnogorskoye", "country": "RU", "coord": {"lon": 52.500019, "lat": 57.70829}}, {"id": 542366, "name": "Krasnogorskiy", "country": "RU", "coord": {"lon": 48.325829, "lat": 56.1525}}, {"id": 542378, "name": "Krasnogorodskoye", "country": "RU", "coord": {"lon": 28.28224, "lat": 56.835678}}, {"id": 542400, "name": "Krasnofarfornyy", "country": "RU", "coord": {"lon": 31.850229, "lat": 59.136398}}, {"id": 542423, "name": "Krasnoborsk", "country": "RU", "coord": {"lon": 45.93396, "lat": 61.55978}}, {"id": 542452, "name": "Krasnoarmeyskiy", "country": "RU", "coord": {"lon": 42.207199, "lat": 47.011398}}, {"id": 542561, "name": "Krasnaya Zarya", "country": "RU", "coord": {"lon": 37.680561, "lat": 52.782501}}, {"id": 542637, "name": "Krasnaya Poyma", "country": "RU", "coord": {"lon": 39.079971, "lat": 55.001381}}, {"id": 542640, "name": "Krasnaya Polyana", "country": "RU", "coord": {"lon": 51.144249, "lat": 56.242039}}, {"id": 542673, "name": "Krasnaya Polyana", "country": "RU", "coord": {"lon": 41.501572, "lat": 46.11293}}, {"id": 542680, "name": "Krasnaya Polyana", "country": "RU", "coord": {"lon": 41.1031, "lat": 45.054798}}, {"id": 542765, "name": "Krasnaya Gorka", "country": "RU", "coord": {"lon": 46.109249, "lat": 55.386662}}, {"id": 542769, "name": "Krasnaya Gorka", "country": "RU", "coord": {"lon": 56.667271, "lat": 55.196171}}, {"id": 542788, "name": "Krasnaya Gora", "country": "RU", "coord": {"lon": 31.602301, "lat": 52.9995}}, {"id": 542942, "name": "Krapivna", "country": "RU", "coord": {"lon": 37.15744, "lat": 53.942341}}, {"id": 542965, "name": "Krasnokholmskiy", "country": "RU", "coord": {"lon": 55.046589, "lat": 55.987289}}, {"id": 543171, "name": "Kozlovka", "country": "RU", "coord": {"lon": 40.455559, "lat": 50.862221}}, {"id": 543246, "name": "Kozhva", "country": "RU", "coord": {"lon": 57.045898, "lat": 65.107269}}, {"id": 543396, "name": "Koygorodok", "country": "RU", "coord": {"lon": 50.996799, "lat": 60.444981}}, {"id": 543671, "name": "Kotlyarevskaya", "country": "RU", "coord": {"lon": 44.06134, "lat": 43.573441}}, {"id": 543864, "name": "Kostrovo", "country": "RU", "coord": {"lon": 36.694908, "lat": 55.894291}}, {"id": 543939, "name": "Kostino", "country": "RU", "coord": {"lon": 53.26907, "lat": 58.90966}}, {"id": 544007, "name": "Kostek", "country": "RU", "coord": {"lon": 46.854111, "lat": 43.343861}}, {"id": 544068, "name": "Kosmynino", "country": "RU", "coord": {"lon": 40.764339, "lat": 57.581841}}, {"id": 544084, "name": "Koslan", "country": "RU", "coord": {"lon": 48.898911, "lat": 63.456421}}, {"id": 544119, "name": "Kosino", "country": "RU", "coord": {"lon": 51.278191, "lat": 58.41272}}, {"id": 544203, "name": "Koshki", "country": "RU", "coord": {"lon": 50.46767, "lat": 54.209141}}, {"id": 544263, "name": "Koshekhabl", "country": "RU", "coord": {"lon": 40.51194, "lat": 44.897221}}, {"id": 544318, "name": "Kosa", "country": "RU", "coord": {"lon": 54.9977, "lat": 59.94453}}, {"id": 544332, "name": "Korzhevskiy", "country": "RU", "coord": {"lon": 37.71949, "lat": 45.194141}}, {"id": 544440, "name": "Korsakovo", "country": "RU", "coord": {"lon": 37.356892, "lat": 53.267658}}, {"id": 544746, "name": "Korobitsyno", "country": "RU", "coord": {"lon": 29.724369, "lat": 60.515228}}, {"id": 544830, "name": "Kormezhka", "country": "RU", "coord": {"lon": 48.0163, "lat": 51.900501}}, {"id": 544906, "name": "Korenevo", "country": "RU", "coord": {"lon": 34.908001, "lat": 51.4119}}, {"id": 545129, "name": "Koporye", "country": "RU", "coord": {"lon": 29.03488, "lat": 59.71067}}, {"id": 545168, "name": "Kopanskaya", "country": "RU", "coord": {"lon": 38.479549, "lat": 46.277851}}, {"id": 545223, "name": "Konyshevka", "country": "RU", "coord": {"lon": 35.294102, "lat": 51.841801}}, {"id": 545267, "name": "Konstantinovskoye", "country": "RU", "coord": {"lon": 42.636669, "lat": 45.299171}}, {"id": 545272, "name": "Konstantinovskiy", "country": "RU", "coord": {"lon": 39.58989, "lat": 57.830051}}, {"id": 545275, "name": "Konstantinovskaya", "country": "RU", "coord": {"lon": 40.72694, "lat": 44.835281}}, {"id": 545276, "name": "Konstantinovskaya", "country": "RU", "coord": {"lon": 43.158329, "lat": 44.045559}}, {"id": 545282, "name": "Konstantinovo", "country": "RU", "coord": {"lon": 38.033329, "lat": 56.549999}}, {"id": 545353, "name": "Konosha", "country": "RU", "coord": {"lon": 40.257, "lat": 60.973598}}, {"id": 545400, "name": "Konokovo", "country": "RU", "coord": {"lon": 41.326599, "lat": 44.861599}}, {"id": 545467, "name": "Konevo", "country": "RU", "coord": {"lon": 39.31921, "lat": 62.121521}}, {"id": 545630, "name": "Kondol", "country": "RU", "coord": {"lon": 45.05798, "lat": 52.81889}}, {"id": 545690, "name": "Komsomolskoye", "country": "RU", "coord": {"lon": 47.546082, "lat": 55.256672}}, {"id": 545728, "name": "Komsomolskiy", "country": "RU", "coord": {"lon": 46.698521, "lat": 43.978329}}, {"id": 545747, "name": "Komsomolets", "country": "RU", "coord": {"lon": 41.286819, "lat": 52.7686}}, {"id": 545752, "name": "Komsomolets", "country": "RU", "coord": {"lon": 43.569721, "lat": 44.019718}}, {"id": 545946, "name": "Komarichi", "country": "RU", "coord": {"lon": 34.790501, "lat": 52.4151}}, {"id": 545982, "name": "Kolyshley", "country": "RU", "coord": {"lon": 44.536701, "lat": 52.7005}}, {"id": 546055, "name": "Koltushi", "country": "RU", "coord": {"lon": 30.64465, "lat": 59.929691}}, {"id": 546060, "name": "Koltubanovskiy", "country": "RU", "coord": {"lon": 52.026901, "lat": 52.940701}}, {"id": 546092, "name": "Kolpny", "country": "RU", "coord": {"lon": 37.036831, "lat": 52.22823}}, {"id": 546282, "name": "Kologriv", "country": "RU", "coord": {"lon": 44.317768, "lat": 58.82748}}, {"id": 546316, "name": "Kolodeznyy", "country": "RU", "coord": {"lon": 39.183331, "lat": 51.333328}}, {"id": 546374, "name": "Kolobovo", "country": "RU", "coord": {"lon": 41.341728, "lat": 56.701988}}, {"id": 546554, "name": "Kola", "country": "RU", "coord": {"lon": 33.018421, "lat": 68.880623}}, {"id": 546664, "name": "Kokino", "country": "RU", "coord": {"lon": 34.7808, "lat": 52.496399}}, {"id": 546742, "name": "Kodino", "country": "RU", "coord": {"lon": 39.64465, "lat": 63.719761}}, {"id": 546798, "name": "Kochkurovo", "country": "RU", "coord": {"lon": 45.418449, "lat": 54.035759}}, {"id": 546845, "name": "Kochevo", "country": "RU", "coord": {"lon": 54.312481, "lat": 59.5994}}, {"id": 547005, "name": "Kobrinskoye", "country": "RU", "coord": {"lon": 30.12389, "lat": 59.422501}}, {"id": 547162, "name": "Knyaginino", "country": "RU", "coord": {"lon": 45.034889, "lat": 55.822781}}, {"id": 547383, "name": "Klyavlino", "country": "RU", "coord": {"lon": 52.026741, "lat": 54.264912}}, {"id": 547677, "name": "Kletskaya", "country": "RU", "coord": {"lon": 43.058441, "lat": 49.314548}}, {"id": 547841, "name": "Kizlyar", "country": "RU", "coord": {"lon": 44.594398, "lat": 43.703781}}, {"id": 547871, "name": "Kizema", "country": "RU", "coord": {"lon": 44.83017, "lat": 61.113041}}, {"id": 548040, "name": "Kitovo", "country": "RU", "coord": {"lon": 41.282459, "lat": 56.86586}}, {"id": 548097, "name": "Kislyakovskaya", "country": "RU", "coord": {"lon": 39.674999, "lat": 46.4417}}, {"id": 548151, "name": "Kishpek", "country": "RU", "coord": {"lon": 43.640831, "lat": 43.654999}}, {"id": 548302, "name": "Kirya", "country": "RU", "coord": {"lon": 46.860909, "lat": 55.08102}}, {"id": 548383, "name": "Kirovskiy", "country": "RU", "coord": {"lon": 36.666672, "lat": 51.416672}}, {"id": 548387, "name": "Kirovskiy", "country": "RU", "coord": {"lon": 48.124722, "lat": 45.84639}}, {"id": 548493, "name": "Kirgiz-Miyaki", "country": "RU", "coord": {"lon": 54.797901, "lat": 53.632401}}, {"id": 548715, "name": "Kilemary", "country": "RU", "coord": {"lon": 46.86594, "lat": 56.778252}}, {"id": 548763, "name": "Kikerino", "country": "RU", "coord": {"lon": 29.633329, "lat": 59.466671}}, {"id": 548791, "name": "Kichmengskiy Gorodok", "country": "RU", "coord": {"lon": 45.785431, "lat": 59.98164}}, {"id": 548890, "name": "Khvoynaya", "country": "RU", "coord": {"lon": 34.533329, "lat": 58.900002}}, {"id": 548946, "name": "Khvorostyanka", "country": "RU", "coord": {"lon": 48.959702, "lat": 52.6096}}, {"id": 548964, "name": "Khvatovka", "country": "RU", "coord": {"lon": 46.56282, "lat": 52.35236}}, {"id": 548972, "name": "Khvastovichi", "country": "RU", "coord": {"lon": 35.09409, "lat": 53.469421}}, {"id": 548982, "name": "Khvalynsk", "country": "RU", "coord": {"lon": 48.105801, "lat": 52.490601}}, {"id": 549105, "name": "Khunzakh", "country": "RU", "coord": {"lon": 46.705002, "lat": 42.53944}}, {"id": 549118, "name": "Khumalag", "country": "RU", "coord": {"lon": 44.475208, "lat": 43.240311}}, {"id": 549175, "name": "Khuchni", "country": "RU", "coord": {"lon": 47.94854, "lat": 41.94986}}, {"id": 549266, "name": "Khrenovoye", "country": "RU", "coord": {"lon": 40.288891, "lat": 51.119999}}, {"id": 549341, "name": "Khotynets", "country": "RU", "coord": {"lon": 35.396599, "lat": 53.128601}}, {"id": 549610, "name": "Khomutovo", "country": "RU", "coord": {"lon": 37.438801, "lat": 52.853859}}, {"id": 549617, "name": "Khomutovka", "country": "RU", "coord": {"lon": 34.561901, "lat": 51.9207}}, {"id": 549718, "name": "Kholm-Zhirkovskiy", "country": "RU", "coord": {"lon": 33.473061, "lat": 55.51889}}, {"id": 549748, "name": "Kholmogory", "country": "RU", "coord": {"lon": 41.655998, "lat": 64.2229}}, {"id": 549786, "name": "Kholm", "country": "RU", "coord": {"lon": 32.849998, "lat": 59.26667}}, {"id": 549797, "name": "Kholm", "country": "RU", "coord": {"lon": 31.177799, "lat": 57.145432}}, {"id": 549844, "name": "Khokhryaki", "country": "RU", "coord": {"lon": 53.322102, "lat": 56.915611}}, {"id": 549854, "name": "Khokhlovo", "country": "RU", "coord": {"lon": 37.39978, "lat": 59.149231}}, {"id": 549891, "name": "Khodz", "country": "RU", "coord": {"lon": 40.714199, "lat": 44.510201}}, {"id": 550102, "name": "Khlevnoye", "country": "RU", "coord": {"lon": 39.093159, "lat": 52.195122}}, {"id": 550201, "name": "Khiv", "country": "RU", "coord": {"lon": 47.93063, "lat": 41.75428}}, {"id": 550234, "name": "Khislavichi", "country": "RU", "coord": {"lon": 32.158169, "lat": 54.187141}}, {"id": 550366, "name": "Khelyulya", "country": "RU", "coord": {"lon": 30.683331, "lat": 61.73333}}, {"id": 550516, "name": "Kharlu", "country": "RU", "coord": {"lon": 30.950001, "lat": 61.799999}}, {"id": 550574, "name": "Kharitonovo", "country": "RU", "coord": {"lon": 47.497791, "lat": 61.400921}}, {"id": 550708, "name": "Khanskaya", "country": "RU", "coord": {"lon": 39.961601, "lat": 44.677021}}, {"id": 550726, "name": "Khanino", "country": "RU", "coord": {"lon": 36.622921, "lat": 54.210999}}, {"id": 550775, "name": "Khamamatyurt", "country": "RU", "coord": {"lon": 46.500599, "lat": 43.608089}}, {"id": 550785, "name": "Orlov", "country": "RU", "coord": {"lon": 48.891731, "lat": 58.539459}}, {"id": 550844, "name": "Khadzhalmakhi", "country": "RU", "coord": {"lon": 47.18206, "lat": 42.419998}}, {"id": 550868, "name": "Khabez", "country": "RU", "coord": {"lon": 41.771999, "lat": 44.0434}}, {"id": 550902, "name": "Kez", "country": "RU", "coord": {"lon": 53.71521, "lat": 57.897861}}, {"id": 550918, "name": "Kevsala", "country": "RU", "coord": {"lon": 42.690281, "lat": 45.798328}}, {"id": 550973, "name": "Kerva", "country": "RU", "coord": {"lon": 39.576649, "lat": 55.611671}}, {"id": 551047, "name": "Kerchevskiy", "country": "RU", "coord": {"lon": 56.288368, "lat": 59.945961}}, {"id": 551070, "name": "Kenzhe", "country": "RU", "coord": {"lon": 43.55722, "lat": 43.501671}}, {"id": 551124, "name": "Kemlya", "country": "RU", "coord": {"lon": 45.242401, "lat": 54.696301}}, {"id": 551535, "name": "Kazaki", "country": "RU", "coord": {"lon": 38.264881, "lat": 52.62484}}, {"id": 551638, "name": "Kayasula", "country": "RU", "coord": {"lon": 45, "lat": 44.325001}}, {"id": 551646, "name": "Kayakent", "country": "RU", "coord": {"lon": 47.903011, "lat": 42.38736}}, {"id": 551729, "name": "Katyr-Yurt", "country": "RU", "coord": {"lon": 45.37114, "lat": 43.170071}}, {"id": 551732, "name": "Katyn", "country": "RU", "coord": {"lon": 31.690411, "lat": 54.774551}}, {"id": 551816, "name": "Kasumkent", "country": "RU", "coord": {"lon": 48.146011, "lat": 41.67725}}, {"id": 551823, "name": "Kastornoye", "country": "RU", "coord": {"lon": 38.130199, "lat": 51.833401}}, {"id": 551846, "name": "Kaspiyskiy", "country": "RU", "coord": {"lon": 47.370731, "lat": 45.392879}}, {"id": 551948, "name": "Kashirskoye", "country": "RU", "coord": {"lon": 39.61248, "lat": 51.419449}}, {"id": 552133, "name": "Karsun", "country": "RU", "coord": {"lon": 46.9827, "lat": 54.199409}}, {"id": 552161, "name": "Karpushikha", "country": "RU", "coord": {"lon": 59.895561, "lat": 57.501671}}, {"id": 552256, "name": "Karpogory", "country": "RU", "coord": {"lon": 44.445129, "lat": 64.001892}}, {"id": 552465, "name": "Kargopol", "country": "RU", "coord": {"lon": 38.945641, "lat": 61.507069}}, {"id": 552500, "name": "Karpalinskaya", "country": "RU", "coord": {"lon": 46.479172, "lat": 43.741669}}, {"id": 552555, "name": "Kardzhin", "country": "RU", "coord": {"lon": 44.290749, "lat": 43.273682}}, {"id": 552568, "name": "Kardailovo", "country": "RU", "coord": {"lon": 53.904171, "lat": 51.538609}}, {"id": 552692, "name": "Karata", "country": "RU", "coord": {"lon": 46.339298, "lat": 42.59486}}, {"id": 552830, "name": "Karakulino", "country": "RU", "coord": {"lon": 53.706692, "lat": 56.012001}}, {"id": 552862, "name": "Karaidel", "country": "RU", "coord": {"lon": 56.906921, "lat": 55.833721}}, {"id": 552895, "name": "Karagach", "country": "RU", "coord": {"lon": 43.775002, "lat": 43.805279}}, {"id": 553138, "name": "Kangly", "country": "RU", "coord": {"lon": 43.03083, "lat": 44.25444}}, {"id": 553169, "name": "Kandry", "country": "RU", "coord": {"lon": 54.116669, "lat": 54.566669}}, {"id": 553233, "name": "Kanadey", "country": "RU", "coord": {"lon": 47.52644, "lat": 53.167858}}, {"id": 553271, "name": "Kamyshla", "country": "RU", "coord": {"lon": 52.14262, "lat": 54.116928}}, {"id": 553310, "name": "Kamyshevatskaya", "country": "RU", "coord": {"lon": 37.956322, "lat": 46.413158}}, {"id": 553374, "name": "Kaminskiy", "country": "RU", "coord": {"lon": 41.473179, "lat": 57.151588}}, {"id": 553416, "name": "Kamenskiy", "country": "RU", "coord": {"lon": 45.48801, "lat": 50.885471}}, {"id": 553427, "name": "Kamenolomni", "country": "RU", "coord": {"lon": 40.205101, "lat": 47.668522}}, {"id": 553513, "name": "Kamennomostskoye", "country": "RU", "coord": {"lon": 43.051392, "lat": 43.737221}}, {"id": 553609, "name": "Kamenka", "country": "RU", "coord": {"lon": 44.11261, "lat": 65.887589}}, {"id": 553655, "name": "Kamenka", "country": "RU", "coord": {"lon": 41.793831, "lat": 57.392139}}, {"id": 553766, "name": "Kamenka", "country": "RU", "coord": {"lon": 42.767799, "lat": 51.3223}}, {"id": 553791, "name": "Kamenetskiy", "country": "RU", "coord": {"lon": 38.221149, "lat": 54.013531}}, {"id": 553828, "name": "Kambileyevskoye", "country": "RU", "coord": {"lon": 44.752159, "lat": 43.078579}}, {"id": 553835, "name": "Kambarka", "country": "RU", "coord": {"lon": 54.206169, "lat": 56.26944}}, {"id": 553878, "name": "Kama", "country": "RU", "coord": {"lon": 54.09362, "lat": 56.305119}}, {"id": 553929, "name": "Kaltasy", "country": "RU", "coord": {"lon": 54.803211, "lat": 55.969261}}, {"id": 553955, "name": "Kalnibolotskaya", "country": "RU", "coord": {"lon": 40.456821, "lat": 46.005821}}, {"id": 554064, "name": "Kalinovskoye", "country": "RU", "coord": {"lon": 42.9622, "lat": 44.863499}}, {"id": 554077, "name": "Kalinovskaya", "country": "RU", "coord": {"lon": 45.519169, "lat": 43.575829}}, {"id": 554153, "name": "Kalino", "country": "RU", "coord": {"lon": 57.608501, "lat": 58.250401}}, {"id": 554236, "name": "Kalininaul", "country": "RU", "coord": {"lon": 46.566792, "lat": 43.071209}}, {"id": 554269, "name": "Kalinin", "country": "RU", "coord": {"lon": 39.51088, "lat": 47.24678}}, {"id": 554297, "name": "Kalikino", "country": "RU", "coord": {"lon": 39.8269, "lat": 52.949299}}, {"id": 554363, "name": "Kalashnikovo", "country": "RU", "coord": {"lon": 35.22617, "lat": 57.282372}}, {"id": 554444, "name": "Kakhun", "country": "RU", "coord": {"lon": 43.876389, "lat": 43.54306}}, {"id": 554491, "name": "Kafyr-Kumukh", "country": "RU", "coord": {"lon": 47.154121, "lat": 42.83754}}, {"id": 554502, "name": "Kadyy", "country": "RU", "coord": {"lon": 43.190289, "lat": 57.787041}}, {"id": 554544, "name": "Kadoshkino", "country": "RU", "coord": {"lon": 44.419102, "lat": 54.0257}}, {"id": 554549, "name": "Kadom", "country": "RU", "coord": {"lon": 42.467499, "lat": 54.55917}}, {"id": 554554, "name": "Kadnikov", "country": "RU", "coord": {"lon": 40.338032, "lat": 59.502178}}, {"id": 554767, "name": "Izoplit", "country": "RU", "coord": {"lon": 36.221981, "lat": 56.62558}}, {"id": 554806, "name": "Izmalkovo", "country": "RU", "coord": {"lon": 37.963982, "lat": 52.688702}}, {"id": 554830, "name": "Izhma", "country": "RU", "coord": {"lon": 53.911282, "lat": 65.008331}}, {"id": 554873, "name": "Izborsk", "country": "RU", "coord": {"lon": 27.862909, "lat": 57.707569}}, {"id": 554950, "name": "Ivot", "country": "RU", "coord": {"lon": 34.187222, "lat": 53.67556}}, {"id": 554973, "name": "Ivnya", "country": "RU", "coord": {"lon": 36.134258, "lat": 51.062939}}, {"id": 555112, "name": "Ivanteyevka", "country": "RU", "coord": {"lon": 49.105499, "lat": 52.266701}}, {"id": 555206, "name": "Ivanovskoye", "country": "RU", "coord": {"lon": 41.8764, "lat": 44.579498}}, {"id": 555610, "name": "Ivanishchi", "country": "RU", "coord": {"lon": 40.427311, "lat": 55.77417}}, {"id": 555617, "name": "Ivanino", "country": "RU", "coord": {"lon": 35.5769, "lat": 51.643398}}, {"id": 555681, "name": "Itum-Kali", "country": "RU", "coord": {"lon": 45.57576, "lat": 42.735569}}, {"id": 555717, "name": "Isyangulovo", "country": "RU", "coord": {"lon": 52.190899, "lat": 52.190899}}, {"id": 555798, "name": "Issa", "country": "RU", "coord": {"lon": 44.857811, "lat": 53.870491}}, {"id": 555801, "name": "Ispravnaya", "country": "RU", "coord": {"lon": 41.610199, "lat": 44.068199}}, {"id": 555933, "name": "Ishnya", "country": "RU", "coord": {"lon": 39.360039, "lat": 57.190701}}, {"id": 555950, "name": "Ishley", "country": "RU", "coord": {"lon": 47.050541, "lat": 56.02317}}, {"id": 555962, "name": "Ishkhoy-Yurt", "country": "RU", "coord": {"lon": 46.390282, "lat": 43.213329}}, {"id": 555994, "name": "Ishcherskaya", "country": "RU", "coord": {"lon": 45.126389, "lat": 43.715279}}, {"id": 556111, "name": "Isakly", "country": "RU", "coord": {"lon": 51.533329, "lat": 54.133331}}, {"id": 556131, "name": "Is", "country": "RU", "coord": {"lon": 59.718319, "lat": 58.793282}}, {"id": 556199, "name": "Irgakly", "country": "RU", "coord": {"lon": 44.755562, "lat": 44.361111}}, {"id": 556268, "name": "Ostrovnoy", "country": "RU", "coord": {"lon": 39.513062, "lat": 68.053062}}, {"id": 556279, "name": "Inzer", "country": "RU", "coord": {"lon": 57.555599, "lat": 54.216702}}, {"id": 556396, "name": "Inderka", "country": "RU", "coord": {"lon": 46.25824, "lat": 53.248459}}, {"id": 556430, "name": "Imeni Zhelyabova", "country": "RU", "coord": {"lon": 36.5956, "lat": 58.954399}}, {"id": 556462, "name": "Imeni Vorovskogo", "country": "RU", "coord": {"lon": 41.118999, "lat": 55.723701}}, {"id": 556480, "name": "Imeni Vladimira Ilicha Lenina", "country": "RU", "coord": {"lon": 46.980099, "lat": 53.56422}}, {"id": 556511, "name": "Imeni Sverdlova", "country": "RU", "coord": {"lon": 30.665831, "lat": 59.796108}}, {"id": 556516, "name": "Imeni Stepana Razina", "country": "RU", "coord": {"lon": 44.296268, "lat": 54.8932}}, {"id": 556779, "name": "Gereykhanovskoye", "country": "RU", "coord": {"lon": 48.281132, "lat": 41.701099}}, {"id": 556858, "name": "Imeni Babushkina", "country": "RU", "coord": {"lon": 43.128471, "lat": 59.757271}}, {"id": 556967, "name": "Ilovka", "country": "RU", "coord": {"lon": 38.637001, "lat": 50.705299}}, {"id": 557140, "name": "Ilinskiy", "country": "RU", "coord": {"lon": 38.118179, "lat": 55.619019}}, {"id": 557276, "name": "Ilichevo", "country": "RU", "coord": {"lon": 29.7523, "lat": 60.268082}}, {"id": 557292, "name": "Ilich", "country": "RU", "coord": {"lon": 36.774021, "lat": 45.424881}}, {"id": 557340, "name": "Ilek", "country": "RU", "coord": {"lon": 53.38306, "lat": 51.527088}}, {"id": 557390, "name": "Ikryanoye", "country": "RU", "coord": {"lon": 47.730782, "lat": 46.093231}}, {"id": 557399, "name": "Ikon-Khalk", "country": "RU", "coord": {"lon": 41.9142, "lat": 44.305099}}, {"id": 557413, "name": "Iki-Burul", "country": "RU", "coord": {"lon": 44.647221, "lat": 45.820831}}, {"id": 557531, "name": "Ignatovka", "country": "RU", "coord": {"lon": 47.653599, "lat": 53.947868}}, {"id": 557588, "name": "Idritsa", "country": "RU", "coord": {"lon": 28.89884, "lat": 56.33157}}, {"id": 557706, "name": "Elin-Yurt", "country": "RU", "coord": {"lon": 44.958889, "lat": 43.673061}}, {"id": 557754, "name": "Gus-Zheleznyy", "country": "RU", "coord": {"lon": 41.165562, "lat": 55.058109}}, {"id": 557842, "name": "Gusevskiy", "country": "RU", "coord": {"lon": 40.562672, "lat": 55.661991}}, {"id": 557906, "name": "Guryevsk", "country": "RU", "coord": {"lon": 20.605209, "lat": 54.773232}}, {"id": 557968, "name": "Gurbuki", "country": "RU", "coord": {"lon": 47.60067, "lat": 42.611279}}, {"id": 557979, "name": "Gunib", "country": "RU", "coord": {"lon": 46.965092, "lat": 42.387581}}, {"id": 557984, "name": "Gundorovskiy", "country": "RU", "coord": {"lon": 41.896801, "lat": 46.780472}}, {"id": 557992, "name": "Gumrak", "country": "RU", "coord": {"lon": 44.382401, "lat": 48.782551}}, {"id": 558135, "name": "Gubskaya", "country": "RU", "coord": {"lon": 40.63583, "lat": 44.316391}}, {"id": 558186, "name": "Gubden", "country": "RU", "coord": {"lon": 47.565788, "lat": 42.568081}}, {"id": 558385, "name": "Martan-Chu", "country": "RU", "coord": {"lon": 45.562168, "lat": 43.06366}}, {"id": 558487, "name": "Grivenskaya", "country": "RU", "coord": {"lon": 38.175968, "lat": 45.647301}}, {"id": 558497, "name": "Gritsovskiy", "country": "RU", "coord": {"lon": 38.160431, "lat": 54.137611}}, {"id": 558707, "name": "Grigoropolisskaya", "country": "RU", "coord": {"lon": 41.056671, "lat": 45.297218}}, {"id": 558969, "name": "Grecheskoye", "country": "RU", "coord": {"lon": 43.008301, "lat": 44.430531}}, {"id": 558998, "name": "Grebenskaya", "country": "RU", "coord": {"lon": 46.373329, "lat": 43.53167}}, {"id": 559020, "name": "Grazhdanskoye", "country": "RU", "coord": {"lon": 42.769798, "lat": 44.23}}, {"id": 559034, "name": "Grayvoron", "country": "RU", "coord": {"lon": 35.677299, "lat": 50.4767}}, {"id": 559073, "name": "Grakhovo", "country": "RU", "coord": {"lon": 51.967579, "lat": 56.050171}}, {"id": 559158, "name": "Grabovo", "country": "RU", "coord": {"lon": 45.06395, "lat": 53.387508}}, {"id": 559179, "name": "Goyty", "country": "RU", "coord": {"lon": 45.62278, "lat": 43.164169}}, {"id": 559252, "name": "Gostagayevskaya", "country": "RU", "coord": {"lon": 37.505112, "lat": 45.022839}}, {"id": 559378, "name": "Gorskaya", "country": "RU", "coord": {"lon": 29.971371, "lat": 60.046398}}, {"id": 559400, "name": "Gorshechnoye", "country": "RU", "coord": {"lon": 38.036499, "lat": 51.524399}}, {"id": 559475, "name": "Gorodovikovsk", "country": "RU", "coord": {"lon": 41.933529, "lat": 46.087849}}, {"id": 559478, "name": "Gorodoviki", "country": "RU", "coord": {"lon": 41.965561, "lat": 46.135281}}, {"id": 559643, "name": "Gorodishche", "country": "RU", "coord": {"lon": 45.701698, "lat": 53.2775}}, {"id": 559731, "name": "Gornyy", "country": "RU", "coord": {"lon": 48.541302, "lat": 51.757801}}, {"id": 559736, "name": "Gornyy", "country": "RU", "coord": {"lon": 40.203629, "lat": 47.815922}}, {"id": 559740, "name": "Gornyatskiy", "country": "RU", "coord": {"lon": 40.9575, "lat": 48.29147}}, {"id": 559853, "name": "Gorki Vtoryye", "country": "RU", "coord": {"lon": 37.163502, "lat": 55.725651}}, {"id": 559862, "name": "Gorki-Leninskiye", "country": "RU", "coord": {"lon": 37.77618, "lat": 55.508549}}, {"id": 560058, "name": "Goritsy", "country": "RU", "coord": {"lon": 38.260159, "lat": 59.869492}}, {"id": 560138, "name": "Goreloye", "country": "RU", "coord": {"lon": 41.504349, "lat": 52.93697}}, {"id": 560191, "name": "Gordeyevka", "country": "RU", "coord": {"lon": 31.970301, "lat": 52.956902}}, {"id": 560255, "name": "Gorbunki", "country": "RU", "coord": {"lon": 29.984079, "lat": 59.818249}}, {"id": 560325, "name": "Goragorskiy", "country": "RU", "coord": {"lon": 45.07917, "lat": 43.503059}}, {"id": 560452, "name": "Golynki", "country": "RU", "coord": {"lon": 31.386089, "lat": 54.86964}}, {"id": 560646, "name": "Golovino", "country": "RU", "coord": {"lon": 40.42511, "lat": 55.961281}}, {"id": 560674, "name": "Golovchino", "country": "RU", "coord": {"lon": 35.797001, "lat": 50.5341}}, {"id": 560849, "name": "Gagatli", "country": "RU", "coord": {"lon": 46.291618, "lat": 42.8013}}, {"id": 560852, "name": "Gofitskoye", "country": "RU", "coord": {"lon": 43.046391, "lat": 45.07917}}, {"id": 560995, "name": "Glushkovo", "country": "RU", "coord": {"lon": 34.632778, "lat": 51.339169}}, {"id": 561148, "name": "Glubokiy", "country": "RU", "coord": {"lon": 41.018452, "lat": 44.946732}}, {"id": 561179, "name": "Glotovka", "country": "RU", "coord": {"lon": 46.70422, "lat": 53.949059}}, {"id": 561234, "name": "Glinka", "country": "RU", "coord": {"lon": 32.878109, "lat": 54.64043}}, {"id": 561240, "name": "Glinishchevo", "country": "RU", "coord": {"lon": 34.065231, "lat": 53.304161}}, {"id": 561251, "name": "Glebychevo", "country": "RU", "coord": {"lon": 28.71826, "lat": 60.438679}}, {"id": 561462, "name": "Girey", "country": "RU", "coord": {"lon": 40.658699, "lat": 45.401199}}, {"id": 561472, "name": "Gimry", "country": "RU", "coord": {"lon": 46.839588, "lat": 42.759739}}, {"id": 561549, "name": "Germenchuk", "country": "RU", "coord": {"lon": 45.921001, "lat": 43.185699}}, {"id": 561550, "name": "Germenchik", "country": "RU", "coord": {"lon": 43.766109, "lat": 43.593891}}, {"id": 561560, "name": "Gergebil", "country": "RU", "coord": {"lon": 47.066109, "lat": 42.504719}}, {"id": 561593, "name": "Georgiyevskoye", "country": "RU", "coord": {"lon": 45.02404, "lat": 58.730999}}, {"id": 561626, "name": "Georgiyevskaya", "country": "RU", "coord": {"lon": 43.492222, "lat": 44.111389}}, {"id": 561633, "name": "Georgiyevka", "country": "RU", "coord": {"lon": 50.998482, "lat": 53.27438}}, {"id": 561670, "name": "Gekhi", "country": "RU", "coord": {"lon": 45.472778, "lat": 43.166939}}, {"id": 561722, "name": "Gayduk", "country": "RU", "coord": {"lon": 37.7005, "lat": 44.784889}}, {"id": 561804, "name": "Gavrilovka Vtoraya", "country": "RU", "coord": {"lon": 42.766331, "lat": 52.876968}}, {"id": 562016, "name": "Gaptsakh", "country": "RU", "coord": {"lon": 47.930271, "lat": 41.45174}}, {"id": 562070, "name": "Gamovo", "country": "RU", "coord": {"lon": 56.105598, "lat": 57.8652}}, {"id": 562086, "name": "Galyugayevskaya", "country": "RU", "coord": {"lon": 44.934441, "lat": 43.696941}}, {"id": 562136, "name": "Galitsy", "country": "RU", "coord": {"lon": 42.845879, "lat": 56.177589}}, {"id": 562209, "name": "Gagino", "country": "RU", "coord": {"lon": 45.033859, "lat": 55.231419}}, {"id": 562450, "name": "Fornosovo", "country": "RU", "coord": {"lon": 30.55444, "lat": 59.56889}}, {"id": 562580, "name": "Foki", "country": "RU", "coord": {"lon": 54.34985, "lat": 56.693001}}, {"id": 562627, "name": "Firovo", "country": "RU", "coord": {"lon": 33.70211, "lat": 57.48135}}, {"id": 562814, "name": "Filimonki", "country": "RU", "coord": {"lon": 37.347191, "lat": 55.557941}}, {"id": 562873, "name": "Ferzikovo", "country": "RU", "coord": {"lon": 36.75671, "lat": 54.519131}}, {"id": 562886, "name": "Ferapontovo", "country": "RU", "coord": {"lon": 38.567451, "lat": 59.95425}}, {"id": 563057, "name": "Fedorovskoye", "country": "RU", "coord": {"lon": 30.532221, "lat": 59.663059}}, {"id": 563306, "name": "Fastovetskaya", "country": "RU", "coord": {"lon": 40.15889, "lat": 45.918892}}, {"id": 563344, "name": "Falenki", "country": "RU", "coord": {"lon": 51.594608, "lat": 58.361271}}, {"id": 563407, "name": "Essoyla", "country": "RU", "coord": {"lon": 33.14901, "lat": 61.869831}}, {"id": 563420, "name": "Ertil", "country": "RU", "coord": {"lon": 40.805561, "lat": 51.840561}}, {"id": 563425, "name": "Erpeli", "country": "RU", "coord": {"lon": 46.977322, "lat": 42.80584}}, {"id": 563461, "name": "Engel-Yurt", "country": "RU", "coord": {"lon": 46.360279, "lat": 43.328892}}, {"id": 563471, "name": "Energetik", "country": "RU", "coord": {"lon": 58.7934, "lat": 51.744499}}, {"id": 563495, "name": "Elton", "country": "RU", "coord": {"lon": 46.847031, "lat": 49.1273}}, {"id": 563534, "name": "Elbrus", "country": "RU", "coord": {"lon": 42.644348, "lat": 43.257702}}, {"id": 563556, "name": "Edissiya", "country": "RU", "coord": {"lon": 44.540829, "lat": 44.051109}}, {"id": 563623, "name": "Dzhayrakh", "country": "RU", "coord": {"lon": 44.681389, "lat": 42.820831}}, {"id": 563678, "name": "Dzhalka", "country": "RU", "coord": {"lon": 45.987869, "lat": 43.3186}}, {"id": 563744, "name": "Dyshne-Vedeno", "country": "RU", "coord": {"lon": 46.11578, "lat": 42.96434}}, {"id": 563792, "name": "Dylym", "country": "RU", "coord": {"lon": 46.634541, "lat": 43.070992}}, {"id": 563990, "name": "Dvinskoy", "country": "RU", "coord": {"lon": 45.117512, "lat": 62.153511}}, {"id": 564022, "name": "Duvan", "country": "RU", "coord": {"lon": 57.90237, "lat": 55.694969}}, {"id": 564098, "name": "Durgeli", "country": "RU", "coord": {"lon": 47.29435, "lat": 42.667}}, {"id": 564191, "name": "Duminichi", "country": "RU", "coord": {"lon": 35.109928, "lat": 53.93446}}, {"id": 564200, "name": "Dulyapino", "country": "RU", "coord": {"lon": 40.81472, "lat": 57.257832}}, {"id": 564234, "name": "Dukhovshchina", "country": "RU", "coord": {"lon": 32.411098, "lat": 55.191898}}, {"id": 564241, "name": "Dukhovnitskoye", "country": "RU", "coord": {"lon": 48.213699, "lat": 52.4828}}, {"id": 564417, "name": "Dubrovka", "country": "RU", "coord": {"lon": 51.155781, "lat": 59.228661}}, {"id": 564487, "name": "Dubrovka", "country": "RU", "coord": {"lon": 33.507099, "lat": 53.690701}}, {"id": 564517, "name": "Dubrovitsy", "country": "RU", "coord": {"lon": 37.486698, "lat": 55.43969}}, {"id": 564579, "name": "Dubovyy Umet", "country": "RU", "coord": {"lon": 50.28569, "lat": 52.976292}}, {"id": 564723, "name": "Dubna", "country": "RU", "coord": {"lon": 36.961731, "lat": 54.15416}}, {"id": 564745, "name": "Dubki", "country": "RU", "coord": {"lon": 40.25, "lat": 57.299999}}, {"id": 564764, "name": "Dubki", "country": "RU", "coord": {"lon": 46.837219, "lat": 43.022499}}, {"id": 564821, "name": "Duba-Yurt", "country": "RU", "coord": {"lon": 45.731941, "lat": 43.03722}}, {"id": 564866, "name": "Druzhnaya Gorka", "country": "RU", "coord": {"lon": 30.1425, "lat": 59.276112}}, {"id": 564929, "name": "Druzhba", "country": "RU", "coord": {"lon": 42.016998, "lat": 44.195301}}, {"id": 565052, "name": "Drakino", "country": "RU", "coord": {"lon": 39.402149, "lat": 51.138981}}, {"id": 565108, "name": "Doschatoye", "country": "RU", "coord": {"lon": 42.10722, "lat": 55.3825}}, {"id": 565172, "name": "Dorokhovo", "country": "RU", "coord": {"lon": 36.374439, "lat": 55.55056}}, {"id": 565202, "name": "Dorogobuzh", "country": "RU", "coord": {"lon": 33.297218, "lat": 54.915001}}, {"id": 565285, "name": "Donskoye", "country": "RU", "coord": {"lon": 38.973801, "lat": 52.617401}}, {"id": 565300, "name": "Donskoy", "country": "RU", "coord": {"lon": 40.25742, "lat": 47.41404}}, {"id": 565407, "name": "Dombarovskiy", "country": "RU", "coord": {"lon": 59.538601, "lat": 50.758701}}, {"id": 565611, "name": "Dolgorukovo", "country": "RU", "coord": {"lon": 38.345268, "lat": 52.31945}}, {"id": 565774, "name": "Dobryatino", "country": "RU", "coord": {"lon": 41.3195, "lat": 55.505501}}, {"id": 565783, "name": "Dobrun", "country": "RU", "coord": {"lon": 34.246239, "lat": 53.18512}}, {"id": 565803, "name": "Dobroye", "country": "RU", "coord": {"lon": 39.810902, "lat": 52.867802}}, {"id": 565908, "name": "Dmitrovsk-Orlovskiy", "country": "RU", "coord": {"lon": 35.1464, "lat": 52.505001}}, {"id": 565979, "name": "Dmitriyevskoye", "country": "RU", "coord": {"lon": 41.896671, "lat": 45.80529}}, {"id": 566000, "name": "Dmitriyevskaya", "country": "RU", "coord": {"lon": 40.765282, "lat": 45.656391}}, {"id": 566027, "name": "Dmitriyevka", "country": "RU", "coord": {"lon": 55.333328, "lat": 54.75}}, {"id": 566165, "name": "Diveyevo", "country": "RU", "coord": {"lon": 43.241779, "lat": 55.043289}}, {"id": 566267, "name": "Deyskoye", "country": "RU", "coord": {"lon": 44.161819, "lat": 43.47546}}, {"id": 566319, "name": "Devitsa", "country": "RU", "coord": {"lon": 38.945, "lat": 51.635201}}, {"id": 566456, "name": "Dergachi", "country": "RU", "coord": {"lon": 48.7659, "lat": 51.2328}}, {"id": 566629, "name": "Demyansk", "country": "RU", "coord": {"lon": 32.466, "lat": 57.643009}}, {"id": 566712, "name": "Demikhovo", "country": "RU", "coord": {"lon": 38.884041, "lat": 55.796848}}, {"id": 566868, "name": "Dedovichi", "country": "RU", "coord": {"lon": 29.95018, "lat": 57.551659}}, {"id": 566908, "name": "Debesy", "country": "RU", "coord": {"lon": 53.804932, "lat": 57.65292}}, {"id": 567111, "name": "Danki", "country": "RU", "coord": {"lon": 37.570091, "lat": 54.91806}}, {"id": 567177, "name": "Danilovka", "country": "RU", "coord": {"lon": 44.11681, "lat": 50.355728}}, {"id": 567280, "name": "Dalakovo", "country": "RU", "coord": {"lon": 44.591671, "lat": 43.235001}}, {"id": 567312, "name": "Dachnoye", "country": "RU", "coord": {"lon": 44.735802, "lat": 43.084679}}, {"id": 567748, "name": "Chufarovo", "country": "RU", "coord": {"lon": 47.3367, "lat": 54.096298}}, {"id": 567806, "name": "Chuchkovo", "country": "RU", "coord": {"lon": 41.44648, "lat": 54.26931}}, {"id": 567859, "name": "Chontaul", "country": "RU", "coord": {"lon": 46.859669, "lat": 43.30481}}, {"id": 567972, "name": "Chistoye", "country": "RU", "coord": {"lon": 43.004452, "lat": 56.537529}}, {"id": 568077, "name": "Chirkey", "country": "RU", "coord": {"lon": 46.978661, "lat": 42.961311}}, {"id": 568085, "name": "Chiri-Yurt", "country": "RU", "coord": {"lon": 45.740559, "lat": 43.08667}}, {"id": 568400, "name": "Cherusti", "country": "RU", "coord": {"lon": 40.010712, "lat": 55.549759}}, {"id": 568429, "name": "Chertkovo", "country": "RU", "coord": {"lon": 40.154709, "lat": 49.384701}}, {"id": 568527, "name": "Chernyshkovskiy", "country": "RU", "coord": {"lon": 42.23082, "lat": 48.421879}}, {"id": 568615, "name": "Chernukha", "country": "RU", "coord": {"lon": 43.7556, "lat": 55.597389}}, {"id": 568633, "name": "Chernoyerkovskaya", "country": "RU", "coord": {"lon": 37.768608, "lat": 45.43306}}, {"id": 568790, "name": "Chernolesskoye", "country": "RU", "coord": {"lon": 43.713329, "lat": 44.715561}}, {"id": 568822, "name": "Chernitsyno", "country": "RU", "coord": {"lon": 36.05101, "lat": 51.507389}}, {"id": 568954, "name": "Chernaya Kholunitsa", "country": "RU", "coord": {"lon": 51.71545, "lat": 58.851139}}, {"id": 569116, "name": "Chern", "country": "RU", "coord": {"lon": 36.914501, "lat": 53.45232}}, {"id": 569132, "name": "Chermen", "country": "RU", "coord": {"lon": 44.70694, "lat": 43.148609}}, {"id": 569170, "name": "Cherkasskoye", "country": "RU", "coord": {"lon": 47.216671, "lat": 52.433331}}, {"id": 569231, "name": "Cherepet", "country": "RU", "coord": {"lon": 36.378769, "lat": 54.11784}}, {"id": 569269, "name": "Cheremushskiy", "country": "RU", "coord": {"lon": 47.263611, "lat": 61.27306}}, {"id": 569295, "name": "Cheremukhovo", "country": "RU", "coord": {"lon": 59.985069, "lat": 60.348419}}, {"id": 569318, "name": "Cheremshan", "country": "RU", "coord": {"lon": 51.5, "lat": 54.666672}}, {"id": 569453, "name": "Chemodanovka", "country": "RU", "coord": {"lon": 45.247379, "lat": 53.231621}}, {"id": 569497, "name": "Chelno-Vershiny", "country": "RU", "coord": {"lon": 51.099998, "lat": 54.433331}}, {"id": 569632, "name": "Chegem Vtoroy", "country": "RU", "coord": {"lon": 43.599442, "lat": 43.595829}}, {"id": 569666, "name": "Chechen-Aul", "country": "RU", "coord": {"lon": 45.788891, "lat": 43.200001}}, {"id": 569743, "name": "Chaykovskaya", "country": "RU", "coord": {"lon": 55.537811, "lat": 58.127899}}, {"id": 569794, "name": "Chastyye", "country": "RU", "coord": {"lon": 54.972778, "lat": 57.288761}}, {"id": 569841, "name": "Chashnikovo", "country": "RU", "coord": {"lon": 37.166672, "lat": 56.033329}}, {"id": 570003, "name": "Chamzinka", "country": "RU", "coord": {"lon": 45.783871, "lat": 54.401878}}, {"id": 570008, "name": "Chamlykskaya", "country": "RU", "coord": {"lon": 40.878609, "lat": 44.715832}}, {"id": 570086, "name": "Chagoda", "country": "RU", "coord": {"lon": 35.328499, "lat": 59.164001}}, {"id": 570133, "name": "Chaadayevka", "country": "RU", "coord": {"lon": 45.912201, "lat": 53.1427}}, {"id": 570158, "name": "Bytosh", "country": "RU", "coord": {"lon": 34.09116, "lat": 53.818611}}, {"id": 570188, "name": "Bystrogorskiy", "country": "RU", "coord": {"lon": 41.140968, "lat": 48.20813}}, {"id": 570298, "name": "Bykovo", "country": "RU", "coord": {"lon": 38.080269, "lat": 55.636139}}, {"id": 570315, "name": "Bykovo", "country": "RU", "coord": {"lon": 45.38866, "lat": 49.766178}}, {"id": 570564, "name": "Buturlino", "country": "RU", "coord": {"lon": 44.897381, "lat": 55.56673}}, {"id": 570683, "name": "Burtunay", "country": "RU", "coord": {"lon": 46.630341, "lat": 42.988602}}, {"id": 570770, "name": "Burmakino", "country": "RU", "coord": {"lon": 40.236881, "lat": 57.416641}}, {"id": 570785, "name": "Burlatskoye", "country": "RU", "coord": {"lon": 43.634998, "lat": 45.056389}}, {"id": 570813, "name": "Buribay", "country": "RU", "coord": {"lon": 58.159168, "lat": 51.96167}}, {"id": 570827, "name": "Burevestnik", "country": "RU", "coord": {"lon": 43.788319, "lat": 56.144032}}, {"id": 570868, "name": "Burayevo", "country": "RU", "coord": {"lon": 55.40834, "lat": 55.840691}}, {"id": 571154, "name": "Buinsk", "country": "RU", "coord": {"lon": 47.060829, "lat": 55.195}}, {"id": 571252, "name": "Budogoshch", "country": "RU", "coord": {"lon": 32.470741, "lat": 59.281582}}, {"id": 571492, "name": "Brusyanka", "country": "RU", "coord": {"lon": 38.035931, "lat": 53.984921}}, {"id": 571634, "name": "Breytovo", "country": "RU", "coord": {"lon": 37.861721, "lat": 58.299252}}, {"id": 571702, "name": "Nogamerzin-Yurt", "country": "RU", "coord": {"lon": 44.888889, "lat": 43.65361}}, {"id": 571913, "name": "Borzoy", "country": "RU", "coord": {"lon": 45.62746, "lat": 42.841469}}, {"id": 571987, "name": "Borskoye", "country": "RU", "coord": {"lon": 51.716671, "lat": 53.033329}}, {"id": 572091, "name": "Borovoy", "country": "RU", "coord": {"lon": 52.890308, "lat": 63.230049}}, {"id": 572220, "name": "Borok", "country": "RU", "coord": {"lon": 38.236198, "lat": 58.065319}}, {"id": 572256, "name": "Borodinskiy", "country": "RU", "coord": {"lon": 37.817921, "lat": 53.998589}}, {"id": 572506, "name": "Borisova Griva", "country": "RU", "coord": {"lon": 30.97727, "lat": 60.089359}}, {"id": 572559, "name": "Borinskoye", "country": "RU", "coord": {"lon": 39.3713, "lat": 52.456902}}, {"id": 572567, "name": "Borgustanskaya", "country": "RU", "coord": {"lon": 42.528801, "lat": 44.054699}}, {"id": 572706, "name": "Bamut", "country": "RU", "coord": {"lon": 45.197338, "lat": 43.159859}}, {"id": 573089, "name": "Bolshoy Karay", "country": "RU", "coord": {"lon": 42.69006, "lat": 51.605419}}, {"id": 573302, "name": "Bolshoye Skuratovo", "country": "RU", "coord": {"lon": 36.840851, "lat": 53.438519}}, {"id": 573709, "name": "Bolshoye Boldino", "country": "RU", "coord": {"lon": 45.31419, "lat": 55.005878}}, {"id": 574307, "name": "Bolshevo", "country": "RU", "coord": {"lon": 37.830021, "lat": 55.93486}}, {"id": 575070, "name": "Bolshaya Izhora", "country": "RU", "coord": {"lon": 29.577209, "lat": 59.937962}}, {"id": 575413, "name": "Bokovskaya", "country": "RU", "coord": {"lon": 41.830601, "lat": 49.228989}}, {"id": 575423, "name": "Bokino", "country": "RU", "coord": {"lon": 41.459679, "lat": 52.63744}}, {"id": 575480, "name": "Bogovarovo", "country": "RU", "coord": {"lon": 47.02462, "lat": 58.978489}}, {"id": 575494, "name": "Bogoslovka", "country": "RU", "coord": {"lon": 44.801331, "lat": 53.20837}}, {"id": 575514, "name": "Bogorodskoye", "country": "RU", "coord": {"lon": 50.748562, "lat": 57.828491}}, {"id": 575519, "name": "Bogorodskoye", "country": "RU", "coord": {"lon": 41.013538, "lat": 57.04694}}, {"id": 575521, "name": "Bogorodskoye", "country": "RU", "coord": {"lon": 37.883331, "lat": 56.549999}}, {"id": 575751, "name": "Bogatyr", "country": "RU", "coord": {"lon": 49.945499, "lat": 53.429798}}, {"id": 575756, "name": "Bogatoye", "country": "RU", "coord": {"lon": 51.3325, "lat": 53.060101}}, {"id": 576053, "name": "Blizhne-Pesochnoye", "country": "RU", "coord": {"lon": 42.101501, "lat": 55.3456}}, {"id": 576080, "name": "Blechepsin", "country": "RU", "coord": {"lon": 40.500278, "lat": 44.820278}}, {"id": 576093, "name": "Blagoyevo", "country": "RU", "coord": {"lon": 47.916672, "lat": 63.366669}}, {"id": 576147, "name": "Blagodatnoye", "country": "RU", "coord": {"lon": 42.58667, "lat": 45.399719}}, {"id": 576195, "name": "Bizhbulyak", "country": "RU", "coord": {"lon": 54.264198, "lat": 53.696701}}, {"id": 576342, "name": "Bilyarsk", "country": "RU", "coord": {"lon": 50.386711, "lat": 54.983582}}, {"id": 576351, "name": "Bilimbay", "country": "RU", "coord": {"lon": 59.814899, "lat": 56.968891}}, {"id": 576519, "name": "Bezopasnoye", "country": "RU", "coord": {"lon": 41.936031, "lat": 45.648331}}, {"id": 830805, "name": "Bezhtinskiy Uchastok Rayon", "country": "RU", "coord": {"lon": 46.083328, "lat": 42.083328}}, {"id": 576558, "name": "Bezhta", "country": "RU", "coord": {"lon": 46.128281, "lat": 42.133801}}, {"id": 576572, "name": "Bezhanitsy", "country": "RU", "coord": {"lon": 29.89065, "lat": 56.9767}}, {"id": 576626, "name": "Betlitsa", "country": "RU", "coord": {"lon": 33.958752, "lat": 54.00946}}, {"id": 576663, "name": "Bessonovka", "country": "RU", "coord": {"lon": 45.040691, "lat": 53.309681}}, {"id": 576666, "name": "Bessonovka", "country": "RU", "coord": {"lon": 36.301071, "lat": 50.52644}}, {"id": 576672, "name": "Besskorbnaya", "country": "RU", "coord": {"lon": 41.311001, "lat": 44.644699}}, {"id": 576695, "name": "Besleney", "country": "RU", "coord": {"lon": 41.738701, "lat": 44.240501}}, {"id": 576712, "name": "Beshpagir", "country": "RU", "coord": {"lon": 42.380829, "lat": 45.021671}}, {"id": 576745, "name": "Bershet", "country": "RU", "coord": {"lon": 56.3783, "lat": 57.7309}}, {"id": 576754, "name": "Bernovo", "country": "RU", "coord": {"lon": 34.703571, "lat": 56.686329}}, {"id": 577240, "name": "Bereznik", "country": "RU", "coord": {"lon": 42.707191, "lat": 62.855141}}, {"id": 577375, "name": "Berezayka", "country": "RU", "coord": {"lon": 33.90361, "lat": 57.988331}}, {"id": 577380, "name": "Berezanskaya", "country": "RU", "coord": {"lon": 39.593239, "lat": 45.70562}}, {"id": 577408, "name": "Berendeyevo", "country": "RU", "coord": {"lon": 39.021729, "lat": 56.60078}}, {"id": 577485, "name": "Benoy-Yurt", "country": "RU", "coord": {"lon": 45.049999, "lat": 43.689999}}, {"id": 577548, "name": "Belyy Gorodok", "country": "RU", "coord": {"lon": 37.512501, "lat": 56.965}}, {"id": 577560, "name": "Belyye Berega", "country": "RU", "coord": {"lon": 34.664051, "lat": 53.208511}}, {"id": 577630, "name": "Belyayevka", "country": "RU", "coord": {"lon": 51.397419, "lat": 51.397419}}, {"id": 577711, "name": "Belozersk", "country": "RU", "coord": {"lon": 37.795719, "lat": 60.032631}}, {"id": 577817, "name": "Beloye", "country": "RU", "coord": {"lon": 39.651428, "lat": 45.048321}}, {"id": 577883, "name": "Ilaskhan-Yurt", "country": "RU", "coord": {"lon": 46.103889, "lat": 43.279442}}, {"id": 577892, "name": "Belorechensk", "country": "RU", "coord": {"lon": 52.293571, "lat": 58.772499}}, {"id": 578045, "name": "Belinskiy", "country": "RU", "coord": {"lon": 43.41647, "lat": 52.964741}}, {"id": 578076, "name": "Belgatoy", "country": "RU", "coord": {"lon": 45.830818, "lat": 43.18996}}, {"id": 578138, "name": "Belaya Rechka", "country": "RU", "coord": {"lon": 39.406651, "lat": 56.284908}}, {"id": 578140, "name": "Belaya Rechka", "country": "RU", "coord": {"lon": 43.535, "lat": 43.438061}}, {"id": 578230, "name": "Belaya", "country": "RU", "coord": {"lon": 35.71611, "lat": 51.05444}}, {"id": 578263, "name": "Bekovo", "country": "RU", "coord": {"lon": 43.71199, "lat": 52.46632}}, {"id": 578283, "name": "Bekhteyevka", "country": "RU", "coord": {"lon": 37.20853, "lat": 50.807209}}, {"id": 578339, "name": "Begichevskiy", "country": "RU", "coord": {"lon": 38.254978, "lat": 53.796051}}, {"id": 578465, "name": "Bazarnyy Syzgan", "country": "RU", "coord": {"lon": 46.75354, "lat": 53.751171}}, {"id": 578466, "name": "Bazarnyy Karabulak", "country": "RU", "coord": {"lon": 46.41444, "lat": 52.26833}}, {"id": 578467, "name": "Bazarnyye Mataki", "country": "RU", "coord": {"lon": 49.933331, "lat": 54.883331}}, {"id": 578637, "name": "Bavtugay", "country": "RU", "coord": {"lon": 46.830002, "lat": 43.16}}, {"id": 578675, "name": "Baturinskaya", "country": "RU", "coord": {"lon": 39.370651, "lat": 45.792671}}, {"id": 578732, "name": "Batetskiy", "country": "RU", "coord": {"lon": 30.302679, "lat": 58.646099}}, {"id": 550476, "name": "Khasavyurtovskiy Rayon", "country": "RU", "coord": {"lon": 46.666672, "lat": 43.333328}}, {"id": 578738, "name": "Botayurt", "country": "RU", "coord": {"lon": 46.683708, "lat": 43.318661}}, {"id": 578742, "name": "Botashyurt", "country": "RU", "coord": {"lon": 46.509899, "lat": 43.30801}}, {"id": 578842, "name": "Bashmakovo", "country": "RU", "coord": {"lon": 43.034199, "lat": 53.213291}}, {"id": 578940, "name": "Barybino", "country": "RU", "coord": {"lon": 37.89333, "lat": 55.267681}}, {"id": 578947, "name": "Baryatino", "country": "RU", "coord": {"lon": 34.520962, "lat": 54.312061}}, {"id": 578974, "name": "Barsukovskaya", "country": "RU", "coord": {"lon": 41.819099, "lat": 44.763199}}, {"id": 579000, "name": "Barsuki", "country": "RU", "coord": {"lon": 37.487461, "lat": 54.26548}}, {"id": 579147, "name": "Barashevo", "country": "RU", "coord": {"lon": 42.879169, "lat": 54.532501}}, {"id": 579327, "name": "Bammatyurt", "country": "RU", "coord": {"lon": 46.608528, "lat": 43.343151}}, {"id": 579381, "name": "Baltay", "country": "RU", "coord": {"lon": 46.63081, "lat": 52.465248}}, {"id": 579468, "name": "Balasheyka", "country": "RU", "coord": {"lon": 48.085098, "lat": 53.2841}}, {"id": 579503, "name": "Balakhonovskoye", "country": "RU", "coord": {"lon": 41.784199, "lat": 44.776699}}, {"id": 579560, "name": "Baksheyevo", "country": "RU", "coord": {"lon": 39.876659, "lat": 55.708599}}, {"id": 579571, "name": "Baksanenok", "country": "RU", "coord": {"lon": 43.65472, "lat": 43.68972}}, {"id": 579831, "name": "Bachi-Yurt", "country": "RU", "coord": {"lon": 46.200001, "lat": 43.220001}}, {"id": 579951, "name": "Babino", "country": "RU", "coord": {"lon": 43.623798, "lat": 56.225639}}, {"id": 579999, "name": "Babayurt", "country": "RU", "coord": {"lon": 46.778881, "lat": 43.600201}}, {"id": 580006, "name": "Babayevo", "country": "RU", "coord": {"lon": 35.937099, "lat": 59.3936}}, {"id": 580352, "name": "Aushiger", "country": "RU", "coord": {"lon": 43.73167, "lat": 43.396111}}, {"id": 580375, "name": "Atyashevo", "country": "RU", "coord": {"lon": 46.06905, "lat": 54.56443}}, {"id": 580431, "name": "Ateptsevo", "country": "RU", "coord": {"lon": 36.750019, "lat": 55.323639}}, {"id": 580432, "name": "Atemar", "country": "RU", "coord": {"lon": 45.409088, "lat": 54.180969}}, {"id": 580453, "name": "Atamanskaya", "country": "RU", "coord": {"lon": 39.635799, "lat": 46.177299}}, {"id": 580545, "name": "Assinovskaya", "country": "RU", "coord": {"lon": 45.18, "lat": 43.240002}}, {"id": 580577, "name": "Askino", "country": "RU", "coord": {"lon": 56.578308, "lat": 56.09013}}, {"id": 580621, "name": "Ashilta", "country": "RU", "coord": {"lon": 46.729919, "lat": 42.77042}}, {"id": 580676, "name": "Asekeyevo", "country": "RU", "coord": {"lon": 52.797241, "lat": 53.574249}}, {"id": 580688, "name": "Asanovo", "country": "RU", "coord": {"lon": 55.490829, "lat": 54.89418}}, {"id": 580862, "name": "Arshan", "country": "RU", "coord": {"lon": 44.220001, "lat": 46.273201}}, {"id": 580872, "name": "Arsenyevo", "country": "RU", "coord": {"lon": 36.664291, "lat": 53.73893}}, {"id": 580931, "name": "Arkul", "country": "RU", "coord": {"lon": 50.043999, "lat": 57.280849}}, {"id": 580942, "name": "Arkhonskaya", "country": "RU", "coord": {"lon": 44.512501, "lat": 43.110001}}, {"id": 580960, "name": "Arkhipovka", "country": "RU", "coord": {"lon": 41.254341, "lat": 56.662922}}, {"id": 580993, "name": "Arkhangelskoye", "country": "RU", "coord": {"lon": 35.328732, "lat": 55.854858}}, {"id": 580994, "name": "Arkhangelskoye", "country": "RU", "coord": {"lon": 37.299839, "lat": 55.78791}}, {"id": 581080, "name": "Arkadak", "country": "RU", "coord": {"lon": 43.49778, "lat": 51.93261}}, {"id": 581128, "name": "Argudan", "country": "RU", "coord": {"lon": 43.915829, "lat": 43.421391}}, {"id": 581178, "name": "Ardon", "country": "RU", "coord": {"lon": 32.308571, "lat": 52.735241}}, {"id": 581187, "name": "Ardatov", "country": "RU", "coord": {"lon": 46.238781, "lat": 54.847672}}, {"id": 581228, "name": "Arbazh", "country": "RU", "coord": {"lon": 48.306469, "lat": 57.680401}}, {"id": 581358, "name": "Apastovskiy Rayon", "country": "RU", "coord": {"lon": 48.5, "lat": 55.25}}, {"id": 581359, "name": "Apastovo", "country": "RU", "coord": {"lon": 48.51091, "lat": 55.20293}}, {"id": 581456, "name": "Antropovo", "country": "RU", "coord": {"lon": 43.006592, "lat": 58.398762}}, {"id": 581540, "name": "Antipovka", "country": "RU", "coord": {"lon": 45.31216, "lat": 49.829941}}, {"id": 571887, "name": "Botlikhskiy Rayon", "country": "RU", "coord": {"lon": 46.25, "lat": 42.75}}, {"id": 581568, "name": "Ansalta", "country": "RU", "coord": {"lon": 46.117821, "lat": 42.689411}}, {"id": 581623, "name": "Annino", "country": "RU", "coord": {"lon": 30.05611, "lat": 59.770561}}, {"id": 582001, "name": "Andreyevka", "country": "RU", "coord": {"lon": 37.134998, "lat": 55.980282}}, {"id": 582097, "name": "Endirey", "country": "RU", "coord": {"lon": 46.654011, "lat": 43.163158}}, {"id": 582123, "name": "Andi", "country": "RU", "coord": {"lon": 46.261711, "lat": 42.7836}}, {"id": 582163, "name": "Anastasiyevskaya", "country": "RU", "coord": {"lon": 37.892578, "lat": 45.215759}}, {"id": 582164, "name": "Anastasiyevka", "country": "RU", "coord": {"lon": 38.52837, "lat": 47.560719}}, {"id": 582222, "name": "Amzya", "country": "RU", "coord": {"lon": 54.386848, "lat": 56.23542}}, {"id": 582362, "name": "Altud", "country": "RU", "coord": {"lon": 43.865829, "lat": 43.721939}}, {"id": 582447, "name": "Almaznyy", "country": "RU", "coord": {"lon": 40.04501, "lat": 48.044762}}, {"id": 582462, "name": "Alleroy", "country": "RU", "coord": {"lon": 46.279999, "lat": 43.209999}}, {"id": 582490, "name": "Alkhazurovo", "country": "RU", "coord": {"lon": 45.639999, "lat": 43.060001}}, {"id": 582491, "name": "Alkhan-Yurt", "country": "RU", "coord": {"lon": 45.572281, "lat": 43.231789}}, {"id": 582493, "name": "Alkhan-Kala", "country": "RU", "coord": {"lon": 45.529999, "lat": 43.25}}, {"id": 582504, "name": "Ali-Yurt", "country": "RU", "coord": {"lon": 44.849998, "lat": 43.139999}}, {"id": 582544, "name": "Ali-Berdukovskiy", "country": "RU", "coord": {"lon": 41.742119, "lat": 43.989521}}, {"id": 582816, "name": "Alekseyevskaya", "country": "RU", "coord": {"lon": 42.184502, "lat": 50.2896}}, {"id": 582817, "name": "Alekseyevskaya", "country": "RU", "coord": {"lon": 40.155281, "lat": 45.771671}}, {"id": 582854, "name": "Alekseyevka", "country": "RU", "coord": {"lon": 55.23333, "lat": 54.849998}}, {"id": 583039, "name": "Aleksandrovskaya", "country": "RU", "coord": {"lon": 43.650002, "lat": 43.48333}}, {"id": 583345, "name": "Aleksandrov Gay", "country": "RU", "coord": {"lon": 48.57037, "lat": 50.147041}}, {"id": 583358, "name": "Aleksandro-Nevskiy", "country": "RU", "coord": {"lon": 40.209499, "lat": 53.475101}}, {"id": 583368, "name": "Aleksandriyskaya", "country": "RU", "coord": {"lon": 43.34528, "lat": 44.227219}}, {"id": 583373, "name": "Aleksandriya", "country": "RU", "coord": {"lon": 43.24556, "lat": 45.094719}}, {"id": 583472, "name": "Alakurtti", "country": "RU", "coord": {"lon": 30.349051, "lat": 66.967201}}, {"id": 583509, "name": "", "country": "RU", "coord": {"lon": 58.221359, "lat": 51.859051}}, {"id": 583512, "name": "Akusha", "country": "RU", "coord": {"lon": 47.341141, "lat": 42.268848}}, {"id": 583548, "name": "Aktyubinskiy", "country": "RU", "coord": {"lon": 52.805592, "lat": 54.813721}}, {"id": 583573, "name": "Russkiy Aktash", "country": "RU", "coord": {"lon": 52.121399, "lat": 55.038399}}, {"id": 583674, "name": "Aksay", "country": "RU", "coord": {"lon": 46.444969, "lat": 43.37254}}, {"id": 583683, "name": "Aksarayskiy", "country": "RU", "coord": {"lon": 48.011879, "lat": 46.792439}}, {"id": 583692, "name": "Aksakovo", "country": "RU", "coord": {"lon": 54.150002, "lat": 54.033329}}, {"id": 480804, "name": "Tsumadinskiy Rayon", "country": "RU", "coord": {"lon": 46.083328, "lat": 42.5}}, {"id": 583707, "name": "Aknada", "country": "RU", "coord": {"lon": 46.172279, "lat": 42.40155}}, {"id": 583731, "name": "Staraya Akkermanovka", "country": "RU", "coord": {"lon": 58.239079, "lat": 51.246689}}, {"id": 583781, "name": "Akhunovo", "country": "RU", "coord": {"lon": 59.6017, "lat": 54.207901}}, {"id": 583794, "name": "Akhty", "country": "RU", "coord": {"lon": 47.731232, "lat": 41.459679}}, {"id": 583973, "name": "Agvali", "country": "RU", "coord": {"lon": 46.119671, "lat": 42.538528}}, {"id": 583988, "name": "Agronom", "country": "RU", "coord": {"lon": 39.193859, "lat": 45.13871}}, {"id": 584021, "name": "Ageyevo", "country": "RU", "coord": {"lon": 36.469269, "lat": 54.158829}}, {"id": 584087, "name": "Afrikanda", "country": "RU", "coord": {"lon": 32.782791, "lat": 67.442886}}, {"id": 584221, "name": "Adyge-Khabl", "country": "RU", "coord": {"lon": 41.93922, "lat": 44.334339}}, {"id": 584248, "name": "Adil-Yangiyurt", "country": "RU", "coord": {"lon": 46.584621, "lat": 43.563278}}, {"id": 584309, "name": "Achisu", "country": "RU", "coord": {"lon": 47.682819, "lat": 42.65197}}, {"id": 584310, "name": "Achikulak", "country": "RU", "coord": {"lon": 44.83778, "lat": 44.55167}}, {"id": 584329, "name": "Abzakovo", "country": "RU", "coord": {"lon": 58.59333, "lat": 53.828609}}, {"id": 584401, "name": "Abramovka", "country": "RU", "coord": {"lon": 41.020199, "lat": 51.188599}}, {"id": 584534, "name": "Abadzekhskaya", "country": "RU", "coord": {"lon": 40.22139, "lat": 44.39389}}, {"id": 795067, "name": "Gedzhukh", "country": "RU", "coord": {"lon": 48.064739, "lat": 42.127861}}, {"id": 795235, "name": "Vidyayevo", "country": "RU", "coord": {"lon": 32.804878, "lat": 69.319138}}, {"id": 796701, "name": "Kokrek", "country": "RU", "coord": {"lon": 46.72665, "lat": 43.236389}}, {"id": 797011, "name": "Kontenko", "country": "RU", "coord": {"lon": 36.832218, "lat": 45.358059}}, {"id": 797083, "name": "Vyshestebliyevskaya", "country": "RU", "coord": {"lon": 37.018059, "lat": 45.19611}}, {"id": 797213, "name": "Pervomayskoye", "country": "RU", "coord": {"lon": 46.71019, "lat": 43.919041}}, {"id": 797725, "name": "Kara-Tyube", "country": "RU", "coord": {"lon": 45.436939, "lat": 44.63361}}, {"id": 798335, "name": "Imeni Pervogo Maya", "country": "RU", "coord": {"lon": 39.5919, "lat": 50.889969}}, {"id": 798536, "name": "Rabocheostrovsk", "country": "RU", "coord": {"lon": 34.766109, "lat": 64.985474}}, {"id": 799386, "name": "Lutkun", "country": "RU", "coord": {"lon": 47.68578, "lat": 41.480839}}, {"id": 801983, "name": "Druzhba", "country": "RU", "coord": {"lon": 47.997978, "lat": 42.241081}}, {"id": 802000, "name": "Gerga", "country": "RU", "coord": {"lon": 47.963329, "lat": 42.346451}}, {"id": 802037, "name": "Imeni Chkalova", "country": "RU", "coord": {"lon": 39.74889, "lat": 47.281391}}, {"id": 802473, "name": "Yuzhnyy", "country": "RU", "coord": {"lon": 40.47472, "lat": 45.002499}}, {"id": 802629, "name": "Kovalevskoye", "country": "RU", "coord": {"lon": 40.976109, "lat": 45.194172}}, {"id": 802754, "name": "Karamakhi", "country": "RU", "coord": {"lon": 47.26017, "lat": 42.619339}}, {"id": 802799, "name": "Alkhan-Churt", "country": "RU", "coord": {"lon": 44.779999, "lat": 43.349998}}, {"id": 802921, "name": "Novyy Khushet", "country": "RU", "coord": {"lon": 47.560398, "lat": 42.899422}}, {"id": 803021, "name": "Khambi-Irze", "country": "RU", "coord": {"lon": 45.453018, "lat": 43.23502}}, {"id": 804875, "name": "Zavetnyy", "country": "RU", "coord": {"lon": 41.137299, "lat": 44.931599}}, {"id": 805755, "name": "Yasnaya Polyana", "country": "RU", "coord": {"lon": 42.753899, "lat": 44.022499}}, {"id": 805775, "name": "Borisovka", "country": "RU", "coord": {"lon": 35.99028, "lat": 50.623611}}, {"id": 815857, "name": "Kurovskoye", "country": "RU", "coord": {"lon": 36.002621, "lat": 54.542992}}, {"id": 818487, "name": "Vorotynsk", "country": "RU", "coord": {"lon": 36.046459, "lat": 54.42828}}, {"id": 821801, "name": "Dubovka", "country": "RU", "coord": {"lon": 38.062759, "lat": 53.952229}}, {"id": 823676, "name": "Gornoye Loo", "country": "RU", "coord": {"lon": 39.604919, "lat": 43.71294}}, {"id": 824094, "name": "Ferma", "country": "RU", "coord": {"lon": 56.3064, "lat": 57.9016}}, {"id": 824366, "name": "Krasnoarmeyskoye", "country": "RU", "coord": {"lon": 50.032188, "lat": 52.718151}}, {"id": 824988, "name": "Gorod Shebekino", "country": "RU", "coord": {"lon": 36.916672, "lat": 50.416672}}, {"id": 825035, "name": "Korkmaskala", "country": "RU", "coord": {"lon": 47.294361, "lat": 43.023788}}, {"id": 868187, "name": "Mayskiy", "country": "RU", "coord": {"lon": 20.12859, "lat": 54.926701}}, {"id": 825214, "name": "Otradnoye", "country": "RU", "coord": {"lon": 20.11396, "lat": 54.941139}}, {"id": 825760, "name": "Yuzhnyy", "country": "RU", "coord": {"lon": 20.598431, "lat": 54.54837}}, {"id": 826995, "name": "Partsa", "country": "RU", "coord": {"lon": 42.861698, "lat": 54.365299}}, {"id": 826996, "name": "Udarnyy", "country": "RU", "coord": {"lon": 42.861099, "lat": 54.3409}}, {"id": 826997, "name": "Lepley", "country": "RU", "coord": {"lon": 42.859901, "lat": 54.3092}}, {"id": 827792, "name": "Atlashevo", "country": "RU", "coord": {"lon": 47.556149, "lat": 56.012348}}, {"id": 827990, "name": "Privolzhskiy", "country": "RU", "coord": {"lon": 48.415119, "lat": 55.961349}}, {"id": 828062, "name": "Khazar", "country": "RU", "coord": {"lon": 48.333248, "lat": 41.997398}}, {"id": 828440, "name": "Pervoye Maya", "country": "RU", "coord": {"lon": 44.719551, "lat": 56.164028}}, {"id": 829291, "name": "Ileza", "country": "RU", "coord": {"lon": 43.900211, "lat": 61.05328}}, {"id": 831137, "name": "Svetlyy", "country": "RU", "coord": {"lon": 45.626671, "lat": 51.670559}}, {"id": 831140, "name": "Zvezdnyy", "country": "RU", "coord": {"lon": 56.31472, "lat": 57.732498}}, {"id": 840909, "name": "Dvubratskiy", "country": "RU", "coord": {"lon": 39.804989, "lat": 45.23888}}, {"id": 840987, "name": "Yuzhnyy", "country": "RU", "coord": {"lon": 39.879181, "lat": 44.721111}}, {"id": 841270, "name": "Udarnyy", "country": "RU", "coord": {"lon": 42.50528, "lat": 44.349171}}, {"id": 841363, "name": "Novoterskiy", "country": "RU", "coord": {"lon": 43.092499, "lat": 44.148609}}, {"id": 856673, "name": "Svetlopolyansk", "country": "RU", "coord": {"lon": 52.360451, "lat": 59.418362}}, {"id": 856829, "name": "Putevka", "country": "RU", "coord": {"lon": 34.287781, "lat": 53.258331}}, {"id": 856845, "name": "Kazachka", "country": "RU", "coord": {"lon": 38.069401, "lat": 53.364399}}, {"id": 857691, "name": "Zhitnevo", "country": "RU", "coord": {"lon": 37.914639, "lat": 55.342331}}, {"id": 858658, "name": "Zubutli-Miatli", "country": "RU", "coord": {"lon": 46.812408, "lat": 43.19886}}, {"id": 858667, "name": "Solnechnoye", "country": "RU", "coord": {"lon": 46.506969, "lat": 43.276001}}, {"id": 858701, "name": "Shamilkala", "country": "RU", "coord": {"lon": 46.86393, "lat": 42.68581}}, {"id": 858716, "name": "Novyy Kostek", "country": "RU", "coord": {"lon": 46.824661, "lat": 43.3353}}, {"id": 860420, "name": "Botlikh", "country": "RU", "coord": {"lon": 46.229671, "lat": 42.644421}}, {"id": 864018, "name": "Krasnyy Kommunar", "country": "RU", "coord": {"lon": 55.366798, "lat": 51.964359}}, {"id": 864116, "name": "Volovo", "country": "RU", "coord": {"lon": 38.00285, "lat": 53.558311}}, {"id": 864612, "name": "Mednogorskiy", "country": "RU", "coord": {"lon": 41.182549, "lat": 43.917801}}, {"id": 865321, "name": "Khankala", "country": "RU", "coord": {"lon": 45.755638, "lat": 43.30212}}, {"id": 865506, "name": "Pravokubanskiy", "country": "RU", "coord": {"lon": 41.884129, "lat": 43.91721}}, {"id": 866053, "name": "Novyye Lapsary", "country": "RU", "coord": {"lon": 47.214199, "lat": 56.068501}}, {"id": 866054, "name": "Raduzhnyy", "country": "RU", "coord": {"lon": 49.650002, "lat": 59.48333}}, {"id": 866055, "name": "Priladozhskiy", "country": "RU", "coord": {"lon": 31.48333, "lat": 59.849998}}, {"id": 866062, "name": "Iskateley", "country": "RU", "coord": {"lon": 53.151169, "lat": 67.68026}}, {"id": 866210, "name": "Tsibanobalka", "country": "RU", "coord": {"lon": 37.343842, "lat": 44.980339}}, {"id": 866241, "name": "Myskhako", "country": "RU", "coord": {"lon": 37.743328, "lat": 44.671391}}, {"id": 866986, "name": "Chinar", "country": "RU", "coord": {"lon": 48.143211, "lat": 42.107979}}, {"id": 867005, "name": "Petra-Dubrava", "country": "RU", "coord": {"lon": 50.36554, "lat": 53.296131}}, {"id": 867425, "name": "Verkhnebakanskiy", "country": "RU", "coord": {"lon": 37.657219, "lat": 44.849171}}, {"id": 546779, "name": "Kochubey", "country": "RU", "coord": {"lon": 46.544472, "lat": 44.393162}}, {"id": 868355, "name": "Kochubey", "country": "RU", "coord": {"lon": 46.5825, "lat": 44.386108}}, {"id": 869259, "name": "Nezhinskiy", "country": "RU", "coord": {"lon": 42.685558, "lat": 43.928329}}, {"id": 869342, "name": "Tyube", "country": "RU", "coord": {"lon": 47.307419, "lat": 43.049259}}, {"id": 869345, "name": "Novyy Chirkey", "country": "RU", "coord": {"lon": 47.055851, "lat": 43.162048}}, {"id": 869346, "name": "Uchkent", "country": "RU", "coord": {"lon": 47.08255, "lat": 43.114269}}, {"id": 871870, "name": "Mursalimkino", "country": "RU", "coord": {"lon": 58.558498, "lat": 55.037899}}, {"id": 872128, "name": "Belozernyy", "country": "RU", "coord": {"lon": 38.67902, "lat": 45.064331}}, {"id": 872144, "name": "Sovkhoznyy", "country": "RU", "coord": {"lon": 38.113838, "lat": 45.294621}}, {"id": 874034, "name": "Galashki", "country": "RU", "coord": {"lon": 44.989441, "lat": 43.113609}}, {"id": 1484889, "name": "Zyuzelskiy", "country": "RU", "coord": {"lon": 60.133099, "lat": 56.4856}}, {"id": 1484892, "name": "Zyryanskoye", "country": "RU", "coord": {"lon": 86.625801, "lat": 56.830601}}, {"id": 1484923, "name": "Zykovo", "country": "RU", "coord": {"lon": 93.146111, "lat": 55.951939}}, {"id": 1484943, "name": "Zverinogolovskoye", "country": "RU", "coord": {"lon": 64.854172, "lat": 54.458611}}, {"id": 1484956, "name": "Zudilovo", "country": "RU", "coord": {"lon": 83.8937, "lat": 53.492699}}, {"id": 1485020, "name": "Znamenskoye", "country": "RU", "coord": {"lon": 73.828209, "lat": 57.128059}}, {"id": 1485042, "name": "Zmeinogorsk", "country": "RU", "coord": {"lon": 82.195, "lat": 51.15667}}, {"id": 1485193, "name": "Zheleznodorozhnyy", "country": "RU", "coord": {"lon": 61.486698, "lat": 55.102402}}, {"id": 1485275, "name": "Zelenyy Bor", "country": "RU", "coord": {"lon": 91.666672, "lat": 53.666672}}, {"id": 1485284, "name": "Zelenogorskiy", "country": "RU", "coord": {"lon": 87, "lat": 55.033329}}, {"id": 1485323, "name": "Zaykovo", "country": "RU", "coord": {"lon": 62.756809, "lat": 57.561298}}, {"id": 1485397, "name": "Zaton", "country": "RU", "coord": {"lon": 83.80722, "lat": 53.29361}}, {"id": 1485470, "name": "Zapolyarnyy", "country": "RU", "coord": {"lon": 63.75, "lat": 67.48333}}, {"id": 1485528, "name": "Zalesovo", "country": "RU", "coord": {"lon": 84.743057, "lat": 53.993889}}, {"id": 1485664, "name": "Yushala", "country": "RU", "coord": {"lon": 64.260117, "lat": 57.076111}}, {"id": 1485680, "name": "Yurty", "country": "RU", "coord": {"lon": 97.634804, "lat": 56.049801}}, {"id": 1485712, "name": "Yurginskoye", "country": "RU", "coord": {"lon": 67.392113, "lat": 56.818878}}, {"id": 1485849, "name": "Yetkul", "country": "RU", "coord": {"lon": 61.588001, "lat": 54.822102}}, {"id": 1485873, "name": "Yertarskiy", "country": "RU", "coord": {"lon": 64.299522, "lat": 56.790161}}, {"id": 1485904, "name": "Yermakovskoye", "country": "RU", "coord": {"lon": 92.400284, "lat": 53.283058}}, {"id": 1486031, "name": "Yemelyanovo", "country": "RU", "coord": {"lon": 92.676666, "lat": 56.16806}}, {"id": 1486040, "name": "Yemanzhelinka", "country": "RU", "coord": {"lon": 61.298901, "lat": 54.800999}}, {"id": 1486164, "name": "Yelanskiy", "country": "RU", "coord": {"lon": 62.5014, "lat": 56.8419}}, {"id": 1486369, "name": "Yarkovo", "country": "RU", "coord": {"lon": 67.078613, "lat": 57.402779}}, {"id": 1486371, "name": "Yarkovo", "country": "RU", "coord": {"lon": 82.5989, "lat": 54.805599}}, {"id": 1486525, "name": "Yagunovskiy", "country": "RU", "coord": {"lon": 85.977997, "lat": 55.282799}}, {"id": 1486677, "name": "Vvedenskoye", "country": "RU", "coord": {"lon": 65.084717, "lat": 55.475281}}, {"id": 1486795, "name": "Vostochnyy", "country": "RU", "coord": {"lon": 61.813911, "lat": 58.799911}}, {"id": 1486983, "name": "Volchikha", "country": "RU", "coord": {"lon": 80.383331, "lat": 52.033329}}, {"id": 1487022, "name": "Vlasikha", "country": "RU", "coord": {"lon": 83.574173, "lat": 53.297218}}, {"id": 1487048, "name": "Vkhodnoy", "country": "RU", "coord": {"lon": 73.171082, "lat": 54.951809}}, {"id": 1487086, "name": "Vinzili", "country": "RU", "coord": {"lon": 65.770798, "lat": 56.959381}}, {"id": 1487164, "name": "Veseloyarsk", "country": "RU", "coord": {"lon": 81.10556, "lat": 51.283611}}, {"id": 1487195, "name": "Vershina Tei", "country": "RU", "coord": {"lon": 89.555, "lat": 53.26194}}, {"id": 1487214, "name": "Verkh-Suetka", "country": "RU", "coord": {"lon": 80.050003, "lat": 53.299999}}, {"id": 1487219, "name": "Verkhoturye", "country": "RU", "coord": {"lon": 60.805359, "lat": 58.862709}}, {"id": 1487241, "name": "Verkh-Tula", "country": "RU", "coord": {"lon": 82.776199, "lat": 54.8839}}, {"id": 1487260, "name": "Verkhnyaya Sysert", "country": "RU", "coord": {"lon": 60.75, "lat": 56.437222}}, {"id": 1487272, "name": "Verkhnyaya Sinyachikha", "country": "RU", "coord": {"lon": 61.667332, "lat": 57.97604}}, {"id": 1487332, "name": "Verkhnyaya Inta", "country": "RU", "coord": {"lon": 60.309448, "lat": 65.981148}}, {"id": 1487504, "name": "Verkh-Neyvinskiy", "country": "RU", "coord": {"lon": 60.137619, "lat": 57.27013}}, {"id": 1487520, "name": "Verkhneye Dubrovo", "country": "RU", "coord": {"lon": 61.046799, "lat": 56.7528}}, {"id": 1487599, "name": "Verkh-Chebula", "country": "RU", "coord": {"lon": 87.621803, "lat": 56.0308}}, {"id": 1487615, "name": "Vengerovo", "country": "RU", "coord": {"lon": 76.74707, "lat": 55.684849}}, {"id": 1487764, "name": "Varna", "country": "RU", "coord": {"lon": 60.97472, "lat": 53.381939}}, {"id": 1487839, "name": "Vakhrushevo", "country": "RU", "coord": {"lon": 61.7173, "lat": 55.231701}}, {"id": 1487860, "name": "Vagay", "country": "RU", "coord": {"lon": 69.021667, "lat": 57.9375}}, {"id": 1488048, "name": "Ust-Ulagan", "country": "RU", "coord": {"lon": 87.966667, "lat": 50.633331}}, {"id": 1488074, "name": "Ust-Tarka", "country": "RU", "coord": {"lon": 75.705002, "lat": 55.56715}}, {"id": 1488167, "name": "Ust-Koksa", "country": "RU", "coord": {"lon": 85.610802, "lat": 50.2696}}, {"id": 1488190, "name": "Ust-Kan", "country": "RU", "coord": {"lon": 84.761002, "lat": 50.927601}}, {"id": 1488200, "name": "Ust-Kalmanka", "country": "RU", "coord": {"lon": 83.305, "lat": 52.120701}}, {"id": 1488206, "name": "Ust-Ishim", "country": "RU", "coord": {"lon": 71.166496, "lat": 57.693501}}, {"id": 1488235, "name": "Ust-Charyshskaya Pristan", "country": "RU", "coord": {"lon": 83.663498, "lat": 52.393398}}, {"id": 1488258, "name": "Ust-Bagaryak", "country": "RU", "coord": {"lon": 61.847221, "lat": 56.132778}}, {"id": 1488288, "name": "Uspenka", "country": "RU", "coord": {"lon": 69.22702, "lat": 56.801579}}, {"id": 1488616, "name": "Uk", "country": "RU", "coord": {"lon": 98.858597, "lat": 55.078999}}, {"id": 1488632, "name": "Uglovskoye", "country": "RU", "coord": {"lon": 80.194199, "lat": 51.355701}}, {"id": 1488741, "name": "Tyumentsevo", "country": "RU", "coord": {"lon": 81.498001, "lat": 53.322399}}, {"id": 1488774, "name": "Tyukhtet", "country": "RU", "coord": {"lon": 89.301109, "lat": 56.538891}}, {"id": 1488780, "name": "Tyukalinsk", "country": "RU", "coord": {"lon": 72.196732, "lat": 55.873211}}, {"id": 1488788, "name": "Tyubuk", "country": "RU", "coord": {"lon": 60.940498, "lat": 56.05521}}, {"id": 1488838, "name": "Tyazhinskiy", "country": "RU", "coord": {"lon": 88.524002, "lat": 56.116001}}, {"id": 1488903, "name": "Turukhansk", "country": "RU", "coord": {"lon": 87.98333, "lat": 65.816673}}, {"id": 1488920, "name": "Turochak", "country": "RU", "coord": {"lon": 87.122398, "lat": 52.257599}}, {"id": 1488950, "name": "Turan", "country": "RU", "coord": {"lon": 93.919167, "lat": 52.145279}}, {"id": 1489048, "name": "Tuim", "country": "RU", "coord": {"lon": 89.926109, "lat": 54.341671}}, {"id": 1489126, "name": "Tsementnozavodskiy", "country": "RU", "coord": {"lon": 64.099998, "lat": 67.616669}}, {"id": 1489137, "name": "Tselinnoye", "country": "RU", "coord": {"lon": 63.673611, "lat": 54.50111}}, {"id": 1489138, "name": "Tselinnoye", "country": "RU", "coord": {"lon": 85.666672, "lat": 53.083328}}, {"id": 1489167, "name": "Trudarmeyskiy", "country": "RU", "coord": {"lon": 86.409798, "lat": 54.132}}, {"id": 1489202, "name": "Troitsk", "country": "RU", "coord": {"lon": 72.233688, "lat": 55.701279}}, {"id": 1489209, "name": "Troitskoye", "country": "RU", "coord": {"lon": 84.675697, "lat": 52.982101}}, {"id": 1489218, "name": "Troitskiy", "country": "RU", "coord": {"lon": 63.748112, "lat": 57.06028}}, {"id": 1489398, "name": "Topchikha", "country": "RU", "coord": {"lon": 83.1185, "lat": 52.819199}}, {"id": 1489401, "name": "Toora-Khem", "country": "RU", "coord": {"lon": 96.110001, "lat": 52.467499}}, {"id": 1489499, "name": "Togur", "country": "RU", "coord": {"lon": 82.8265, "lat": 58.363098}}, {"id": 1489504, "name": "Togul", "country": "RU", "coord": {"lon": 85.912804, "lat": 53.465}}, {"id": 1489554, "name": "Tisul", "country": "RU", "coord": {"lon": 88.312218, "lat": 55.761108}}, {"id": 1489571, "name": "Tinskoy", "country": "RU", "coord": {"lon": 96.916107, "lat": 56.1525}}, {"id": 1489656, "name": "Teya", "country": "RU", "coord": {"lon": 92.626671, "lat": 60.377781}}, {"id": 1489661, "name": "Tevriz", "country": "RU", "coord": {"lon": 72.404198, "lat": 57.508999}}, {"id": 1489779, "name": "Temirtau", "country": "RU", "coord": {"lon": 87.453796, "lat": 53.137699}}, {"id": 1489822, "name": "Teguldet", "country": "RU", "coord": {"lon": 88.166672, "lat": 57.306389}}, {"id": 1489828, "name": "Teeli", "country": "RU", "coord": {"lon": 90.23333, "lat": 51.033329}}, {"id": 1489863, "name": "Tayzhina", "country": "RU", "coord": {"lon": 87.436203, "lat": 53.6679}}, {"id": 1489900, "name": "Tayginka", "country": "RU", "coord": {"lon": 60.507599, "lat": 55.624401}}, {"id": 1489938, "name": "Tavricheskoye", "country": "RU", "coord": {"lon": 73.639503, "lat": 54.585079}}, {"id": 1490036, "name": "Tashtyp", "country": "RU", "coord": {"lon": 89.898331, "lat": 52.793892}}, {"id": 1490054, "name": "Tashara", "country": "RU", "coord": {"lon": 83.509399, "lat": 55.519501}}, {"id": 1490055, "name": "Tashanta", "country": "RU", "coord": {"lon": 89.183327, "lat": 49.716671}}, {"id": 1490058, "name": "Taseyevo", "country": "RU", "coord": {"lon": 94.897781, "lat": 57.216942}}, {"id": 1490356, "name": "Tabuny", "country": "RU", "coord": {"lon": 78.789597, "lat": 52.777302}}, {"id": 1490364, "name": "Tabory", "country": "RU", "coord": {"lon": 64.549469, "lat": 58.519821}}, {"id": 1490496, "name": "Svetlyy", "country": "RU", "coord": {"lon": 85.966667, "lat": 56.916672}}, {"id": 1490501, "name": "Svetlyy", "country": "RU", "coord": {"lon": 60.85194, "lat": 50.818329}}, {"id": 1490516, "name": "Svetlogorsk", "country": "RU", "coord": {"lon": 88.349998, "lat": 66.916672}}, {"id": 1490590, "name": "Sut-Khol", "country": "RU", "coord": {"lon": 91.283333, "lat": 51.400002}}, {"id": 1490591, "name": "Suslovo", "country": "RU", "coord": {"lon": 88.116669, "lat": 56.216671}}, {"id": 1490655, "name": "Sumkino", "country": "RU", "coord": {"lon": 68.32444, "lat": 58.110828}}, {"id": 1490676, "name": "Sukpak", "country": "RU", "coord": {"lon": 94.633331, "lat": 51.666672}}, {"id": 1490711, "name": "Sukhobuzimskoye", "country": "RU", "coord": {"lon": 93.272781, "lat": 56.5}}, {"id": 1490805, "name": "Strelka", "country": "RU", "coord": {"lon": 93.034439, "lat": 58.072781}}, {"id": 1490918, "name": "Staryy Nadym", "country": "RU", "coord": {"lon": 72.684174, "lat": 65.611816}}, {"id": 1490966, "name": "Staropesterevo", "country": "RU", "coord": {"lon": 86.409401, "lat": 54.500099}}, {"id": 1491004, "name": "Starobachaty", "country": "RU", "coord": {"lon": 86.207199, "lat": 54.2425}}, {"id": 1491006, "name": "Staroaleyskoye", "country": "RU", "coord": {"lon": 82, "lat": 51.006111}}, {"id": 1491055, "name": "Stantsionno-Oyashinskiy", "country": "RU", "coord": {"lon": 83.824501, "lat": 55.4664}}, {"id": 1491088, "name": "Srostki", "country": "RU", "coord": {"lon": 85.702217, "lat": 52.418892}}, {"id": 1491197, "name": "Spassk", "country": "RU", "coord": {"lon": 87.754501, "lat": 52.747002}}, {"id": 1491215, "name": "Sovkhoznyy", "country": "RU", "coord": {"lon": 61.425999, "lat": 56.559898}}, {"id": 1491219, "name": "Sovetskoye", "country": "RU", "coord": {"lon": 85.413063, "lat": 52.28611}}, {"id": 1491229, "name": "Sovetskiy", "country": "RU", "coord": {"lon": 64.416672, "lat": 67.48333}}, {"id": 1491378, "name": "Sorokino", "country": "RU", "coord": {"lon": 84.916672, "lat": 53.75}}, {"id": 1491428, "name": "Solton", "country": "RU", "coord": {"lon": 86.478699, "lat": 52.842899}}, {"id": 1491461, "name": "Soloneshnoye", "country": "RU", "coord": {"lon": 84.319702, "lat": 51.6544}}, {"id": 1491600, "name": "Snezhnogorsk", "country": "RU", "coord": {"lon": 87.739998, "lat": 68.093063}}, {"id": 1491633, "name": "Smolenskoye", "country": "RU", "coord": {"lon": 85.078056, "lat": 52.30444}}, {"id": 1491704, "name": "Slavgorodskoye", "country": "RU", "coord": {"lon": 78.643501, "lat": 53.0214}}, {"id": 1491977, "name": "Shumskiy", "country": "RU", "coord": {"lon": 99.132797, "lat": 54.831799}}, {"id": 1492110, "name": "Shitkino", "country": "RU", "coord": {"lon": 98.354301, "lat": 56.3703}}, {"id": 1492142, "name": "Shirokaya Rechka", "country": "RU", "coord": {"lon": 60.485222, "lat": 56.79858}}, {"id": 1492149, "name": "Shira", "country": "RU", "coord": {"lon": 89.953056, "lat": 54.491112}}, {"id": 1492160, "name": "Shipunovo", "country": "RU", "coord": {"lon": 82.2173, "lat": 52.158199}}, {"id": 1492255, "name": "Sherbakul", "country": "RU", "coord": {"lon": 72.396347, "lat": 54.63158}}, {"id": 1492281, "name": "Shelabolikha", "country": "RU", "coord": {"lon": 82.616699, "lat": 53.413101}}, {"id": 1492299, "name": "Shebalino", "country": "RU", "coord": {"lon": 85.677223, "lat": 51.291672}}, {"id": 1492342, "name": "Shchelkun", "country": "RU", "coord": {"lon": 60.948311, "lat": 56.303379}}, {"id": 1492388, "name": "Shatrovo", "country": "RU", "coord": {"lon": 64.633331, "lat": 56.51667}}, {"id": 1492466, "name": "Shalinskoye", "country": "RU", "coord": {"lon": 93.759438, "lat": 55.722778}}, {"id": 1492499, "name": "Shagonar", "country": "RU", "coord": {"lon": 92.800003, "lat": 51.533329}}, {"id": 1492536, "name": "Shabrovskiy", "country": "RU", "coord": {"lon": 60.58065, "lat": 56.635971}}, {"id": 1492566, "name": "Severo-Yeniseyskiy", "country": "RU", "coord": {"lon": 93.040833, "lat": 60.372501}}, {"id": 1492607, "name": "Severnoye", "country": "RU", "coord": {"lon": 78.361893, "lat": 56.349121}}, {"id": 1492827, "name": "Novoseleznevo", "country": "RU", "coord": {"lon": 69.20562, "lat": 55.682072}}, {"id": 1492891, "name": "Sayansk", "country": "RU", "coord": {"lon": 91.885002, "lat": 54.150002}}, {"id": 1492948, "name": "Saryg-Sep", "country": "RU", "coord": {"lon": 95.599998, "lat": 51.5}}, {"id": 1493004, "name": "Sargatskoye", "country": "RU", "coord": {"lon": 73.497162, "lat": 55.610062}}, {"id": 1493049, "name": "Saranpaul", "country": "RU", "coord": {"lon": 60.916672, "lat": 64.26667}}, {"id": 1493083, "name": "Sannikovo", "country": "RU", "coord": {"lon": 83.974899, "lat": 53.344799}}, {"id": 1493155, "name": "Samagaltay", "country": "RU", "coord": {"lon": 95.0047, "lat": 50.6022}}, {"id": 1493268, "name": "Safakulevo", "country": "RU", "coord": {"lon": 62.544201, "lat": 54.990101}}, {"id": 1493273, "name": "Sovkhoznyy", "country": "RU", "coord": {"lon": 60.549381, "lat": 56.763741}}, {"id": 1493423, "name": "Russkaya Polyana", "country": "RU", "coord": {"lon": 73.880562, "lat": 53.779442}}, {"id": 1493457, "name": "Rudnichnyy", "country": "RU", "coord": {"lon": 60.28817, "lat": 59.70118}}, {"id": 1493458, "name": "Rudnichnyy", "country": "RU", "coord": {"lon": 86.251701, "lat": 56.083698}}, {"id": 1493511, "name": "Roza", "country": "RU", "coord": {"lon": 61.458599, "lat": 54.916302}}, {"id": 1493523, "name": "Rostovka", "country": "RU", "coord": {"lon": 71.88913, "lat": 55.384201}}, {"id": 1493623, "name": "Rodino", "country": "RU", "coord": {"lon": 80.25, "lat": 52.5}}, {"id": 1493722, "name": "Rebrikha", "country": "RU", "coord": {"lon": 82.340828, "lat": 53.07333}}, {"id": 1493756, "name": "Razdolinsk", "country": "RU", "coord": {"lon": 94.665833, "lat": 58.421108}}, {"id": 1493783, "name": "Rassvet", "country": "RU", "coord": {"lon": 91.478607, "lat": 57.005001}}, {"id": 1494071, "name": "Prosvet", "country": "RU", "coord": {"lon": 65.082497, "lat": 55.570278}}, {"id": 1494088, "name": "Promyshlennyy", "country": "RU", "coord": {"lon": 63.916672, "lat": 67.583328}}, {"id": 1494090, "name": "Promyshlennovskiy", "country": "RU", "coord": {"lon": 86.199997, "lat": 55.48333}}, {"id": 1494156, "name": "Pritomskiy", "country": "RU", "coord": {"lon": 87.6082, "lat": 53.7724}}, {"id": 1494190, "name": "Priiskovyy", "country": "RU", "coord": {"lon": 88.687218, "lat": 54.656109}}, {"id": 1494237, "name": "Predivinsk", "country": "RU", "coord": {"lon": 93.437782, "lat": 57.06694}}, {"id": 1494309, "name": "Potanino", "country": "RU", "coord": {"lon": 61.6222, "lat": 55.1786}}, {"id": 1494331, "name": "Pospelikha", "country": "RU", "coord": {"lon": 81.76667, "lat": 51.950001}}, {"id": 1494482, "name": "Polunochnoye", "country": "RU", "coord": {"lon": 60.415279, "lat": 60.86972}}, {"id": 1494500, "name": "Poltavka", "country": "RU", "coord": {"lon": 71.763191, "lat": 54.366291}}, {"id": 1494523, "name": "Polovinnoye", "country": "RU", "coord": {"lon": 65.986389, "lat": 54.791389}}, {"id": 1494525, "name": "Polovinnoye", "country": "RU", "coord": {"lon": 79.243271, "lat": 53.75671}}, {"id": 1494587, "name": "Poletayevo", "country": "RU", "coord": {"lon": 61.1138, "lat": 55.0336}}, {"id": 1494603, "name": "Pokrovskoye", "country": "RU", "coord": {"lon": 61.6092, "lat": 56.470402}}, {"id": 1494739, "name": "Podsosnovo", "country": "RU", "coord": {"lon": 78.918404, "lat": 53.372101}}, {"id": 1494745, "name": "Podsineye", "country": "RU", "coord": {"lon": 91.536392, "lat": 53.665829}}, {"id": 1494790, "name": "Podgornoye", "country": "RU", "coord": {"lon": 82.651939, "lat": 57.788609}}, {"id": 1494941, "name": "Pirovskoye", "country": "RU", "coord": {"lon": 92.265831, "lat": 57.626671}}, {"id": 1494949, "name": "Pionerskiy", "country": "RU", "coord": {"lon": 62.868889, "lat": 61.194721}}, {"id": 1494955, "name": "Pioner", "country": "RU", "coord": {"lon": 85.950798, "lat": 55.316601}}, {"id": 1495101, "name": "Petropavlovskoye", "country": "RU", "coord": {"lon": 84.107002, "lat": 52.071201}}, {"id": 1495256, "name": "Pervomayskoye", "country": "RU", "coord": {"lon": 86.2313, "lat": 57.076099}}, {"id": 1495259, "name": "Pervomayskoye", "country": "RU", "coord": {"lon": 84.018333, "lat": 53.721111}}, {"id": 1495260, "name": "Pervomayskiy", "country": "RU", "coord": {"lon": 81.662399, "lat": 52.917301}}, {"id": 1495385, "name": "Pelym", "country": "RU", "coord": {"lon": 61.99778, "lat": 61.01083}}, {"id": 1495448, "name": "Pavlovsk", "country": "RU", "coord": {"lon": 82.982224, "lat": 53.318611}}, {"id": 1495538, "name": "Partizanskoye", "country": "RU", "coord": {"lon": 94.389999, "lat": 55.500561}}, {"id": 1495561, "name": "Parizh", "country": "RU", "coord": {"lon": 60.100498, "lat": 53.297401}}, {"id": 1495613, "name": "Pankrushikha", "country": "RU", "coord": {"lon": 80.340561, "lat": 53.83194}}, {"id": 1495812, "name": "Ous", "country": "RU", "coord": {"lon": 61.518608, "lat": 60.90583}}, {"id": 1496073, "name": "Orlik", "country": "RU", "coord": {"lon": 99.824997, "lat": 52.517799}}, {"id": 1496100, "name": "Ordynskoye", "country": "RU", "coord": {"lon": 81.899399, "lat": 54.365601}}, {"id": 1496124, "name": "Onokhino", "country": "RU", "coord": {"lon": 65.539398, "lat": 56.925011}}, {"id": 1496130, "name": "Onguday", "country": "RU", "coord": {"lon": 86.150002, "lat": 50.75}}, {"id": 1496142, "name": "Omutinskiy", "country": "RU", "coord": {"lon": 67.670868, "lat": 56.474529}}, {"id": 1496329, "name": "Okoneshnikovo", "country": "RU", "coord": {"lon": 75.083427, "lat": 54.837669}}, {"id": 1496380, "name": "Odesskoye", "country": "RU", "coord": {"lon": 72.965103, "lat": 54.211102}}, {"id": 1496441, "name": "Nyda", "country": "RU", "coord": {"lon": 72.922783, "lat": 66.624718}}, {"id": 1496588, "name": "Novaya Zaimka", "country": "RU", "coord": {"lon": 66.924118, "lat": 56.485722}}, {"id": 1496633, "name": "Novovarshavka", "country": "RU", "coord": {"lon": 74.694603, "lat": 54.1721}}, {"id": 1496738, "name": "Novosineglazovskiy", "country": "RU", "coord": {"lon": 61.3792, "lat": 55.0401}}, {"id": 1496976, "name": "Novolugovoye", "country": "RU", "coord": {"lon": 83.1138, "lat": 54.979198}}, {"id": 1497132, "name": "Novochernorechenskiy", "country": "RU", "coord": {"lon": 91.082779, "lat": 56.266941}}, {"id": 1497142, "name": "Novobiryusinskiy", "country": "RU", "coord": {"lon": 97.707603, "lat": 56.957802}}, {"id": 1497163, "name": "Novoasbest", "country": "RU", "coord": {"lon": 60.287731, "lat": 57.742249}}, {"id": 1497210, "name": "Novoagansk", "country": "RU", "coord": {"lon": 76.662498, "lat": 61.944901}}, {"id": 1497220, "name": "Novichikha", "country": "RU", "coord": {"lon": 81.387703, "lat": 52.203999}}, {"id": 1497376, "name": "Nizhnyaya Tavda", "country": "RU", "coord": {"lon": 66.172501, "lat": 57.673061}}, {"id": 1497397, "name": "Nizhnyaya Poyma", "country": "RU", "coord": {"lon": 97.193329, "lat": 56.16222}}, {"id": 1497406, "name": "Nizhnyaya Omka", "country": "RU", "coord": {"lon": 74.942558, "lat": 55.433762}}, {"id": 1497497, "name": "Nizhniy Ingash", "country": "RU", "coord": {"lon": 96.529999, "lat": 56.200001}}, {"id": 1497736, "name": "Nikitinskiy", "country": "RU", "coord": {"lon": 86.011497, "lat": 54.584499}}, {"id": 1497778, "name": "Neyvo-Shaytanskiy", "country": "RU", "coord": {"lon": 61.249561, "lat": 57.7286}}, {"id": 1497899, "name": "Galbshtadt", "country": "RU", "coord": {"lon": 78.984497, "lat": 53.226398}}, {"id": 1497932, "name": "Nazyvayevsk", "country": "RU", "coord": {"lon": 71.352943, "lat": 55.569752}}, {"id": 1497973, "name": "Nauchnyy Gorodok", "country": "RU", "coord": {"lon": 83.521004, "lat": 53.4203}}, {"id": 1498027, "name": "Nalobikha", "country": "RU", "coord": {"lon": 84.603889, "lat": 53.200562}}, {"id": 1498161, "name": "Muzhi", "country": "RU", "coord": {"lon": 64.666672, "lat": 65.366669}}, {"id": 1498179, "name": "Muslyumovo", "country": "RU", "coord": {"lon": 61.625999, "lat": 55.6133}}, {"id": 1498205, "name": "Muromtsevo", "country": "RU", "coord": {"lon": 75.241753, "lat": 56.372379}}, {"id": 1498248, "name": "Mundybash", "country": "RU", "coord": {"lon": 87.298302, "lat": 53.210999}}, {"id": 1498283, "name": "Mugur-Aksy", "country": "RU", "coord": {"lon": 90.5, "lat": 50.349998}}, {"id": 1498314, "name": "Motygino", "country": "RU", "coord": {"lon": 94.759171, "lat": 58.18306}}, {"id": 1498365, "name": "Moskovskiy", "country": "RU", "coord": {"lon": 65.422981, "lat": 57.11108}}, {"id": 1498493, "name": "Molchanovo", "country": "RU", "coord": {"lon": 83.769173, "lat": 57.581669}}, {"id": 1498511, "name": "Mokrousovo", "country": "RU", "coord": {"lon": 66.765282, "lat": 55.81028}}, {"id": 1498589, "name": "Mochishche", "country": "RU", "coord": {"lon": 83.122902, "lat": 55.1586}}, {"id": 1498633, "name": "Mishkino", "country": "RU", "coord": {"lon": 63.9175, "lat": 55.33889}}, {"id": 1498775, "name": "Mikhaylovskoye", "country": "RU", "coord": {"lon": 79.717216, "lat": 51.823891}}, {"id": 1498919, "name": "Mezhdurechenskiy", "country": "RU", "coord": {"lon": 65.933327, "lat": 59.599998}}, {"id": 1498997, "name": "Mendeleyevo", "country": "RU", "coord": {"lon": 68.300003, "lat": 58.166672}}, {"id": 1499007, "name": "Melnikovo", "country": "RU", "coord": {"lon": 84.084999, "lat": 56.555828}}, {"id": 1499042, "name": "Melioratorov", "country": "RU", "coord": {"lon": 65.607742, "lat": 57.210651}}, {"id": 1499158, "name": "Mayna", "country": "RU", "coord": {"lon": 91.483612, "lat": 53.00639}}, {"id": 1499288, "name": "Martyush", "country": "RU", "coord": {"lon": 61.881939, "lat": 56.400002}}, {"id": 1499385, "name": "Manzya", "country": "RU", "coord": {"lon": 96.261673, "lat": 58.492222}}, {"id": 1499386, "name": "Manzherok", "country": "RU", "coord": {"lon": 85.76722, "lat": 51.828609}}, {"id": 1499779, "name": "Malinovoye Ozero", "country": "RU", "coord": {"lon": 79.782501, "lat": 51.675282}}, {"id": 1500036, "name": "Makushino", "country": "RU", "coord": {"lon": 67.244171, "lat": 55.210281}}, {"id": 1500125, "name": "Lyubinskiy", "country": "RU", "coord": {"lon": 72.692467, "lat": 55.154209}}, {"id": 1500207, "name": "Luzino", "country": "RU", "coord": {"lon": 73.035309, "lat": 54.948109}}, {"id": 1500252, "name": "Lugovskoy", "country": "RU", "coord": {"lon": 64.528969, "lat": 56.958488}}, {"id": 1500399, "name": "Lokosovo", "country": "RU", "coord": {"lon": 74.816673, "lat": 61.133331}}, {"id": 1500468, "name": "Listvyanskiy", "country": "RU", "coord": {"lon": 83.498398, "lat": 54.439899}}, {"id": 1500485, "name": "Listvyagi", "country": "RU", "coord": {"lon": 86.950996, "lat": 53.6772}}, {"id": 1500629, "name": "Lesnikovo", "country": "RU", "coord": {"lon": 65.317497, "lat": 55.282219}}, {"id": 1500764, "name": "Lebyazhye", "country": "RU", "coord": {"lon": 66.49472, "lat": 55.26889}}, {"id": 1500770, "name": "Lebyazhye", "country": "RU", "coord": {"lon": 83.653328, "lat": 53.24361}}, {"id": 1500957, "name": "Kyzyl-Mazhalyk", "country": "RU", "coord": {"lon": 90.599998, "lat": 51.133331}}, {"id": 1500962, "name": "Kyzyl-Khaya", "country": "RU", "coord": {"lon": 89.878212, "lat": 50.049858}}, {"id": 1500990, "name": "Kytmanovo", "country": "RU", "coord": {"lon": 85.447899, "lat": 53.459301}}, {"id": 1501000, "name": "Kyshtovka", "country": "RU", "coord": {"lon": 76.627129, "lat": 56.554981}}, {"id": 1501036, "name": "Kvitok", "country": "RU", "coord": {"lon": 98.4813, "lat": 56.072399}}, {"id": 1501118, "name": "Kuzedeyevo", "country": "RU", "coord": {"lon": 87.201897, "lat": 53.330799}}, {"id": 1501377, "name": "Kungurtug", "country": "RU", "coord": {"lon": 97.522781, "lat": 50.599442}}, {"id": 1501429, "name": "Kuminskiy", "country": "RU", "coord": {"lon": 66.566673, "lat": 58.666672}}, {"id": 1501573, "name": "Kudryashovskiy", "country": "RU", "coord": {"lon": 82.7742, "lat": 55.097401}}, {"id": 1501690, "name": "Krutinka", "country": "RU", "coord": {"lon": 71.511307, "lat": 56.005501}}, {"id": 1501706, "name": "Krutikha", "country": "RU", "coord": {"lon": 81.209297, "lat": 53.9599}}, {"id": 1501710, "name": "Krutaya Gorka", "country": "RU", "coord": {"lon": 73.223099, "lat": 55.364929}}, {"id": 1501876, "name": "Krasnyy Yar", "country": "RU", "coord": {"lon": 84.530281, "lat": 57.127499}}, {"id": 1501887, "name": "Krasnyy Yar", "country": "RU", "coord": {"lon": 72.926353, "lat": 55.24242}}, {"id": 1501988, "name": "Krasnozerskoye", "country": "RU", "coord": {"lon": 79.23735, "lat": 53.982769}}, {"id": 1502013, "name": "Krasnoye", "country": "RU", "coord": {"lon": 85.3899, "lat": 54.6068}}, {"id": 1502041, "name": "Krasnoyarka", "country": "RU", "coord": {"lon": 73.116669, "lat": 55.333328}}, {"id": 1502063, "name": "Krasnoturansk", "country": "RU", "coord": {"lon": 91.563889, "lat": 54.318611}}, {"id": 1502066, "name": "Krasnoshchekovo", "country": "RU", "coord": {"lon": 82.728889, "lat": 51.67083}}, {"id": 1502096, "name": "Krasnokamensk", "country": "RU", "coord": {"lon": 93.259438, "lat": 54.333889}}, {"id": 1502100, "name": "Krasnogvardeyskiy", "country": "RU", "coord": {"lon": 62.319519, "lat": 57.37928}}, {"id": 1502105, "name": "Krasnogorskoye", "country": "RU", "coord": {"lon": 86.197899, "lat": 52.2953}}, {"id": 1502112, "name": "Krasnogorskiy", "country": "RU", "coord": {"lon": 61.230999, "lat": 54.602501}}, {"id": 1502113, "name": "Krasnogorskiy", "country": "RU", "coord": {"lon": 86.280998, "lat": 54.5471}}, {"id": 1502192, "name": "Krapivinskiy", "country": "RU", "coord": {"lon": 86.813301, "lat": 54.999199}}, {"id": 1502387, "name": "Kosikha", "country": "RU", "coord": {"lon": 84.582222, "lat": 53.361671}}, {"id": 1502389, "name": "Koshurnikovo", "country": "RU", "coord": {"lon": 93.300003, "lat": 54.166672}}, {"id": 1502697, "name": "Kondinskoye", "country": "RU", "coord": {"lon": 67.410004, "lat": 59.64806}}, {"id": 1502758, "name": "Kommunar", "country": "RU", "coord": {"lon": 89.292221, "lat": 54.353889}}, {"id": 1502847, "name": "Koltsovo", "country": "RU", "coord": {"lon": 83.182503, "lat": 54.937599}}, {"id": 1502879, "name": "Kolosovka", "country": "RU", "coord": {"lon": 73.610962, "lat": 56.467789}}, {"id": 1503061, "name": "Kochki", "country": "RU", "coord": {"lon": 80.48056, "lat": 54.335831}}, {"id": 1503153, "name": "Klyuchi", "country": "RU", "coord": {"lon": 79.166672, "lat": 52.26667}}, {"id": 1503481, "name": "Khulimsunt", "country": "RU", "coord": {"lon": 61.643608, "lat": 62.863331}}, {"id": 1503527, "name": "Khovu-Aksy", "country": "RU", "coord": {"lon": 93.599998, "lat": 51.133331}}, {"id": 1503796, "name": "Khandagayty", "country": "RU", "coord": {"lon": 92.050003, "lat": 50.73333}}, {"id": 1503856, "name": "Khabary", "country": "RU", "coord": {"lon": 79.5345, "lat": 53.625881}}, {"id": 1504019, "name": "Kazanskoye", "country": "RU", "coord": {"lon": 69.235001, "lat": 55.644772}}, {"id": 1504075, "name": "Kazachinskoye", "country": "RU", "coord": {"lon": 93.276108, "lat": 57.695278}}, {"id": 1504081, "name": "Kaz", "country": "RU", "coord": {"lon": 87.310501, "lat": 52.911301}}, {"id": 1504380, "name": "Kargat", "country": "RU", "coord": {"lon": 80.281113, "lat": 55.19556}}, {"id": 1504442, "name": "Karatuzskoye", "country": "RU", "coord": {"lon": 92.866669, "lat": 53.60722}}, {"id": 1504590, "name": "Karagayla", "country": "RU", "coord": {"lon": 86.552101, "lat": 54.172001}}, {"id": 1504716, "name": "Kanashevo", "country": "RU", "coord": {"lon": 62.0634, "lat": 55.2169}}, {"id": 1504850, "name": "Mys-Kamennyy", "country": "RU", "coord": {"lon": 73.590279, "lat": 68.459717}}, {"id": 1504968, "name": "Kaltay", "country": "RU", "coord": {"lon": 84.878609, "lat": 56.279171}}, {"id": 1504985, "name": "Kalmanka", "country": "RU", "coord": {"lon": 83.543327, "lat": 52.89917}}, {"id": 1505003, "name": "Kalinovo", "country": "RU", "coord": {"lon": 60.1464, "lat": 57.131699}}, {"id": 1505187, "name": "Kaa-Khem", "country": "RU", "coord": {"lon": 94.73333, "lat": 51.683331}}, {"id": 1505212, "name": "Izumrud", "country": "RU", "coord": {"lon": 61.399319, "lat": 57.078819}}, {"id": 1505228, "name": "Izhmorskiy", "country": "RU", "coord": {"lon": 86.641403, "lat": 56.194}}, {"id": 1505383, "name": "Itatskiy", "country": "RU", "coord": {"lon": 89.036942, "lat": 56.07}}, {"id": 1505466, "name": "Isetskoye", "country": "RU", "coord": {"lon": 65.322601, "lat": 56.485802}}, {"id": 1505472, "name": "Iset", "country": "RU", "coord": {"lon": 60.371799, "lat": 56.977901}}, {"id": 1505496, "name": "Irtyshskiy", "country": "RU", "coord": {"lon": 73.587219, "lat": 54.814259}}, {"id": 1505502, "name": "Irsha", "country": "RU", "coord": {"lon": 94.791107, "lat": 55.926941}}, {"id": 1505529, "name": "Irbeyskoye", "country": "RU", "coord": {"lon": 95.452217, "lat": 55.64278}}, {"id": 1505579, "name": "Inta", "country": "RU", "coord": {"lon": 60.165939, "lat": 66.031693}}, {"id": 1505998, "name": "Idrinskoye", "country": "RU", "coord": {"lon": 92.135834, "lat": 54.370831}}, {"id": 1506192, "name": "Gramoteino", "country": "RU", "coord": {"lon": 86.383904, "lat": 54.5368}}, {"id": 1506244, "name": "Gornyy Shchit", "country": "RU", "coord": {"lon": 60.51947, "lat": 56.688148}}, {"id": 1506254, "name": "Gornyy", "country": "RU", "coord": {"lon": 83.905899, "lat": 55.115299}}, {"id": 1506258, "name": "Gornyak", "country": "RU", "coord": {"lon": 61.6833, "lat": 55.1362}}, {"id": 1506268, "name": "Gornopravdinsk", "country": "RU", "coord": {"lon": 69.900002, "lat": 60.049999}}, {"id": 3040684, "name": "Parr\u00f2quia d'Encamp", "country": "AD", "coord": {"lon": 1.63333, "lat": 42.533329}}, {"id": 3041519, "name": "Arinsal", "country": "AD", "coord": {"lon": 1.48453, "lat": 42.572048}}, {"id": 291279, "name": "Muzayri", "country": "AE", "coord": {"lon": 53.788101, "lat": 23.143551}}, {"id": 1120473, "name": "Wuleswali Bihsud", "country": "AF", "coord": {"lon": 67.906387, "lat": 34.34528}}, {"id": 1120483, "name": "Kuhsan", "country": "AF", "coord": {"lon": 61.197781, "lat": 34.653889}}, {"id": 1120484, "name": "Lash", "country": "AF", "coord": {"lon": 64.774567, "lat": 35.378201}}, {"id": 1120487, "name": "Tukzar", "country": "AF", "coord": {"lon": 66.421318, "lat": 35.948311}}, {"id": 1120543, "name": "Zurmat", "country": "AF", "coord": {"lon": 69.02774, "lat": 33.437778}}, {"id": 1120616, "name": "Zaybak", "country": "AF", "coord": {"lon": 71.348328, "lat": 36.529442}}, {"id": 1122747, "name": "Tarinkot", "country": "AF", "coord": {"lon": 65.873306, "lat": 32.626751}}, {"id": 174714, "name": "Vosketap", "country": "AM", "coord": {"lon": 44.64917, "lat": 39.881142}}, {"id": 5881254, "name": "Faleasao", "country": "AS", "coord": {"lon": -169.512787, "lat": -14.2222}}, {"id": 5881347, "name": "Leone", "country": "AS", "coord": {"lon": -170.785004, "lat": -14.34389}}, {"id": 5881410, "name": "Malaeimi", "country": "AS", "coord": {"lon": -170.733887, "lat": -14.32278}},