[{"id": 674626, "name": "Logresti", "country": "RO", "coord": {"lon": 23.700001, "lat": 44.900002}}, {"id": 674636, "name": "Loamnes", "country": "RO", "coord": {"lon": 24.1, "lat": 45.933331}}, {"id": 674637, "name": "Livezi-Vale", "country": "RO", "coord": {"lon": 26.73333, "lat": 46.416672}}, {"id": 674641, "name": "Livezile", "country": "RO", "coord": {"lon": 24.566669, "lat": 47.183331}}, {"id": 674642, "name": "Livezile", "country": "RO", "coord": {"lon": 23.633329, "lat": 46.349998}}, {"id": 674647, "name": "Livezile", "country": "RO", "coord": {"lon": 22.863331, "lat": 44.512218}}, {"id": 674651, "name": "Livezi", "country": "RO", "coord": {"lon": 23.816669, "lat": 44.849998}}, {"id": 674654, "name": "Livezeni", "country": "RO", "coord": {"lon": 24.633329, "lat": 46.549999}}, {"id": 674679, "name": "Livada", "country": "RO", "coord": {"lon": 23.133329, "lat": 47.866669}}, {"id": 674685, "name": "Livada", "country": "RO", "coord": {"lon": 21.384029, "lat": 46.222839}}, {"id": 674696, "name": "Liteni", "country": "RO", "coord": {"lon": 26.200001, "lat": 47.566669}}, {"id": 674706, "name": "Lita", "country": "RO", "coord": {"lon": 24.816669, "lat": 43.799999}}, {"id": 674721, "name": "Lisa", "country": "RO", "coord": {"lon": 24.85, "lat": 45.716671}}, {"id": 674723, "name": "Lisa", "country": "RO", "coord": {"lon": 25.133329, "lat": 43.799999}}, {"id": 674726, "name": "Lipovu", "country": "RO", "coord": {"lon": 23.633329, "lat": 44.099998}}, {"id": 674730, "name": "Lipovat", "country": "RO", "coord": {"lon": 27.700001, "lat": 46.566669}}, {"id": 674732, "name": "Lipova", "country": "RO", "coord": {"lon": 27.23333, "lat": 46.716671}}, {"id": 674735, "name": "Lipnita", "country": "RO", "coord": {"lon": 27.6, "lat": 44.099998}}, {"id": 674745, "name": "Lipanesti", "country": "RO", "coord": {"lon": 26.01667, "lat": 45.049999}}, {"id": 674782, "name": "Limanu", "country": "RO", "coord": {"lon": 28.533331, "lat": 43.799999}}, {"id": 674796, "name": "Liesti", "country": "RO", "coord": {"lon": 27.51667, "lat": 45.616669}}, {"id": 674799, "name": "Liebling", "country": "RO", "coord": {"lon": 21.321671, "lat": 45.577499}}, {"id": 674804, "name": "Licuriciu", "country": "RO", "coord": {"lon": 23.616671, "lat": 44.916672}}, {"id": 674823, "name": "Leu", "country": "RO", "coord": {"lon": 24, "lat": 44.183331}}, {"id": 674834, "name": "Letcani", "country": "RO", "coord": {"lon": 27.41667, "lat": 47.183331}}, {"id": 674837, "name": "Letca", "country": "RO", "coord": {"lon": 23.450001, "lat": 47.333328}}, {"id": 674841, "name": "Lesu", "country": "RO", "coord": {"lon": 24.75, "lat": 47.316669}}, {"id": 674844, "name": "Lespezi", "country": "RO", "coord": {"lon": 26.700001, "lat": 47.366669}}, {"id": 674864, "name": "Leresti", "country": "RO", "coord": {"lon": 25.066669, "lat": 45.333328}}, {"id": 674880, "name": "Leordina", "country": "RO", "coord": {"lon": 24.25, "lat": 47.783329}}, {"id": 674885, "name": "Leordeni", "country": "RO", "coord": {"lon": 25.116671, "lat": 44.783329}}, {"id": 674889, "name": "Leorda", "country": "RO", "coord": {"lon": 26.450001, "lat": 47.816669}}, {"id": 674895, "name": "Lenauheim", "country": "RO", "coord": {"lon": 20.79944, "lat": 45.871941}}, {"id": 674898, "name": "Lemnia", "country": "RO", "coord": {"lon": 26.26667, "lat": 46.049999}}, {"id": 674904, "name": "Lelesti", "country": "RO", "coord": {"lon": 23.200001, "lat": 45.099998}}, {"id": 674910, "name": "Leleasca", "country": "RO", "coord": {"lon": 24.433331, "lat": 44.783329}}, {"id": 674916, "name": "Lehliu-Gara", "country": "RO", "coord": {"lon": 26.85, "lat": 44.433331}}, {"id": 674918, "name": "Lehliu", "country": "RO", "coord": {"lon": 26.816669, "lat": 44.466671}}, {"id": 674933, "name": "Lechinta", "country": "RO", "coord": {"lon": 24.35, "lat": 47.01667}}, {"id": 674945, "name": "Lazuri de Beius", "country": "RO", "coord": {"lon": 22.4, "lat": 46.583328}}, {"id": 674947, "name": "Lazuri", "country": "RO", "coord": {"lon": 22.866671, "lat": 47.849998}}, {"id": 674972, "name": "Lazareni", "country": "RO", "coord": {"lon": 22.066669, "lat": 46.866669}}, {"id": 674975, "name": "Lazarea", "country": "RO", "coord": {"lon": 25.533331, "lat": 46.75}}, {"id": 674977, "name": "Laza", "country": "RO", "coord": {"lon": 27.58333, "lat": 46.650002}}, {"id": 675003, "name": "Laslea", "country": "RO", "coord": {"lon": 24.65, "lat": 46.216671}}, {"id": 675017, "name": "Largu", "country": "RO", "coord": {"lon": 27.15, "lat": 44.966671}}, {"id": 675033, "name": "Lapusnicu Mare", "country": "RO", "coord": {"lon": 21.94417, "lat": 44.913059}}, {"id": 675035, "name": "Lapusnicel", "country": "RO", "coord": {"lon": 22.22694, "lat": 44.983059}}, {"id": 675045, "name": "Lapus", "country": "RO", "coord": {"lon": 24.01667, "lat": 47.5}}, {"id": 675048, "name": "Lapugiu de Jos", "country": "RO", "coord": {"lon": 22.48333, "lat": 45.883331}}, {"id": 675071, "name": "Lalosu", "country": "RO", "coord": {"lon": 24.01667, "lat": 44.549999}}, {"id": 675085, "name": "Ladesti", "country": "RO", "coord": {"lon": 24.049999, "lat": 44.883331}}, {"id": 675130, "name": "Jurilovca", "country": "RO", "coord": {"lon": 28.866671, "lat": 44.76667}}, {"id": 675162, "name": "Jucu Herghelia", "country": "RO", "coord": {"lon": 23.799999, "lat": 46.849998}}, {"id": 675168, "name": "Josenii Bargaului", "country": "RO", "coord": {"lon": 24.683331, "lat": 47.216671}}, {"id": 675171, "name": "Joseni", "country": "RO", "coord": {"lon": 25.5, "lat": 46.700001}}, {"id": 675182, "name": "Jorasti", "country": "RO", "coord": {"lon": 27.866671, "lat": 45.98333}}, {"id": 675193, "name": "Joita", "country": "RO", "coord": {"lon": 25.853889, "lat": 44.494171}}, {"id": 675208, "name": "Jitia", "country": "RO", "coord": {"lon": 26.716669, "lat": 45.583328}}, {"id": 675215, "name": "Jirlau", "country": "RO", "coord": {"lon": 27.16667, "lat": 45.166672}}, {"id": 675218, "name": "Jina", "country": "RO", "coord": {"lon": 23.683331, "lat": 45.783329}}, {"id": 675223, "name": "Jimbolia", "country": "RO", "coord": {"lon": 20.71722, "lat": 45.791389}}, {"id": 675227, "name": "Jilavele", "country": "RO", "coord": {"lon": 26.533331, "lat": 44.76667}}, {"id": 675235, "name": "Jijila", "country": "RO", "coord": {"lon": 28.15, "lat": 45.299999}}, {"id": 675251, "name": "Jidveiu", "country": "RO", "coord": {"lon": 24.1, "lat": 46.216671}}, {"id": 675258, "name": "Jichisu de Jos", "country": "RO", "coord": {"lon": 23.799999, "lat": 47.116669}}, {"id": 675261, "name": "Jibou", "country": "RO", "coord": {"lon": 23.25, "lat": 47.26667}}, {"id": 675266, "name": "Jibert", "country": "RO", "coord": {"lon": 25.066669, "lat": 46}}, {"id": 675267, "name": "Jiana Veche", "country": "RO", "coord": {"lon": 22.66861, "lat": 44.390831}}, {"id": 675285, "name": "Jegalia", "country": "RO", "coord": {"lon": 27.633329, "lat": 44.299999}}, {"id": 675290, "name": "Jebel", "country": "RO", "coord": {"lon": 21.21361, "lat": 45.555561}}, {"id": 675293, "name": "Jaristea", "country": "RO", "coord": {"lon": 27.066669, "lat": 45.783329}}, {"id": 675295, "name": "Jamu Mare", "country": "RO", "coord": {"lon": 21.416941, "lat": 45.254169}}, {"id": 675326, "name": "Izvoru de Sus", "country": "RO", "coord": {"lon": 24.65, "lat": 44.816669}}, {"id": 675329, "name": "Izvoru Crisului", "country": "RO", "coord": {"lon": 23.1, "lat": 46.833328}}, {"id": 675331, "name": "Izvoru Barzii", "country": "RO", "coord": {"lon": 22.67417, "lat": 44.706669}}, {"id": 675333, "name": "Izvoru Berheciului", "country": "RO", "coord": {"lon": 27.216669, "lat": 46.583328}}, {"id": 675365, "name": "Izvoarele Sucevei", "country": "RO", "coord": {"lon": 25.183331, "lat": 47.75}}, {"id": 675384, "name": "Izvoarele", "country": "RO", "coord": {"lon": 28.533331, "lat": 45.033329}}, {"id": 675385, "name": "Izvoarele", "country": "RO", "coord": {"lon": 25.26667, "lat": 45.033329}}, {"id": 675389, "name": "Izvoarele", "country": "RO", "coord": {"lon": 24.51667, "lat": 44.26667}}, {"id": 675393, "name": "Izvoarele", "country": "RO", "coord": {"lon": 25.774719, "lat": 44.03389}}, {"id": 675394, "name": "Izvoarele", "country": "RO", "coord": {"lon": 25.383329, "lat": 43.816669}}, {"id": 675398, "name": "Izvoare", "country": "RO", "coord": {"lon": 23.283331, "lat": 44.150002}}, {"id": 675417, "name": "Ivesti", "country": "RO", "coord": {"lon": 27.533331, "lat": 46.183331}}, {"id": 675418, "name": "Ivesti", "country": "RO", "coord": {"lon": 27.51667, "lat": 45.683331}}, {"id": 675462, "name": "Isverna", "country": "RO", "coord": {"lon": 22.629169, "lat": 44.979721}}, {"id": 675471, "name": "Istria", "country": "RO", "coord": {"lon": 28.716669, "lat": 44.566669}}, {"id": 675480, "name": "Islaz", "country": "RO", "coord": {"lon": 24.75, "lat": 43.73333}}, {"id": 675489, "name": "Isalnita", "country": "RO", "coord": {"lon": 23.73333, "lat": 44.400002}}, {"id": 675495, "name": "Isaccea", "country": "RO", "coord": {"lon": 28.466669, "lat": 45.26667}}, {"id": 675506, "name": "Iratosu", "country": "RO", "coord": {"lon": 21.200001, "lat": 46.316669}}, {"id": 675509, "name": "Ipotesti", "country": "RO", "coord": {"lon": 26.283331, "lat": 47.616669}}, {"id": 675512, "name": "Ipatele", "country": "RO", "coord": {"lon": 27.41667, "lat": 46.916672}}, {"id": 675514, "name": "Ip", "country": "RO", "coord": {"lon": 22.65, "lat": 47.23333}}, {"id": 675530, "name": "Ion Roata", "country": "RO", "coord": {"lon": 26.76667, "lat": 44.666672}}, {"id": 675533, "name": "Ion Luca Caragiale", "country": "RO", "coord": {"lon": 25.700001, "lat": 44.916672}}, {"id": 675547, "name": "Ionesti", "country": "RO", "coord": {"lon": 24.23333, "lat": 44.849998}}, {"id": 675550, "name": "Ionesti", "country": "RO", "coord": {"lon": 23.433331, "lat": 44.616669}}, {"id": 675556, "name": "Ion Corvin", "country": "RO", "coord": {"lon": 27.799999, "lat": 44.116669}}, {"id": 675585, "name": "Intorsura Buzaului", "country": "RO", "coord": {"lon": 26.033331, "lat": 45.683331}}, {"id": 675590, "name": "Insuratei", "country": "RO", "coord": {"lon": 27.6, "lat": 44.916672}}, {"id": 675604, "name": "Ineu", "country": "RO", "coord": {"lon": 22.116671, "lat": 47.083328}}, {"id": 675606, "name": "Ineu", "country": "RO", "coord": {"lon": 21.85, "lat": 46.433331}}, {"id": 675612, "name": "Independenta", "country": "RO", "coord": {"lon": 27.75, "lat": 45.48333}}, {"id": 675614, "name": "Independenta", "country": "RO", "coord": {"lon": 27.15, "lat": 44.283329}}, {"id": 675615, "name": "Independenta", "country": "RO", "coord": {"lon": 28.08333, "lat": 43.966671}}, {"id": 675624, "name": "Imper", "country": "RO", "coord": {"lon": 26.1, "lat": 46.216671}}, {"id": 675629, "name": "Ilva Mica", "country": "RO", "coord": {"lon": 24.66667, "lat": 47.316669}}, {"id": 675632, "name": "Ilva Mare", "country": "RO", "coord": {"lon": 24.9, "lat": 47.366669}}, {"id": 675637, "name": "Ilovita", "country": "RO", "coord": {"lon": 22.47278, "lat": 44.75639}}, {"id": 675664, "name": "Ilieni", "country": "RO", "coord": {"lon": 25.76667, "lat": 45.799999}}, {"id": 675670, "name": "Ilia", "country": "RO", "coord": {"lon": 22.65, "lat": 45.933331}}, {"id": 675678, "name": "Ileanda", "country": "RO", "coord": {"lon": 23.633329, "lat": 47.333328}}, {"id": 675683, "name": "Ileana", "country": "RO", "coord": {"lon": 26.66667, "lat": 44.51667}}, {"id": 675703, "name": "Ighiu", "country": "RO", "coord": {"lon": 23.51667, "lat": 46.150002}}, {"id": 675721, "name": "Ieud", "country": "RO", "coord": {"lon": 24.23399, "lat": 47.677959}}, {"id": 675727, "name": "Iernut", "country": "RO", "coord": {"lon": 24.25, "lat": 46.450001}}, {"id": 675750, "name": "Ideciu de Jos", "country": "RO", "coord": {"lon": 24.75, "lat": 46.799999}}, {"id": 675752, "name": "Icusesti", "country": "RO", "coord": {"lon": 26.933331, "lat": 46.799999}}, {"id": 675759, "name": "Icoana", "country": "RO", "coord": {"lon": 24.716669, "lat": 44.416672}}, {"id": 675763, "name": "Iclod", "country": "RO", "coord": {"lon": 23.799999, "lat": 46.98333}}, {"id": 675766, "name": "Iclanzel", "country": "RO", "coord": {"lon": 24.283331, "lat": 46.533329}}, {"id": 675783, "name": "Ibanesti", "country": "RO", "coord": {"lon": 26.366671, "lat": 48.066669}}, {"id": 675784, "name": "Ibanesti", "country": "RO", "coord": {"lon": 24.933331, "lat": 46.76667}}, {"id": 675817, "name": "Iara", "country": "RO", "coord": {"lon": 23.51667, "lat": 46.549999}}, {"id": 675832, "name": "Iancu Jianu", "country": "RO", "coord": {"lon": 24.033331, "lat": 44.5}}, {"id": 675840, "name": "Ianca", "country": "RO", "coord": {"lon": 27.450001, "lat": 45.133331}}, {"id": 675841, "name": "Ianca", "country": "RO", "coord": {"lon": 24.183331, "lat": 43.783329}}, {"id": 675843, "name": "Iana", "country": "RO", "coord": {"lon": 27.549999, "lat": 46.383331}}, {"id": 675865, "name": "Iacobeni", "country": "RO", "coord": {"lon": 25.316669, "lat": 47.433331}}, {"id": 675868, "name": "Iacobeni", "country": "RO", "coord": {"lon": 24.716669, "lat": 46.049999}}, {"id": 675872, "name": "Iablanita", "country": "RO", "coord": {"lon": 22.314171, "lat": 44.950279}}, {"id": 675889, "name": "Husnicioara", "country": "RO", "coord": {"lon": 22.842501, "lat": 44.678059}}, {"id": 675896, "name": "Husasau de Tinca", "country": "RO", "coord": {"lon": 21.91667, "lat": 46.816669}}, {"id": 675901, "name": "Huruesti", "country": "RO", "coord": {"lon": 27.25, "lat": 46.26667}}, {"id": 675909, "name": "Hurezani", "country": "RO", "coord": {"lon": 23.65, "lat": 44.799999}}, {"id": 675929, "name": "Hulubesti", "country": "RO", "coord": {"lon": 25.23333, "lat": 44.833328}}, {"id": 675937, "name": "Huedin", "country": "RO", "coord": {"lon": 23.049999, "lat": 46.866669}}, {"id": 675941, "name": "Hudesti", "country": "RO", "coord": {"lon": 26.5, "lat": 48.150002}}, {"id": 675968, "name": "Hotarele", "country": "RO", "coord": {"lon": 26.370279, "lat": 44.172501}}, {"id": 675983, "name": "Horodnicu de Sus", "country": "RO", "coord": {"lon": 25.82354, "lat": 47.840118}}, {"id": 675987, "name": "Horodniceni", "country": "RO", "coord": {"lon": 26.16667, "lat": 47.533329}}, {"id": 675993, "name": "Horoatu Crasnei", "country": "RO", "coord": {"lon": 22.883329, "lat": 47.133331}}, {"id": 675999, "name": "Horlesti", "country": "RO", "coord": {"lon": 27.366671, "lat": 47.116669}}, {"id": 676012, "name": "Horia", "country": "RO", "coord": {"lon": 28.450001, "lat": 45.01667}}, {"id": 676013, "name": "Horia", "country": "RO", "coord": {"lon": 28.116671, "lat": 44.633331}}, {"id": 676016, "name": "Horgesti", "country": "RO", "coord": {"lon": 27.066669, "lat": 46.433331}}, {"id": 676026, "name": "Horezu", "country": "RO", "coord": {"lon": 24.01667, "lat": 45.150002}}, {"id": 676050, "name": "Homorodu de Jos", "country": "RO", "coord": {"lon": 23.08333, "lat": 47.666672}}, {"id": 676056, "name": "Homorod", "country": "RO", "coord": {"lon": 25.26667, "lat": 46.049999}}, {"id": 676063, "name": "Homocea", "country": "RO", "coord": {"lon": 27.23333, "lat": 46.133331}}, {"id": 676070, "name": "Holod", "country": "RO", "coord": {"lon": 22.133329, "lat": 46.783329}}, {"id": 676078, "name": "Holboca", "country": "RO", "coord": {"lon": 27.700001, "lat": 47.150002}}, {"id": 676087, "name": "Hoghiz", "country": "RO", "coord": {"lon": 25.299999, "lat": 45.98333}}, {"id": 676089, "name": "Hoghilag", "country": "RO", "coord": {"lon": 24.616671, "lat": 46.23333}}, {"id": 676094, "name": "Hodosa", "country": "RO", "coord": {"lon": 24.816669, "lat": 46.633331}}, {"id": 676106, "name": "Hodod", "country": "RO", "coord": {"lon": 23.033331, "lat": 47.400002}}, {"id": 676124, "name": "Hodac", "country": "RO", "coord": {"lon": 24.91667, "lat": 46.76667}}, {"id": 676127, "name": "Hoceni", "country": "RO", "coord": {"lon": 28.00667, "lat": 46.539169}}, {"id": 676138, "name": "Hlipiceni", "country": "RO", "coord": {"lon": 27.15, "lat": 47.599998}}, {"id": 676155, "name": "Hartiesti", "country": "RO", "coord": {"lon": 25.1, "lat": 45.116669}}, {"id": 676163, "name": "Harsova", "country": "RO", "coord": {"lon": 27.933331, "lat": 44.683331}}, {"id": 676167, "name": "Harsesti", "country": "RO", "coord": {"lon": 24.783331, "lat": 44.533329}}, {"id": 676169, "name": "Harseni", "country": "RO", "coord": {"lon": 25.01667, "lat": 45.75}}, {"id": 676176, "name": "Harlau", "country": "RO", "coord": {"lon": 26.9, "lat": 47.433331}}, {"id": 676186, "name": "Hinova", "country": "RO", "coord": {"lon": 22.776939, "lat": 44.540562}}, {"id": 676194, "name": "Hiliseu-Horia", "country": "RO", "coord": {"lon": 26.25, "lat": 48.033329}}, {"id": 676203, "name": "Hidiselu de Sus", "country": "RO", "coord": {"lon": 22.049999, "lat": 46.950001}}, {"id": 676212, "name": "Hida", "country": "RO", "coord": {"lon": 23.283331, "lat": 47.066669}}, {"id": 676237, "name": "Hereclean", "country": "RO", "coord": {"lon": 23.01667, "lat": 47.25}}, {"id": 676262, "name": "Helegiu", "country": "RO", "coord": {"lon": 26.75, "lat": 46.349998}}, {"id": 676268, "name": "Havarna", "country": "RO", "coord": {"lon": 26.65, "lat": 48.066669}}, {"id": 676277, "name": "Hateg", "country": "RO", "coord": {"lon": 22.950001, "lat": 45.616669}}, {"id": 676287, "name": "Hatzmas", "country": "RO", "coord": {"lon": 22.08333, "lat": 46.5}}, {"id": 676302, "name": "Harmaneasa", "country": "RO", "coord": {"lon": 26.866671, "lat": 47.200001}}, {"id": 676304, "name": "Harman", "country": "RO", "coord": {"lon": 25.683331, "lat": 45.716671}}, {"id": 676314, "name": "Harau", "country": "RO", "coord": {"lon": 22.950001, "lat": 45.900002}}, {"id": 676331, "name": "Hangu", "country": "RO", "coord": {"lon": 26.033331, "lat": 47.049999}}, {"id": 676335, "name": "Hanesti", "country": "RO", "coord": {"lon": 26.98333, "lat": 47.916672}}, {"id": 676343, "name": "Hamcearca", "country": "RO", "coord": {"lon": 28.366671, "lat": 45.116669}}, {"id": 676351, "name": "Halmeu", "country": "RO", "coord": {"lon": 23.01667, "lat": 47.966671}}, {"id": 676354, "name": "Halmasd", "country": "RO", "coord": {"lon": 22.616671, "lat": 47.150002}}, {"id": 676356, "name": "Halmagiu", "country": "RO", "coord": {"lon": 22.58333, "lat": 46.26667}}, {"id": 676358, "name": "Halmagel", "country": "RO", "coord": {"lon": 22.616671, "lat": 46.26667}}, {"id": 676368, "name": "Halchiu", "country": "RO", "coord": {"lon": 25.549999, "lat": 45.76667}}, {"id": 676371, "name": "Halaucesti", "country": "RO", "coord": {"lon": 26.799999, "lat": 47.099998}}, {"id": 676396, "name": "Haghig", "country": "RO", "coord": {"lon": 25.58333, "lat": 45.833328}}, {"id": 676426, "name": "Gusoeni", "country": "RO", "coord": {"lon": 24.116671, "lat": 44.73333}}, {"id": 676438, "name": "Gurghiu", "country": "RO", "coord": {"lon": 24.85, "lat": 46.76667}}, {"id": 676447, "name": "Gurbanesti", "country": "RO", "coord": {"lon": 26.700001, "lat": 44.383331}}, {"id": 676455, "name": "Gura Vitioarei", "country": "RO", "coord": {"lon": 26.033331, "lat": 45.150002}}, {"id": 676462, "name": "Gura Vaii", "country": "RO", "coord": {"lon": 26.73333, "lat": 46.333328}}, {"id": 676474, "name": "Gura Vadului", "country": "RO", "coord": {"lon": 26.466669, "lat": 45.049999}}, {"id": 676478, "name": "Gura Teghii", "country": "RO", "coord": {"lon": 26.41667, "lat": 45.48333}}, {"id": 676481, "name": "Gura Sutii", "country": "RO", "coord": {"lon": 25.51667, "lat": 44.75}}, {"id": 676495, "name": "Gura Raului", "country": "RO", "coord": {"lon": 23.98333, "lat": 45.73333}}, {"id": 676530, "name": "Gurahont", "country": "RO", "coord": {"lon": 22.35, "lat": 46.26667}}, {"id": 676537, "name": "Gura Foii", "country": "RO", "coord": {"lon": 25.283331, "lat": 44.75}}, {"id": 676557, "name": "Gura Calitei", "country": "RO", "coord": {"lon": 27.01667, "lat": 45.583328}}, {"id": 676588, "name": "Gugesti", "country": "RO", "coord": {"lon": 27.133329, "lat": 45.566669}}, {"id": 676596, "name": "Grunji", "country": "RO", "coord": {"lon": 26.65, "lat": 45.5}}, {"id": 676604, "name": "Grumazesti", "country": "RO", "coord": {"lon": 26.366671, "lat": 47.133331}}, {"id": 676617, "name": "Gruiu", "country": "RO", "coord": {"lon": 26.23333, "lat": 44.73333}}, {"id": 676625, "name": "Gruia", "country": "RO", "coord": {"lon": 22.70472, "lat": 44.267502}}, {"id": 676633, "name": "Grozesti", "country": "RO", "coord": {"lon": 28.05056, "lat": 46.990829}}, {"id": 676634, "name": "Grozesti", "country": "RO", "coord": {"lon": 23.316669, "lat": 44.650002}}, {"id": 676653, "name": "Grosi", "country": "RO", "coord": {"lon": 23.616671, "lat": 47.616669}}, {"id": 676673, "name": "Gropnita", "country": "RO", "coord": {"lon": 27.25, "lat": 47.349998}}, {"id": 676706, "name": "Grivita", "country": "RO", "coord": {"lon": 27.65, "lat": 46.150002}}, {"id": 676707, "name": "Grivita", "country": "RO", "coord": {"lon": 27.65, "lat": 45.716671}}, {"id": 676708, "name": "Grivita", "country": "RO", "coord": {"lon": 27.283331, "lat": 44.73333}}, {"id": 676713, "name": "Grinties", "country": "RO", "coord": {"lon": 25.866671, "lat": 47.049999}}, {"id": 676719, "name": "Grindu", "country": "RO", "coord": {"lon": 28.216669, "lat": 45.400002}}, {"id": 676720, "name": "Grindu", "country": "RO", "coord": {"lon": 26.91667, "lat": 44.76667}}, {"id": 676758, "name": "Greci", "country": "RO", "coord": {"lon": 23.116671, "lat": 44.549999}}, {"id": 676762, "name": "Grecesti", "country": "RO", "coord": {"lon": 23.283331, "lat": 44.450001}}, {"id": 676769, "name": "Grebenisu de Campie", "country": "RO", "coord": {"lon": 24.299999, "lat": 46.599998}}, {"id": 676774, "name": "Greaca", "country": "RO", "coord": {"lon": 26.339439, "lat": 44.10944}}, {"id": 676778, "name": "Greabanu", "country": "RO", "coord": {"lon": 26.966669, "lat": 45.383331}}, {"id": 676783, "name": "Gratia", "country": "RO", "coord": {"lon": 25.450001, "lat": 44.433331}}, {"id": 676787, "name": "Granicesti", "country": "RO", "coord": {"lon": 26.066669, "lat": 47.816669}}, {"id": 676791, "name": "Graniceri", "country": "RO", "coord": {"lon": 21.299999, "lat": 46.51667}}, {"id": 676793, "name": "Gramesti", "country": "RO", "coord": {"lon": 26.15, "lat": 47.916672}}, {"id": 676798, "name": "Grajduri", "country": "RO", "coord": {"lon": 27.51667, "lat": 46.966671}}, {"id": 676813, "name": "Gradistea", "country": "RO", "coord": {"lon": 27.383329, "lat": 45.26667}}, {"id": 676815, "name": "Gradistea", "country": "RO", "coord": {"lon": 23.816669, "lat": 44.866669}}, {"id": 676816, "name": "Gradistea", "country": "RO", "coord": {"lon": 26.283331, "lat": 44.666672}}, {"id": 676819, "name": "Gradistea", "country": "RO", "coord": {"lon": 27.216669, "lat": 44.23333}}, {"id": 676830, "name": "Gradinari", "country": "RO", "coord": {"lon": 21.59889, "lat": 45.11861}}, {"id": 676831, "name": "Gradinari", "country": "RO", "coord": {"lon": 24.26667, "lat": 44.566669}}, {"id": 676858, "name": "Gostinu", "country": "RO", "coord": {"lon": 26.116671, "lat": 44}}, {"id": 676859, "name": "Gostinari-Vacaresti", "country": "RO", "coord": {"lon": 26.216669, "lat": 44.183331}}, {"id": 676866, "name": "Gostavatu", "country": "RO", "coord": {"lon": 24.533331, "lat": 44.083328}}, {"id": 676888, "name": "Gornet-Cricov", "country": "RO", "coord": {"lon": 26.26667, "lat": 45.083328}}, {"id": 676890, "name": "Gornet", "country": "RO", "coord": {"lon": 26.066669, "lat": 45.116669}}, {"id": 676892, "name": "Gornesti", "country": "RO", "coord": {"lon": 24.64757, "lat": 46.671291}}, {"id": 676907, "name": "Gorgota", "country": "RO", "coord": {"lon": 26.08333, "lat": 44.783329}}, {"id": 676918, "name": "Gorbanesti", "country": "RO", "coord": {"lon": 26.85, "lat": 47.783329}}, {"id": 676920, "name": "Gorban", "country": "RO", "coord": {"lon": 28.07889, "lat": 46.87611}}, {"id": 676946, "name": "Golesti", "country": "RO", "coord": {"lon": 27.133329, "lat": 45.666672}}, {"id": 676960, "name": "Golaesti", "country": "RO", "coord": {"lon": 27.700001, "lat": 47.23333}}, {"id": 676969, "name": "Goicea", "country": "RO", "coord": {"lon": 23.616671, "lat": 43.916672}}, {"id": 676972, "name": "Gohor", "country": "RO", "coord": {"lon": 27.4, "lat": 46.066669}}, {"id": 676975, "name": "Gogosu", "country": "RO", "coord": {"lon": 23.366671, "lat": 44.416672}}, {"id": 676976, "name": "Gogosu", "country": "RO", "coord": {"lon": 22.59306, "lat": 44.37389}}, {"id": 676981, "name": "Gogosari", "country": "RO", "coord": {"lon": 25.700001, "lat": 43.866669}}, {"id": 676995, "name": "Goesti", "country": "RO", "coord": {"lon": 23.76667, "lat": 44.48333}}, {"id": 677003, "name": "Godinesti", "country": "RO", "coord": {"lon": 22.966669, "lat": 45}}, {"id": 677005, "name": "Godeni", "country": "RO", "coord": {"lon": 24.98333, "lat": 45.23333}}, {"id": 677019, "name": "Glogova", "country": "RO", "coord": {"lon": 22.90667, "lat": 44.928059}}, {"id": 677043, "name": "Glodeni", "country": "RO", "coord": {"lon": 24.6, "lat": 46.650002}}, {"id": 677045, "name": "Glodeni", "country": "RO", "coord": {"lon": 25.466669, "lat": 45.01667}}, {"id": 677047, "name": "Glodeanu-Silistea", "country": "RO", "coord": {"lon": 26.799999, "lat": 44.833328}}, {"id": 677049, "name": "Glodeanu-Sarat", "country": "RO", "coord": {"lon": 26.65, "lat": 44.866669}}, {"id": 677060, "name": "Glina", "country": "RO", "coord": {"lon": 26.25, "lat": 44.383331}}, {"id": 677072, "name": "Glimboca", "country": "RO", "coord": {"lon": 22.316669, "lat": 45.48333}}, {"id": 677085, "name": "Glavanesti", "country": "RO", "coord": {"lon": 27.383329, "lat": 46.25}}, {"id": 677096, "name": "Giuvarasti", "country": "RO", "coord": {"lon": 24.700001, "lat": 43.799999}}, {"id": 677108, "name": "Giurgita", "country": "RO", "coord": {"lon": 23.633329, "lat": 44.01667}}, {"id": 677122, "name": "Giurgeni", "country": "RO", "coord": {"lon": 27.883329, "lat": 44.76667}}, {"id": 677135, "name": "Giulvaz", "country": "RO", "coord": {"lon": 20.98444, "lat": 45.548889}}, {"id": 677143, "name": "Giulesti", "country": "RO", "coord": {"lon": 23.933331, "lat": 47.816669}}, {"id": 677150, "name": "Giubega", "country": "RO", "coord": {"lon": 23.41667, "lat": 44.116669}}, {"id": 677158, "name": "Girov", "country": "RO", "coord": {"lon": 26.51667, "lat": 46.950001}}, {"id": 677160, "name": "Giroc", "country": "RO", "coord": {"lon": 21.23583, "lat": 45.694172}}, {"id": 677165, "name": "Garnic", "country": "RO", "coord": {"lon": 21.794439, "lat": 44.786388}}, {"id": 677175, "name": "Garliciu", "country": "RO", "coord": {"lon": 28.08333, "lat": 44.76667}}, {"id": 677180, "name": "Garleni", "country": "RO", "coord": {"lon": 26.799999, "lat": 46.666672}}, {"id": 677186, "name": "Garla-Mare", "country": "RO", "coord": {"lon": 22.775, "lat": 44.209171}}, {"id": 677192, "name": "Girisu de Cris / Koroesgyires", "country": "RO", "coord": {"lon": 21.76108, "lat": 47.064159}}, {"id": 677201, "name": "Garda de Sus", "country": "RO", "coord": {"lon": 22.816669, "lat": 46.450001}}, {"id": 677205, "name": "Garcov", "country": "RO", "coord": {"lon": 24.633329, "lat": 43.76667}}, {"id": 677213, "name": "Garceni", "country": "RO", "coord": {"lon": 27.283331, "lat": 46.76667}}, {"id": 677219, "name": "Garbovi", "country": "RO", "coord": {"lon": 26.76667, "lat": 44.783329}}, {"id": 677234, "name": "Garbova", "country": "RO", "coord": {"lon": 23.73333, "lat": 45.866669}}, {"id": 677237, "name": "Garbou", "country": "RO", "coord": {"lon": 23.433331, "lat": 47.150002}}, {"id": 677256, "name": "Gangiova", "country": "RO", "coord": {"lon": 23.85, "lat": 43.900002}}, {"id": 677270, "name": "Galgau Almasului", "country": "RO", "coord": {"lon": 23.33333, "lat": 47.200001}}, {"id": 677283, "name": "Gilau", "country": "RO", "coord": {"lon": 23.36174, "lat": 46.732449}}, {"id": 677286, "name": "Gighera", "country": "RO", "coord": {"lon": 23.799999, "lat": 43.849998}}, {"id": 677288, "name": "Giera", "country": "RO", "coord": {"lon": 20.99222, "lat": 45.407219}}, {"id": 677294, "name": "Giarmata", "country": "RO", "coord": {"lon": 21.310829, "lat": 45.838329}}, {"id": 677299, "name": "Ghizela", "country": "RO", "coord": {"lon": 21.737221, "lat": 45.824169}}, {"id": 677313, "name": "Ghiroda", "country": "RO", "coord": {"lon": 21.30028, "lat": 45.763889}}, {"id": 677331, "name": "Ghioroiu", "country": "RO", "coord": {"lon": 23.83333, "lat": 44.700001}}, {"id": 677333, "name": "Ghioroc", "country": "RO", "coord": {"lon": 21.58333, "lat": 46.150002}}, {"id": 677357, "name": "Ghindari", "country": "RO", "coord": {"lon": 24.91667, "lat": 46.5}}, {"id": 677360, "name": "Ghindaresti", "country": "RO", "coord": {"lon": 28.033331, "lat": 44.650002}}, {"id": 677377, "name": "Ghimes-Faget", "country": "RO", "coord": {"lon": 26.066669, "lat": 46.583328}}, {"id": 677382, "name": "Ghimbav", "country": "RO", "coord": {"lon": 25.5, "lat": 45.666672}}, {"id": 677407, "name": "Ghidigeni", "country": "RO", "coord": {"lon": 27.5, "lat": 46.049999}}, {"id": 677410, "name": "Ghidfalau", "country": "RO", "coord": {"lon": 25.85, "lat": 45.900002}}, {"id": 677419, "name": "Gherta Mica", "country": "RO", "coord": {"lon": 23.23333, "lat": 47.933331}}, {"id": 677432, "name": "Gherghita", "country": "RO", "coord": {"lon": 26.26667, "lat": 44.799999}}, {"id": 677435, "name": "Gherghesti", "country": "RO", "coord": {"lon": 27.51667, "lat": 46.5}}, {"id": 677441, "name": "Ghergheasa", "country": "RO", "coord": {"lon": 27.200001, "lat": 45.26667}}, {"id": 677454, "name": "Gheraesti", "country": "RO", "coord": {"lon": 26.816669, "lat": 47.01667}}, {"id": 677462, "name": "Gheorghe Lazar", "country": "RO", "coord": {"lon": 27.450001, "lat": 44.633331}}, {"id": 677466, "name": "Gheorghe Doja", "country": "RO", "coord": {"lon": 24.5, "lat": 46.466671}}, {"id": 677479, "name": "Ghelinta", "country": "RO", "coord": {"lon": 26.23333, "lat": 45.950001}}, {"id": 677481, "name": "Ghelar", "country": "RO", "coord": {"lon": 22.783331, "lat": 45.716671}}, {"id": 677508, "name": "George Enescu", "country": "RO", "coord": {"lon": 26.48333, "lat": 48.033329}}, {"id": 677520, "name": "Geoagiu", "country": "RO", "coord": {"lon": 23.200001, "lat": 45.916672}}, {"id": 677532, "name": "Gemenele", "country": "RO", "coord": {"lon": 27.616671, "lat": 45.283329}}, {"id": 677553, "name": "Geaca", "country": "RO", "coord": {"lon": 24.1, "lat": 46.866669}}, {"id": 677557, "name": "Gavojdia", "country": "RO", "coord": {"lon": 22.01667, "lat": 45.616669}}, {"id": 677578, "name": "Gaujani", "country": "RO", "coord": {"lon": 25.700001, "lat": 43.73333}}, {"id": 677581, "name": "Gataia", "country": "RO", "coord": {"lon": 21.43, "lat": 45.43111}}, {"id": 677583, "name": "Garoafa", "country": "RO", "coord": {"lon": 27.200001, "lat": 45.783329}}, {"id": 677621, "name": "Ganesti", "country": "RO", "coord": {"lon": 24.35, "lat": 46.333328}}, {"id": 677625, "name": "Ganes", "country": "RO", "coord": {"lon": 22.783331, "lat": 47.533329}}, {"id": 677628, "name": "Ganeasa", "country": "RO", "coord": {"lon": 26.283331, "lat": 44.48333}}, {"id": 677629, "name": "Ganeasa", "country": "RO", "coord": {"lon": 24.283331, "lat": 44.416672}}, {"id": 677648, "name": "Galicea Mare", "country": "RO", "coord": {"lon": 23.299999, "lat": 44.099998}}, {"id": 677650, "name": "Galicea", "country": "RO", "coord": {"lon": 24.283331, "lat": 44.916672}}, {"id": 677655, "name": "Galesti", "country": "RO", "coord": {"lon": 24.75, "lat": 46.51667}}, {"id": 677667, "name": "Galda de Jos", "country": "RO", "coord": {"lon": 23.616671, "lat": 46.183331}}, {"id": 677672, "name": "Galbinasi", "country": "RO", "coord": {"lon": 26.91667, "lat": 45.083328}}, {"id": 677676, "name": "Galbenu", "country": "RO", "coord": {"lon": 27.16667, "lat": 45.216671}}, {"id": 677687, "name": "Galautas", "country": "RO", "coord": {"lon": 25.433331, "lat": 46.916672}}, {"id": 677691, "name": "Galatii Bistritei", "country": "RO", "coord": {"lon": 24.4, "lat": 46.98333}}, {"id": 677701, "name": "Galateni", "country": "RO", "coord": {"lon": 25.35, "lat": 44.216671}}, {"id": 677709, "name": "Galanesti", "country": "RO", "coord": {"lon": 25.799999, "lat": 47.916672}}, {"id": 677712, "name": "Gaiseni", "country": "RO", "coord": {"lon": 25.645281, "lat": 44.514999}}, {"id": 677723, "name": "Gaiceana", "country": "RO", "coord": {"lon": 27.216669, "lat": 46.333328}}, {"id": 677730, "name": "Gagesti", "country": "RO", "coord": {"lon": 27.966669, "lat": 46.333328}}, {"id": 677788, "name": "Fundu Moldovei", "country": "RO", "coord": {"lon": 25.4, "lat": 47.533329}}, {"id": 677790, "name": "Fundulea", "country": "RO", "coord": {"lon": 26.51667, "lat": 44.466671}}, {"id": 677808, "name": "Fundeni", "country": "RO", "coord": {"lon": 27.533331, "lat": 45.533329}}, {"id": 677812, "name": "Fundeni", "country": "RO", "coord": {"lon": 26.35, "lat": 44.383331}}, {"id": 677845, "name": "Fulga de Sus", "country": "RO", "coord": {"lon": 26.450001, "lat": 44.900002}}, {"id": 677852, "name": "Frunzi", "country": "RO", "coord": {"lon": 24.33333, "lat": 46.900002}}, {"id": 677870, "name": "Frumusita", "country": "RO", "coord": {"lon": 28.066669, "lat": 45.666672}}, {"id": 677872, "name": "Frumusica", "country": "RO", "coord": {"lon": 26.9, "lat": 47.533329}}, {"id": 677880, "name": "Frumusani", "country": "RO", "coord": {"lon": 26.32556, "lat": 44.296108}}, {"id": 677882, "name": "Frumosu", "country": "RO", "coord": {"lon": 25.65, "lat": 47.616669}}, {"id": 677890, "name": "Frumoasa", "country": "RO", "coord": {"lon": 25.85, "lat": 46.450001}}, {"id": 677891, "name": "Frumoasa", "country": "RO", "coord": {"lon": 25.466669, "lat": 43.799999}}, {"id": 677896, "name": "Francesti", "country": "RO", "coord": {"lon": 24.1, "lat": 45}}, {"id": 677905, "name": "Frecatei", "country": "RO", "coord": {"lon": 28.66667, "lat": 45.099998}}, {"id": 677906, "name": "Frecatei", "country": "RO", "coord": {"lon": 28.116671, "lat": 44.900002}}, {"id": 677918, "name": "Fratesti", "country": "RO", "coord": {"lon": 25.966669, "lat": 43.966671}}, {"id": 677921, "name": "Fratautii Vechi", "country": "RO", "coord": {"lon": 25.883329, "lat": 47.900002}}, {"id": 677923, "name": "Fratautii Noi", "country": "RO", "coord": {"lon": 25.84465, "lat": 47.94257}}, {"id": 677926, "name": "Frata", "country": "RO", "coord": {"lon": 24.049999, "lat": 46.700001}}, {"id": 677954, "name": "Frasinet", "country": "RO", "coord": {"lon": 26.799999, "lat": 44.316669}}, {"id": 677964, "name": "Frasin", "country": "RO", "coord": {"lon": 25.799999, "lat": 47.533329}}, {"id": 677976, "name": "Forotic", "country": "RO", "coord": {"lon": 21.5875, "lat": 45.230282}}, {"id": 677982, "name": "Forasti", "country": "RO", "coord": {"lon": 26.466669, "lat": 47.349998}}, {"id": 677986, "name": "Foltesti", "country": "RO", "coord": {"lon": 28.049999, "lat": 45.75}}, {"id": 677998, "name": "Foglas", "country": "RO", "coord": {"lon": 22.533331, "lat": 47.25}}, {"id": 678005, "name": "Foeni", "country": "RO", "coord": {"lon": 22.383329, "lat": 47.700001}}, {"id": 678006, "name": "Foeni", "country": "RO", "coord": {"lon": 20.87583, "lat": 45.498611}}, {"id": 678013, "name": "Focuri", "country": "RO", "coord": {"lon": 27.216669, "lat": 47.349998}}, {"id": 678050, "name": "Floresti", "country": "RO", "coord": {"lon": 23.49375, "lat": 46.745739}}, {"id": 678063, "name": "Floresti", "country": "RO", "coord": {"lon": 25.783331, "lat": 45.049999}}, {"id": 678064, "name": "Floresti", "country": "RO", "coord": {"lon": 22.947781, "lat": 44.763062}}, {"id": 678089, "name": "Fizesu Gherlii", "country": "RO", "coord": {"lon": 23.98333, "lat": 47.01667}}, {"id": 678098, "name": "Fitionesti", "country": "RO", "coord": {"lon": 27.049999, "lat": 45.98333}}, {"id": 678120, "name": "Farliug", "country": "RO", "coord": {"lon": 21.84944, "lat": 45.488331}}, {"id": 678132, "name": "Fardea", "country": "RO", "coord": {"lon": 22.16667, "lat": 45.73333}}, {"id": 678152, "name": "Fantanele", "country": "RO", "coord": {"lon": 26.316669, "lat": 47.51667}}, {"id": 678159, "name": "Fantanele", "country": "RO", "coord": {"lon": 24.75, "lat": 46.416672}}, {"id": 678162, "name": "Fantanele", "country": "RO", "coord": {"lon": 21.4, "lat": 46.116669}}, {"id": 678170, "name": "Fantanele", "country": "RO", "coord": {"lon": 25.866671, "lat": 44.716671}}, {"id": 678200, "name": "Finta Mare", "country": "RO", "coord": {"lon": 25.799999, "lat": 44.799999}}, {"id": 678208, "name": "Finis", "country": "RO", "coord": {"lon": 22.316669, "lat": 46.633331}}, {"id": 678243, "name": "Filipestii de Targ", "country": "RO", "coord": {"lon": 25.783331, "lat": 44.98333}}, {"id": 678245, "name": "Filipestii de Padure", "country": "RO", "coord": {"lon": 25.75, "lat": 45}}, {"id": 678248, "name": "Filipesti", "country": "RO", "coord": {"lon": 26.883329, "lat": 46.75}}, {"id": 678253, "name": "Filipeni", "country": "RO", "coord": {"lon": 27.183331, "lat": 46.533329}}, {"id": 678275, "name": "Fildu de Jos", "country": "RO", "coord": {"lon": 23.066669, "lat": 46.933331}}, {"id": 678290, "name": "Fieni", "country": "RO", "coord": {"lon": 25.41667, "lat": 45.133331}}, {"id": 678348, "name": "Felnac", "country": "RO", "coord": {"lon": 21.15, "lat": 46.116669}}, {"id": 678352, "name": "Feliceni", "country": "RO", "coord": {"lon": 25.26667, "lat": 46.26667}}, {"id": 678355, "name": "Feleacu", "country": "RO", "coord": {"lon": 23.616671, "lat": 46.716671}}, {"id": 678358, "name": "Feldru", "country": "RO", "coord": {"lon": 24.6, "lat": 47.283329}}, {"id": 678361, "name": "Feldioara", "country": "RO", "coord": {"lon": 25.6, "lat": 45.816669}}, {"id": 678385, "name": "Fauresti", "country": "RO", "coord": {"lon": 24.01667, "lat": 44.566669}}, {"id": 678393, "name": "Faurei", "country": "RO", "coord": {"lon": 26.683331, "lat": 46.916672}}, {"id": 678395, "name": "Faurei", "country": "RO", "coord": {"lon": 27.26667, "lat": 45.083328}}, {"id": 678421, "name": "Fartatesti", "country": "RO", "coord": {"lon": 24, "lat": 44.783329}}, {"id": 678425, "name": "Farcasu", "country": "RO", "coord": {"lon": 23.75, "lat": 44.599998}}, {"id": 678427, "name": "Farcasesti", "country": "RO", "coord": {"lon": 23.200001, "lat": 44.866669}}, {"id": 678430, "name": "Farcasele", "country": "RO", "coord": {"lon": 24.433331, "lat": 44.150002}}, {"id": 678432, "name": "Gradinari", "country": "RO", "coord": {"lon": 25.815559, "lat": 44.39222}}, {"id": 678437, "name": "Farcasa", "country": "RO", "coord": {"lon": 23.33333, "lat": 47.583328}}, {"id": 678438, "name": "Farcasa", "country": "RO", "coord": {"lon": 25.83333, "lat": 47.166672}}, {"id": 678447, "name": "Farau", "country": "RO", "coord": {"lon": 24.01667, "lat": 46.333328}}, {"id": 678451, "name": "Faraoani", "country": "RO", "coord": {"lon": 26.9, "lat": 46.433331}}, {"id": 678455, "name": "Faragau", "country": "RO", "coord": {"lon": 24.51667, "lat": 46.76667}}, {"id": 678462, "name": "Falcoiu", "country": "RO", "coord": {"lon": 24.366671, "lat": 44.23333}}, {"id": 678481, "name": "Fagetelu", "country": "RO", "coord": {"lon": 24.533331, "lat": 44.783329}}, {"id": 678490, "name": "Faget", "country": "RO", "coord": {"lon": 22.183331, "lat": 45.849998}}, {"id": 678513, "name": "Facaeni", "country": "RO", "coord": {"lon": 27.9, "lat": 44.566669}}, {"id": 678519, "name": "Ezeris", "country": "RO", "coord": {"lon": 21.88583, "lat": 45.410831}}, {"id": 678529, "name": "Eselnita", "country": "RO", "coord": {"lon": 22.362221, "lat": 44.699169}}, {"id": 678535, "name": "Ernei", "country": "RO", "coord": {"lon": 24.641479, "lat": 46.605049}}, {"id": 678546, "name": "Eremitu", "country": "RO", "coord": {"lon": 24.933331, "lat": 46.666672}}, {"id": 678552, "name": "Erbiceni", "country": "RO", "coord": {"lon": 27.23333, "lat": 47.26667}}, {"id": 678555, "name": "Iepuresti", "country": "RO", "coord": {"lon": 25.882219, "lat": 44.25806}}, {"id": 678587, "name": "Eftimie Murgu", "country": "RO", "coord": {"lon": 22.092779, "lat": 44.90028}}, {"id": 678588, "name": "Eforie Sud", "country": "RO", "coord": {"lon": 28.649429, "lat": 44.022942}}, {"id": 678594, "name": "Iedera de Jos", "country": "RO", "coord": {"lon": 25.633329, "lat": 45.033329}}, {"id": 678605, "name": "Durnesti", "country": "RO", "coord": {"lon": 27.1, "lat": 47.76667}}, {"id": 678649, "name": "Dumitresti-Fata", "country": "RO", "coord": {"lon": 26.91667, "lat": 45.566669}}, {"id": 678660, "name": "Dumitra", "country": "RO", "coord": {"lon": 24.48333, "lat": 47.216671}}, {"id": 678665, "name": "Dumesti", "country": "RO", "coord": {"lon": 27.35, "lat": 47.183331}}, {"id": 678666, "name": "Dumesti", "country": "RO", "coord": {"lon": 27.283331, "lat": 46.849998}}, {"id": 678680, "name": "Dumbravita", "country": "RO", "coord": {"lon": 23.65, "lat": 47.599998}}, {"id": 678689, "name": "Dumbravita", "country": "RO", "coord": {"lon": 25.433331, "lat": 45.76667}}, {"id": 678693, "name": "Dumbravesti", "country": "RO", "coord": {"lon": 26, "lat": 45.083328}}, {"id": 678700, "name": "Dumbraveni", "country": "RO", "coord": {"lon": 26.41667, "lat": 47.650002}}, {"id": 678704, "name": "Dumbraveni", "country": "RO", "coord": {"lon": 24.566669, "lat": 46.23333}}, {"id": 678705, "name": "Dumbraveni", "country": "RO", "coord": {"lon": 27.116671, "lat": 45.533329}}, {"id": 678715, "name": "Dumbrava Rosie", "country": "RO", "coord": {"lon": 26.433331, "lat": 46.883331}}, {"id": 678719, "name": "Dumbrava de Sus", "country": "RO", "coord": {"lon": 23.116671, "lat": 44.51667}}, {"id": 678752, "name": "Dumbrava", "country": "RO", "coord": {"lon": 22.116671, "lat": 45.816669}}, {"id": 678755, "name": "Dumbrava", "country": "RO", "coord": {"lon": 26.183331, "lat": 44.883331}}, {"id": 678766, "name": "Dulcesti", "country": "RO", "coord": {"lon": 26.76667, "lat": 46.966671}}, {"id": 678782, "name": "Dudestii Vechi", "country": "RO", "coord": {"lon": 20.48333, "lat": 46.049999}}, {"id": 678786, "name": "Dudesti", "country": "RO", "coord": {"lon": 27.433331, "lat": 44.900002}}, {"id": 678792, "name": "Duda", "country": "RO", "coord": {"lon": 28.03722, "lat": 46.752499}}, {"id": 678796, "name": "Dubova", "country": "RO", "coord": {"lon": 22.26667, "lat": 44.616669}}, {"id": 678821, "name": "Baile Dranceni", "country": "RO", "coord": {"lon": 28.10083, "lat": 46.81361}}, {"id": 678831, "name": "Dridu", "country": "RO", "coord": {"lon": 26.450001, "lat": 44.700001}}, {"id": 678868, "name": "Drajna de Jos", "country": "RO", "coord": {"lon": 26.049999, "lat": 45.216671}}, {"id": 678871, "name": "Dragutesti", "country": "RO", "coord": {"lon": 23.23333, "lat": 44.966671}}, {"id": 678881, "name": "Draguseni", "country": "RO", "coord": {"lon": 26.816669, "lat": 48.01667}}, {"id": 678883, "name": "Draguseni", "country": "RO", "coord": {"lon": 26.48333, "lat": 47.283329}}, {"id": 678886, "name": "Draguseni", "country": "RO", "coord": {"lon": 27.75, "lat": 45.966671}}, {"id": 678894, "name": "Dragu", "country": "RO", "coord": {"lon": 23.4, "lat": 47.01667}}, {"id": 678902, "name": "Dragotesti", "country": "RO", "coord": {"lon": 23.16667, "lat": 44.799999}}, {"id": 678904, "name": "Dragotesti", "country": "RO", "coord": {"lon": 24.1, "lat": 44.25}}, {"id": 678908, "name": "Dragosloveni", "country": "RO", "coord": {"lon": 26.66667, "lat": 46}}, {"id": 678912, "name": "Voda Dragos", "country": "RO", "coord": {"lon": 27.15, "lat": 44.433331}}, {"id": 678914, "name": "Dragomiresti-Vale", "country": "RO", "coord": {"lon": 25.934999, "lat": 44.474998}}, {"id": 678922, "name": "Dragomiresti", "country": "RO", "coord": {"lon": 24.291109, "lat": 47.668388}}, {"id": 678923, "name": "Dragomiresti", "country": "RO", "coord": {"lon": 26.533331, "lat": 47.01667}}, {"id": 678924, "name": "Dragomiresti", "country": "RO", "coord": {"lon": 27.35, "lat": 46.633331}}, {"id": 678926, "name": "Dragomiresti", "country": "RO", "coord": {"lon": 25.33333, "lat": 44.916672}}, {"id": 678934, "name": "Dragoesti-Snagov", "country": "RO", "coord": {"lon": 26.533331, "lat": 44.566669}}, {"id": 678942, "name": "Dragoesti", "country": "RO", "coord": {"lon": 26.08333, "lat": 47.549999}}, {"id": 678947, "name": "Dragoesti", "country": "RO", "coord": {"lon": 24.299999, "lat": 44.816669}}, {"id": 678954, "name": "Dragodana", "country": "RO", "coord": {"lon": 25.35, "lat": 44.73333}}, {"id": 678965, "name": "Draghiceni", "country": "RO", "coord": {"lon": 24.25, "lat": 44.133331}}, {"id": 678974, "name": "Dragesti", "country": "RO", "coord": {"lon": 22.133329, "lat": 46.883331}}, {"id": 678979, "name": "Draganu-Olteni", "country": "RO", "coord": {"lon": 24.716669, "lat": 44.933331}}, {"id": 678985, "name": "Draganesti-Vlasca", "country": "RO", "coord": {"lon": 25.598061, "lat": 44.101391}}, {"id": 678987, "name": "Draganesti-Olt", "country": "RO", "coord": {"lon": 24.533331, "lat": 44.166672}}, {"id": 678989, "name": "Draganesti de Vede", "country": "RO", "coord": {"lon": 25.049999, "lat": 44.133331}}, {"id": 678997, "name": "Draganesti", "country": "RO", "coord": {"lon": 22.383329, "lat": 46.616669}}, {"id": 678999, "name": "Draganesti", "country": "RO", "coord": {"lon": 27.466669, "lat": 45.783329}}, {"id": 679002, "name": "Draganesti", "country": "RO", "coord": {"lon": 26.299999, "lat": 44.816669}}, {"id": 679011, "name": "Dragalina", "country": "RO", "coord": {"lon": 27.316669, "lat": 44.433331}}, {"id": 679023, "name": "Dracsani", "country": "RO", "coord": {"lon": 24.98333, "lat": 44.216671}}, {"id": 679034, "name": "Douazeci si Trei August", "country": "RO", "coord": {"lon": 28.58333, "lat": 43.916672}}, {"id": 679046, "name": "Dosu Biricii", "country": "RO", "coord": {"lon": 23.883329, "lat": 47.299999}}, {"id": 679050, "name": "Dostat", "country": "RO", "coord": {"lon": 23.85, "lat": 45.966671}}, {"id": 679061, "name": "Dorolt", "country": "RO", "coord": {"lon": 22.816669, "lat": 47.849998}}, {"id": 679071, "name": "Dorobantu", "country": "RO", "coord": {"lon": 28.26667, "lat": 44.950001}}, {"id": 679074, "name": "Dorobantu", "country": "RO", "coord": {"lon": 26.950001, "lat": 44.216671}}, {"id": 679084, "name": "Dornesti", "country": "RO", "coord": {"lon": 26.004299, "lat": 47.871738}}, {"id": 679089, "name": "Dorna Candrenilor", "country": "RO", "coord": {"lon": 25.25, "lat": 47.349998}}, {"id": 679092, "name": "Dorna", "country": "RO", "coord": {"lon": 25.433331, "lat": 47.349998}}, {"id": 679095, "name": "Dor Marunt", "country": "RO", "coord": {"lon": 26.91667, "lat": 44.450001}}, {"id": 679097, "name": "Dorgos", "country": "RO", "coord": {"lon": 21.83333, "lat": 46.049999}}, {"id": 679112, "name": "Domnesti-Sarbi", "country": "RO", "coord": {"lon": 25.91667, "lat": 44.383331}}, {"id": 679118, "name": "Domnesti", "country": "RO", "coord": {"lon": 24.83333, "lat": 45.200001}}, {"id": 679124, "name": "Domasnea", "country": "RO", "coord": {"lon": 22.316669, "lat": 45.083328}}, {"id": 679133, "name": "Doljesti", "country": "RO", "coord": {"lon": 26.98333, "lat": 47.033329}}, {"id": 679142, "name": "Dolhesti", "country": "RO", "coord": {"lon": 27.9, "lat": 46.866669}}, {"id": 679146, "name": "Dolhasca", "country": "RO", "coord": {"lon": 26.6, "lat": 47.433331}}, {"id": 679156, "name": "Doicesti", "country": "RO", "coord": {"lon": 25.4, "lat": 44.98333}}, {"id": 679160, "name": "Dognecea", "country": "RO", "coord": {"lon": 21.756941, "lat": 45.27417}}, {"id": 679167, "name": "Dofteana", "country": "RO", "coord": {"lon": 26.51667, "lat": 46.316669}}, {"id": 679171, "name": "Doftana", "country": "RO", "coord": {"lon": 25.799999, "lat": 45.150002}}, {"id": 679180, "name": "Doclin", "country": "RO", "coord": {"lon": 21.653891, "lat": 45.29694}}, {"id": 679191, "name": "Dobrun", "country": "RO", "coord": {"lon": 24.216669, "lat": 44.26667}}, {"id": 679197, "name": "Dobrovat", "country": "RO", "coord": {"lon": 27.700001, "lat": 46.950001}}, {"id": 679202, "name": "Dobrotesti", "country": "RO", "coord": {"lon": 24.883329, "lat": 44.283329}}, {"id": 679206, "name": "Dobroteasa", "country": "RO", "coord": {"lon": 24.383329, "lat": 44.783329}}, {"id": 679213, "name": "Dobrosloveni", "country": "RO", "coord": {"lon": 24.366671, "lat": 44.183331}}, {"id": 679217, "name": "Dobromir", "country": "RO", "coord": {"lon": 27.783331, "lat": 44.01667}}, {"id": 679220, "name": "Dobroesti", "country": "RO", "coord": {"lon": 26.183331, "lat": 44.450001}}, {"id": 679228, "name": "Dobrin", "country": "RO", "coord": {"lon": 23.133329, "lat": 47.283329}}, {"id": 679242, "name": "Dobretu", "country": "RO", "coord": {"lon": 23.950001, "lat": 44.5}}, {"id": 679248, "name": "Dobresti", "country": "RO", "coord": {"lon": 22.299999, "lat": 46.849998}}, {"id": 679253, "name": "Dobresti", "country": "RO", "coord": {"lon": 25.133329, "lat": 44.966671}}, {"id": 679255, "name": "Dobresti", "country": "RO", "coord": {"lon": 23.950001, "lat": 43.966671}}, {"id": 679257, "name": "Dobreni", "country": "RO", "coord": {"lon": 26.41667, "lat": 46.98333}}, {"id": 679258, "name": "Dobreni", "country": "RO", "coord": {"lon": 25.116671, "lat": 44.416672}}, {"id": 679267, "name": "Dobra", "country": "RO", "coord": {"lon": 22.566669, "lat": 45.916672}}, {"id": 679269, "name": "Dobra", "country": "RO", "coord": {"lon": 25.716669, "lat": 44.783329}}, {"id": 679277, "name": "Dobarlau", "country": "RO", "coord": {"lon": 25.883329, "lat": 45.73333}}, {"id": 679279, "name": "Dobarceni", "country": "RO", "coord": {"lon": 27.066669, "lat": 47.816669}}, {"id": 679294, "name": "Doba", "country": "RO", "coord": {"lon": 22.716669, "lat": 47.73333}}, {"id": 679310, "name": "Ditrau", "country": "RO", "coord": {"lon": 25.51667, "lat": 46.816669}}, {"id": 679320, "name": "Darvari", "country": "RO", "coord": {"lon": 23.049999, "lat": 44.200001}}, {"id": 679324, "name": "Darlos", "country": "RO", "coord": {"lon": 24.4, "lat": 46.183331}}, {"id": 679328, "name": "Darjiu", "country": "RO", "coord": {"lon": 25.200001, "lat": 46.200001}}, {"id": 679335, "name": "Diosti", "country": "RO", "coord": {"lon": 24.183331, "lat": 44.116669}}, {"id": 679340, "name": "Dioszeg", "country": "RO", "coord": {"lon": 22, "lat": 47.299999}}, {"id": 679351, "name": "Dangeni", "country": "RO", "coord": {"lon": 26.966669, "lat": 47.849998}}, {"id": 679372, "name": "Dimitrie Cantemir", "country": "RO", "coord": {"lon": 28.05472, "lat": 46.507778}}, {"id": 679389, "name": "Dambovicioara", "country": "RO", "coord": {"lon": 25.23333, "lat": 45.450001}}, {"id": 679417, "name": "Dieci", "country": "RO", "coord": {"lon": 22.25, "lat": 46.316669}}, {"id": 679428, "name": "Dichiseni", "country": "RO", "coord": {"lon": 27.533331, "lat": 44.23333}}, {"id": 679443, "name": "Dezna", "country": "RO", "coord": {"lon": 22.25, "lat": 46.400002}}, {"id": 679448, "name": "Deveselu", "country": "RO", "coord": {"lon": 24.383329, "lat": 44.066669}}, {"id": 679450, "name": "Devesel", "country": "RO", "coord": {"lon": 22.667219, "lat": 44.468891}}, {"id": 679456, "name": "Deta", "country": "RO", "coord": {"lon": 21.22444, "lat": 45.388889}}, {"id": 679461, "name": "Desesti", "country": "RO", "coord": {"lon": 23.85, "lat": 47.76667}}, {"id": 679464, "name": "Desa", "country": "RO", "coord": {"lon": 23.033331, "lat": 43.866669}}, {"id": 679467, "name": "Dersca", "country": "RO", "coord": {"lon": 26.200001, "lat": 47.98333}}, {"id": 679471, "name": "Derna", "country": "RO", "coord": {"lon": 22.299999, "lat": 47.200001}}, {"id": 679477, "name": "Denta", "country": "RO", "coord": {"lon": 21.24917, "lat": 45.353889}}, {"id": 679478, "name": "Densus", "country": "RO", "coord": {"lon": 22.799999, "lat": 45.583328}}, {"id": 679499, "name": "Delesti", "country": "RO", "coord": {"lon": 27.549999, "lat": 46.700001}}, {"id": 679518, "name": "Deleni", "country": "RO", "coord": {"lon": 26.883329, "lat": 47.466671}}, {"id": 679524, "name": "Deleni", "country": "RO", "coord": {"lon": 27.75, "lat": 46.549999}}, {"id": 679538, "name": "Deleni", "country": "RO", "coord": {"lon": 28.01667, "lat": 44.099998}}, {"id": 679564, "name": "Deda", "country": "RO", "coord": {"lon": 24.9, "lat": 46.933331}}, {"id": 679604, "name": "Dealu Morii", "country": "RO", "coord": {"lon": 27.23333, "lat": 46.316669}}, {"id": 679651, "name": "Dealu Danicei", "country": "RO", "coord": {"lon": 24.433331, "lat": 44.900002}}, {"id": 679686, "name": "Dealu", "country": "RO", "coord": {"lon": 25.299999, "lat": 46.400002}}, {"id": 679701, "name": "Davidesti", "country": "RO", "coord": {"lon": 25.033331, "lat": 45.01667}}, {"id": 679708, "name": "Dascalu", "country": "RO", "coord": {"lon": 26.23333, "lat": 44.599998}}, {"id": 679714, "name": "Darova Noua", "country": "RO", "coord": {"lon": 21.76667, "lat": 45.633331}}, {"id": 679723, "name": "Darmanesti", "country": "RO", "coord": {"lon": 26.15, "lat": 47.73333}}, {"id": 679724, "name": "Darmanesti", "country": "RO", "coord": {"lon": 26.48333, "lat": 46.366669}}, {"id": 679725, "name": "Darmanesti", "country": "RO", "coord": {"lon": 24.9, "lat": 45.01667}}, {"id": 679726, "name": "Darmanesti", "country": "RO", "coord": {"lon": 25.783331, "lat": 44.916672}}, {"id": 679732, "name": "Darasti-Ilfov", "country": "RO", "coord": {"lon": 26.01833, "lat": 44.308891}}, {"id": 679736, "name": "Darabani", "country": "RO", "coord": {"lon": 26.58333, "lat": 48.183331}}, {"id": 679749, "name": "Daneti", "country": "RO", "coord": {"lon": 24.049999, "lat": 43.98333}}, {"id": 679757, "name": "Danesti", "country": "RO", "coord": {"lon": 27.66667, "lat": 46.849998}}, {"id": 679758, "name": "Danesti", "country": "RO", "coord": {"lon": 25.75, "lat": 46.51667}}, {"id": 679760, "name": "Danesti", "country": "RO", "coord": {"lon": 23.33333, "lat": 44.966671}}, {"id": 679763, "name": "Danes", "country": "RO", "coord": {"lon": 24.700001, "lat": 46.216671}}, {"id": 679765, "name": "Daneasa", "country": "RO", "coord": {"lon": 24.566669, "lat": 44.150002}}, {"id": 679769, "name": "Danciulesti", "country": "RO", "coord": {"lon": 23.75, "lat": 44.73333}}, {"id": 679779, "name": "Damuc", "country": "RO", "coord": {"lon": 25.9, "lat": 46.799999}}, {"id": 679780, "name": "Damoc", "country": "RO", "coord": {"lon": 26.866671, "lat": 46.466671}}, {"id": 679788, "name": "Damienesti", "country": "RO", "coord": {"lon": 26.98333, "lat": 46.73333}}, {"id": 679812, "name": "Daia Romana", "country": "RO", "coord": {"lon": 23.66667, "lat": 46.01667}}, {"id": 679822, "name": "Daia", "country": "RO", "coord": {"lon": 25.98333, "lat": 44}}, {"id": 679828, "name": "Daesti", "country": "RO", "coord": {"lon": 24.133329, "lat": 44.966671}}, {"id": 679830, "name": "Daeni", "country": "RO", "coord": {"lon": 28.116671, "lat": 44.833328}}, {"id": 679844, "name": "Dabaca", "country": "RO", "coord": {"lon": 23.66667, "lat": 46.98333}}, {"id": 679858, "name": "Cuza Voda", "country": "RO", "coord": {"lon": 27.26667, "lat": 44.26667}}, {"id": 679861, "name": "Cuzaplac", "country": "RO", "coord": {"lon": 23.200001, "lat": 46.966671}}, {"id": 679886, "name": "Cusdrioara", "country": "RO", "coord": {"lon": 23.91667, "lat": 47.166672}}, {"id": 679898, "name": "Curtisoara", "country": "RO", "coord": {"lon": 24.33333, "lat": 44.5}}, {"id": 679901, "name": "Curtici", "country": "RO", "coord": {"lon": 21.299999, "lat": 46.349998}}, {"id": 679902, "name": "Curtesti", "country": "RO", "coord": {"lon": 26.65, "lat": 47.716671}}, {"id": 679909, "name": "Curtea", "country": "RO", "coord": {"lon": 22.299999, "lat": 45.816669}}, {"id": 679936, "name": "Curcani", "country": "RO", "coord": {"lon": 26.58333, "lat": 44.200001}}, {"id": 679945, "name": "Curatele", "country": "RO", "coord": {"lon": 22.41667, "lat": 46.700001}}, {"id": 679951, "name": "Cupseni", "country": "RO", "coord": {"lon": 23.933331, "lat": 47.549999}}, {"id": 679959, "name": "Cungrea", "country": "RO", "coord": {"lon": 24.383329, "lat": 44.666672}}, {"id": 679968, "name": "Cumpana", "country": "RO", "coord": {"lon": 28.566669, "lat": 44.116669}}, {"id": 679972, "name": "Culciu Mic", "country": "RO", "coord": {"lon": 23.033331, "lat": 47.76667}}, {"id": 679979, "name": "Cujmir", "country": "RO", "coord": {"lon": 22.92667, "lat": 44.206669}}, {"id": 680003, "name": "Cudalbi", "country": "RO", "coord": {"lon": 27.700001, "lat": 45.783329}}, {"id": 680007, "name": "Cucuteni", "country": "RO", "coord": {"lon": 26.933331, "lat": 47.283329}}, {"id": 680045, "name": "Cuci", "country": "RO", "coord": {"lon": 24.15, "lat": 46.466671}}, {"id": 680050, "name": "Cucerdea", "country": "RO", "coord": {"lon": 24.26667, "lat": 46.400002}}, {"id": 680054, "name": "Cuca", "country": "RO", "coord": {"lon": 27.883329, "lat": 45.73333}}, {"id": 680055, "name": "Cuca", "country": "RO", "coord": {"lon": 24.51667, "lat": 44.950001}}, {"id": 680067, "name": "Crusetu", "country": "RO", "coord": {"lon": 23.66667, "lat": 44.633331}}, {"id": 680073, "name": "Crucisor", "country": "RO", "coord": {"lon": 23.25, "lat": 47.683331}}, {"id": 680090, "name": "Crucea", "country": "RO", "coord": {"lon": 25.616671, "lat": 47.349998}}, {"id": 680092, "name": "Crucea", "country": "RO", "coord": {"lon": 28.23333, "lat": 44.533329}}, {"id": 680122, "name": "Crivina", "country": "RO", "coord": {"lon": 25.98333, "lat": 45.583328}}, {"id": 680148, "name": "Cristuru Secuiesc", "country": "RO", "coord": {"lon": 25.033331, "lat": 46.283329}}, {"id": 680156, "name": "Cristolt", "country": "RO", "coord": {"lon": 23.433331, "lat": 47.200001}}, {"id": 680158, "name": "Cristioru de Jos", "country": "RO", "coord": {"lon": 22.533331, "lat": 46.433331}}, {"id": 680161, "name": "Cristinesti", "country": "RO", "coord": {"lon": 26.383329, "lat": 48.099998}}, {"id": 680166, "name": "Cristian", "country": "RO", "coord": {"lon": 24.033331, "lat": 45.783329}}, {"id": 680167, "name": "Cristian", "country": "RO", "coord": {"lon": 25.466669, "lat": 45.616669}}, {"id": 680176, "name": "Cristesti", "country": "RO", "coord": {"lon": 26.73333, "lat": 47.633331}}, {"id": 680177, "name": "Cristesti", "country": "RO", "coord": {"lon": 26.566669, "lat": 47.26667}}, {"id": 680180, "name": "Cristesti", "country": "RO", "coord": {"lon": 24.48333, "lat": 46.5}}, {"id": 680192, "name": "Criseni", "country": "RO", "coord": {"lon": 23.049999, "lat": 47.23333}}, {"id": 680198, "name": "Criscior", "country": "RO", "coord": {"lon": 22.866671, "lat": 46.116669}}, {"id": 680203, "name": "Crisan", "country": "RO", "coord": {"lon": 29.466669, "lat": 44.966671}}, {"id": 680212, "name": "Crangurile de Sus", "country": "RO", "coord": {"lon": 25.23333, "lat": 44.76667}}, {"id": 680229, "name": "Crangeni", "country": "RO", "coord": {"lon": 24.783331, "lat": 44.033329}}, {"id": 680245, "name": "Criciova", "country": "RO", "coord": {"lon": 22.066669, "lat": 45.633331}}, {"id": 680248, "name": "Cricau", "country": "RO", "coord": {"lon": 23.566669, "lat": 46.183331}}, {"id": 680252, "name": "Crevenicu", "country": "RO", "coord": {"lon": 25.58861, "lat": 44.240829}}, {"id": 680256, "name": "Crevedia Mare", "country": "RO", "coord": {"lon": 25.625561, "lat": 44.429169}}, {"id": 680262, "name": "Crevedia", "country": "RO", "coord": {"lon": 25.933331, "lat": 44.599998}}, {"id": 680279, "name": "Creteni", "country": "RO", "coord": {"lon": 24.183331, "lat": 44.683331}}, {"id": 680298, "name": "Creaca", "country": "RO", "coord": {"lon": 23.25, "lat": 47.200001}}, {"id": 680316, "name": "Crasna", "country": "RO", "coord": {"lon": 22.9, "lat": 47.166672}}, {"id": 680319, "name": "Crasna", "country": "RO", "coord": {"lon": 23.5, "lat": 45.166672}}, {"id": 680340, "name": "Craiesti", "country": "RO", "coord": {"lon": 24.183331, "lat": 46.299999}}, {"id": 680342, "name": "Craidorolt", "country": "RO", "coord": {"lon": 22.700001, "lat": 47.616669}}, {"id": 680368, "name": "Craciunesti", "country": "RO", "coord": {"lon": 24.58234, "lat": 46.479301}}, {"id": 680373, "name": "Craciunelu de Jos", "country": "RO", "coord": {"lon": 23.83333, "lat": 46.183331}}, {"id": 680392, "name": "Cozmesti", "country": "RO", "coord": {"lon": 27.98333, "lat": 46.883331}}, {"id": 680404, "name": "Cozieni", "country": "RO", "coord": {"lon": 26.48333, "lat": 45.333328}}, {"id": 680430, "name": "Covasna", "country": "RO", "coord": {"lon": 26.183331, "lat": 45.849998}}, {"id": 680432, "name": "Covasint", "country": "RO", "coord": {"lon": 21.6, "lat": 46.200001}}, {"id": 680440, "name": "Cotusca", "country": "RO", "coord": {"lon": 26.85, "lat": 48.133331}}, {"id": 680481, "name": "Cotofenii din Dos", "country": "RO", "coord": {"lon": 23.616671, "lat": 44.433331}}, {"id": 680485, "name": "Cotofanesti", "country": "RO", "coord": {"lon": 26.98333, "lat": 46.150002}}, {"id": 680491, "name": "Cotnari", "country": "RO", "coord": {"lon": 26.98333, "lat": 47.349998}}, {"id": 680496, "name": "Cotmeana", "country": "RO", "coord": {"lon": 24.616671, "lat": 44.966671}}, {"id": 680509, "name": "Cotesti", "country": "RO", "coord": {"lon": 27.049999, "lat": 45.650002}}, {"id": 680520, "name": "Coteana", "country": "RO", "coord": {"lon": 24.466669, "lat": 44.299999}}, {"id": 680531, "name": "Costuleni", "country": "RO", "coord": {"lon": 27.85, "lat": 47.033329}}, {"id": 680541, "name": "Costisa", "country": "RO", "coord": {"lon": 26.65, "lat": 46.75}}, {"id": 680546, "name": "Costinesti", "country": "RO", "coord": {"lon": 28.633329, "lat": 43.950001}}, {"id": 680560, "name": "Costestii din Vale", "country": "RO", "coord": {"lon": 25.48333, "lat": 44.650002}}, {"id": 680571, "name": "Costesti", "country": "RO", "coord": {"lon": 27.75, "lat": 46.5}}, {"id": 680576, "name": "Costesti", "country": "RO", "coord": {"lon": 24.066669, "lat": 45.150002}}, {"id": 680577, "name": "Costesti", "country": "RO", "coord": {"lon": 26.76667, "lat": 45.049999}}, {"id": 680581, "name": "Costesti", "country": "RO", "coord": {"lon": 24.883329, "lat": 44.666672}}, {"id": 680591, "name": "Costeiu", "country": "RO", "coord": {"lon": 21.849171, "lat": 45.741112}}, {"id": 680598, "name": "Costache Negri", "country": "RO", "coord": {"lon": 27.716669, "lat": 45.700001}}, {"id": 680601, "name": "Cosoveni", "country": "RO", "coord": {"lon": 23.933331, "lat": 44.25}}, {"id": 680617, "name": "Cosminele de Sus", "country": "RO", "coord": {"lon": 25.883329, "lat": 45.166672}}, {"id": 680623, "name": "Cosmesti", "country": "RO", "coord": {"lon": 27.31115, "lat": 45.870171}}, {"id": 680624, "name": "Cosmesti", "country": "RO", "coord": {"lon": 25.383329, "lat": 44.299999}}, {"id": 680645, "name": "Cosesti", "country": "RO", "coord": {"lon": 24.866671, "lat": 45.066669}}, {"id": 680649, "name": "Cosereni", "country": "RO", "coord": {"lon": 26.566669, "lat": 44.683331}}, {"id": 680655, "name": "Coseiu", "country": "RO", "coord": {"lon": 22.98333, "lat": 47.316669}}, {"id": 680660, "name": "Cosbuc", "country": "RO", "coord": {"lon": 24.4, "lat": 47.366669}}, {"id": 680674, "name": "Corund", "country": "RO", "coord": {"lon": 25.183331, "lat": 46.466671}}, {"id": 680690, "name": "Coroisanmartin", "country": "RO", "coord": {"lon": 24.6, "lat": 46.400002}}, {"id": 680692, "name": "Coroiesti", "country": "RO", "coord": {"lon": 27.48333, "lat": 46.25}}, {"id": 680701, "name": "Coroeni", "country": "RO", "coord": {"lon": 23.76667, "lat": 47.366669}}, {"id": 680708, "name": "Corod", "country": "RO", "coord": {"lon": 27.616671, "lat": 45.900002}}, {"id": 680720, "name": "Cornu Luncii", "country": "RO", "coord": {"lon": 26.15, "lat": 47.466671}}, {"id": 680721, "name": "Cornu de Sus", "country": "RO", "coord": {"lon": 25.700001, "lat": 45.166672}}, {"id": 680742, "name": "Corni", "country": "RO", "coord": {"lon": 26.58333, "lat": 47.650002}}, {"id": 680746, "name": "Corni", "country": "RO", "coord": {"lon": 27.76667, "lat": 45.849998}}, {"id": 680754, "name": "Cornetu", "country": "RO", "coord": {"lon": 25.94083, "lat": 44.341671}}, {"id": 680774, "name": "Cornesti", "country": "RO", "coord": {"lon": 23.683331, "lat": 47.033329}}, {"id": 680783, "name": "Cornesti", "country": "RO", "coord": {"lon": 25.866671, "lat": 44.783329}}, {"id": 680786, "name": "Cornereva", "country": "RO", "coord": {"lon": 22.41667, "lat": 45.066669}}, {"id": 680790, "name": "Cornea", "country": "RO", "coord": {"lon": 22.316669, "lat": 45.033329}}, {"id": 680793, "name": "Cornatelu", "country": "RO", "coord": {"lon": 25.66667, "lat": 44.75}}, {"id": 680806, "name": "Cormaia", "country": "RO", "coord": {"lon": 24.683331, "lat": 47.366669}}, {"id": 680815, "name": "Corlateni", "country": "RO", "coord": {"lon": 26.549999, "lat": 47.933331}}, {"id": 680821, "name": "Corlatel", "country": "RO", "coord": {"lon": 22.93306, "lat": 44.398609}}, {"id": 680831, "name": "Cordun", "country": "RO", "coord": {"lon": 26.866671, "lat": 46.950001}}, {"id": 680839, "name": "Cordareni", "country": "RO", "coord": {"lon": 26.58333, "lat": 47.98333}}, {"id": 680841, "name": "Corcova", "country": "RO", "coord": {"lon": 23.049999, "lat": 44.700001}}, {"id": 680862, "name": "Corbu", "country": "RO", "coord": {"lon": 25.700001, "lat": 46.98333}}, {"id": 680869, "name": "Corbu", "country": "RO", "coord": {"lon": 24.716669, "lat": 44.48333}}, {"id": 680870, "name": "Corbu", "country": "RO", "coord": {"lon": 28.65, "lat": 44.383331}}, {"id": 680874, "name": "Corbita", "country": "RO", "coord": {"lon": 27.299999, "lat": 46.150002}}, {"id": 680876, "name": "Corbii Mari", "country": "RO", "coord": {"lon": 25.5, "lat": 44.549999}}, {"id": 680880, "name": "Corbi", "country": "RO", "coord": {"lon": 24.799999, "lat": 45.283329}}, {"id": 680888, "name": "Corbeni", "country": "RO", "coord": {"lon": 24.65, "lat": 45.299999}}, {"id": 680890, "name": "Corbeanca", "country": "RO", "coord": {"lon": 26.049999, "lat": 44.599998}}, {"id": 680894, "name": "Corbasca", "country": "RO", "coord": {"lon": 27.16667, "lat": 46.283329}}, {"id": 680901, "name": "Copsa Mica", "country": "RO", "coord": {"lon": 24.25, "lat": 46.116669}}, {"id": 680907, "name": "Copalnic Manastur", "country": "RO", "coord": {"lon": 23.683331, "lat": 47.5}}, {"id": 680911, "name": "Copalau", "country": "RO", "coord": {"lon": 26.83333, "lat": 47.616669}}, {"id": 680929, "name": "Copaceni", "country": "RO", "coord": {"lon": 23.98333, "lat": 45}}, {"id": 680934, "name": "Copacele", "country": "RO", "coord": {"lon": 22.1, "lat": 45.5}}, {"id": 680936, "name": "Copacel", "country": "RO", "coord": {"lon": 22.16667, "lat": 46.98333}}, {"id": 680955, "name": "Contesti", "country": "RO", "coord": {"lon": 25.48333, "lat": 43.799999}}, {"id": 680961, "name": "Constantin Daicoviciu", "country": "RO", "coord": {"lon": 22.15, "lat": 45.549999}}, {"id": 680965, "name": "Conop", "country": "RO", "coord": {"lon": 21.883329, "lat": 46.099998}}, {"id": 680977, "name": "Concesti", "country": "RO", "coord": {"lon": 26.549999, "lat": 48.166672}}, {"id": 680992, "name": "Comlosu Mare", "country": "RO", "coord": {"lon": 20.62722, "lat": 45.89056}}, {"id": 680998, "name": "Comisani", "country": "RO", "coord": {"lon": 25.58333, "lat": 44.883331}}, {"id": 681005, "name": "Comarnic", "country": "RO", "coord": {"lon": 25.633329, "lat": 45.25}}, {"id": 681006, "name": "Comarna", "country": "RO", "coord": {"lon": 27.783331, "lat": 47.049999}}, {"id": 681025, "name": "Comandau", "country": "RO", "coord": {"lon": 26.26667, "lat": 45.76667}}, {"id": 681029, "name": "Comana de Sus", "country": "RO", "coord": {"lon": 25.26667, "lat": 45.900002}}, {"id": 681036, "name": "Comana", "country": "RO", "coord": {"lon": 26.145, "lat": 44.170559}}, {"id": 681037, "name": "Comana", "country": "RO", "coord": {"lon": 28.316669, "lat": 43.900002}}, {"id": 681047, "name": "Colti", "country": "RO", "coord": {"lon": 26.383329, "lat": 45.383331}}, {"id": 681096, "name": "Colonesti", "country": "RO", "coord": {"lon": 27.299999, "lat": 46.566669}}, {"id": 681097, "name": "Colonesti", "country": "RO", "coord": {"lon": 24.66667, "lat": 44.650002}}, {"id": 681112, "name": "Colibasi", "country": "RO", "coord": {"lon": 26.194719, "lat": 44.202221}}, {"id": 681125, "name": "Colceag", "country": "RO", "coord": {"lon": 26.35, "lat": 44.950001}}, {"id": 681140, "name": "Cojocna", "country": "RO", "coord": {"lon": 23.83333, "lat": 46.75}}, {"id": 681151, "name": "Cojasca", "country": "RO", "coord": {"lon": 25.85, "lat": 44.716671}}, {"id": 681160, "name": "Cogealac", "country": "RO", "coord": {"lon": 28.566669, "lat": 44.549999}}, {"id": 681183, "name": "Codaesti", "country": "RO", "coord": {"lon": 27.75, "lat": 46.866669}}, {"id": 681185, "name": "Cocu", "country": "RO", "coord": {"lon": 24.65, "lat": 44.866669}}, {"id": 681198, "name": "Cocorastii-Misli", "country": "RO", "coord": {"lon": 25.933331, "lat": 45.083328}}, {"id": 681206, "name": "Cocora", "country": "RO", "coord": {"lon": 27.049999, "lat": 44.73333}}, {"id": 681214, "name": "Cociuba Mare", "country": "RO", "coord": {"lon": 22, "lat": 46.73333}}, {"id": 681228, "name": "Cochirleanca", "country": "RO", "coord": {"lon": 27.033331, "lat": 45.216671}}, {"id": 681257, "name": "Cobadin", "country": "RO", "coord": {"lon": 28.216669, "lat": 44.083328}}, {"id": 681280, "name": "Coarnele Caprei", "country": "RO", "coord": {"lon": 27.1, "lat": 47.383331}}, {"id": 681327, "name": "Clinceni", "country": "RO", "coord": {"lon": 25.95472, "lat": 44.373329}}, {"id": 681338, "name": "Clejani", "country": "RO", "coord": {"lon": 25.69944, "lat": 44.319721}}, {"id": 681340, "name": "Cleja", "country": "RO", "coord": {"lon": 26.9, "lat": 46.416672}}, {"id": 681353, "name": "Cizer", "country": "RO", "coord": {"lon": 22.883329, "lat": 47.066669}}, {"id": 681368, "name": "Ciuruleasa", "country": "RO", "coord": {"lon": 23.033331, "lat": 46.25}}, {"id": 681371, "name": "Ciurila", "country": "RO", "coord": {"lon": 23.549999, "lat": 46.650002}}, {"id": 681373, "name": "Ciurgau", "country": "RO", "coord": {"lon": 24.15, "lat": 46.683331}}, {"id": 681384, "name": "Ciurea", "country": "RO", "coord": {"lon": 27.566669, "lat": 47.049999}}, {"id": 681397, "name": "Ciupercenii Noi", "country": "RO", "coord": {"lon": 22.94833, "lat": 43.909721}}, {"id": 681404, "name": "Ciuperceni", "country": "RO", "coord": {"lon": 23.01667, "lat": 44.933331}}, {"id": 681406, "name": "Ciuperceni", "country": "RO", "coord": {"lon": 24.950001, "lat": 43.76667}}, {"id": 681430, "name": "Ciumeghiu", "country": "RO", "coord": {"lon": 21.58333, "lat": 46.73333}}, {"id": 681436, "name": "Ciumani", "country": "RO", "coord": {"lon": 25.51667, "lat": 46.683331}}, {"id": 681444, "name": "Ciulnita", "country": "RO", "coord": {"lon": 27.35, "lat": 44.533329}}, {"id": 681458, "name": "Ciuhoiu", "country": "RO", "coord": {"lon": 22.116671, "lat": 47.23333}}, {"id": 681466, "name": "Ciugud", "country": "RO", "coord": {"lon": 23.616671, "lat": 46.049999}}, {"id": 681473, "name": "Ciucurova", "country": "RO", "coord": {"lon": 28.48333, "lat": 44.933331}}, {"id": 681480, "name": "Ciucsangeorgiu", "country": "RO", "coord": {"lon": 25.950001, "lat": 46.316669}}, {"id": 681483, "name": "Ciuchici", "country": "RO", "coord": {"lon": 21.610001, "lat": 44.941391}}, {"id": 681486, "name": "Ciucea", "country": "RO", "coord": {"lon": 22.816669, "lat": 46.950001}}, {"id": 681494, "name": "Ciuani", "country": "RO", "coord": {"lon": 25.65, "lat": 44.23333}}, {"id": 681510, "name": "Cislau", "country": "RO", "coord": {"lon": 26.366671, "lat": 45.25}}, {"id": 681517, "name": "Cartisoara", "country": "RO", "coord": {"lon": 24.58333, "lat": 45.716671}}, {"id": 681523, "name": "Carta", "country": "RO", "coord": {"lon": 25.75, "lat": 46.533329}}, {"id": 681549, "name": "Carlogani", "country": "RO", "coord": {"lon": 24.15, "lat": 44.51667}}, {"id": 681559, "name": "Carligele", "country": "RO", "coord": {"lon": 27.1, "lat": 45.683331}}, {"id": 681569, "name": "Carlibaba", "country": "RO", "coord": {"lon": 25.133329, "lat": 47.583328}}, {"id": 681596, "name": "Ciresu", "country": "RO", "coord": {"lon": 27.35, "lat": 44.950001}}, {"id": 681624, "name": "Ciprian Porumbescu", "country": "RO", "coord": {"lon": 26.066669, "lat": 47.566669}}, {"id": 681634, "name": "Ciortesti", "country": "RO", "coord": {"lon": 27.83333, "lat": 46.900002}}, {"id": 681645, "name": "Cioroiasu", "country": "RO", "coord": {"lon": 23.450001, "lat": 44.083328}}, {"id": 681648, "name": "Ciorogarla", "country": "RO", "coord": {"lon": 25.883329, "lat": 44.442501}}, {"id": 681664, "name": "Ciorasti", "country": "RO", "coord": {"lon": 27.299999, "lat": 45.433331}}, {"id": 681669, "name": "Cioranii de Jos", "country": "RO", "coord": {"lon": 26.41667, "lat": 44.816669}}, {"id": 681686, "name": "Ciomagesti", "country": "RO", "coord": {"lon": 24.450001, "lat": 44.833328}}, {"id": 681691, "name": "Ciolpani", "country": "RO", "coord": {"lon": 26.08333, "lat": 44.73333}}, {"id": 681701, "name": "Ciofrangeni", "country": "RO", "coord": {"lon": 24.533331, "lat": 45.083328}}, {"id": 681721, "name": "Ciocarlia", "country": "RO", "coord": {"lon": 28.283331, "lat": 44.099998}}, {"id": 681725, "name": "Ciocile", "country": "RO", "coord": {"lon": 27.23333, "lat": 44.816669}}, {"id": 681728, "name": "Ciochina", "country": "RO", "coord": {"lon": 27.066669, "lat": 44.583328}}, {"id": 681744, "name": "Ciocanesti", "country": "RO", "coord": {"lon": 24.633329, "lat": 45.25}}, {"id": 681747, "name": "Ciocanesti", "country": "RO", "coord": {"lon": 25.85, "lat": 44.599998}}, {"id": 681748, "name": "Ciocanesti", "country": "RO", "coord": {"lon": 27.066669, "lat": 44.200001}}, {"id": 681775, "name": "Ciobanu", "country": "RO", "coord": {"lon": 27.966669, "lat": 44.73333}}, {"id": 681827, "name": "Cincu", "country": "RO", "coord": {"lon": 24.799999, "lat": 45.916672}}, {"id": 681833, "name": "Campurile de Jos", "country": "RO", "coord": {"lon": 26.783331, "lat": 46.01667}}, {"id": 681876, "name": "Campeni", "country": "RO", "coord": {"lon": 23.049999, "lat": 46.366669}}, {"id": 681884, "name": "Campani de Pomezeu", "country": "RO", "coord": {"lon": 22.316669, "lat": 46.799999}}, {"id": 681902, "name": "Calnic", "country": "RO", "coord": {"lon": 23.66667, "lat": 45.883331}}, {"id": 681912, "name": "Cilibia", "country": "RO", "coord": {"lon": 27.066669, "lat": 45.066669}}, {"id": 681920, "name": "Cainenii Mici", "country": "RO", "coord": {"lon": 24.299999, "lat": 45.48333}}, {"id": 681938, "name": "Ciclova-Romana", "country": "RO", "coord": {"lon": 21.71917, "lat": 45.013611}}, {"id": 681951, "name": "Ciceu-Giurgesti", "country": "RO", "coord": {"lon": 24.01667, "lat": 47.25}}, {"id": 681971, "name": "Ciacova", "country": "RO", "coord": {"lon": 21.128611, "lat": 45.50806}}, {"id": 681977, "name": "Chiuza", "country": "RO", "coord": {"lon": 24.25, "lat": 47.23333}}, {"id": 681990, "name": "Chitila", "country": "RO", "coord": {"lon": 25.98222, "lat": 44.50806}}, {"id": 682003, "name": "Chislaz", "country": "RO", "coord": {"lon": 22.23333, "lat": 47.283329}}, {"id": 682009, "name": "Chisineu-Cris", "country": "RO", "coord": {"lon": 21.51667, "lat": 46.533329}}, {"id": 682011, "name": "Chisindia", "country": "RO", "coord": {"lon": 22.1, "lat": 46.283329}}, {"id": 682014, "name": "Chiselet", "country": "RO", "coord": {"lon": 26.85, "lat": 44.183331}}, {"id": 682020, "name": "Chiscani", "country": "RO", "coord": {"lon": 27.933331, "lat": 45.183331}}, {"id": 682028, "name": "Chirpar", "country": "RO", "coord": {"lon": 24.6, "lat": 45.900002}}, {"id": 682036, "name": "Chirnogi", "country": "RO", "coord": {"lon": 26.566669, "lat": 44.116669}}, {"id": 682038, "name": "Chirnogeni", "country": "RO", "coord": {"lon": 28.23333, "lat": 43.900002}}, {"id": 682076, "name": "Chiojdu", "country": "RO", "coord": {"lon": 26.200001, "lat": 45.349998}}, {"id": 682079, "name": "Chiojdeni", "country": "RO", "coord": {"lon": 26.866671, "lat": 45.549999}}, {"id": 682082, "name": "Chiojdeanca", "country": "RO", "coord": {"lon": 26.26667, "lat": 45.166672}}, {"id": 682085, "name": "Chiochis", "country": "RO", "coord": {"lon": 24.183331, "lat": 46.98333}}, {"id": 682093, "name": "Chinteni", "country": "RO", "coord": {"lon": 23.533331, "lat": 46.866669}}, {"id": 682117, "name": "Chilia Veche", "country": "RO", "coord": {"lon": 29.283331, "lat": 45.416672}}, {"id": 682132, "name": "Chiheru de Jos", "country": "RO", "coord": {"lon": 24.883329, "lat": 46.683331}}, {"id": 682136, "name": "Chiesd", "country": "RO", "coord": {"lon": 22.883329, "lat": 47.383331}}, {"id": 682147, "name": "Chichis", "country": "RO", "coord": {"lon": 25.799999, "lat": 45.783329}}, {"id": 682159, "name": "Chiajna", "country": "RO", "coord": {"lon": 25.97333, "lat": 44.459999}}, {"id": 682161, "name": "Cheveresu Mare", "country": "RO", "coord": {"lon": 21.490829, "lat": 45.666939}}, {"id": 682171, "name": "Chetani", "country": "RO", "coord": {"lon": 24.033331, "lat": 46.466671}}, {"id": 682195, "name": "Cherechiu", "country": "RO", "coord": {"lon": 22.133329, "lat": 47.383331}}, {"id": 682235, "name": "Cezieni", "country": "RO", "coord": {"lon": 24.26667, "lat": 44.183331}}, {"id": 682252, "name": "Cetateni", "country": "RO", "coord": {"lon": 25.183331, "lat": 45.200001}}, {"id": 682268, "name": "Cetate", "country": "RO", "coord": {"lon": 23.049999, "lat": 44.099998}}, {"id": 682270, "name": "Cetariu", "country": "RO", "coord": {"lon": 22.01667, "lat": 47.133331}}, {"id": 682278, "name": "Cervenia", "country": "RO", "coord": {"lon": 25.466669, "lat": 43.833328}}, {"id": 682282, "name": "Certeze", "country": "RO", "coord": {"lon": 23.466669, "lat": 47.900002}}, {"id": 682284, "name": "Certesti", "country": "RO", "coord": {"lon": 27.616671, "lat": 46.01667}}, {"id": 682287, "name": "Certeju de Sus", "country": "RO", "coord": {"lon": 22.966669, "lat": 45.966671}}, {"id": 682298, "name": "Cernisoara", "country": "RO", "coord": {"lon": 23.98333, "lat": 45.033329}}, {"id": 682301, "name": "Cernica", "country": "RO", "coord": {"lon": 26.283331, "lat": 44.416672}}, {"id": 682313, "name": "Cernesti", "country": "RO", "coord": {"lon": 23.75, "lat": 47.51667}}, {"id": 682328, "name": "Cernatesti", "country": "RO", "coord": {"lon": 26.76667, "lat": 45.26667}}, {"id": 682329, "name": "Cernatesti", "country": "RO", "coord": {"lon": 23.433331, "lat": 44.450001}}, {"id": 682331, "name": "Cernat", "country": "RO", "coord": {"lon": 26.033331, "lat": 45.950001}}, {"id": 682347, "name": "Cerna", "country": "RO", "coord": {"lon": 28.316669, "lat": 45.083328}}, {"id": 682350, "name": "Cermei", "country": "RO", "coord": {"lon": 21.85, "lat": 46.549999}}, {"id": 682359, "name": "Cergau Mic", "country": "RO", "coord": {"lon": 23.933331, "lat": 46.083328}}, {"id": 682363, "name": "Ceretul", "country": "RO", "coord": {"lon": 24.883329, "lat": 44.216671}}, {"id": 682369, "name": "Cerchezu", "country": "RO", "coord": {"lon": 28.1, "lat": 43.816669}}, {"id": 682396, "name": "Ceratu", "country": "RO", "coord": {"lon": 23.66667, "lat": 44.066669}}, {"id": 682399, "name": "Cerasu", "country": "RO", "coord": {"lon": 26.033331, "lat": 45.316669}}, {"id": 682403, "name": "Ceptura de Sus", "country": "RO", "coord": {"lon": 26.316669, "lat": 45.01667}}, {"id": 682407, "name": "Ceplenita", "country": "RO", "coord": {"lon": 27.01667, "lat": 47.383331}}, {"id": 682413, "name": "Cepari Pamanteni", "country": "RO", "coord": {"lon": 24.566669, "lat": 45.216671}}, {"id": 682423, "name": "Cenei", "country": "RO", "coord": {"lon": 20.903891, "lat": 45.715832}}, {"id": 682428, "name": "Cenad", "country": "RO", "coord": {"lon": 20.58333, "lat": 46.133331}}, {"id": 682436, "name": "Celaru", "country": "RO", "coord": {"lon": 24.133329, "lat": 44.049999}}, {"id": 682440, "name": "Ceica", "country": "RO", "coord": {"lon": 22.183331, "lat": 46.849998}}, {"id": 682449, "name": "Cehal", "country": "RO", "coord": {"lon": 22.6, "lat": 47.383331}}, {"id": 682452, "name": "Cefa", "country": "RO", "coord": {"lon": 21.73333, "lat": 46.916672}}, {"id": 682473, "name": "Ceanu Mare", "country": "RO", "coord": {"lon": 23.950001, "lat": 46.666672}}, {"id": 682478, "name": "Ceamurlia de Jos", "country": "RO", "coord": {"lon": 28.716669, "lat": 44.73333}}, {"id": 682483, "name": "Ceahlau", "country": "RO", "coord": {"lon": 25.966669, "lat": 47.049999}}, {"id": 682499, "name": "Cazanesti", "country": "RO", "coord": {"lon": 22.89056, "lat": 44.723331}}, {"id": 682501, "name": "Cazanesti", "country": "RO", "coord": {"lon": 27.01667, "lat": 44.616669}}, {"id": 682508, "name": "Cavnic", "country": "RO", "coord": {"lon": 23.866671, "lat": 47.666672}}, {"id": 682511, "name": "Cavadinesti", "country": "RO", "coord": {"lon": 28.016939, "lat": 46.066669}}, {"id": 682522, "name": "Cauas", "country": "RO", "coord": {"lon": 22.549999, "lat": 47.566669}}, {"id": 682548, "name": "Catina", "country": "RO", "coord": {"lon": 24.183331, "lat": 46.849998}}, {"id": 682549, "name": "Catina", "country": "RO", "coord": {"lon": 26.25, "lat": 45.299999}}, {"id": 682560, "name": "Cateasca", "country": "RO", "coord": {"lon": 25.08333, "lat": 44.76667}}, {"id": 682579, "name": "Catalina", "country": "RO", "coord": {"lon": 26.15, "lat": 45.966671}}, {"id": 682581, "name": "Cata", "country": "RO", "coord": {"lon": 25.26667, "lat": 46.083328}}, {"id": 682586, "name": "Castra-Nova", "country": "RO", "coord": {"lon": 24.01667, "lat": 44.116669}}, {"id": 682589, "name": "Castelu", "country": "RO", "coord": {"lon": 28.33333, "lat": 44.25}}, {"id": 682604, "name": "Casin", "country": "RO", "coord": {"lon": 26.75, "lat": 46.200001}}, {"id": 682606, "name": "Casimcea", "country": "RO", "coord": {"lon": 28.366671, "lat": 44.73333}}, {"id": 682614, "name": "Caseiu", "country": "RO", "coord": {"lon": 23.866671, "lat": 47.183331}}, {"id": 682619, "name": "Cascioarele", "country": "RO", "coord": {"lon": 26.469721, "lat": 44.12611}}, {"id": 682660, "name": "Carpinis", "country": "RO", "coord": {"lon": 20.904169, "lat": 45.78722}}, {"id": 682664, "name": "Carpinet", "country": "RO", "coord": {"lon": 22.48333, "lat": 46.450001}}, {"id": 682672, "name": "Carpen", "country": "RO", "coord": {"lon": 23.25, "lat": 44.333328}}, {"id": 682679, "name": "C.A. Rosetti", "country": "RO", "coord": {"lon": 29.566669, "lat": 45.299999}}, {"id": 682691, "name": "Carcaliu", "country": "RO", "coord": {"lon": 28.15, "lat": 45.183331}}, {"id": 682695, "name": "Carbunesti", "country": "RO", "coord": {"lon": 26.200001, "lat": 45.23333}}, {"id": 682700, "name": "Carbunari", "country": "RO", "coord": {"lon": 21.744169, "lat": 44.834438}}, {"id": 682707, "name": "Caraula", "country": "RO", "coord": {"lon": 23.25, "lat": 44.183331}}, {"id": 682712, "name": "Carastelec", "country": "RO", "coord": {"lon": 22.700001, "lat": 47.299999}}, {"id": 682716, "name": "Carasova", "country": "RO", "coord": {"lon": 21.870001, "lat": 45.198608}}, {"id": 682734, "name": "Carand", "country": "RO", "coord": {"lon": 22.08333, "lat": 46.450001}}, {"id": 682750, "name": "Capusu Mare", "country": "RO", "coord": {"lon": 23.299999, "lat": 46.783329}}, {"id": 682789, "name": "Capreni", "country": "RO", "coord": {"lon": 23.616671, "lat": 44.75}}, {"id": 682800, "name": "Capleni", "country": "RO", "coord": {"lon": 22.5, "lat": 47.716671}}, {"id": 682806, "name": "Capalnita", "country": "RO", "coord": {"lon": 25.51667, "lat": 46.366669}}, {"id": 682812, "name": "Capalna", "country": "RO", "coord": {"lon": 22.1, "lat": 46.73333}}, {"id": 682844, "name": "Canesti", "country": "RO", "coord": {"lon": 26.6, "lat": 45.400002}}, {"id": 682863, "name": "Camarzana", "country": "RO", "coord": {"lon": 23.316669, "lat": 48}}, {"id": 682866, "name": "Camarasu", "country": "RO", "coord": {"lon": 24.133329, "lat": 46.783329}}, {"id": 682870, "name": "Camar", "country": "RO", "coord": {"lon": 22.616671, "lat": 47.299999}}, {"id": 682873, "name": "Calvini", "country": "RO", "coord": {"lon": 26.299999, "lat": 45.25}}, {"id": 682907, "name": "Calugareni", "country": "RO", "coord": {"lon": 26.383329, "lat": 45.083328}}, {"id": 682912, "name": "Calugareni", "country": "RO", "coord": {"lon": 25.99556, "lat": 44.171669}}, {"id": 682931, "name": "Calmatuiu", "country": "RO", "coord": {"lon": 24.866671, "lat": 43.966671}}, {"id": 682937, "name": "Calinesti-Oas", "country": "RO", "coord": {"lon": 23.299999, "lat": 47.900002}}, {"id": 682953, "name": "Calinesti", "country": "RO", "coord": {"lon": 23.98333, "lat": 47.783329}}, {"id": 682958, "name": "Calinesti", "country": "RO", "coord": {"lon": 25.049999, "lat": 44.816669}}, {"id": 682960, "name": "Calinesti", "country": "RO", "coord": {"lon": 25.23333, "lat": 44.083328}}, {"id": 682997, "name": "Caldararu", "country": "RO", "coord": {"lon": 24.950001, "lat": 44.450001}}, {"id": 683004, "name": "Calatele", "country": "RO", "coord": {"lon": 23.01667, "lat": 46.76667}}, {"id": 683020, "name": "Calarasi", "country": "RO", "coord": {"lon": 27.26667, "lat": 47.616669}}, {"id": 683021, "name": "Calarasi", "country": "RO", "coord": {"lon": 23.866671, "lat": 46.48333}}, {"id": 683023, "name": "Calarasi", "country": "RO", "coord": {"lon": 24.049999, "lat": 43.799999}}, {"id": 683030, "name": "Calan", "country": "RO", "coord": {"lon": 22.98333, "lat": 45.73333}}, {"id": 683033, "name": "Calafindesti", "country": "RO", "coord": {"lon": 26.116671, "lat": 47.849998}}, {"id": 683041, "name": "Cajvana", "country": "RO", "coord": {"lon": 25.966669, "lat": 47.700001}}, {"id": 683042, "name": "Caiuti-Sat", "country": "RO", "coord": {"lon": 26.933331, "lat": 46.183331}}, {"id": 683050, "name": "Caianu Mic", "country": "RO", "coord": {"lon": 24.15, "lat": 47.23333}}, {"id": 683051, "name": "Caianu Mic", "country": "RO", "coord": {"lon": 23.91667, "lat": 46.783329}}, {"id": 683084, "name": "Cacica", "country": "RO", "coord": {"lon": 25.9, "lat": 47.633331}}, {"id": 683092, "name": "Cabesti", "country": "RO", "coord": {"lon": 22.366671, "lat": 46.76667}}, {"id": 683100, "name": "Buzoesti", "country": "RO", "coord": {"lon": 24.91667, "lat": 44.583328}}, {"id": 683105, "name": "Buzias", "country": "RO", "coord": {"lon": 21.603609, "lat": 45.64917}}, {"id": 683111, "name": "Buzescu", "country": "RO", "coord": {"lon": 25.23333, "lat": 44.01667}}, {"id": 683129, "name": "Buza", "country": "RO", "coord": {"lon": 24.15, "lat": 46.900002}}, {"id": 683132, "name": "Buturugeni", "country": "RO", "coord": {"lon": 25.835279, "lat": 44.36528}}, {"id": 683146, "name": "Butoiesti", "country": "RO", "coord": {"lon": 23.366671, "lat": 44.583328}}, {"id": 683153, "name": "Butimanu", "country": "RO", "coord": {"lon": 25.9, "lat": 44.683331}}, {"id": 683160, "name": "Buteni", "country": "RO", "coord": {"lon": 22.116671, "lat": 46.316669}}, {"id": 683166, "name": "Butea", "country": "RO", "coord": {"lon": 26.91667, "lat": 47.066669}}, {"id": 683178, "name": "Bustuchin", "country": "RO", "coord": {"lon": 23.73333, "lat": 44.966671}}, {"id": 683179, "name": "Busteni", "country": "RO", "coord": {"lon": 25.533331, "lat": 45.400002}}, {"id": 683202, "name": "Buruenesti", "country": "RO", "coord": {"lon": 26.35, "lat": 45.316669}}, {"id": 683226, "name": "Burila Mare", "country": "RO", "coord": {"lon": 22.57361, "lat": 44.452782}}, {"id": 683252, "name": "Buntesti", "country": "RO", "coord": {"lon": 22.466669, "lat": 46.616669}}, {"id": 683268, "name": "Bunesti-Regat", "country": "RO", "coord": {"lon": 26.283331, "lat": 47.51667}}, {"id": 683278, "name": "Bunesti", "country": "RO", "coord": {"lon": 27.966669, "lat": 46.833328}}, {"id": 683279, "name": "Bunesti", "country": "RO", "coord": {"lon": 25.049999, "lat": 46.099998}}, {"id": 683282, "name": "Bunesti", "country": "RO", "coord": {"lon": 24.183331, "lat": 45.116669}}, {"id": 683305, "name": "Bulzesti", "country": "RO", "coord": {"lon": 23.883329, "lat": 44.533329}}, {"id": 683310, "name": "Bulz", "country": "RO", "coord": {"lon": 22.683331, "lat": 46.916672}}, {"id": 683328, "name": "Bulbucata", "country": "RO", "coord": {"lon": 25.803329, "lat": 44.283329}}, {"id": 683342, "name": "Bujoru", "country": "RO", "coord": {"lon": 25.566669, "lat": 43.716671}}, {"id": 683346, "name": "Bujoreni", "country": "RO", "coord": {"lon": 24.35, "lat": 45.133331}}, {"id": 683352, "name": "Bujor", "country": "RO", "coord": {"lon": 27.9, "lat": 45.866669}}, {"id": 683367, "name": "Buhoci", "country": "RO", "coord": {"lon": 27.01667, "lat": 46.566669}}, {"id": 683386, "name": "Bughea de Jos", "country": "RO", "coord": {"lon": 25, "lat": 45.26667}}, {"id": 683398, "name": "Buduslau", "country": "RO", "coord": {"lon": 22.26667, "lat": 47.400002}}, {"id": 683405, "name": "Budureasa", "country": "RO", "coord": {"lon": 22.5, "lat": 46.666672}}, {"id": 683422, "name": "Budila", "country": "RO", "coord": {"lon": 25.799999, "lat": 45.666672}}, {"id": 683434, "name": "Budesti", "country": "RO", "coord": {"lon": 23.950001, "lat": 47.73333}}, {"id": 683437, "name": "Budesti", "country": "RO", "coord": {"lon": 24.25, "lat": 46.883331}}, {"id": 683445, "name": "Budesti", "country": "RO", "coord": {"lon": 24.383329, "lat": 45.049999}}, {"id": 683447, "name": "Budesti", "country": "RO", "coord": {"lon": 26.46583, "lat": 44.234718}}, {"id": 683455, "name": "Budeasa Mica", "country": "RO", "coord": {"lon": 24.85, "lat": 44.950001}}, {"id": 683469, "name": "Budacu de Jos", "country": "RO", "coord": {"lon": 24.51667, "lat": 47.083328}}, {"id": 683496, "name": "Buda", "country": "RO", "coord": {"lon": 26.9, "lat": 45.5}}, {"id": 683508, "name": "Bucuresci", "country": "RO", "coord": {"lon": 22.9, "lat": 46.133331}}, {"id": 683517, "name": "Bucu", "country": "RO", "coord": {"lon": 27.49337, "lat": 44.60532}}, {"id": 683528, "name": "Bucsani", "country": "RO", "coord": {"lon": 25.65, "lat": 44.866669}}, {"id": 683530, "name": "Bucsani", "country": "RO", "coord": {"lon": 25.655279, "lat": 44.37611}}, {"id": 683535, "name": "Bucovineni", "country": "RO", "coord": {"lon": 26.33333, "lat": 47.849998}}, {"id": 683543, "name": "Bucovat", "country": "RO", "coord": {"lon": 23.75, "lat": 44.299999}}, {"id": 683547, "name": "Bucov", "country": "RO", "coord": {"lon": 26.08333, "lat": 44.966671}}, {"id": 683550, "name": "Bucosnita", "country": "RO", "coord": {"lon": 22.26667, "lat": 45.299999}}, {"id": 683553, "name": "Bucium-Orlea", "country": "RO", "coord": {"lon": 22.966669, "lat": 45.583328}}, {"id": 683559, "name": "Buciumi", "country": "RO", "coord": {"lon": 23.066669, "lat": 47.033329}}, {"id": 683565, "name": "Buciumeni", "country": "RO", "coord": {"lon": 27.299999, "lat": 46}}, {"id": 683566, "name": "Buciumeni", "country": "RO", "coord": {"lon": 25.450001, "lat": 45.150002}}, {"id": 683577, "name": "Bucium", "country": "RO", "coord": {"lon": 23.216669, "lat": 46.23333}}, {"id": 683588, "name": "Buchin", "country": "RO", "coord": {"lon": 22.25, "lat": 45.366669}}, {"id": 683594, "name": "Buces", "country": "RO", "coord": {"lon": 22.933331, "lat": 46.183331}}, {"id": 683602, "name": "Bucecea", "country": "RO", "coord": {"lon": 26.433331, "lat": 47.76667}}, {"id": 683607, "name": "Brusturoasa", "country": "RO", "coord": {"lon": 26.200001, "lat": 46.51667}}, {"id": 683612, "name": "Brusturi", "country": "RO", "coord": {"lon": 26.383329, "lat": 47.283329}}, {"id": 683614, "name": "Brusturi", "country": "RO", "coord": {"lon": 22.25, "lat": 47.150002}}, {"id": 683637, "name": "Brosteni", "country": "RO", "coord": {"lon": 25.700001, "lat": 47.23333}}, {"id": 683641, "name": "Brosteni", "country": "RO", "coord": {"lon": 27.033331, "lat": 45.75}}, {"id": 683646, "name": "Brosteni", "country": "RO", "coord": {"lon": 22.979441, "lat": 44.76083}}, {"id": 683656, "name": "Broscauti", "country": "RO", "coord": {"lon": 26.450001, "lat": 47.950001}}, {"id": 683662, "name": "Brodina", "country": "RO", "coord": {"lon": 25.41667, "lat": 47.883331}}, {"id": 683679, "name": "Brancoveni", "country": "RO", "coord": {"lon": 24.299999, "lat": 44.316669}}, {"id": 683685, "name": "Branceni", "country": "RO", "coord": {"lon": 25.4, "lat": 43.883331}}, {"id": 683695, "name": "Brezoi", "country": "RO", "coord": {"lon": 24.248631, "lat": 45.337971}}, {"id": 683697, "name": "Brezoaiele", "country": "RO", "coord": {"lon": 25.73333, "lat": 44.583328}}, {"id": 683701, "name": "Breznita Ocol", "country": "RO", "coord": {"lon": 22.61833, "lat": 44.666672}}, {"id": 683703, "name": "Breznita-Motru", "country": "RO", "coord": {"lon": 23.216669, "lat": 44.566669}}, {"id": 683716, "name": "Bretcu", "country": "RO", "coord": {"lon": 26.299999, "lat": 46.049999}}, {"id": 683725, "name": "Brebu Manastirei", "country": "RO", "coord": {"lon": 25.76667, "lat": 45.183331}}, {"id": 683731, "name": "Brebu", "country": "RO", "coord": {"lon": 21.9925, "lat": 45.42028}}, {"id": 683739, "name": "Brebeni", "country": "RO", "coord": {"lon": 24.450001, "lat": 44.366669}}, {"id": 683755, "name": "Breaza", "country": "RO", "coord": {"lon": 25.318159, "lat": 47.615021}}, {"id": 683758, "name": "Breaza", "country": "RO", "coord": {"lon": 24.633329, "lat": 46.76667}}, {"id": 683761, "name": "Breaza", "country": "RO", "coord": {"lon": 26.533331, "lat": 45.099998}}, {"id": 683764, "name": "Breasta", "country": "RO", "coord": {"lon": 23.683331, "lat": 44.333328}}, {"id": 683765, "name": "Brazii de Sus", "country": "RO", "coord": {"lon": 26.01667, "lat": 44.866669}}, {"id": 683769, "name": "Brazii", "country": "RO", "coord": {"lon": 22.33333, "lat": 46.23333}}, {"id": 683770, "name": "Brazii", "country": "RO", "coord": {"lon": 26.35, "lat": 44.76667}}, {"id": 683791, "name": "Bratovesti", "country": "RO", "coord": {"lon": 23.9, "lat": 44.133331}}, {"id": 683828, "name": "Brates", "country": "RO", "coord": {"lon": 26.066669, "lat": 45.833328}}, {"id": 683832, "name": "Brateiu", "country": "RO", "coord": {"lon": 24.41667, "lat": 46.166672}}, {"id": 683837, "name": "Bratca", "country": "RO", "coord": {"lon": 22.616671, "lat": 46.933331}}, {"id": 683859, "name": "Branistea", "country": "RO", "coord": {"lon": 24.066669, "lat": 47.166672}}, {"id": 683861, "name": "Branistea", "country": "RO", "coord": {"lon": 27.85, "lat": 45.450001}}, {"id": 683863, "name": "Branistea", "country": "RO", "coord": {"lon": 25.58333, "lat": 44.683331}}, {"id": 683873, "name": "Branisca", "country": "RO", "coord": {"lon": 22.783331, "lat": 45.916672}}, {"id": 683884, "name": "Branesti", "country": "RO", "coord": {"lon": 25.41667, "lat": 45.033329}}, {"id": 683885, "name": "Branesti", "country": "RO", "coord": {"lon": 23.466669, "lat": 44.650002}}, {"id": 683886, "name": "Branesti", "country": "RO", "coord": {"lon": 26.33333, "lat": 44.450001}}, {"id": 683890, "name": "Bran", "country": "RO", "coord": {"lon": 25.35, "lat": 45.51667}}, {"id": 683893, "name": "Bralostita", "country": "RO", "coord": {"lon": 23.51667, "lat": 44.5}}, {"id": 683908, "name": "Brahasestii de Jos", "country": "RO", "coord": {"lon": 27.366671, "lat": 46.033329}}, {"id": 683914, "name": "Bragadiru", "country": "RO", "coord": {"lon": 25.977501, "lat": 44.371109}}, {"id": 683915, "name": "Bragadiru", "country": "RO", "coord": {"lon": 25.51667, "lat": 43.76667}}, {"id": 683919, "name": "Braesti", "country": "RO", "coord": {"lon": 26.450001, "lat": 47.866669}}, {"id": 683921, "name": "Braesti", "country": "RO", "coord": {"lon": 27.1, "lat": 47.150002}}, {"id": 683922, "name": "Braesti", "country": "RO", "coord": {"lon": 26.5, "lat": 45.433331}}, {"id": 683924, "name": "Bradut", "country": "RO", "coord": {"lon": 25.616671, "lat": 46.133331}}, {"id": 683926, "name": "Bradulet", "country": "RO", "coord": {"lon": 24.76667, "lat": 45.283329}}, {"id": 683933, "name": "Bradu", "country": "RO", "coord": {"lon": 24.9, "lat": 44.783329}}, {"id": 683959, "name": "Bradesti", "country": "RO", "coord": {"lon": 25.35, "lat": 46.349998}}, {"id": 683961, "name": "Bradesti", "country": "RO", "coord": {"lon": 23.633329, "lat": 44.48333}}, {"id": 683963, "name": "Bradeni", "country": "RO", "coord": {"lon": 24.83333, "lat": 46.083328}}, {"id": 683965, "name": "Bradeanu", "country": "RO", "coord": {"lon": 26.85, "lat": 44.933331}}, {"id": 683979, "name": "Brabova", "country": "RO", "coord": {"lon": 23.433331, "lat": 44.366669}}, {"id": 683985, "name": "Bozovici", "country": "RO", "coord": {"lon": 22.001671, "lat": 44.938889}}, {"id": 683989, "name": "Bozioru", "country": "RO", "coord": {"lon": 26.48333, "lat": 45.383331}}, {"id": 684000, "name": "Bozieni", "country": "RO", "coord": {"lon": 27.15, "lat": 46.833328}}, {"id": 684041, "name": "Botosana", "country": "RO", "coord": {"lon": 25.950001, "lat": 47.683331}}, {"id": 684045, "name": "Botoroaga", "country": "RO", "coord": {"lon": 25.54472, "lat": 44.148331}}, {"id": 684054, "name": "Botiza", "country": "RO", "coord": {"lon": 24.15, "lat": 47.666672}}, {"id": 684056, "name": "Botiz", "country": "RO", "coord": {"lon": 22.950001, "lat": 47.833328}}, {"id": 684070, "name": "Botesti", "country": "RO", "coord": {"lon": 27.883329, "lat": 46.799999}}, {"id": 684077, "name": "Botesti", "country": "RO", "coord": {"lon": 25.133329, "lat": 45.01667}}, {"id": 684083, "name": "Boteni", "country": "RO", "coord": {"lon": 25.116671, "lat": 45.183331}}, {"id": 684103, "name": "Bosorod", "country": "RO", "coord": {"lon": 23.08333, "lat": 45.683331}}, {"id": 684116, "name": "Bosanci", "country": "RO", "coord": {"lon": 26.316669, "lat": 47.583328}}, {"id": 684159, "name": "Borsa", "country": "RO", "coord": {"lon": 23.66667, "lat": 46.933331}}, {"id": 684161, "name": "Bors", "country": "RO", "coord": {"lon": 21.816669, "lat": 47.116669}}, {"id": 684170, "name": "Borosneu Mare", "country": "RO", "coord": {"lon": 26, "lat": 45.816669}}, {"id": 684179, "name": "Borod", "country": "RO", "coord": {"lon": 22.633329, "lat": 46.98333}}, {"id": 684183, "name": "Boroaia", "country": "RO", "coord": {"lon": 26.33333, "lat": 47.349998}}, {"id": 684190, "name": "Borlesti", "country": "RO", "coord": {"lon": 26.48333, "lat": 46.76667}}, {"id": 684203, "name": "Bordusani", "country": "RO", "coord": {"lon": 27.9, "lat": 44.48333}}, {"id": 684211, "name": "Bordesti", "country": "RO", "coord": {"lon": 27.049999, "lat": 45.549999}}, {"id": 684216, "name": "Bordei Verde", "country": "RO", "coord": {"lon": 27.566669, "lat": 45.083328}}, {"id": 684226, "name": "Borcea", "country": "RO", "coord": {"lon": 27.75, "lat": 44.333328}}, {"id": 684230, "name": "Borca", "country": "RO", "coord": {"lon": 25.76667, "lat": 47.183331}}, {"id": 684232, "name": "Borascu", "country": "RO", "coord": {"lon": 23.283331, "lat": 44.700001}}, {"id": 684262, "name": "Bolotesti", "country": "RO", "coord": {"lon": 27.066669, "lat": 45.833328}}, {"id": 684266, "name": "Bolintin Vale", "country": "RO", "coord": {"lon": 25.75778, "lat": 44.448891}}, {"id": 684269, "name": "Bolintin Deal", "country": "RO", "coord": {"lon": 25.82111, "lat": 44.459171}}, {"id": 684275, "name": "Boldur", "country": "RO", "coord": {"lon": 21.77667, "lat": 45.694172}}, {"id": 684279, "name": "Boldu", "country": "RO", "coord": {"lon": 27.23333, "lat": 45.333328}}, {"id": 684280, "name": "Boldesti-Scaeni", "country": "RO", "coord": {"lon": 26.033331, "lat": 45.033329}}, {"id": 684286, "name": "Boldesti", "country": "RO", "coord": {"lon": 26.533331, "lat": 44.866669}}, {"id": 684291, "name": "Bolbosi", "country": "RO", "coord": {"lon": 23.216669, "lat": 44.75}}, {"id": 684308, "name": "Boiu Mare", "country": "RO", "coord": {"lon": 23.58333, "lat": 47.400002}}]