[{"id": 6357644, "name": "Albu\u00f1ol", "country": "ES", "coord": {"lon": -3.18122, "lat": 36.78249}}, {"id": 6357645, "name": "Albu\u00f1uelas", "country": "ES", "coord": {"lon": -3.68129, "lat": 36.919319}}, {"id": 6357643, "name": "Albu\u00f1\u00e1n", "country": "ES", "coord": {"lon": -3.14104, "lat": 37.23378}}, {"id": 7931985, "name": "Alby", "country": "SE", "coord": {"lon": 17.8538, "lat": 59.233501}}, {"id": 3038236, "name": "Alby-sur-Cheran", "country": "FR", "coord": {"lon": 6.01667, "lat": 45.816669}}, {"id": 6355521, "name": "Alb\u00e1nchez", "country": "ES", "coord": {"lon": -2.15997, "lat": 37.286659}}, {"id": 6421927, "name": "Alb\u00e8cq", "country": "GG", "coord": {"lon": -2.60167, "lat": 49.46944}}, {"id": 3130668, "name": "Alb\u00e9niz", "country": "ES", "coord": {"lon": -2.30764, "lat": 42.874081}}, {"id": 8012455, "name": "Alcabideche", "country": "PT", "coord": {"lon": -9.47522, "lat": 38.75108}}, {"id": 2272215, "name": "Alcabideche", "country": "PT", "coord": {"lon": -9.40928, "lat": 38.733662}}, {"id": 2522180, "name": "Alcabon", "country": "ES", "coord": {"lon": -4.36852, "lat": 40.002239}}, {"id": 3130625, "name": "Alcabre", "country": "ES", "coord": {"lon": -8.76667, "lat": 42.216671}}, {"id": 6361665, "name": "Alcab\u00f3n", "country": "ES", "coord": {"lon": -4.37166, "lat": 40.000069}}, {"id": 2272212, "name": "Alcacer do Sal", "country": "PT", "coord": {"lon": -8.51444, "lat": 38.37326}}, {"id": 6355298, "name": "Alcadozo", "country": "ES", "coord": {"lon": -2.03571, "lat": 38.66798}}, {"id": 2522177, "name": "Alcadozo", "country": "ES", "coord": {"lon": -1.97998, "lat": 38.649158}}, {"id": 8013814, "name": "Alcafache", "country": "PT", "coord": {"lon": -7.86421, "lat": 40.59679}}, {"id": 2743229, "name": "Alcafache", "country": "PT", "coord": {"lon": -7.86387, "lat": 40.59914}}, {"id": 8011704, "name": "Alcafozes", "country": "PT", "coord": {"lon": -7.13296, "lat": 39.941608}}, {"id": 2272208, "name": "Alcafozes", "country": "PT", "coord": {"lon": -7.11928, "lat": 39.949471}}, {"id": 8011683, "name": "Alcaide", "country": "PT", "coord": {"lon": -7.42114, "lat": 40.131149}}, {"id": 2743227, "name": "Alcaide", "country": "PT", "coord": {"lon": -7.43941, "lat": 40.131641}}, {"id": 6361437, "name": "Alcaine", "country": "ES", "coord": {"lon": -0.70665, "lat": 40.951809}}, {"id": 3130623, "name": "Alcaine", "country": "ES", "coord": {"lon": -0.70583, "lat": 40.953419}}, {"id": 2272197, "name": "Alcains", "country": "PT", "coord": {"lon": -7.45655, "lat": 39.91642}}, {"id": 3690237, "name": "Alcala", "country": "CO", "coord": {"lon": -75.782501, "lat": 4.67472}}, {"id": 1731597, "name": "Alcala", "country": "PH", "coord": {"lon": 121.655952, "lat": 17.9021}}, {"id": 1731598, "name": "Alcala", "country": "PH", "coord": {"lon": 120.52417, "lat": 15.84722}}, {"id": 3130618, "name": "Alcala de Ebro", "country": "ES", "coord": {"lon": -1.19429, "lat": 41.814949}}, {"id": 2522165, "name": "Alcala de Guadaira", "country": "ES", "coord": {"lon": -5.83951, "lat": 37.33791}}, {"id": 3130617, "name": "Alcala de Gurrea", "country": "ES", "coord": {"lon": -0.68534, "lat": 42.066528}}, {"id": 3130616, "name": "Alcala de Henares", "country": "ES", "coord": {"lon": -3.35996, "lat": 40.482052}}, {"id": 3130612, "name": "Alcala de Moncayo", "country": "ES", "coord": {"lon": -1.69544, "lat": 41.786098}}, {"id": 3130619, "name": "Alcala de Xivert", "country": "ES", "coord": {"lon": 0.23333, "lat": 40.299999}}, {"id": 3130615, "name": "Alcala de la Selva", "country": "ES", "coord": {"lon": -0.72015, "lat": 40.371841}}, {"id": 3130614, "name": "Alcala de la Vega", "country": "ES", "coord": {"lon": -1.51667, "lat": 40.033329}}, {"id": 2522162, "name": "Alcala de los Gazules", "country": "ES", "coord": {"lon": -5.72382, "lat": 36.46212}}, {"id": 2522163, "name": "Alcala del Jucar", "country": "ES", "coord": {"lon": -1.43333, "lat": 39.200001}}, {"id": 3130613, "name": "Alcala del Obispo", "country": "ES", "coord": {"lon": -0.2912, "lat": 42.077301}}, {"id": 2522161, "name": "Alcala del Valle", "country": "ES", "coord": {"lon": -5.1724, "lat": 36.90448}}, {"id": 2522160, "name": "Alcala la Real", "country": "ES", "coord": {"lon": -3.92301, "lat": 37.461399}}, {"id": 2522159, "name": "Alcalali", "country": "ES", "coord": {"lon": -0.04013, "lat": 38.750381}}, {"id": 6355382, "name": "Alcalal\u00ed", "country": "ES", "coord": {"lon": -0.03312, "lat": 38.748241}}, {"id": 3714932, "name": "Alcaldediaz", "country": "PA", "coord": {"lon": -79.550003, "lat": 9.11667}}, {"id": 6356963, "name": "Alcal\u00e0 de Xivert", "country": "ES", "coord": {"lon": 0.26891, "lat": 40.25798}}, {"id": 6362707, "name": "Alcal\u00e1 de Ebro", "country": "ES", "coord": {"lon": -1.18589, "lat": 41.81572}}, {"id": 6360959, "name": "Alcal\u00e1 de Guada\u00edra", "country": "ES", "coord": {"lon": -5.81642, "lat": 37.274559}}, {"id": 6358267, "name": "Alcal\u00e1 de Gurrea", "country": "ES", "coord": {"lon": -0.68416, "lat": 42.066238}}, {"id": 6359231, "name": "Alcal\u00e1 de Henares", "country": "ES", "coord": {"lon": -3.34017, "lat": 40.499401}}, {"id": 6362708, "name": "Alcal\u00e1 de Moncayo", "country": "ES", "coord": {"lon": -1.6858, "lat": 41.798229}}, {"id": 2522164, "name": "Alcal\u00e1 de la Jovada", "country": "ES", "coord": {"lon": -0.25138, "lat": 38.794769}}, {"id": 6361438, "name": "Alcal\u00e1 de la Selva", "country": "ES", "coord": {"lon": -0.69776, "lat": 40.356892}}, {"id": 6357369, "name": "Alcal\u00e1 de la Vega", "country": "ES", "coord": {"lon": -1.52496, "lat": 40.025341}}, {"id": 6356916, "name": "Alcal\u00e1 de los Gazules", "country": "ES", "coord": {"lon": -5.71226, "lat": 36.427341}}, {"id": 6355299, "name": "Alcal\u00e1 del J\u00facar", "country": "ES", "coord": {"lon": -1.40555, "lat": 39.19894}}, {"id": 6358268, "name": "Alcal\u00e1 del Obispo", "country": "ES", "coord": {"lon": -0.27886, "lat": 42.082729}}, {"id": 6356917, "name": "Alcal\u00e1 del Valle", "country": "ES", "coord": {"lon": -5.14632, "lat": 36.92548}}, {"id": 6358457, "name": "Alcal\u00e1 la Real", "country": "ES", "coord": {"lon": -3.94738, "lat": 37.46587}}, {"id": 2525755, "name": "Alcamo", "country": "IT", "coord": {"lon": 12.95654, "lat": 37.998348}}, {"id": 6541958, "name": "Alcamo", "country": "IT", "coord": {"lon": 12.95654, "lat": 37.998348}}, {"id": 6358997, "name": "Alcanadre", "country": "ES", "coord": {"lon": -2.15174, "lat": 42.404301}}, {"id": 3130610, "name": "Alcanadre", "country": "ES", "coord": {"lon": -2.12073, "lat": 42.404919}}, {"id": 3130608, "name": "Alcanar", "country": "ES", "coord": {"lon": 0.48082, "lat": 40.543159}}, {"id": 8013042, "name": "Alcanede", "country": "PT", "coord": {"lon": -8.82572, "lat": 39.415192}}, {"id": 2272190, "name": "Alcanede", "country": "PT", "coord": {"lon": -8.82189, "lat": 39.415009}}, {"id": 8010595, "name": "Alcanena", "country": "PT", "coord": {"lon": -8.68831, "lat": 39.467461}}, {"id": 8012970, "name": "Alcanena", "country": "PT", "coord": {"lon": -8.66026, "lat": 39.458641}}, {"id": 2272189, "name": "Alcanena", "country": "PT", "coord": {"lon": -8.66892, "lat": 39.459}}, {"id": 8013043, "name": "Alcanh\u00f5es", "country": "PT", "coord": {"lon": -8.66284, "lat": 39.292702}}, {"id": 2272188, "name": "Alcanh\u00f5es", "country": "PT", "coord": {"lon": -8.65847, "lat": 39.296028}}, {"id": 3130607, "name": "Alcanices", "country": "ES", "coord": {"lon": -6.34647, "lat": 41.699402}}, {"id": 3130606, "name": "Alcaniz", "country": "ES", "coord": {"lon": -0.13333, "lat": 41.049999}}, {"id": 2522157, "name": "Alcanizo", "country": "ES", "coord": {"lon": -5.10588, "lat": 39.90316}}, {"id": 3130603, "name": "Alcano", "country": "ES", "coord": {"lon": 0.61659, "lat": 41.48064}}, {"id": 2522155, "name": "Alcantara", "country": "ES", "coord": {"lon": -6.88376, "lat": 39.718948}}, {"id": 3408073, "name": "Alcantara", "country": "BR", "coord": {"lon": -44.414719, "lat": -2.40889}}, {"id": 1731592, "name": "Alcantara", "country": "PH", "coord": {"lon": 122.054398, "lat": 12.2589}}, {"id": 1731594, "name": "Alcantara", "country": "PH", "coord": {"lon": 123.406113, "lat": 9.97556}}, {"id": 8012024, "name": "Alcantarilha", "country": "PT", "coord": {"lon": -8.35514, "lat": 37.160198}}, {"id": 2272185, "name": "Alcantarilha", "country": "PT", "coord": {"lon": -8.34623, "lat": 37.13044}}, {"id": 6359510, "name": "Alcantarilla", "country": "ES", "coord": {"lon": -1.22963, "lat": 37.977268}}, {"id": 2522152, "name": "Alcantarilla", "country": "ES", "coord": {"lon": -1.21714, "lat": 37.969391}}, {"id": 2522153, "name": "Alcantera de Xuquer", "country": "ES", "coord": {"lon": -0.55, "lat": 39.066669}}, {"id": 6357370, "name": "Alcantud", "country": "ES", "coord": {"lon": -2.32762, "lat": 40.535721}}, {"id": 3130601, "name": "Alcantud", "country": "ES", "coord": {"lon": -2.33258, "lat": 40.54818}}, {"id": 6358770, "name": "Alcan\u00f3", "country": "ES", "coord": {"lon": 0.62721, "lat": 41.4753}}, {"id": 2525752, "name": "Alcara li Fusi", "country": "IT", "coord": {"lon": 14.70087, "lat": 38.021961}}, {"id": 6357198, "name": "Alcaracejos", "country": "ES", "coord": {"lon": -4.91086, "lat": 38.283871}}, {"id": 2522146, "name": "Alcaracejos", "country": "ES", "coord": {"lon": -4.96667, "lat": 38.383331}}, {"id": 4018845, "name": "Alcaraces", "country": "MX", "coord": {"lon": -103.583328, "lat": 19.35}}, {"id": 8013057, "name": "Alcaravela", "country": "PT", "coord": {"lon": -8.11549, "lat": 39.575378}}, {"id": 2272183, "name": "Alcaravela", "country": "PT", "coord": {"lon": -8.12598, "lat": 39.563019}}, {"id": 2522143, "name": "Alcaraz", "country": "ES", "coord": {"lon": -2.49106, "lat": 38.666801}}, {"id": 6355300, "name": "Alcaraz", "country": "ES", "coord": {"lon": -2.52205, "lat": 38.685242}}, {"id": 2743224, "name": "Alcaria", "country": "PT", "coord": {"lon": -8.10866, "lat": 40.202911}}, {"id": 3130598, "name": "Alcarras", "country": "ES", "coord": {"lon": 0.51667, "lat": 41.566669}}, {"id": 6358771, "name": "Alcarr\u00e0s", "country": "ES", "coord": {"lon": 0.46822, "lat": 41.60067}}, {"id": 2522179, "name": "Alcasser", "country": "ES", "coord": {"lon": -0.43333, "lat": 39.366669}}, {"id": 2522138, "name": "Alcaucin", "country": "ES", "coord": {"lon": -4.11406, "lat": 36.903011}}, {"id": 6359407, "name": "Alcauc\u00edn", "country": "ES", "coord": {"lon": -4.13017, "lat": 36.904381}}, {"id": 6358458, "name": "Alcaudete", "country": "ES", "coord": {"lon": -4.10775, "lat": 37.59692}}, {"id": 2522137, "name": "Alcaudete", "country": "ES", "coord": {"lon": -4.08237, "lat": 37.590912}}, {"id": 2522131, "name": "Alcazar de San Juan", "country": "ES", "coord": {"lon": -3.20827, "lat": 39.39011}}, {"id": 3130596, "name": "Alcazar del Rey", "country": "ES", "coord": {"lon": -2.80782, "lat": 40.062881}}, {"id": 3130595, "name": "Alcazaren", "country": "ES", "coord": {"lon": -4.67262, "lat": 41.370609}}, {"id": 6362133, "name": "Alcazar\u00e9n", "country": "ES", "coord": {"lon": -4.67381, "lat": 41.38475}}, {"id": 6362450, "name": "Alca\u00f1ices", "country": "ES", "coord": {"lon": -6.3584, "lat": 41.694759}}, {"id": 6361439, "name": "Alca\u00f1iz", "country": "ES", "coord": {"lon": -0.19124, "lat": 41.050171}}, {"id": 6361666, "name": "Alca\u00f1izo", "country": "ES", "coord": {"lon": -5.11449, "lat": 39.90802}}, {"id": 2657566, "name": "Alcester", "country": "GB", "coord": {"lon": -1.86667, "lat": 52.216671}}, {"id": 6607632, "name": "Alchan", "country": "RU", "coord": {"lon": 134.320557, "lat": 46.631111}}, {"id": 7669430, "name": "Alchenfl\u00fch", "country": "CH", "coord": {"lon": 7.58115, "lat": 47.084702}}, {"id": 2661820, "name": "Alchenstorf", "country": "CH", "coord": {"lon": 7.63785, "lat": 47.12537}}, {"id": 713716, "name": "Alchevsk", "country": "UA", "coord": {"lon": 38.816689, "lat": 48.468929}}, {"id": 4602181, "name": "Alcoa", "country": "US", "coord": {"lon": -83.973793, "lat": 35.789532}}, {"id": 6357100, "name": "Alcoba", "country": "ES", "coord": {"lon": -4.40732, "lat": 39.304939}}, {"id": 2522128, "name": "Alcoba", "country": "ES", "coord": {"lon": -4.47715, "lat": 39.25988}}, {"id": 2272147, "name": "Alcobaca", "country": "PT", "coord": {"lon": -8.9775, "lat": 39.552231}}, {"id": 8010541, "name": "Alcoba\u00e7a", "country": "PT", "coord": {"lon": -8.98833, "lat": 39.554409}}, {"id": 8012306, "name": "Alcoba\u00e7a", "country": "PT", "coord": {"lon": -8.97692, "lat": 39.55022}}, {"id": 3472728, "name": "Alcoba\u00e7a", "country": "BR", "coord": {"lon": -39.19556, "lat": -17.51944}}, {"id": 6359232, "name": "Alcobendas", "country": "ES", "coord": {"lon": -3.62913, "lat": 40.536152}}, {"id": 3130583, "name": "Alcobendas", "country": "ES", "coord": {"lon": -3.64197, "lat": 40.547459}}, {"id": 8013023, "name": "Alcobertas", "country": "PT", "coord": {"lon": -8.91082, "lat": 39.419449}}, {"id": 3130582, "name": "Alcoceber", "country": "ES", "coord": {"lon": 0.28433, "lat": 40.251419}}, {"id": 6357814, "name": "Alcocer", "country": "ES", "coord": {"lon": -2.5809, "lat": 40.456589}}, {"id": 3130581, "name": "Alcocer", "country": "ES", "coord": {"lon": -2.6094, "lat": 40.469719}}, {"id": 6355383, "name": "Alcocer de Planes", "country": "ES", "coord": {"lon": -0.40343, "lat": 38.788582}}, {"id": 2522124, "name": "Alcocer de Planes", "country": "ES", "coord": {"lon": -0.40244, "lat": 38.79501}}, {"id": 6356336, "name": "Alcocero de Mola", "country": "ES", "coord": {"lon": -3.35623, "lat": 42.47184}}, {"id": 3130580, "name": "Alcocero de Mola", "country": "ES", "coord": {"lon": -3.3579, "lat": 42.472221}}, {"id": 8010616, "name": "Alcochete", "country": "PT", "coord": {"lon": -8.97936, "lat": 38.73827}}, {"id": 2272144, "name": "Alcochete", "country": "PT", "coord": {"lon": -8.96086, "lat": 38.755341}}, {"id": 8012442, "name": "Alcoentre", "country": "PT", "coord": {"lon": -8.95817, "lat": 39.20879}}, {"id": 2272143, "name": "Alcoentre", "country": "PT", "coord": {"lon": -8.95953, "lat": 39.208569}}, {"id": 8014009, "name": "Alcofra", "country": "PT", "coord": {"lon": -8.17877, "lat": 40.632542}}, {"id": 6357372, "name": "Alcohujate", "country": "ES", "coord": {"lon": -2.58967, "lat": 40.43676}}, {"id": 3130579, "name": "Alcohujate", "country": "ES", "coord": {"lon": -2.6149, "lat": 40.417629}}, {"id": 6355524, "name": "Alcolea", "country": "ES", "coord": {"lon": -3.01237, "lat": 36.931309}}, {"id": 2522121, "name": "Alcolea", "country": "ES", "coord": {"lon": -2.9615, "lat": 36.974579}}, {"id": 6357101, "name": "Alcolea de Calatrava", "country": "ES", "coord": {"lon": -4.10811, "lat": 38.974018}}, {"id": 2522118, "name": "Alcolea de Calatrava", "country": "ES", "coord": {"lon": -4.11597, "lat": 38.986801}}, {"id": 6358270, "name": "Alcolea de Cinca", "country": "ES", "coord": {"lon": 0.06216, "lat": 41.7342}}, {"id": 3130576, "name": "Alcolea de Cinca", "country": "ES", "coord": {"lon": 0.11716, "lat": 41.71944}}, {"id": 6361668, "name": "Alcolea de Tajo", "country": "ES", "coord": {"lon": -5.12725, "lat": 39.81123}}, {"id": 2522116, "name": "Alcolea de Tajo", "country": "ES", "coord": {"lon": -5.14738, "lat": 39.809662}}, {"id": 3130575, "name": "Alcolea de las Penas", "country": "ES", "coord": {"lon": -2.78483, "lat": 41.209599}}, {"id": 6357815, "name": "Alcolea de las Pe\u00f1as", "country": "ES", "coord": {"lon": -2.78069, "lat": 41.214081}}, {"id": 6357816, "name": "Alcolea del Pinar", "country": "ES", "coord": {"lon": -2.48127, "lat": 40.989552}}, {"id": 3130574, "name": "Alcolea del Pinar", "country": "ES", "coord": {"lon": -2.46645, "lat": 41.03569}}, {"id": 2522117, "name": "Alcolea del Rio", "country": "ES", "coord": {"lon": -5.66694, "lat": 37.615059}}, {"id": 6360961, "name": "Alcolea del R\u00edo", "country": "ES", "coord": {"lon": -5.64431, "lat": 37.634029}}, {"id": 3130573, "name": "Alcoletge", "country": "ES", "coord": {"lon": 0.69382, "lat": 41.647621}}, {"id": 2522114, "name": "Alcollarin", "country": "ES", "coord": {"lon": -5.73924, "lat": 39.244701}}, {"id": 6356706, "name": "Alcollar\u00edn", "country": "ES", "coord": {"lon": -5.71462, "lat": 39.207951}}, {"id": 6361064, "name": "Alconaba", "country": "ES", "coord": {"lon": -2.40383, "lat": 41.733921}}, {"id": 3130572, "name": "Alconaba", "country": "ES", "coord": {"lon": -2.38484, "lat": 41.723598}}, {"id": 6360270, "name": "Alconada", "country": "ES", "coord": {"lon": -5.36697, "lat": 40.90733}}, {"id": 3130571, "name": "Alconada", "country": "ES", "coord": {"lon": -5.36305, "lat": 40.910919}}, {"id": 6360751, "name": "Alconada de Maderuelo", "country": "ES", "coord": {"lon": -3.49318, "lat": 41.453579}}, {"id": 3130570, "name": "Alconada de Maderuelo", "country": "ES", "coord": {"lon": -3.48554, "lat": 41.45015}}, {"id": 2657565, "name": "Alconbury", "country": "GB", "coord": {"lon": -0.26009, "lat": 52.368999}}, {"id": 6355872, "name": "Alconchel", "country": "ES", "coord": {"lon": -7.17464, "lat": 38.51405}}, {"id": 2522112, "name": "Alconchel", "country": "ES", "coord": {"lon": -7.07161, "lat": 38.516479}}, {"id": 6362709, "name": "Alconchel de Ariza", "country": "ES", "coord": {"lon": -2.09075, "lat": 41.217602}}, {"id": 3130568, "name": "Alconchel de Ariza", "country": "ES", "coord": {"lon": -2.12191, "lat": 41.204281}}, {"id": 6357373, "name": "Alconchel de la Estrella", "country": "ES", "coord": {"lon": -2.59784, "lat": 39.725552}}, {"id": 2522111, "name": "Alconchel de la Estrella", "country": "ES", "coord": {"lon": -2.57366, "lat": 39.719631}}, {"id": 6355873, "name": "Alconera", "country": "ES", "coord": {"lon": -6.47478, "lat": 38.39846}}, {"id": 2522110, "name": "Alconera", "country": "ES", "coord": {"lon": -6.46667, "lat": 38.400002}}, {"id": 2522108, "name": "Alcontar", "country": "ES", "coord": {"lon": -2.59725, "lat": 37.336472}}, {"id": 6356964, "name": "Alcora (l')", "country": "ES", "coord": {"lon": -0.216, "lat": 40.062019}}, {"id": 3130564, "name": "Alcorcon", "country": "ES", "coord": {"lon": -3.82487, "lat": 40.345821}}, {"id": 6359233, "name": "Alcorc\u00f3n", "country": "ES", "coord": {"lon": -3.82847, "lat": 40.349232}}, {"id": 6361440, "name": "Alcorisa", "country": "ES", "coord": {"lon": -0.35186, "lat": 40.92783}}, {"id": 3130563, "name": "Alcorisa", "country": "ES", "coord": {"lon": -0.38143, "lat": 40.892101}}, {"id": 8013074, "name": "Alcorochel", "country": "PT", "coord": {"lon": -8.58177, "lat": 39.415409}}, {"id": 2272135, "name": "Alcorochel", "country": "PT", "coord": {"lon": -8.58315, "lat": 39.419319}}, {"id": 6357817, "name": "Alcoroches", "country": "ES", "coord": {"lon": -1.75142, "lat": 40.628281}}, {"id": 3130560, "name": "Alcoroches", "country": "ES", "coord": {"lon": -1.74629, "lat": 40.62669}}, {"id": 3866402, "name": "Alcorta", "country": "AR", "coord": {"lon": -61.122608, "lat": -33.54319}}, {"id": 3130559, "name": "Alcotas", "country": "ES", "coord": {"lon": -0.78333, "lat": 40.01667}}, {"id": 8010513, "name": "Alcoutim", "country": "PT", "coord": {"lon": -7.65456, "lat": 37.424}}, {"id": 6361248, "name": "Alcover", "country": "ES", "coord": {"lon": 1.16649, "lat": 41.269249}}, {"id": 3130557, "name": "Alcover", "country": "ES", "coord": {"lon": 1.1701, "lat": 41.262669}}, {"id": 2522098, "name": "Alcoy", "country": "ES", "coord": {"lon": -0.47432, "lat": 38.705448}}, {"id": 6355385, "name": "Alcoy", "country": "ES", "coord": {"lon": -0.51902, "lat": 38.68388}}, {"id": 1731586, "name": "Alcoy", "country": "PH", "coord": {"lon": 123.506699, "lat": 9.7102}}, {"id": 6358271, "name": "Alcubierre", "country": "ES", "coord": {"lon": -0.45238, "lat": 41.788261}}, {"id": 3130554, "name": "Alcubierre", "country": "ES", "coord": {"lon": -0.45291, "lat": 41.807579}}, {"id": 6361065, "name": "Alcubilla de Avellaneda", "country": "ES", "coord": {"lon": -3.29502, "lat": 41.714169}}, {"id": 3130552, "name": "Alcubilla de Avellaneda", "country": "ES", "coord": {"lon": -3.30471, "lat": 41.725929}}, {"id": 6362451, "name": "Alcubilla de Nogales", "country": "ES", "coord": {"lon": -5.91086, "lat": 42.13493}}, {"id": 3130549, "name": "Alcubilla de Nogales", "country": "ES", "coord": {"lon": -5.92184, "lat": 42.127869}}, {"id": 3130551, "name": "Alcubilla de las Penas", "country": "ES", "coord": {"lon": -2.52684, "lat": 41.251282}}, {"id": 6361066, "name": "Alcubilla de las Pe\u00f1as", "country": "ES", "coord": {"lon": -2.51096, "lat": 41.279339}}, {"id": 6357102, "name": "Alcubillas", "country": "ES", "coord": {"lon": -3.14126, "lat": 38.757912}}, {"id": 2522096, "name": "Alcubillas", "country": "ES", "coord": {"lon": -3.13407, "lat": 38.75312}}, {"id": 6361883, "name": "Alcublas", "country": "ES", "coord": {"lon": -0.68912, "lat": 39.80629}}, {"id": 2522094, "name": "Alcublas", "country": "ES", "coord": {"lon": -0.7, "lat": 39.799999}}, {"id": 2522092, "name": "Alcudia", "country": "ES", "coord": {"lon": -0.42943, "lat": 38.759071}}, {"id": 2522091, "name": "Alcudia", "country": "ES", "coord": {"lon": 3.12138, "lat": 39.853161}}, {"id": 6355526, "name": "Alcudia de Monteagud", "country": "ES", "coord": {"lon": -2.25065, "lat": 37.242241}}, {"id": 2522082, "name": "Alcudia de Monteagud", "country": "ES", "coord": {"lon": -2.2665, "lat": 37.235291}}, {"id": 6356965, "name": "Alcudia de Veo", "country": "ES", "coord": {"lon": -0.34817, "lat": 39.923698}}, {"id": 2522081, "name": "Alcudia de Veo", "country": "ES", "coord": {"lon": -0.35, "lat": 39.916672}}, {"id": 2522079, "name": "Alcuescar", "country": "ES", "coord": {"lon": -6.22917, "lat": 39.180908}}, {"id": 3130548, "name": "Alcuetas", "country": "ES", "coord": {"lon": -5.43335, "lat": 42.27058}}, {"id": 6356707, "name": "Alcu\u00e9scar", "country": "ES", "coord": {"lon": -6.22443, "lat": 39.16095}}, {"id": 6361881, "name": "Alc\u00e0ntera de X\u00faquer", "country": "ES", "coord": {"lon": -0.55551, "lat": 39.065941}}, {"id": 6361880, "name": "Alc\u00e0sser", "country": "ES", "coord": {"lon": -0.4471, "lat": 39.377979}}, {"id": 8010615, "name": "Alc\u00e1cer do Sal", "country": "PT", "coord": {"lon": -8.50011, "lat": 38.388199}}, {"id": 8014566, "name": "Alc\u00e1cer do Sal (Santiago)", "country": "PT", "coord": {"lon": -8.40773, "lat": 38.34103}}, {"id": 6356705, "name": "Alc\u00e1ntara", "country": "ES", "coord": {"lon": -6.8622, "lat": 39.72319}}, {"id": 6357099, "name": "Alc\u00e1zar de San Juan", "country": "ES", "coord": {"lon": -3.26386, "lat": 39.27877}}, {"id": 6357371, "name": "Alc\u00e1zar del Rey", "country": "ES", "coord": {"lon": -2.8095, "lat": 40.055431}}, {"id": 6359549, "name": "Alc\u00e1zares (Los)", "country": "ES", "coord": {"lon": -0.85073, "lat": 37.752102}}, {"id": 2272187, "name": "Alc\u00e2ntara", "country": "PT", "coord": {"lon": -9.17145, "lat": 38.701019}}, {"id": 6355525, "name": "Alc\u00f3ntar", "country": "ES", "coord": {"lon": -2.62088, "lat": 37.315159}}, {"id": 6533929, "name": "Alc\u00fadia", "country": "ES", "coord": {"lon": 3.11917, "lat": 39.852631}}, {"id": 6361884, "name": "Alc\u00fadia (l')", "country": "ES", "coord": {"lon": -0.51268, "lat": 39.183861}}, {"id": 6361885, "name": "Alc\u00fadia de Crespins (l')", "country": "ES", "coord": {"lon": -0.60219, "lat": 38.972641}}, {"id": 3130544, "name": "Aldaba", "country": "ES", "coord": {"lon": -1.75301, "lat": 42.854012}}, {"id": 6361886, "name": "Aldaia", "country": "ES", "coord": {"lon": -0.46168, "lat": 39.464691}}, {"id": 2522077, "name": "Aldaia", "country": "ES", "coord": {"lon": -0.46005, "lat": 39.465691}}, {"id": 4018835, "name": "Aldama", "country": "MX", "coord": {"lon": -101.316673, "lat": 20.816669}}, {"id": 3533079, "name": "Aldama", "country": "MX", "coord": {"lon": -98.066673, "lat": 22.91667}}, {"id": 4018833, "name": "Aldama", "country": "MX", "coord": {"lon": -106.566673, "lat": 28.5}}, {"id": 2027968, "name": "Aldan", "country": "RU", "coord": {"lon": 125.389442, "lat": 58.603062}}, {"id": 4556248, "name": "Aldan", "country": "US", "coord": {"lon": -75.287956, "lat": 39.921501}}, {"id": 3690226, "name": "Aldana", "country": "CO", "coord": {"lon": -77.701027, "lat": 0.88283}}, {"id": 1516403, "name": "Aldar", "country": "MN", "coord": {"lon": 96.536873, "lat": 47.642262}}, {"id": 3130534, "name": "Aldatz", "country": "ES", "coord": {"lon": -1.86004, "lat": 43.00935}}, {"id": 2178167, "name": "Aldavilla", "country": "AU", "coord": {"lon": 152.766663, "lat": -31.08333}}, {"id": 7301248, "name": "Aldbourne", "country": "GB", "coord": {"lon": -1.65984, "lat": 51.484348}}, {"id": 2657562, "name": "Aldbourne", "country": "GB", "coord": {"lon": -1.61827, "lat": 51.48098}}, {"id": 2657561, "name": "Aldbrough", "country": "GB", "coord": {"lon": -0.11467, "lat": 53.82893}}, {"id": 3436434, "name": "Aldea Asunci\u00f3n", "country": "AR", "coord": {"lon": -59.239262, "lat": -32.821861}}, {"id": 2522076, "name": "Aldea Blanca", "country": "ES", "coord": {"lon": -15.47338, "lat": 27.84166}}, {"id": 3866396, "name": "Aldea Brasilera", "country": "AR", "coord": {"lon": -60.589981, "lat": -31.8901}}, {"id": 3866395, "name": "Aldea Brava", "country": "AR", "coord": {"lon": -60.581421, "lat": -32.117939}}, {"id": 3866389, "name": "Aldea Jacobi", "country": "AR", "coord": {"lon": -60.294189, "lat": -32.061619}}, {"id": 6360757, "name": "Aldea Real", "country": "ES", "coord": {"lon": -4.17867, "lat": 41.185001}}, {"id": 3130485, "name": "Aldea Real", "country": "ES", "coord": {"lon": -4.16559, "lat": 41.185532}}, {"id": 3436433, "name": "Aldea San Antonio", "country": "AR", "coord": {"lon": -58.703331, "lat": -32.62376}}, {"id": 3866375, "name": "Aldea San Francisco", "country": "AR", "coord": {"lon": -60.63517, "lat": -31.961241}}, {"id": 3436430, "name": "Aldea San Juan", "country": "AR", "coord": {"lon": -58.768822, "lat": -32.69767}}, {"id": 6362134, "name": "Aldea de San Miguel", "country": "ES", "coord": {"lon": -4.61152, "lat": 41.445782}}, {"id": 3130518, "name": "Aldea de San Miguel", "country": "ES", "coord": {"lon": -4.6158, "lat": 41.460979}}, {"id": 6360190, "name": "Aldea de San Nicol\u00e1s (La)", "country": "ES", "coord": {"lon": -15.8006, "lat": 27.967529}}, {"id": 6356709, "name": "Aldea del Cano", "country": "ES", "coord": {"lon": -6.30964, "lat": 39.287071}}, {"id": 2522073, "name": "Aldea del Cano", "country": "ES", "coord": {"lon": -6.31806, "lat": 39.288738}}, {"id": 6359234, "name": "Aldea del Fresno", "country": "ES", "coord": {"lon": -4.21754, "lat": 40.306419}}, {"id": 3130523, "name": "Aldea del Fresno", "country": "ES", "coord": {"lon": -4.20319, "lat": 40.323601}}, {"id": 6360273, "name": "Aldea del Obispo", "country": "ES", "coord": {"lon": -6.79354, "lat": 40.711941}}, {"id": 3130522, "name": "Aldea del Obispo", "country": "ES", "coord": {"lon": -6.79252, "lat": 40.706772}}, {"id": 6357103, "name": "Aldea del Rey", "country": "ES", "coord": {"lon": -3.86676, "lat": 38.719299}}, {"id": 2522072, "name": "Aldea del Rey", "country": "ES", "coord": {"lon": -3.84017, "lat": 38.7383}}, {"id": 6356708, "name": "Aldeacentenera", "country": "ES", "coord": {"lon": -5.62778, "lat": 39.527031}}, {"id": 2522074, "name": "Aldeacentenera", "country": "ES", "coord": {"lon": -5.62936, "lat": 39.527248}}, {"id": 6360271, "name": "Aldeacipreste", "country": "ES", "coord": {"lon": -5.89594, "lat": 40.378159}}, {"id": 3130531, "name": "Aldeacipreste", "country": "ES", "coord": {"lon": -5.89754, "lat": 40.380901}}, {"id": 3130529, "name": "Aldeadavila de la Ribera", "country": "ES", "coord": {"lon": -6.61786, "lat": 41.21769}}, {"id": 6360272, "name": "Aldead\u00e1vila de la Ribera", "country": "ES", "coord": {"lon": -6.6444, "lat": 41.214329}}, {"id": 2522069, "name": "Aldeahermosa", "country": "ES", "coord": {"lon": -3.12694, "lat": 38.32901}}, {"id": 6361067, "name": "Aldealafuente", "country": "ES", "coord": {"lon": -2.33059, "lat": 41.64481}}, {"id": 3130511, "name": "Aldealafuente", "country": "ES", "coord": {"lon": -2.32522, "lat": 41.67194}}, {"id": 6360752, "name": "Aldealcorvo", "country": "ES", "coord": {"lon": -3.78544, "lat": 41.2598}}, {"id": 3130506, "name": "Aldealcorvo", "country": "ES", "coord": {"lon": -3.79136, "lat": 41.244431}}, {"id": 6360274, "name": "Aldealengua", "country": "ES", "coord": {"lon": -5.54467, "lat": 40.986351}}, {"id": 3130505, "name": "Aldealengua", "country": "ES", "coord": {"lon": -5.54922, "lat": 40.9809}}, {"id": 3130504, "name": "Aldealengua de Santa Maria", "country": "ES", "coord": {"lon": -3.46723, "lat": 41.46196}}, {"id": 6360754, "name": "Aldealengua de Santa Mar\u00eda", "country": "ES", "coord": {"lon": -3.46026, "lat": 41.467941}}, {"id": 6361069, "name": "Aldealpozo", "country": "ES", "coord": {"lon": -2.19488, "lat": 41.789841}}, {"id": 3130502, "name": "Aldealpozo", "country": "ES", "coord": {"lon": -2.20416, "lat": 41.782581}}, {"id": 3130501, "name": "Aldealsenor", "country": "ES", "coord": {"lon": -2.31565, "lat": 41.878899}}, {"id": 6361070, "name": "Aldealse\u00f1or", "country": "ES", "coord": {"lon": -2.30846, "lat": 41.885368}}, {"id": 3130500, "name": "Aldeamayor de San Martin", "country": "ES", "coord": {"lon": -4.63955, "lat": 41.512562}}, {"id": 6362135, "name": "Aldeamayor de San Mart\u00edn", "country": "ES", "coord": {"lon": -4.63977, "lat": 41.533279}}, {"id": 3130498, "name": "Aldeanueva de Atienza", "country": "ES", "coord": {"lon": -3.1, "lat": 41.166672}}, {"id": 6361670, "name": "Aldeanueva de Barbarroya", "country": "ES", "coord": {"lon": -5.02074, "lat": 39.738049}}, {"id": 2522067, "name": "Aldeanueva de Barbarroya", "country": "ES", "coord": {"lon": -5.02287, "lat": 39.759338}}, {"id": 6358998, "name": "Aldeanueva de Ebro", "country": "ES", "coord": {"lon": -1.90955, "lat": 42.229141}}, {"id": 3130496, "name": "Aldeanueva de Ebro", "country": "ES", "coord": {"lon": -1.88735, "lat": 42.229111}}, {"id": 6360275, "name": "Aldeanueva de Figueroa", "country": "ES", "coord": {"lon": -5.53479, "lat": 41.16423}}, {"id": 3130495, "name": "Aldeanueva de Figueroa", "country": "ES", "coord": {"lon": -5.52404, "lat": 41.148079}}, {"id": 6357818, "name": "Aldeanueva de Guadalajara", "country": "ES", "coord": {"lon": -3.05283, "lat": 40.690861}}, {"id": 3130494, "name": "Aldeanueva de Guadalajara", "country": "ES", "coord": {"lon": -3.04438, "lat": 40.679878}}, {"id": 2522066, "name": "Aldeanueva de San Bartolome", "country": "ES", "coord": {"lon": -5.11307, "lat": 39.636082}}, {"id": 6361671, "name": "Aldeanueva de San Bartolom\u00e9", "country": "ES", "coord": {"lon": -5.10735, "lat": 39.647228}}, {"id": 6355622, "name": "Aldeanueva de Santa Cruz", "country": "ES", "coord": {"lon": -5.42613, "lat": 40.37587}}, {"id": 3130486, "name": "Aldeanueva de Santa Cruz", "country": "ES", "coord": {"lon": -5.42142, "lat": 40.381889}}, {"id": 6360276, "name": "Aldeanueva de la Sierra", "country": "ES", "coord": {"lon": -6.09585, "lat": 40.614422}}, {"id": 3130493, "name": "Aldeanueva de la Sierra", "country": "ES", "coord": {"lon": -6.10022, "lat": 40.616199}}, {"id": 6356711, "name": "Aldeanueva de la Vera", "country": "ES", "coord": {"lon": -5.70674, "lat": 40.13776}}, {"id": 3130492, "name": "Aldeanueva de la Vera", "country": "ES", "coord": {"lon": -5.7015, "lat": 40.127102}}, {"id": 6356712, "name": "Aldeanueva del Camino", "country": "ES", "coord": {"lon": -5.92739, "lat": 40.254971}}, {"id": 3130491, "name": "Aldeanueva del Camino", "country": "ES", "coord": {"lon": -5.92886, "lat": 40.2598}}, {"id": 6360756, "name": "Aldeanueva del Codonal", "country": "ES", "coord": {"lon": -4.52366, "lat": 41.086948}}, {"id": 3130489, "name": "Aldeanueva del Codonal", "country": "ES", "coord": {"lon": -4.54369, "lat": 41.082359}}, {"id": 6358459, "name": "Aldeaquemada", "country": "ES", "coord": {"lon": -3.3632, "lat": 38.40155}}, {"id": 2522065, "name": "Aldeaquemada", "country": "ES", "coord": {"lon": -3.37137, "lat": 38.412151}}, {"id": 6360277, "name": "Aldearrodrigo", "country": "ES", "coord": {"lon": -5.80524, "lat": 41.11335}}, {"id": 3130483, "name": "Aldearrodrigo", "country": "ES", "coord": {"lon": -5.80726, "lat": 41.109661}}, {"id": 6360278, "name": "Aldearrubia", "country": "ES", "coord": {"lon": -5.50362, "lat": 40.997009}}, {"id": 3130482, "name": "Aldearrubia", "country": "ES", "coord": {"lon": -5.49829, "lat": 41.00808}}, {"id": 3130481, "name": "Aldeasaz", "country": "ES", "coord": {"lon": -3.95664, "lat": 41.07513}}, {"id": 6355623, "name": "Aldeaseca", "country": "ES", "coord": {"lon": -4.80059, "lat": 41.044621}}, {"id": 3130480, "name": "Aldeaseca", "country": "ES", "coord": {"lon": -4.81707, "lat": 41.049122}}, {"id": 6360279, "name": "Aldeaseca de Alba", "country": "ES", "coord": {"lon": -5.44987, "lat": 40.816139}}, {"id": 3130479, "name": "Aldeaseca de Alba", "country": "ES", "coord": {"lon": -5.44699, "lat": 40.819092}}, {"id": 3130478, "name": "Aldeaseca de Armu\u00f1a", "country": "ES", "coord": {"lon": -5.67107, "lat": 41.019279}}, {"id": 6360280, "name": "Aldeaseca de la Frontera", "country": "ES", "coord": {"lon": -5.21455, "lat": 40.942951}}, {"id": 3130477, "name": "Aldeaseca de la Frontera", "country": "ES", "coord": {"lon": -5.20719, "lat": 40.941608}}, {"id": 3130476, "name": "Aldeasona", "country": "ES", "coord": {"lon": -4.05712, "lat": 41.472851}}, {"id": 6360758, "name": "Aldeaso\u00f1a", "country": "ES", "coord": {"lon": -4.0566, "lat": 41.476509}}, {"id": 6360281, "name": "Aldeatejada", "country": "ES", "coord": {"lon": -5.71325, "lat": 40.90918}}, {"id": 3130475, "name": "Aldeatejada", "country": "ES", "coord": {"lon": -5.69273, "lat": 40.92168}}, {"id": 6360282, "name": "Aldeavieja de Tormes", "country": "ES", "coord": {"lon": -5.62569, "lat": 40.575871}}, {"id": 3130471, "name": "Aldeavieja de Tormes", "country": "ES", "coord": {"lon": -5.61705, "lat": 40.583069}}, {"id": 2749669, "name": "Aldeboarn", "country": "NL", "coord": {"lon": 5.9, "lat": 53.049999}}, {"id": 2657557, "name": "Aldeburgh", "country": "GB", "coord": {"lon": 1.60124, "lat": 52.152592}}, {"id": 6362710, "name": "Aldehuela de Liestos", "country": "ES", "coord": {"lon": -1.71732, "lat": 41.057671}}, {"id": 3130455, "name": "Aldehuela de Liestos", "country": "ES", "coord": {"lon": -1.70107, "lat": 41.064098}}, {"id": 6360284, "name": "Aldehuela de Yeltes", "country": "ES", "coord": {"lon": -6.24656, "lat": 40.652882}}, {"id": 3130450, "name": "Aldehuela de Yeltes", "country": "ES", "coord": {"lon": -6.24332, "lat": 40.66254}}, {"id": 3130458, "name": "Aldehuela de la Boveda", "country": "ES", "coord": {"lon": -6.0526, "lat": 40.850761}}, {"id": 6360283, "name": "Aldehuela de la B\u00f3veda", "country": "ES", "coord": {"lon": -6.06536, "lat": 40.846668}}, {"id": 6360760, "name": "Aldehuela del Codonal", "country": "ES", "coord": {"lon": -4.53496, "lat": 41.053089}}, {"id": 3130456, "name": "Aldehuela del Codonal", "country": "ES", "coord": {"lon": -4.53863, "lat": 41.055038}}, {"id": 2743211, "name": "Aldeia", "country": "PT", "coord": {"lon": -7.86932, "lat": 40.343891}}, {"id": 3408064, "name": "Aldeia", "country": "BR", "coord": {"lon": -42.066669, "lat": -9.71667}}, {"id": 7860622, "name": "Aldeia Campo", "country": "AO", "coord": {"lon": 15.11013, "lat": -11.4149}}, {"id": 1085582, "name": "Aldeia Chivungo", "country": "MZ", "coord": {"lon": 32.458061, "lat": -15.28611}}, {"id": 2272113, "name": "Aldeia Cimeira", "country": "PT", "coord": {"lon": -7.80811, "lat": 39.783718}}, {"id": 2743161, "name": "Aldeia Formosa", "country": "PT", "coord": {"lon": -7.85916, "lat": 40.444321}}, {"id": 8014694, "name": "Aldeia Galega da Merceana", "country": "PT", "coord": {"lon": -9.13194, "lat": 39.095428}}, {"id": 2272067, "name": "Aldeia Galega da Merceana", "country": "PT", "coord": {"lon": -9.11254, "lat": 39.082069}}, {"id": 1086131, "name": "Aldeia Nacapa", "country": "MZ", "coord": {"lon": 37.386669, "lat": -13.42833}}, {"id": 3452172, "name": "Aldeia Velha", "country": "BR", "coord": {"lon": -42.30806, "lat": -22.46417}}, {"id": 6930675, "name": "Aldeia da Mata", "country": "PT", "coord": {"lon": -7.74061, "lat": 39.3018}}, {"id": 2272109, "name": "Aldeia da Mata", "country": "PT", "coord": {"lon": -7.72965, "lat": 39.304619}}, {"id": 8014544, "name": "Aldeia da Ponte", "country": "PT", "coord": {"lon": -6.85591, "lat": 40.4123}}, {"id": 2743188, "name": "Aldeia da Ponte", "country": "PT", "coord": {"lon": -6.8691, "lat": 40.413448}}, {"id": 8011835, "name": "Aldeia das Dez", "country": "PT", "coord": {"lon": -7.86449, "lat": 40.296982}}, {"id": 2743186, "name": "Aldeia das Dez", "country": "PT", "coord": {"lon": -7.86364, "lat": 40.295502}}, {"id": 2743177, "name": "Aldeia de Joanes", "country": "PT", "coord": {"lon": -7.51694, "lat": 40.13905}}, {"id": 8014275, "name": "Aldeia de Joanes", "country": "PT", "coord": {"lon": -7.51851, "lat": 40.15287}}, {"id": 8014563, "name": "Aldeia de Paio Pires", "country": "PT", "coord": {"lon": -9.07157, "lat": 38.611881}}, {"id": 2272091, "name": "Aldeia de Paio Pires", "country": "PT", "coord": {"lon": -9.08333, "lat": 38.616669}}, {"id": 8014341, "name": "Aldeia de Santa Margarida", "country": "PT", "coord": {"lon": -7.28781, "lat": 40.061821}}, {"id": 2743174, "name": "Aldeia de Santa Margarida", "country": "PT", "coord": {"lon": -7.27568, "lat": 40.06424}}, {"id": 8014579, "name": "Aldeia de Santo Ant\u00f3nio", "country": "PT", "coord": {"lon": -7.12573, "lat": 40.338322}}, {"id": 2743173, "name": "Aldeia de Santo Ant\u00f3nio", "country": "PT", "coord": {"lon": -7.131, "lat": 40.338348}}, {"id": 8014791, "name": "Aldeia do Bispo", "country": "PT", "coord": {"lon": -7.16393, "lat": 40.11536}}, {"id": 2743168, "name": "Aldeia do Bispo", "country": "PT", "coord": {"lon": -7.16634, "lat": 40.1194}}, {"id": 8014841, "name": "Aldeia do Souto", "country": "PT", "coord": {"lon": -7.39366, "lat": 40.363659}}, {"id": 2743162, "name": "Aldeia do Souto", "country": "PT", "coord": {"lon": -7.39845, "lat": 40.366821}}, {"id": 8012114, "name": "Aldeias", "country": "PT", "coord": {"lon": -7.57681, "lat": 40.448479}}, {"id": 2743139, "name": "Aldeias", "country": "PT", "coord": {"lon": -7.59964, "lat": 40.46714}}, {"id": 6357646, "name": "Aldeire", "country": "ES", "coord": {"lon": -3.07647, "lat": 37.168098}}, {"id": 2522063, "name": "Aldeire", "country": "ES", "coord": {"lon": -3.07204, "lat": 37.160118}}, {"id": 5106877, "name": "Alden", "country": "US", "coord": {"lon": -78.491966, "lat": 42.900059}}, {"id": 6553053, "name": "Aldenhoven", "country": "DE", "coord": {"lon": 6.2746, "lat": 50.892399}}, {"id": 2958580, "name": "Aldenhoven", "country": "DE", "coord": {"lon": 6.28333, "lat": 50.900002}}, {"id": 3183304, "name": "Aldeno", "country": "IT", "coord": {"lon": 11.09338, "lat": 45.9781}}, {"id": 2958578, "name": "Aldenrade", "country": "DE", "coord": {"lon": 6.73333, "lat": 51.51667}}, {"id": 6360761, "name": "Aldeonte", "country": "ES", "coord": {"lon": -3.69064, "lat": 41.338799}}, {"id": 3130447, "name": "Aldeonte", "country": "ES", "coord": {"lon": -3.67846, "lat": 41.350922}}, {"id": 5636763, "name": "Alder", "country": "US", "coord": {"lon": -112.107208, "lat": 45.323811}}, {"id": 2657551, "name": "Alderbury", "country": "GB", "coord": {"lon": -1.73382, "lat": 51.043541}}, {"id": 3866367, "name": "Alderetes", "country": "AR", "coord": {"lon": -65.133331, "lat": -26.816669}}, {"id": 7669018, "name": "Aldergrove", "country": "CA", "coord": {"lon": -122.470871, "lat": 49.05801}}, {"id": 6693623, "name": "Aldergrove", "country": "GB", "coord": {"lon": -6.24247, "lat": 54.645828}}, {"id": 2657548, "name": "Alderholt", "country": "GB", "coord": {"lon": -1.83333, "lat": 50.916672}}, {"id": 7294555, "name": "Alderley Edge", "country": "GB", "coord": {"lon": -2.23336, "lat": 53.304371}}, {"id": 2657546, "name": "Alderley Edge", "country": "GB", "coord": {"lon": -2.23773, "lat": 53.303928}}, {"id": 6947746, "name": "Alderney", "country": "GB", "coord": {"lon": -2.19958, "lat": 49.7136}}, {"id": 6556521, "name": "Aldersbach", "country": "DE", "coord": {"lon": 13.0833, "lat": 48.599998}}, {"id": 2958577, "name": "Aldersbach", "country": "DE", "coord": {"lon": 13.08333, "lat": 48.599998}}, {"id": 2178162, "name": "Aldershot", "country": "AU", "coord": {"lon": 152.666672, "lat": -25.466669}}, {"id": 2657540, "name": "Aldershot", "country": "GB", "coord": {"lon": -0.76389, "lat": 51.248268}}, {"id": 5883335, "name": "Alderson", "country": "CA", "coord": {"lon": -111.335037, "lat": 50.283401}}, {"id": 4797041, "name": "Alderson", "country": "US", "coord": {"lon": -80.642021, "lat": 37.725948}}, {"id": 2077938, "name": "Aldersyde", "country": "AU", "coord": {"lon": 117.26667, "lat": -32.383331}}, {"id": 2657539, "name": "Alderton", "country": "GB", "coord": {"lon": -2, "lat": 51.98333}}, {"id": 5785450, "name": "Alderton", "country": "US", "coord": {"lon": -122.229279, "lat": 47.169552}}, {"id": 5785453, "name": "Alderwood Manor", "country": "US", "coord": {"lon": -122.282066, "lat": 47.822041}}, {"id": 2657536, "name": "Aldford", "country": "GB", "coord": {"lon": -2.86812, "lat": 53.127621}}, {"id": 2077937, "name": "Aldgate", "country": "AU", "coord": {"lon": 138.733337, "lat": -35.01667}}, {"id": 793146, "name": "Aldinac", "country": "RS", "coord": {"lon": 22.44556, "lat": 43.529442}}, {"id": 4670146, "name": "Aldine", "country": "US", "coord": {"lon": -95.380211, "lat": 29.93244}}, {"id": 2077935, "name": "Aldinga", "country": "AU", "coord": {"lon": 138.483337, "lat": -35.283329}}, {"id": 6555829, "name": "Aldingen", "country": "DE", "coord": {"lon": 8.7, "lat": 48.099998}}, {"id": 2958575, "name": "Aldingen", "country": "DE", "coord": {"lon": 8.7, "lat": 48.099998}}, {"id": 6534771, "name": "Aldino - Aldein", "country": "IT", "coord": {"lon": 11.35508, "lat": 46.36581}}, {"id": 3436426, "name": "Aldo Bonzi", "country": "AR", "coord": {"lon": -58.518959, "lat": -34.70657}}, {"id": 8012852, "name": "Aldoar", "country": "PT", "coord": {"lon": -8.66802, "lat": 41.16893}}, {"id": 6461690, "name": "Aldomirovci", "country": "BG", "coord": {"lon": 22.98111, "lat": 42.84972}}, {"id": 733701, "name": "Aldomirovtsi", "country": "BG", "coord": {"lon": 22.98111, "lat": 42.84972}}, {"id": 1279045, "name": "Aldona", "country": "IN", "coord": {"lon": 73.866669, "lat": 15.58333}}, {"id": 7872531, "name": "Aldrans", "country": "AT", "coord": {"lon": 11.47191, "lat": 47.240582}}, {"id": 2782813, "name": "Aldrans", "country": "AT", "coord": {"lon": 11.45, "lat": 47.25}}, {"id": 8010955, "name": "Aldreu", "country": "PT", "coord": {"lon": -8.70364, "lat": 41.599899}}, {"id": 2657528, "name": "Aldridge", "country": "GB", "coord": {"lon": -1.91715, "lat": 52.605492}}, {"id": 2657527, "name": "Aldringham", "country": "GB", "coord": {"lon": 1.57757, "lat": 52.193192}}, {"id": 2743129, "name": "Aldriz", "country": "PT", "coord": {"lon": -8.53652, "lat": 41.014751}}, {"id": 6450359, "name": "Aldudes", "country": "FR", "coord": {"lon": -1.43333, "lat": 43.099998}}, {"id": 3038233, "name": "Aldudes", "country": "FR", "coord": {"lon": -1.4266, "lat": 43.095539}}, {"id": 235293, "name": "Alebtong", "country": "UG", "coord": {"lon": 33.254719, "lat": 2.24472}}, {"id": 2178155, "name": "Alectown", "country": "AU", "coord": {"lon": 148.25, "lat": -32.933331}}, {"id": 2726983, "name": "Aled", "country": "SE", "coord": {"lon": 12.93333, "lat": 56.75}}, {"id": 2522061, "name": "Aledo", "country": "ES", "coord": {"lon": -1.57356, "lat": 37.793411}}, {"id": 4670165, "name": "Aledo", "country": "US", "coord": {"lon": -97.602249, "lat": 32.695961}}, {"id": 4883053, "name": "Aledo", "country": "US", "coord": {"lon": -90.749313, "lat": 41.19976}}, {"id": 2381659, "name": "Aleg", "country": "MR", "coord": {"lon": -13.9209, "lat": 17.0481}}, {"id": 6358097, "name": "Alegia", "country": "ES", "coord": {"lon": -2.09503, "lat": 43.098431}}, {"id": 3472666, "name": "Alegre", "country": "BR", "coord": {"lon": -41.533058, "lat": -20.763611}}, {"id": 3472638, "name": "Alegrete", "country": "BR", "coord": {"lon": -55.791939, "lat": -29.78306}}, {"id": 2272045, "name": "Alegrete", "country": "PT", "coord": {"lon": -7.32342, "lat": 39.23983}}, {"id": 3472627, "name": "Alegria", "country": "BR", "coord": {"lon": -54.06139, "lat": -27.832781}}, {"id": 1731554, "name": "Alegria", "country": "PH", "coord": {"lon": 124.326103, "lat": 12.3984}}, {"id": 1731564, "name": "Alegria", "country": "PH", "coord": {"lon": 123.083603, "lat": 10.64346}}, {"id": 1731571, "name": "Alegria", "country": "PH", "coord": {"lon": 123.339798, "lat": 9.7289}}, {"id": 1731572, "name": "Alegria", "country": "PH", "coord": {"lon": 125.577217, "lat": 9.46694}}, {"id": 1731573, "name": "Alegria", "country": "PH", "coord": {"lon": 126.01194, "lat": 8.50667}}, {"id": 3130427, "name": "Alegria de Oria", "country": "ES", "coord": {"lon": -2.09637, "lat": 43.100971}}, {"id": 6355243, "name": "Alegr\u00eda-Dulantzi", "country": "ES", "coord": {"lon": -2.50897, "lat": 42.825851}}, {"id": 1731547, "name": "Alejal", "country": "PH", "coord": {"lon": 125.660004, "lat": 7.38417}}, {"id": 3436414, "name": "Alejandro Korn", "country": "AR", "coord": {"lon": -58.3825, "lat": -34.98278}}, {"id": 3866356, "name": "Alejandro Roca", "country": "AR", "coord": {"lon": -63.718491, "lat": -33.353691}}, {"id": 3866353, "name": "Alejo Ledesma", "country": "AR", "coord": {"lon": -62.623039, "lat": -33.60643}}, {"id": 583395, "name": "Alekanovo", "country": "RU", "coord": {"lon": 39.959999, "lat": 54.619999}}, {"id": 6461153, "name": "Aleko Konstantinovo", "country": "BG", "coord": {"lon": 24.283331, "lat": 42.150002}}, {"id": 733700, "name": "Aleko-Konstantinovo", "country": "BG", "coord": {"lon": 24.283331, "lat": 42.150002}}, {"id": 713709, "name": "Aleksandrinka", "country": "UA", "coord": {"lon": 37.681931, "lat": 47.77874}}, {"id": 583373, "name": "Aleksandriya", "country": "RU", "coord": {"lon": 43.24556, "lat": 45.094719}}, {"id": 630630, "name": "Aleksandriya", "country": "BY", "coord": {"lon": 30.283333, "lat": 54.333332}}, {"id": 583368, "name": "Aleksandriyskaya", "country": "RU", "coord": {"lon": 43.34528, "lat": 44.227219}}, {"id": 713698, "name": "Aleksandro-Grigor\u2019yevka", "country": "UA", "coord": {"lon": 37.75, "lat": 48.049999}}, {"id": 583358, "name": "Aleksandro-Nevskiy", "country": "RU", "coord": {"lon": 40.209499, "lat": 53.475101}}, {"id": 583350, "name": "Aleksandrov", "country": "RU", "coord": {"lon": 38.709999, "lat": 56.400002}}, {"id": 583345, "name": "Aleksandrov Gay", "country": "RU", "coord": {"lon": 48.57037, "lat": 50.147041}}, {"id": 793141, "name": "Aleksandrovac", "country": "RS", "coord": {"lon": 21.21167, "lat": 44.445}}, {"id": 793142, "name": "Aleksandrovac", "country": "RS", "coord": {"lon": 21.0525, "lat": 43.458611}}, {"id": 583087, "name": "Aleksandrovka", "country": "RU", "coord": {"lon": 37.25, "lat": 56.75}}, {"id": 583119, "name": "Aleksandrovka", "country": "RU", "coord": {"lon": 36.799999, "lat": 55.400002}}, {"id": 583073, "name": "Aleksandrovka", "country": "RU", "coord": {"lon": 44.799999, "lat": 53.150002}}, {"id": 583110, "name": "Aleksandrovka", "country": "RU", "coord": {"lon": 37.209999, "lat": 55.75}}, {"id": 583030, "name": "Aleksandrovka", "country": "RU", "coord": {"lon": 39.82, "lat": 47.220001}}, {"id": 583322, "name": "Aleksandrovka", "country": "RU", "coord": {"lon": 46.854721, "lat": 51.268055}}, {"id": 583135, "name": "Aleksandrovka", "country": "RU", "coord": {"lon": 37.447231, "lat": 54.677551}}, {"id": 583341, "name": "Aleksandrovka", "country": "RU", "coord": {"lon": 38.981258, "lat": 46.788502}}, {"id": 1526460, "name": "Aleksandrovka", "country": "KZ", "coord": {"lon": 69.853333, "lat": 53.103062}}, {"id": 713634, "name": "Aleksandrovka", "country": "UA", "coord": {"lon": 33.301449, "lat": 48.724491}}, {"id": 713676, "name": "Aleksandrovka", "country": "UA", "coord": {"lon": 32.761162, "lat": 46.838261}}, {"id": 784604, "name": "Aleksandrovo", "country": "RS", "coord": {"lon": 20.592779, "lat": 45.63694}}, {"id": 583041, "name": "Aleksandrovsk", "country": "RU", "coord": {"lon": 57.562408, "lat": 59.158039}}, {"id": 2127282, "name": "Aleksandrovsk-Sakhalinskiy", "country": "RU", "coord": {"lon": 142.156113, "lat": 50.897499}}, {"id": 583034, "name": "Aleksandrovskaya", "country": "RU", "coord": {"lon": 29.979349, "lat": 60.051682}}, {"id": 583039, "name": "Aleksandrovskaya", "country": "RU", "coord": {"lon": 43.650002, "lat": 43.48333}}, {"id": 583036, "name": "Aleksandrovskaya", "country": "RU", "coord": {"lon": 30.33222, "lat": 59.730831}}, {"id": 2027933, "name": "Aleksandrovskiy Zavod", "country": "RU", "coord": {"lon": 117.937401, "lat": 50.923698}}, {"id": 1511846, "name": "Aleksandrovskoye", "country": "RU", "coord": {"lon": 85.390556, "lat": 56.740829}}, {"id": 582992, "name": "Aleksandrovskoye", "country": "RU", "coord": {"lon": 45.512501, "lat": 46.424721}}, {"id": 582993, "name": "Aleksandrovskoye", "country": "RU", "coord": {"lon": 43.000832, "lat": 44.714169}}, {"id": 582978, "name": "Aleksandrow", "country": "RU", "coord": {"lon": 38.716671, "lat": 56.400002}}, {"id": 776755, "name": "Aleksandrow", "country": "PL", "coord": {"lon": 22.89225, "lat": 50.466301}}, {"id": 3104146, "name": "Aleksandrow", "country": "PL", "coord": {"lon": 19.990049, "lat": 51.271259}}, {"id": 3104133, "name": "Aleksandrow Kujawski", "country": "PL", "coord": {"lon": 18.693451, "lat": 52.876591}}, {"id": 3104132, "name": "Aleksandrow Lodzki", "country": "PL", "coord": {"lon": 19.303841, "lat": 51.819649}}, {"id": 7532648, "name": "Aleksandr\u00f3w Kujawski", "country": "PL", "coord": {"lon": 18.700399, "lat": 52.876301}}, {"id": 7533560, "name": "Aleksandr\u00f3w \u0141\u00f3dzki", "country": "PL", "coord": {"lon": 19.303801, "lat": 51.816002}}, {"id": 582966, "name": "Alekseyev", "country": "RU", "coord": {"lon": 41.48, "lat": 48.259998}}, {"id": 816847, "name": "Alekseyevka", "country": "RU", "coord": {"lon": 37.213612, "lat": 55.240559}}, {"id": 582854, "name": "Alekseyevka", "country": "RU", "coord": {"lon": 55.23333, "lat": 54.849998}}, {"id": 582846, "name": "Alekseyevka", "country": "RU", "coord": {"lon": 37.799999, "lat": 55.630001}}, {"id": 582885, "name": "Alekseyevka", "country": "RU", "coord": {"lon": 43.279999, "lat": 53.400002}}, {"id": 582926, "name": "Alekseyevka", "country": "RU", "coord": {"lon": 48.02, "lat": 52.299999}}, {"id": 582845, "name": "Alekseyevka", "country": "RU", "coord": {"lon": 38.299999, "lat": 55.779999}}, {"id": 582842, "name": "Alekseyevka", "country": "RU", "coord": {"lon": 38.150002, "lat": 56.049999}}, {"id": 582962, "name": "Alekseyevka", "country": "RU", "coord": {"lon": 39.23, "lat": 44.189999}}, {"id": 804002, "name": "Alekseyevka", "country": "RU", "coord": {"lon": 37.34, "lat": 44.900002}}, {"id": 582836, "name": "Alekseyevka", "country": "RU", "coord": {"lon": 44.330002, "lat": 48.68}}, {"id": 582956, "name": "Alekseyevka", "country": "RU", "coord": {"lon": 38.6903, "lat": 50.630901}}, {"id": 713544, "name": "Alekseyevo-Druzhkovka", "country": "UA", "coord": {"lon": 37.609409, "lat": 48.57909}}, {"id": 2027911, "name": "Alekseyevskaya", "country": "RU", "coord": {"lon": 108.400002, "lat": 57.849998}}, {"id": 582816, "name": "Alekseyevskaya", "country": "RU", "coord": {"lon": 42.184502, "lat": 50.2896}}, {"id": 582817, "name": "Alekseyevskaya", "country": "RU", "coord": {"lon": 40.155281, "lat": 45.771671}}, {"id": 582785, "name": "Alekseyevskiy Rayon", "country": "RU", "coord": {"lon": 50, "lat": 55.166672}}, {"id": 817261, "name": "Alekseyevskiye", "country": "RU", "coord": {"lon": 37.669998, "lat": 55.209999}}, {"id": 582783, "name": "Alekseyevskoye", "country": "RU", "coord": {"lon": 39.380001, "lat": 43.93}}, {"id": 582775, "name": "Alekseyevskoye", "country": "RU", "coord": {"lon": 50.113529, "lat": 55.30706}}, {"id": 582750, "name": "Aleksin", "country": "RU", "coord": {"lon": 37.080002, "lat": 54.509998}}, {"id": 793138, "name": "Aleksinac", "country": "RS", "coord": {"lon": 21.707781, "lat": 43.541672}}, {"id": 823493, "name": "Aleksino", "country": "RU", "coord": {"lon": 37.790001, "lat": 44.669998}}, {"id": 582715, "name": "Aleksino-Shatur", "country": "RU", "coord": {"lon": 39.509998, "lat": 55.459999}}, {"id": 6356041, "name": "Alella", "country": "ES", "coord": {"lon": 2.29322, "lat": 41.494511}}, {"id": 3130422, "name": "Alella", "country": "ES", "coord": {"lon": 2.29451, "lat": 41.49379}}, {"id": 3472609, "name": "Alem Paraiba", "country": "BR", "coord": {"lon": -42.704441, "lat": -21.887779}}, {"id": 1731450, "name": "Alemanguan", "country": "PH", "coord": {"lon": 119.326797, "lat": 10.61177}}, {"id": 3163394, "name": "Alen", "country": "NO", "coord": {"lon": 11.3013, "lat": 62.84185}}, {"id": 3038230, "name": "Alencon", "country": "FR", "coord": {"lon": 0.08333, "lat": 48.433331}}, {"id": 2958561, "name": "Alendorf", "country": "DE", "coord": {"lon": 6.65, "lat": 50.366669}}, {"id": 8010557, "name": "Alenquer", "country": "PT", "coord": {"lon": -9.051, "lat": 39.086739}}, {"id": 3407980, "name": "Alenquer", "country": "BR", "coord": {"lon": -54.738331, "lat": -1.94167}}, {"id": 2272036, "name": "Alenquer", "country": "PT", "coord": {"lon": -9.00928, "lat": 39.05315}}, {"id": 6361073, "name": "Alentisque", "country": "ES", "coord": {"lon": -2.34387, "lat": 41.40123}}, {"id": 3130417, "name": "Alentisque", "country": "ES", "coord": {"lon": -2.33189, "lat": 41.420589}}, {"id": 3038226, "name": "Alenya", "country": "FR", "coord": {"lon": 2.98148, "lat": 42.638741}}, {"id": 6452432, "name": "Alen\u00e7on", "country": "FR", "coord": {"lon": 0.08333, "lat": 48.433331}}, {"id": 2293045, "name": "Alepe", "country": "CI", "coord": {"lon": -3.66308, "lat": 5.5004}}, {"id": 2463800, "name": "Alepou", "country": "GR", "coord": {"lon": 19.888889, "lat": 39.610279}}, {"id": 170063, "name": "Aleppo", "country": "SY", "coord": {"lon": 37.161171, "lat": 36.201241}}, {"id": 3900190, "name": "Alerce", "country": "CL", "coord": {"lon": -72.917397, "lat": -41.397732}}, {"id": 6557269, "name": "Alerheim", "country": "DE", "coord": {"lon": 10.6167, "lat": 48.849998}}, {"id": 2958560, "name": "Alerheim", "country": "DE", "coord": {"lon": 10.61667, "lat": 48.849998}}, {"id": 3038225, "name": "Aleria", "country": "FR", "coord": {"lon": 9.51575, "lat": 42.102402}}, {"id": 6358272, "name": "Alerre", "country": "ES", "coord": {"lon": -0.48035, "lat": 42.164749}}, {"id": 3130415, "name": "Alerre", "country": "ES", "coord": {"lon": -0.46369, "lat": 42.16468}}, {"id": 5883385, "name": "Alert Bay", "country": "CA", "coord": {"lon": -126.919792, "lat": 50.582932}}, {"id": 3038224, "name": "Ales", "country": "FR", "coord": {"lon": 4.08333, "lat": 44.133331}}, {"id": 2525751, "name": "Ales", "country": "IT", "coord": {"lon": 8.815, "lat": 39.770828}}, {"id": 6358999, "name": "Alesanco", "country": "ES", "coord": {"lon": -2.81877, "lat": 42.423931}}, {"id": 3130414, "name": "Alesanco", "country": "ES", "coord": {"lon": -2.81666, "lat": 42.414089}}, {"id": 686507, "name": "Alesd", "country": "RO", "coord": {"lon": 22.41667, "lat": 47.066669}}, {"id": 6556926, "name": "Alesheim", "country": "DE", "coord": {"lon": 10.8667, "lat": 49.049999}}, {"id": 2958557, "name": "Alesheim", "country": "DE", "coord": {"lon": 10.86496, "lat": 49.046478}}, {"id": 144269, "name": "Aleshtar", "country": "IR", "coord": {"lon": 48.261902, "lat": 33.8633}}, {"id": 3130413, "name": "Aleson", "country": "ES", "coord": {"lon": -2.68938, "lat": 42.40554}}, {"id": 6541464, "name": "Alessandria", "country": "IT", "coord": {"lon": 8.61894, "lat": 44.912449}}, {"id": 3183299, "name": "Alessandria", "country": "IT", "coord": {"lon": 8.61894, "lat": 44.912449}}, {"id": 2525750, "name": "Alessandria del Carretto", "country": "IT", "coord": {"lon": 16.37949, "lat": 39.958111}}, {"id": 6537775, "name": "Alessandria della Rocca", "country": "IT", "coord": {"lon": 13.45335, "lat": 37.566441}}, {"id": 2525749, "name": "Alessandria della Rocca", "country": "IT", "coord": {"lon": 13.45335, "lat": 37.566441}}, {"id": 5323012, "name": "Alessandro", "country": "US", "coord": {"lon": -117.270317, "lat": 33.886131}}, {"id": 6538964, "name": "Alessano", "country": "IT", "coord": {"lon": 18.33103, "lat": 39.888618}}, {"id": 2525748, "name": "Alessano", "country": "IT", "coord": {"lon": 18.33103, "lat": 39.888618}}, {"id": 2624864, "name": "Alestrup", "country": "DK", "coord": {"lon": 9.49336, "lat": 56.694698}}, {"id": 3163392, "name": "Alesund", "country": "NO", "coord": {"lon": 6.15492, "lat": 62.472252}}, {"id": 6359000, "name": "Ales\u00f3n", "country": "ES", "coord": {"lon": -2.67069, "lat": 42.407631}}, {"id": 8052068, "name": "Aletengxire", "country": "CN", "coord": {"lon": 109.758209, "lat": 39.579929}}, {"id": 6557170, "name": "Aletshausen", "country": "DE", "coord": {"lon": 10.3833, "lat": 48.200001}}, {"id": 2958555, "name": "Aletshausen", "country": "DE", "coord": {"lon": 10.38877, "lat": 48.198589}}, {"id": 5879166, "name": "Aleutians East Borough", "country": "US", "coord": {"lon": -163.416672, "lat": 54.849998}}, {"id": 5879164, "name": "Aleutians West Census Area", "country": "US", "coord": {"lon": -175.129715, "lat": 52.242779}}, {"id": 804253, "name": "Alevra", "country": "RU", "coord": {"lon": 37.959999, "lat": 44.880001}}, {"id": 5883397, "name": "Alexander", "country": "CA", "coord": {"lon": -100.296188, "lat": 49.830009}}, {"id": 4099194, "name": "Alexander", "country": "US", "coord": {"lon": -92.441269, "lat": 34.629539}}, {"id": 4829843, "name": "Alexander City", "country": "US", "coord": {"lon": -85.95385, "lat": 32.944012}}, {"id": 4232592, "name": "Alexander County", "country": "US", "coord": {"lon": -89.183411, "lat": 37.18338}}, {"id": 3379893, "name": "Alexanderville", "country": "GY", "coord": {"lon": -58.150002, "lat": 6.83333}}, {"id": 2178144, "name": "Alexandra", "country": "AU", "coord": {"lon": 145.699997, "lat": -37.183331}}, {"id": 736929, "name": "Alexandreia", "country": "GR", "coord": {"lon": 22.44417, "lat": 40.626671}}, {"id": 361058, "name": "Alexandria", "country": "EG", "coord": {"lon": 29.955271, "lat": 31.215639}}, {"id": 5883490, "name": "Alexandria", "country": "CA", "coord": {"lon": -74.632568, "lat": 45.316792}}, {"id": 3407977, "name": "Alexandria", "country": "BR", "coord": {"lon": -38.015831, "lat": -6.4125}}, {"id": 1023365, "name": "Alexandria", "country": "ZA", "coord": {"lon": 26.41268, "lat": -33.653461}}, {"id": 686502, "name": "Alexandria", "country": "RO", "coord": {"lon": 25.33333, "lat": 43.98333}}, {"id": 4314550, "name": "Alexandria", "country": "US", "coord": {"lon": -92.445137, "lat": 31.311291}}, {"id": 4744091, "name": "Alexandria", "country": "US", "coord": {"lon": -77.046921, "lat": 38.80484}}, {"id": 2657513, "name": "Alexandria", "country": "GB", "coord": {"lon": -4.5864, "lat": 55.99379}}, {"id": 3491593, "name": "Alexandria", "country": "JM", "coord": {"lon": -77.353348, "lat": 18.30768}}, {"id": 4282342, "name": "Alexandria", "country": "US", "coord": {"lon": -84.387993, "lat": 38.959511}}, {"id": 4829861, "name": "Alexandria", "country": "US", "coord": {"lon": -85.885521, "lat": 33.773991}}, {"id": 4917537, "name": "Alexandria", "country": "US", "coord": {"lon": -85.675812, "lat": 40.262821}}, {"id": 5016108, "name": "Alexandria", "country": "US", "coord": {"lon": -95.377541, "lat": 45.885239}}, {"id": 5082573, "name": "Alexandria", "country": "US", "coord": {"lon": -71.792862, "lat": 43.611462}}, {"id": 5225919, "name": "Alexandria", "country": "US", "coord": {"lon": -97.782852, "lat": 43.653591}}, {"id": 5106950, "name": "Alexandria Bay", "country": "US", "coord": {"lon": -75.917732, "lat": 44.33588}}, {"id": 7839646, "name": "Alexandrina", "country": "AU", "coord": {"lon": 138.837036, "lat": -35.337688}}, {"id": 736928, "name": "Alexandroupoli", "country": "GR", "coord": {"lon": 25.874439, "lat": 40.8475}}, {"id": 686495, "name": "Alexandru Ioan Cuza", "country": "RO", "coord": {"lon": 26.85, "lat": 47.133331}}, {"id": 686493, "name": "Alexandru Odobescu", "country": "RO", "coord": {"lon": 27.08333, "lat": 44.26667}}, {"id": 686489, "name": "Alexandru Vlahuta", "country": "RO", "coord": {"lon": 27.633329, "lat": 46.416672}}, {"id": 686487, "name": "Alexeni", "country": "RO", "coord": {"lon": 26.700001, "lat": 44.683331}}, {"id": 5883519, "name": "Alexis Creek", "country": "CA", "coord": {"lon": -123.286209, "lat": 52.083111}}, {"id": 1511783, "name": "Aleysk", "country": "RU", "coord": {"lon": 82.782204, "lat": 52.492599}}, {"id": 3183295, "name": "Alezio", "country": "IT", "coord": {"lon": 18.05822, "lat": 40.061321}}, {"id": 6553654, "name": "Alf", "country": "DE", "coord": {"lon": 7.11667, "lat": 50.049999}}, {"id": 2958539, "name": "Alf", "country": "DE", "coord": {"lon": 7.11667, "lat": 50.049999}}, {"id": 6357647, "name": "Alfacar", "country": "ES", "coord": {"lon": -3.55432, "lat": 37.248131}}, {"id": 2522058, "name": "Alfacar", "country": "ES", "coord": {"lon": -3.56807, "lat": 37.237438}}, {"id": 6361887, "name": "Alfafar", "country": "ES", "coord": {"lon": -0.36898, "lat": 39.409721}}, {"id": 2522057, "name": "Alfafar", "country": "ES", "coord": {"lon": -0.38333, "lat": 39.416672}}, {"id": 6355386, "name": "Alfafara", "country": "ES", "coord": {"lon": -0.5734, "lat": 38.780628}}, {"id": 2522056, "name": "Alfafara", "country": "ES", "coord": {"lon": -0.55551, "lat": 38.773392}}, {"id": 3130409, "name": "Alfajarin", "country": "ES", "coord": {"lon": -0.7037, "lat": 41.613998}}, {"id": 6362711, "name": "Alfajar\u00edn", "country": "ES", "coord": {"lon": -0.67567, "lat": 41.6231}}, {"id": 4018812, "name": "Alfajayuca", "country": "MX", "coord": {"lon": -100.216667, "lat": 20.75}}, {"id": 6361441, "name": "Alfambra", "country": "ES", "coord": {"lon": -1.03353, "lat": 40.530289}}, {"id": 3130408, "name": "Alfambra", "country": "ES", "coord": {"lon": -1.03314, "lat": 40.546379}}, {"id": 3130406, "name": "Alfamen", "country": "ES", "coord": {"lon": -1.24458, "lat": 41.439201}}, {"id": 6362712, "name": "Alfam\u00e9n", "country": "ES", "coord": {"lon": -1.21364, "lat": 41.461102}}, {"id": 3183294, "name": "Alfano", "country": "IT", "coord": {"lon": 15.42516, "lat": 40.177502}}, {"id": 3130405, "name": "Alfantega", "country": "ES", "coord": {"lon": 0.14823, "lat": 41.82832}}, {"id": 6361889, "name": "Alfara de Algimia", "country": "ES", "coord": {"lon": -0.35224, "lat": 39.77153}}, {"id": 2522053, "name": "Alfara de Algimia", "country": "ES", "coord": {"lon": -0.35, "lat": 39.76667}}, {"id": 6361890, "name": "Alfara del Patriarca", "country": "ES", "coord": {"lon": -0.3799, "lat": 39.53973}}, {"id": 2522052, "name": "Alfara del Patriarca", "country": "ES", "coord": {"lon": -0.38333, "lat": 39.549999}}, {"id": 2743099, "name": "Alfarela", "country": "PT", "coord": {"lon": -8.05307, "lat": 41.41486}}, {"id": 8011888, "name": "Alfarelos", "country": "PT", "coord": {"lon": -8.64736, "lat": 40.150452}}, {"id": 2743097, "name": "Alfarelos", "country": "PT", "coord": {"lon": -8.65326, "lat": 40.15057}}, {"id": 2522051, "name": "Alfarer\u00eda", "country": "ES", "coord": {"lon": -0.01667, "lat": 38.73333}}, {"id": 6359408, "name": "Alfarnate", "country": "ES", "coord": {"lon": -4.25423, "lat": 36.988892}}, {"id": 2522050, "name": "Alfarnate", "country": "ES", "coord": {"lon": -4.25929, "lat": 36.994259}}, {"id": 6359409, "name": "Alfarnatejo", "country": "ES", "coord": {"lon": -4.26353, "lat": 36.966019}}, {"id": 2522049, "name": "Alfarnatejo", "country": "ES", "coord": {"lon": -4.26064, "lat": 36.995701}}, {"id": 6359001, "name": "Alfaro", "country": "ES", "coord": {"lon": -1.82434, "lat": 42.159618}}, {"id": 3130399, "name": "Alfaro", "country": "ES", "coord": {"lon": -1.75016, "lat": 42.180321}}, {"id": 6361891, "name": "Alfarp", "country": "ES", "coord": {"lon": -0.53154, "lat": 39.283539}}, {"id": 2522047, "name": "Alfarp", "country": "ES", "coord": {"lon": -0.55, "lat": 39.283329}}, {"id": 3130398, "name": "Alfarras", "country": "ES", "coord": {"lon": 0.58333, "lat": 41.816669}}, {"id": 2522046, "name": "Alfarrasi", "country": "ES", "coord": {"lon": -0.5, "lat": 38.900002}}, {"id": 6361892, "name": "Alfarras\u00ed", "country": "ES", "coord": {"lon": -0.4999, "lat": 38.908791}}, {"id": 733679, "name": "Alfatar", "country": "BG", "coord": {"lon": 27.283331, "lat": 43.950001}}, {"id": 6361888, "name": "Alfauir", "country": "ES", "coord": {"lon": -0.24384, "lat": 38.933578}}, {"id": 2522055, "name": "Alfauir", "country": "ES", "coord": {"lon": -0.25, "lat": 38.933331}}, {"id": 2522054, "name": "Alfa\u00edx", "country": "ES", "coord": {"lon": -1.9602, "lat": 37.141979}}, {"id": 6555494, "name": "Alfdorf", "country": "DE", "coord": {"lon": 9.71893, "lat": 48.843922}}, {"id": 2958535, "name": "Alfdorf", "country": "DE", "coord": {"lon": 9.71857, "lat": 48.843849}}, {"id": 3183293, "name": "Alfedena", "country": "IT", "coord": {"lon": 14.03851, "lat": 41.736328}}, {"id": 8012307, "name": "Alfeizer\u00e3o", "country": "PT", "coord": {"lon": -9.09913, "lat": 39.488361}}, {"id": 2272013, "name": "Alfeizer\u00e3o", "country": "PT", "coord": {"lon": -9.10341, "lat": 39.49971}}, {"id": 2958533, "name": "Alfeld", "country": "DE", "coord": {"lon": 9.81989, "lat": 51.983822}}, {"id": 6556882, "name": "Alfeld", "country": "DE", "coord": {"lon": 11.54328, "lat": 49.430241}}, {"id": 2958534, "name": "Alfeld", "country": "DE", "coord": {"lon": 11.55, "lat": 49.433331}}, {"id": 2958532, "name": "Alfen", "country": "DE", "coord": {"lon": 8.7, "lat": 51.650002}}, {"id": 2743095, "name": "Alfena", "country": "PT", "coord": {"lon": -8.52454, "lat": 41.23671}}, {"id": 3472603, "name": "Alfenas", "country": "BR", "coord": {"lon": -45.94722, "lat": -21.429171}}, {"id": 582607, "name": "Alferovo", "country": "RU", "coord": {"lon": 38.689999, "lat": 55.669998}}, {"id": 8012956, "name": "Alferrarede", "country": "PT", "coord": {"lon": -8.1638, "lat": 39.49173}}, {"id": 2272010, "name": "Alferrarede", "country": "PT", "coord": {"lon": -8.16667, "lat": 39.48333}}, {"id": 3130397, "name": "Alfes", "country": "ES", "coord": {"lon": 0.6205, "lat": 41.521431}}, {"id": 6552973, "name": "Alfhausen", "country": "DE", "coord": {"lon": 7.95, "lat": 52.5}}, {"id": 2958523, "name": "Alfhausen", "country": "DE", "coord": {"lon": 7.95, "lat": 52.5}}, {"id": 6534530, "name": "Alfianello", "country": "IT", "coord": {"lon": 10.14817, "lat": 45.266979}}, {"id": 3183290, "name": "Alfiano Natta", "country": "IT", "coord": {"lon": 8.20833, "lat": 45.04855}}, {"id": 582570, "name": "Alfimovo", "country": "RU", "coord": {"lon": 38.32, "lat": 55.110001}}, {"id": 265344, "name": "Alfiousa", "country": "GR", "coord": {"lon": 21.533331, "lat": 37.650002}}, {"id": 6553655, "name": "Alflen", "country": "DE", "coord": {"lon": 7.03333, "lat": 50.1833}}, {"id": 2958522, "name": "Alflen", "country": "DE", "coord": {"lon": 7.03333, "lat": 50.183331}}, {"id": 3130396, "name": "Alfocea", "country": "ES", "coord": {"lon": -0.95149, "lat": 41.724682}}, {"id": 6356966, "name": "Alfondeguilla", "country": "ES", "coord": {"lon": -0.27381, "lat": 39.834129}}, {"id": 2522044, "name": "Alfondeguilla", "country": "ES", "coord": {"lon": -0.26667, "lat": 39.833328}}, {"id": 3183287, "name": "Alfonsine", "country": "IT", "coord": {"lon": 12.05639, "lat": 44.506111}}, {"id": 1731537, "name": "Alfonso", "country": "PH", "coord": {"lon": 120.853889, "lat": 14.14083}}, {"id": 2077915, "name": "Alford", "country": "AU", "coord": {"lon": 137.816666, "lat": -33.816669}}, {"id": 2657509, "name": "Alford", "country": "GB", "coord": {"lon": -2.70298, "lat": 57.232571}}, {"id": 6361252, "name": "Alforja", "country": "ES", "coord": {"lon": 0.95248, "lat": 41.205898}}, {"id": 3130395, "name": "Alforja", "country": "ES", "coord": {"lon": 0.97542, "lat": 41.211079}}, {"id": 8012591, "name": "Alfornelos", "country": "PT", "coord": {"lon": -9.20456, "lat": 38.764549}}, {"id": 2272005, "name": "Alfornelos", "country": "PT", "coord": {"lon": -9.20967, "lat": 38.764969}}, {"id": 6362713, "name": "Alforque", "country": "ES", "coord": {"lon": -0.38724, "lat": 41.34856}}, {"id": 3130393, "name": "Alforque", "country": "ES", "coord": {"lon": -0.38525, "lat": 41.329418}}, {"id": 6452610, "name": "Alfortville", "country": "FR", "coord": {"lon": 2.41667, "lat": 48.799999}}, {"id": 3038213, "name": "Alfortville", "country": "FR", "coord": {"lon": 2.4204, "lat": 48.805752}}, {"id": 2272003, "name": "Alfouvez", "country": "PT", "coord": {"lon": -8.81431, "lat": 39.279888}}, {"id": 6356337, "name": "Alfoz de Bricia", "country": "ES", "coord": {"lon": -3.8761, "lat": 42.900509}}, {"id": 6360648, "name": "Alfoz de Lloredo", "country": "ES", "coord": {"lon": -4.17346, "lat": 43.390678}}, {"id": 6356696, "name": "Alfoz de Quintanadue\u00f1as", "country": "ES", "coord": {"lon": -3.74544, "lat": 42.408581}}, {"id": 5883589, "name": "Alfred", "country": "CA", "coord": {"lon": -74.87738, "lat": 45.558998}}, {"id": 4832342, "name": "Alfred", "country": "US", "coord": {"lon": -70.718391, "lat": 43.476471}}, {"id": 5106955, "name": "Alfred", "country": "US", "coord": {"lon": -77.79055, "lat": 42.254238}}, {"id": 3660773, "name": "Alfredo Baquerizo Moreno", "country": "EC", "coord": {"lon": -79.51667, "lat": -1.91667}}, {"id": 3472596, "name": "Alfredo Chaves", "country": "BR", "coord": {"lon": -40.749722, "lat": -20.635}}, {"id": 3533067, "name": "Alfredo M. Terrazas", "country": "MX", "coord": {"lon": -98.849998, "lat": 21.466669}}, {"id": 3472590, "name": "Alfredo Marcondes", "country": "BR", "coord": {"lon": -51.412781, "lat": -21.95528}}, {"id": 3822723, "name": "Alfredo V. Bonfil", "country": "MX", "coord": {"lon": -86.849998, "lat": 21.08333}}, {"id": 3472585, "name": "Alfredo Wagner", "country": "BR", "coord": {"lon": -49.333611, "lat": -27.700279}}, {"id": 2178126, "name": "Alfredton", "country": "AU", "coord": {"lon": 143.816666, "lat": -37.566669}}, {"id": 2657508, "name": "Alfreton", "country": "GB", "coord": {"lon": -1.38832, "lat": 53.0961}}, {"id": 6552713, "name": "Alfstedt", "country": "DE", "coord": {"lon": 9.0657, "lat": 53.5471}}, {"id": 2958518, "name": "Alfstedt", "country": "DE", "coord": {"lon": 9.06667, "lat": 53.549999}}, {"id": 2726939, "name": "Alfta", "country": "SE", "coord": {"lon": 16.074989, "lat": 61.346748}}, {"id": 3417972, "name": "Alftanes", "country": "IS", "coord": {"lon": -22.01667, "lat": 64.099998}}, {"id": 6553079, "name": "Alfter", "country": "DE", "coord": {"lon": 7.01667, "lat": 50.733299}}, {"id": 2958516, "name": "Alfter", "country": "DE", "coord": {"lon": 7.01667, "lat": 50.73333}}, {"id": 8010887, "name": "Alfund\u00e3o", "country": "PT", "coord": {"lon": -8.04025, "lat": 38.137321}}, {"id": 2271999, "name": "Alfund\u00e3o", "country": "PT", "coord": {"lon": -8.06314, "lat": 38.11961}}, {"id": 6358273, "name": "Alf\u00e1ntega", "country": "ES", "coord": {"lon": 0.1497, "lat": 41.83099}}, {"id": 8010460, "name": "Alf\u00e2ndega da F\u00e9", "country": "PT", "coord": {"lon": -6.95063, "lat": 41.349499}}, {"id": 6358774, "name": "Alf\u00e9s", "country": "ES", "coord": {"lon": 0.634, "lat": 41.506512}}, {"id": 582597, "name": "Alf\u00ebrovo", "country": "RU", "coord": {"lon": 37.23, "lat": 55.200001}}, {"id": 1528856, "name": "Alga", "country": "KG", "coord": {"lon": 71.466667, "lat": 40.23333}}, {"id": 6360962, "name": "Algaba (La)", "country": "ES", "coord": {"lon": -6.01916, "lat": 37.476391}}, {"id": 6358553, "name": "Algadefe", "country": "ES", "coord": {"lon": -5.56769, "lat": 42.207329}}, {"id": 3130391, "name": "Algadefe", "country": "ES", "coord": {"lon": -5.58419, "lat": 42.219311}}, {"id": 6533930, "name": "Algaida", "country": "ES", "coord": {"lon": 2.89395, "lat": 39.55822}}, {"id": 2522036, "name": "Algaida", "country": "ES", "coord": {"lon": 2.89541, "lat": 39.55899}}, {"id": 2522032, "name": "Algamitas", "country": "ES", "coord": {"lon": -5.14949, "lat": 37.01516}}, {"id": 6356918, "name": "Algar", "country": "ES", "coord": {"lon": -5.64166, "lat": 36.65818}}, {"id": 2522031, "name": "Algar", "country": "ES", "coord": {"lon": -5.65558, "lat": 36.657478}}, {"id": 6357819, "name": "Algar de Mesa", "country": "ES", "coord": {"lon": -1.9535, "lat": 41.145222}}, {"id": 3130389, "name": "Algar de Mesa", "country": "ES", "coord": {"lon": -1.95964, "lat": 41.134941}}, {"id": 3163379, "name": "Algard", "country": "NO", "coord": {"lon": 5.85253, "lat": 58.764172}}, {"id": 6357648, "name": "Algarinejo", "country": "ES", "coord": {"lon": -4.19156, "lat": 37.27092}}, {"id": 2522023, "name": "Algarinejo", "country": "ES", "coord": {"lon": -4.1585, "lat": 37.32526}}, {"id": 6357374, "name": "Algarra", "country": "ES", "coord": {"lon": -1.44383, "lat": 40.024899}}, {"id": 2522022, "name": "Algarra", "country": "ES", "coord": {"lon": -1.43333, "lat": 40}}, {"id": 3866308, "name": "Algarrobo", "country": "AR", "coord": {"lon": -63.13792, "lat": -38.894459}}, {"id": 3690172, "name": "Algarrobo", "country": "CO", "coord": {"lon": -74.575279, "lat": 10.18694}}, {"id": 6359410, "name": "Algarrobo", "country": "ES", "coord": {"lon": -4.04506, "lat": 36.760731}}, {"id": 2522019, "name": "Algarrobo", "country": "ES", "coord": {"lon": -4.03952, "lat": 36.77388}}, {"id": 582557, "name": "Algasovo", "country": "RU", "coord": {"lon": 41.66, "lat": 53.68}}, {"id": 2522014, "name": "Algatocin", "country": "ES", "coord": {"lon": -5.27554, "lat": 36.573559}}, {"id": 6359411, "name": "Algatoc\u00edn", "country": "ES", "coord": {"lon": -5.28317, "lat": 36.5751}}, {"id": 6356919, "name": "Algeciras", "country": "ES", "coord": {"lon": -5.45284, "lat": 36.105492}}, {"id": 2522013, "name": "Algeciras", "country": "ES", "coord": {"lon": -5.45051, "lat": 36.133259}}, {"id": 3690160, "name": "Algeciras", "country": "CO", "coord": {"lon": -75.314919, "lat": 2.52295}}, {"id": 1731531, "name": "Algeciras", "country": "PH", "coord": {"lon": 120.816803, "lat": 11.4154}}, {"id": 2522012, "name": "Algemesi", "country": "ES", "coord": {"lon": -0.43333, "lat": 39.183331}}, {"id": 6361894, "name": "Algemes\u00ed", "country": "ES", "coord": {"lon": -0.41664, "lat": 39.213459}}, {"id": 2958513, "name": "Algenrodt", "country": "DE", "coord": {"lon": 7.28333, "lat": 49.716671}}, {"id": 2958510, "name": "Algenstedt", "country": "DE", "coord": {"lon": 11.45, "lat": 52.599998}}, {"id": 4983956, "name": "Alger County", "country": "US", "coord": {"lon": -86.700157, "lat": 46.333279}}, {"id": 6552470, "name": "Algermissen", "country": "DE", "coord": {"lon": 9.96667, "lat": 52.25}}, {"id": 2958509, "name": "Algermissen", "country": "DE", "coord": {"lon": 9.96915, "lat": 52.253319}}, {"id": 6358775, "name": "Algerri", "country": "ES", "coord": {"lon": 0.62911, "lat": 41.830959}}, {"id": 3130385, "name": "Algerri", "country": "ES", "coord": {"lon": 0.63633, "lat": 41.814819}}, {"id": 3334971, "name": "Algersdorf", "country": "AT", "coord": {"lon": 15.4, "lat": 47.083328}}, {"id": 2958505, "name": "Algershofen", "country": "DE", "coord": {"lon": 9.62836, "lat": 48.2295}}, {"id": 2958501, "name": "Algertshausen", "country": "DE", "coord": {"lon": 11.11928, "lat": 48.459999}}, {"id": 2271985, "name": "Alges", "country": "PT", "coord": {"lon": -9.22936, "lat": 38.70245}}, {"id": 6359235, "name": "Algete", "country": "ES", "coord": {"lon": -3.53328, "lat": 40.614979}}, {"id": 3130383, "name": "Algete", "country": "ES", "coord": {"lon": -3.49743, "lat": 40.597111}}, {"id": 610658, "name": "Algha", "country": "KZ", "coord": {"lon": 57.334999, "lat": 49.902779}}, {"id": 6537821, "name": "Alghero", "country": "IT", "coord": {"lon": 8.32111, "lat": 40.556862}}, {"id": 3183284, "name": "Alghero", "country": "IT", "coord": {"lon": 8.31806, "lat": 40.558891}}, {"id": 2507480, "name": "Algiers", "country": "DZ", "coord": {"lon": 3.04197, "lat": 36.752499}}, {"id": 6361895, "name": "Algimia de Alfara", "country": "ES", "coord": {"lon": -0.39233, "lat": 39.743961}}, {"id": 2522009, "name": "Algimia de Alfara", "country": "ES", "coord": {"lon": -0.36667, "lat": 39.75}}, {"id": 6356967, "name": "Algimia de Almonacid", "country": "ES", "coord": {"lon": -0.4197, "lat": 39.91573}}, {"id": 2522008, "name": "Algimia de Almonacid", "country": "ES", "coord": {"lon": -0.43333, "lat": 39.916672}}, {"id": 6361896, "name": "Alginet", "country": "ES", "coord": {"lon": -0.46973, "lat": 39.263931}}, {"id": 2522007, "name": "Alginet", "country": "ES", "coord": {"lon": -0.46667, "lat": 39.26667}}, {"id": 2522005, "name": "Algodonales", "country": "ES", "coord": {"lon": -5.40536, "lat": 36.88044}}, {"id": 6356920, "name": "Algodonales", "country": "ES", "coord": {"lon": -5.43102, "lat": 36.879211}}, {"id": 6362453, "name": "Algodre", "country": "ES", "coord": {"lon": -5.59741, "lat": 41.57412}}, {"id": 3130382, "name": "Algodre", "country": "ES", "coord": {"lon": -5.60406, "lat": 41.566311}}, {"id": 3038205, "name": "Algolsheim", "country": "FR", "coord": {"lon": 7.55945, "lat": 48.00629}}, {"id": 5243712, "name": "Algoma", "country": "US", "coord": {"lon": -87.432587, "lat": 44.608891}}, {"id": 4846602, "name": "Algona", "country": "US", "coord": {"lon": -94.233017, "lat": 43.069969}}, {"id": 5785484, "name": "Algona", "country": "US", "coord": {"lon": -122.25206, "lat": 47.278992}}, {"id": 4983970, "name": "Algonac", "country": "US", "coord": {"lon": -82.531021, "lat": 42.61837}}, {"id": 4883078, "name": "Algonquin", "country": "US", "coord": {"lon": -88.29425, "lat": 42.165581}}, {"id": 4347060, "name": "Algonquin", "country": "US", "coord": {"lon": -76.105766, "lat": 38.582901}}, {"id": 5883647, "name": "Algonquin Park", "country": "CA", "coord": {"lon": -78.58287, "lat": 45.55011}}, {"id": 4602283, "name": "Algood", "country": "US", "coord": {"lon": -85.448578, "lat": 36.195889}}, {"id": 6357820, "name": "Algora", "country": "ES", "coord": {"lon": -2.67333, "lat": 40.948311}}, {"id": 3130381, "name": "Algora", "country": "ES", "coord": {"lon": -2.66688, "lat": 40.963242}}, {"id": 6355388, "name": "Algorfa", "country": "ES", "coord": {"lon": -0.77543, "lat": 38.066551}}, {"id": 2522001, "name": "Algorfa", "country": "ES", "coord": {"lon": -0.79646, "lat": 38.086361}}, {"id": 3130380, "name": "Algorta", "country": "ES", "coord": {"lon": -3.0094, "lat": 43.34927}}, {"id": 8012025, "name": "Algoz", "country": "PT", "coord": {"lon": -8.28628, "lat": 37.173351}}, {"id": 2271980, "name": "Algoz", "country": "PT", "coord": {"lon": -8.3036, "lat": 37.16301}}, {"id": 3038204, "name": "Algrange", "country": "FR", "coord": {"lon": 6.04748, "lat": 49.358631}}, {"id": 6534528, "name": "Algua", "country": "IT", "coord": {"lon": 9.72215, "lat": 45.82618}}, {"id": 3130379, "name": "Alguaire", "country": "ES", "coord": {"lon": 0.5845, "lat": 41.73703}}, {"id": 6359512, "name": "Alguazas", "country": "ES", "coord": {"lon": -1.25918, "lat": 38.055012}}, {"id": 2522000, "name": "Alguazas", "country": "ES", "coord": {"lon": -1.25051, "lat": 38.053558}}, {"id": 8012445, "name": "Alguber", "country": "PT", "coord": {"lon": -9.00674, "lat": 39.273788}}, {"id": 2271978, "name": "Alguber", "country": "PT", "coord": {"lon": -9.02186, "lat": 39.277271}}, {"id": 8012546, "name": "Algueir\u00e3o-Mem Martins", "country": "PT", "coord": {"lon": -9.33399, "lat": 38.803249}}, {"id": 2521999, "name": "Alguena", "country": "ES", "coord": {"lon": -1.00433, "lat": 38.33905}}, {"id": 6355389, "name": "Algue\u00f1a", "country": "ES", "coord": {"lon": -0.99899, "lat": 38.35281}}, {"id": 7284899, "name": "Algyo", "country": "HU", "coord": {"lon": 20.20849, "lat": 46.334721}}, {"id": 6360963, "name": "Alg\u00e1mitas", "country": "ES", "coord": {"lon": -5.15144, "lat": 37.025131}}, {"id": 8012540, "name": "Alg\u00e9s", "country": "PT", "coord": {"lon": -9.22951, "lat": 38.705299}}, {"id": 6355527, "name": "Alhabia", "country": "ES", "coord": {"lon": -2.56365, "lat": 36.99123}}, {"id": 2521998, "name": "Alhabia", "country": "ES", "coord": {"lon": -2.58655, "lat": 36.990028}}, {"id": 8011820, "name": "Alhadas", "country": "PT", "coord": {"lon": -8.78217, "lat": 40.192089}}, {"id": 2743076, "name": "Alhadas", "country": "PT", "coord": {"lon": -8.79057, "lat": 40.186069}}, {"id": 2521994, "name": "Alhama de Almeria", "country": "ES", "coord": {"lon": -2.56861, "lat": 36.956921}}, {"id": 6355528, "name": "Alhama de Almer\u00eda", "country": "ES", "coord": {"lon": -2.57386, "lat": 36.956009}}, {"id": 3130376, "name": "Alhama de Aragon", "country": "ES", "coord": {"lon": -1.89358, "lat": 41.29657}}, {"id": 6362714, "name": "Alhama de Arag\u00f3n", "country": "ES", "coord": {"lon": -1.90013, "lat": 41.295101}}, {"id": 6357649, "name": "Alhama de Granada", "country": "ES", "coord": {"lon": -3.96003, "lat": 37.01796}}, {"id": 2521993, "name": "Alhama de Granada", "country": "ES", "coord": {"lon": -3.98963, "lat": 37.006889}}, {"id": 6359513, "name": "Alhama de Murcia", "country": "ES", "coord": {"lon": -1.38508, "lat": 37.857349}}, {"id": 2521992, "name": "Alhama de Murcia", "country": "ES", "coord": {"lon": -1.42507, "lat": 37.851028}}, {"id": 6357104, "name": "Alhambra", "country": "ES", "coord": {"lon": -3.03357, "lat": 38.942429}}, {"id": 5323060, "name": "Alhambra", "country": "US", "coord": {"lon": -118.127007, "lat": 34.095291}}, {"id": 2521991, "name": "Alhambra", "country": "ES", "coord": {"lon": -3.05333, "lat": 38.89925}}, {"id": 8012577, "name": "Alhandra", "country": "PT", "coord": {"lon": -9.00994, "lat": 38.92564}}, {"id": 2271975, "name": "Alhandra", "country": "PT", "coord": {"lon": -9.00864, "lat": 38.927319}}, {"id": 3407940, "name": "Alhandra", "country": "BR", "coord": {"lon": -34.91444, "lat": -7.43861}}, {"id": 2521986, "name": "Alhaurin de la Torre", "country": "ES", "coord": {"lon": -4.56139, "lat": 36.664009}}, {"id": 2521985, "name": "Alhaurin el Grande", "country": "ES", "coord": {"lon": -4.68728, "lat": 36.643002}}, {"id": 6359412, "name": "Alhaur\u00edn de la Torre", "country": "ES", "coord": {"lon": -4.56797, "lat": 36.671879}}, {"id": 6359413, "name": "Alhaur\u00edn el Grande", "country": "ES", "coord": {"lon": -4.69079, "lat": 36.642391}}, {"id": 2958496, "name": "Alhausen", "country": "DE", "coord": {"lon": 7.71667, "lat": 50.716671}}, {"id": 3207166, "name": "Alheim", "country": "DE", "coord": {"lon": 9.68333, "lat": 51.033329}}, {"id": 2958494, "name": "Alheim", "country": "DE", "coord": {"lon": 9.66667, "lat": 51.033329}}, {"id": 2521984, "name": "Alhendin", "country": "ES", "coord": {"lon": -3.64557, "lat": 37.108791}}, {"id": 6357650, "name": "Alhend\u00edn", "country": "ES", "coord": {"lon": -3.7013, "lat": 37.068008}}, {"id": 3130374, "name": "Alhondiga", "country": "ES", "coord": {"lon": -2.82438, "lat": 40.526691}}, {"id": 8013131, "name": "Alhos Vedros", "country": "PT", "coord": {"lon": -9.0138, "lat": 38.64299}}, {"id": 2271970, "name": "Alhos Vedros", "country": "PT", "coord": {"lon": -9.02368, "lat": 38.654861}}, {"id": 4018786, "name": "Alhuey", "country": "MX", "coord": {"lon": -108.116669, "lat": 25.366671}}, {"id": 6357821, "name": "Alh\u00f3ndiga", "country": "ES", "coord": {"lon": -2.83218, "lat": 40.515888}}, {"id": 2525747, "name": "Ali", "country": "IT", "coord": {"lon": 15.41769, "lat": 38.027359}}, {"id": 409417, "name": "Ali Bajramly", "country": "AZ", "coord": {"lon": 48.89938, "lat": 39.950932}}, {"id": 1148939, "name": "Ali Khel", "country": "AF", "coord": {"lon": 69.719078, "lat": 33.942532}}, {"id": 225284, "name": "Ali Sabieh", "country": "DJ", "coord": {"lon": 42.712502, "lat": 11.15583}}, {"id": 1148893, "name": "Ali Sher Alaqahdari", "country": "AF", "coord": {"lon": 70.067108, "lat": 33.436199}}, {"id": 6535664, "name": "Ali Terme", "country": "IT", "coord": {"lon": 15.42269, "lat": 38.005058}}, {"id": 99306, "name": "Ali al Gharbi", "country": "IQ", "coord": {"lon": 46.686371, "lat": 32.463261}}, {"id": 582544, "name": "Ali-Berdukovskiy", "country": "RU", "coord": {"lon": 41.742119, "lat": 43.989521}}, {"id": 582504, "name": "Ali-Yurt", "country": "RU", "coord": {"lon": 44.849998, "lat": 43.139999}}, {"id": 6537733, "name": "Alia", "country": "IT", "coord": {"lon": 13.71386, "lat": 37.779949}}, {"id": 2525746, "name": "Alia", "country": "IT", "coord": {"lon": 13.71386, "lat": 37.779949}}, {"id": 2521981, "name": "Alia", "country": "ES", "coord": {"lon": -5.21754, "lat": 39.448029}}, {"id": 1467976, "name": "Aliabad", "country": "AF", "coord": {"lon": 68.899849, "lat": 36.521149}}, {"id": 587319, "name": "Aliabad", "country": "AZ", "coord": {"lon": 46.635281, "lat": 41.482239}}, {"id": 1184701, "name": "Aliabad", "country": "PK", "coord": {"lon": 74.615448, "lat": 36.30703}}, {"id": 2350436, "name": "Aliade", "country": "NG", "coord": {"lon": 8.487, "lat": 7.2964}}, {"id": 6361442, "name": "Aliaga", "country": "ES", "coord": {"lon": -0.67562, "lat": 40.68462}}, {"id": 3130372, "name": "Aliaga", "country": "ES", "coord": {"lon": -0.70333, "lat": 40.67411}}, {"id": 324106, "name": "Aliaga", "country": "TR", "coord": {"lon": 26.972031, "lat": 38.799751}}, {"id": 1731529, "name": "Aliaga", "country": "PH", "coord": {"lon": 120.866669, "lat": 15.51667}}, {"id": 1731528, "name": "Aliaga", "country": "PH", "coord": {"lon": 120.843002, "lat": 15.5}}, {"id": 6357375, "name": "Aliaguilla", "country": "ES", "coord": {"lon": -1.31913, "lat": 39.752399}}, {"id": 2521980, "name": "Aliaguilla", "country": "ES", "coord": {"lon": -1.31667, "lat": 39.73333}}, {"id": 1731525, "name": "Aliang", "country": "PH", "coord": {"lon": 120.883331, "lat": 14.28333}}, {"id": 3183280, "name": "Aliano", "country": "IT", "coord": {"lon": 16.231079, "lat": 40.31311}}, {"id": 3479327, "name": "Alian\u00e7a do Tocantins", "country": "BR", "coord": {"lon": -48.935829, "lat": -11.30611}}, {"id": 265342, "name": "Aliartos", "country": "GR", "coord": {"lon": 23.1, "lat": 38.366669}}, {"id": 1279027, "name": "Alibag", "country": "IN", "coord": {"lon": 72.879173, "lat": 18.641109}}, {"id": 1731519, "name": "Alibago", "country": "PH", "coord": {"lon": 121.866669, "lat": 17.116671}}, {"id": 1731502, "name": "Alibug", "country": "PH", "coord": {"lon": 121.228111, "lat": 12.22906}}, {"id": 1731498, "name": "Alibunan", "country": "PH", "coord": {"lon": 122.459106, "lat": 11.14652}}, {"id": 793134, "name": "Alibunar", "country": "RS", "coord": {"lon": 20.96583, "lat": 45.08083}}, {"id": 6355390, "name": "Alicante", "country": "ES", "coord": {"lon": -0.48134, "lat": 38.35323}}, {"id": 2521978, "name": "Alicante", "country": "ES", "coord": {"lon": -0.48149, "lat": 38.345169}}, {"id": 1731494, "name": "Alicante", "country": "PH", "coord": {"lon": 123.018501, "lat": 10.89704}}, {"id": 4670234, "name": "Alice", "country": "US", "coord": {"lon": -98.069717, "lat": 27.752251}}, {"id": 2178119, "name": "Alice", "country": "AU", "coord": {"lon": 152.583328, "lat": -29.049999}}, {"id": 1023332, "name": "Alice", "country": "ZA", "coord": {"lon": 26.8344, "lat": -32.787491}}, {"id": 6534864, "name": "Alice Bel Colle", "country": "IT", "coord": {"lon": 8.45074, "lat": 44.726051}}, {"id": 3183278, "name": "Alice Castello", "country": "IT", "coord": {"lon": 8.07292, "lat": 45.365162}}, {"id": 7839681, "name": "Alice Springs", "country": "AU", "coord": {"lon": 133.833206, "lat": -23.731001}}, {"id": 2077895, "name": "Alice Springs", "country": "AU", "coord": {"lon": 133.883331, "lat": -23.700001}}, {"id": 3183277, "name": "Alice Superiore", "country": "IT", "coord": {"lon": 7.77922, "lat": 45.460659}}, {"id": 3572924, "name": "Alice Town", "country": "BS", "coord": {"lon": -79.300003, "lat": 25.716669}}, {"id": 4829885, "name": "Aliceville", "country": "US", "coord": {"lon": -88.151421, "lat": 33.12957}}, {"id": 5323111, "name": "Alicia", "country": "US", "coord": {"lon": -121.581627, "lat": 39.102669}}, {"id": 3866268, "name": "Alicia", "country": "AR", "coord": {"lon": -62.464951, "lat": -31.94006}}, {"id": 1731486, "name": "Alicia", "country": "PH", "coord": {"lon": 121.697342, "lat": 16.77936}}, {"id": 1731487, "name": "Alicia", "country": "PH", "coord": {"lon": 124.4422, "lat": 9.8949}}, {"id": 1731488, "name": "Alicia", "country": "PH", "coord": {"lon": 122.93, "lat": 7.51389}}, {"id": 7091093, "name": "Alicia", "country": "PH", "coord": {"lon": 121.020798, "lat": 14.665}}, {"id": 2521975, "name": "Alicun", "country": "ES", "coord": {"lon": -2.60212, "lat": 36.965801}}, {"id": 2521974, "name": "Alicun de Ortega", "country": "ES", "coord": {"lon": -3.13648, "lat": 37.608978}}, {"id": 6355529, "name": "Alic\u00fan", "country": "ES", "coord": {"lon": -2.60257, "lat": 36.9524}}, {"id": 6357651, "name": "Alic\u00fan de Ortega", "country": "ES", "coord": {"lon": -3.15579, "lat": 37.609261}}, {"id": 4917545, "name": "Alida", "country": "US", "coord": {"lon": -86.903084, "lat": 41.510601}}, {"id": 5883699, "name": "Alida", "country": "CA", "coord": {"lon": -101.867607, "lat": 49.383339}}, {"id": 3183273, "name": "Alife", "country": "IT", "coord": {"lon": 14.33403, "lat": 41.326118}}, {"id": 1279023, "name": "Aliganj", "country": "IN", "coord": {"lon": 79.183327, "lat": 27.5}}, {"id": 1279017, "name": "Aligarh", "country": "IN", "coord": {"lon": 78.083328, "lat": 27.883329}}, {"id": 344211, "name": "Aligider", "country": "ER", "coord": {"lon": 36.48333, "lat": 15.11667}}, {"id": 3038197, "name": "Alignan-du-Vent", "country": "FR", "coord": {"lon": 3.34165, "lat": 43.469452}}, {"id": 6777949, "name": "Aligoundiri", "country": "NE", "coord": {"lon": 12.4577, "lat": 13.262}}, {"id": 2958492, "name": "Aligse", "country": "DE", "coord": {"lon": 9.98333, "lat": 52.400002}}, {"id": 143921, "name": "Aligudarz", "country": "IR", "coord": {"lon": 49.694901, "lat": 33.400631}}, {"id": 2038665, "name": "Alihe", "country": "CN", "coord": {"lon": 123.716667, "lat": 50.566669}}, {"id": 1731472, "name": "Alijis", "country": "PH", "coord": {"lon": 122.834801, "lat": 10.4583}}, {"id": 8010637, "name": "Alij\u00f3", "country": "PT", "coord": {"lon": -7.48545, "lat": 41.28447}}, {"id": 8013539, "name": "Alij\u00f3", "country": "PT", "coord": {"lon": -7.45902, "lat": 41.280628}}, {"id": 1347134, "name": "Alik Ghund", "country": "PK", "coord": {"lon": 67.522614, "lat": 30.48963}}, {"id": 2410708, "name": "Alikalia", "country": "SL", "coord": {"lon": -11.4, "lat": 9.16667}}, {"id": 582533, "name": "Alikovo", "country": "RU", "coord": {"lon": 46.754929, "lat": 55.73827}}, {"id": 1731466, "name": "Alilem", "country": "PH", "coord": {"lon": 120.530403, "lat": 16.886101}}, {"id": 1890524, "name": "Alilit", "country": "ID", "coord": {"lon": 131.329163, "lat": -8}}, {"id": 1731461, "name": "Alim", "country": "PH", "coord": {"lon": 122.487602, "lat": 9.5649}}, {"id": 686477, "name": "Aliman", "country": "RO", "coord": {"lon": 27.85, "lat": 44.183331}}, {"id": 610655, "name": "Alimbek", "country": "KZ", "coord": {"lon": 49.973061, "lat": 49.687778}}, {"id": 2525741, "name": "Alimena", "country": "IT", "coord": {"lon": 14.11367, "lat": 37.693649}}, {"id": 2525740, "name": "Aliminusa", "country": "IT", "coord": {"lon": 13.78126, "lat": 37.863949}}, {"id": 1731441, "name": "Alimodian", "country": "PH", "coord": {"lon": 122.431107, "lat": 10.82139}}, {"id": 1731439, "name": "Alimono", "country": "PH", "coord": {"lon": 122.714722, "lat": 11.18556}}, {"id": 261614, "name": "Alimos", "country": "GR", "coord": {"lon": 23.72361, "lat": 37.910332}}, {"id": 6639653, "name": "Alimos", "country": "GR", "coord": {"lon": 23.716669, "lat": 37.916672}}, {"id": 686473, "name": "Alimpesti", "country": "RO", "coord": {"lon": 23.799999, "lat": 45.083328}}, {"id": 240999, "name": "Alindao", "country": "CF", "coord": {"lon": 21.208759, "lat": 5.02666}}, {"id": 2726756, "name": "Alingsas", "country": "SE", "coord": {"lon": 12.53345, "lat": 57.930328}}, {"id": 2726755, "name": "Alings\u00e5s Kommun", "country": "SE", "coord": {"lon": 12.5, "lat": 58}}, {"id": 3130361, "name": "Alio", "country": "ES", "coord": {"lon": 1.30585, "lat": 41.29422}}, {"id": 3268170, "name": "Alipa\u0161ino Polje", "country": "BA", "coord": {"lon": 18.35556, "lat": 43.840561}}, {"id": 1279008, "name": "Alipur", "country": "IN", "coord": {"lon": 83.300003, "lat": 17.716669}}, {"id": 1184655, "name": "Alipur", "country": "PK", "coord": {"lon": 70.911568, "lat": 29.38464}}, {"id": 1279005, "name": "Alipur", "country": "IN", "coord": {"lon": 77.150002, "lat": 28.799999}}, {"id": 6357822, "name": "Alique", "country": "ES", "coord": {"lon": -2.65019, "lat": 40.590271}}, {"id": 3130360, "name": "Alique", "country": "ES", "coord": {"lon": -2.64442, "lat": 40.586712}}, {"id": 5178027, "name": "Aliquippa", "country": "US", "coord": {"lon": -80.240059, "lat": 40.63673}}, {"id": 5323121, "name": "Alisal", "country": "US", "coord": {"lon": -121.617722, "lat": 36.679131}}, {"id": 6356715, "name": "Aliseda", "country": "ES", "coord": {"lon": -6.69086, "lat": 39.409969}}, {"id": 2521972, "name": "Aliseda", "country": "ES", "coord": {"lon": -6.69228, "lat": 39.42329}}, {"id": 5323163, "name": "Aliso Viejo", "country": "US", "coord": {"lon": -117.727119, "lat": 33.565041}}, {"id": 3038190, "name": "Alissas", "country": "FR", "coord": {"lon": 4.62936, "lat": 44.712528}}, {"id": 736921, "name": "Alistrati", "country": "GR", "coord": {"lon": 23.950001, "lat": 41.066669}}, {"id": 1731382, "name": "Alitagtag", "country": "PH", "coord": {"lon": 121.004097, "lat": 13.8645}}, {"id": 2958489, "name": "Alitzheim", "country": "DE", "coord": {"lon": 10.33333, "lat": 49.933331}}, {"id": 6361074, "name": "Aliud", "country": "ES", "coord": {"lon": -2.24576, "lat": 41.655621}}, {"id": 3130357, "name": "Aliud", "country": "ES", "coord": {"lon": -2.25314, "lat": 41.654121}}, {"id": 265309, "name": "Aliveri", "country": "GR", "coord": {"lon": 24.033331, "lat": 38.416672}}, {"id": 1023309, "name": "Aliwal North", "country": "ZA", "coord": {"lon": 26.711411, "lat": -30.693661}}, {"id": 5883712, "name": "Alix", "country": "CA", "coord": {"lon": -113.185249, "lat": 52.40012}}, {"id": 3038186, "name": "Alixan", "country": "FR", "coord": {"lon": 5.02641, "lat": 44.974758}}, {"id": 1184626, "name": "Alizai", "country": "PK", "coord": {"lon": 70.346161, "lat": 33.53833}}, {"id": 3038185, "name": "Alizay", "country": "FR", "coord": {"lon": 1.17854, "lat": 49.321579}}, {"id": 6361253, "name": "Ali\u00f3", "country": "ES", "coord": {"lon": 1.3115, "lat": 41.298199}}, {"id": 6358178, "name": "Aljaraque", "country": "ES", "coord": {"lon": -7.01918, "lat": 37.279839}}, {"id": 2521964, "name": "Aljaraque", "country": "ES", "coord": {"lon": -7.02312, "lat": 37.269901}}, {"id": 2521962, "name": "Aljariz", "country": "ES", "coord": {"lon": -1.93535, "lat": 37.2509}}, {"id": 2958487, "name": "Aljarn", "country": "DE", "coord": {"lon": 10.61614, "lat": 53.169571}}, {"id": 2521961, "name": "Aljau", "country": "ES", "coord": {"lon": -0.76667, "lat": 38.349998}}, {"id": 2271968, "name": "Aljezur", "country": "PT", "coord": {"lon": -8.8033, "lat": 37.319149}}, {"id": 3533058, "name": "Aljojuca", "country": "MX", "coord": {"lon": -97.51667, "lat": 19.1}}, {"id": 2271966, "name": "Aljubarrota", "country": "PT", "coord": {"lon": -8.92925, "lat": 39.567162}}, {"id": 2521950, "name": "Aljucen", "country": "ES", "coord": {"lon": -6.33109, "lat": 39.044258}}, {"id": 2521948, "name": "Aljucer", "country": "ES", "coord": {"lon": -1.15299, "lat": 37.955769}}, {"id": 6355874, "name": "Aljuc\u00e9n", "country": "ES", "coord": {"lon": -6.33256, "lat": 39.05756}}, {"id": 8010432, "name": "Aljustrel", "country": "PT", "coord": {"lon": -8.19304, "lat": 37.90559}}, {"id": 2271965, "name": "Aljustrel", "country": "PT", "coord": {"lon": -8.16516, "lat": 37.87759}}, {"id": 2803286, "name": "Alken", "country": "BE", "coord": {"lon": 5.30708, "lat": 50.875092}}, {"id": 2803285, "name": "Alken", "country": "BE", "coord": {"lon": 5.30558, "lat": 50.875519}}, {"id": 6553792, "name": "Alken", "country": "DE", "coord": {"lon": 7.45, "lat": 50.25}}, {"id": 2958486, "name": "Alken", "country": "DE", "coord": {"lon": 7.45, "lat": 50.25}}, {"id": 2624850, "name": "Alken", "country": "DK", "coord": {"lon": 9.84693, "lat": 56.052589}}, {"id": 6550192, "name": "Alkersleben", "country": "DE", "coord": {"lon": 11.0333, "lat": 50.849998}}, {"id": 2958480, "name": "Alkersleben", "country": "DE", "coord": {"lon": 11.03333, "lat": 50.849998}}, {"id": 6551525, "name": "Alkersum", "country": "DE", "coord": {"lon": 8.51667, "lat": 54.716702}}, {"id": 2958479, "name": "Alkersum", "country": "DE", "coord": {"lon": 8.50925, "lat": 54.707958}}, {"id": 6546831, "name": "Alkhalfia", "country": "MA", "coord": {"lon": -6.52976, "lat": 32.544239}}, {"id": 802799, "name": "Alkhan-Churt", "country": "RU", "coord": {"lon": 44.779999, "lat": 43.349998}}, {"id": 582493, "name": "Alkhan-Kala", "country": "RU", "coord": {"lon": 45.529999, "lat": 43.25}}, {"id": 582491, "name": "Alkhan-Yurt", "country": "RU", "coord": {"lon": 45.572281, "lat": 43.231789}}, {"id": 582490, "name": "Alkhazurovo", "country": "RU", "coord": {"lon": 45.639999, "lat": 43.060001}}, {"id": 6358098, "name": "Alkiza", "country": "ES", "coord": {"lon": -2.1073, "lat": 43.17382}}, {"id": 2759899, "name": "Alkmaar", "country": "NL", "coord": {"lon": 4.74861, "lat": 52.631672}}, {"id": 2958476, "name": "Alkofen", "country": "DE", "coord": {"lon": 13.13333, "lat": 48.633331}}, {"id": 3576397, "name": "All Saints", "country": "AG", "coord": {"lon": -61.79303, "lat": 17.06671}}, {"id": 1731358, "name": "Allacapan", "country": "PH", "coord": {"lon": 121.556152, "lat": 18.225981}}, {"id": 2958474, "name": "Allach", "country": "DE", "coord": {"lon": 11.45, "lat": 48.200001}}, {"id": 2395635, "name": "Allada", "country": "BJ", "coord": {"lon": 2.15138, "lat": 6.66547}}, {"id": 1278994, "name": "Allahabad", "country": "IN", "coord": {"lon": 81.849998, "lat": 25.450001}}, {"id": 1278990, "name": "Allahganj", "country": "IN", "coord": {"lon": 79.683334, "lat": 27.549999}}, {"id": 2525739, "name": "Allai", "country": "IT", "coord": {"lon": 8.86389, "lat": 39.958061}}, {"id": 5095111, "name": "Allaire", "country": "US", "coord": {"lon": -74.12542, "lat": 40.158451}}, {"id": 3038176, "name": "Allaire", "country": "FR", "coord": {"lon": -2.16324, "lat": 47.63752}}, {"id": 7285049, "name": "Allaman", "country": "CH", "coord": {"lon": 6.39393, "lat": 46.470058}}, {"id": 2661815, "name": "Allaman", "country": "CH", "coord": {"lon": 6.3964, "lat": 46.470081}}, {"id": 2178100, "name": "Allambee", "country": "AU", "coord": {"lon": 146.033325, "lat": -38.26667}}, {"id": 2178099, "name": "Allambee South", "country": "AU", "coord": {"lon": 146.100006, "lat": -38.349998}}, {"id": 5883752, "name": "Allan", "country": "CA", "coord": {"lon": -106.067902, "lat": 51.883369}}, {"id": 3038173, "name": "Allan", "country": "FR", "coord": {"lon": 4.78752, "lat": 44.49865}}, {"id": 6452148, "name": "Allanche", "country": "FR", "coord": {"lon": 2.93333, "lat": 45.23333}}, {"id": 3038169, "name": "Allanche", "country": "FR", "coord": {"lon": 2.93456, "lat": 45.227982}}, {"id": 7872833, "name": "Alland", "country": "AT", "coord": {"lon": 16.080851, "lat": 48.039532}}, {"id": 2782802, "name": "Alland", "country": "AT", "coord": {"lon": 16.07901, "lat": 48.058289}}, {"id": 6359909, "name": "Allande", "country": "ES", "coord": {"lon": -6.70435, "lat": 43.239471}}, {"id": 1731349, "name": "Allangigan Primero", "country": "PH", "coord": {"lon": 120.5, "lat": 17.16667}}, {"id": 1023287, "name": "Allanridge", "country": "ZA", "coord": {"lon": 26.64382, "lat": -27.754311}}, {"id": 2178081, "name": "Allansford", "country": "AU", "coord": {"lon": 142.583328, "lat": -38.400002}}, {"id": 2077878, "name": "Allanson", "country": "AU", "coord": {"lon": 116.099998, "lat": -33.333328}}, {"id": 2657494, "name": "Allanton", "country": "GB", "coord": {"lon": -2.21667, "lat": 55.783329}}, {"id": 1278987, "name": "Allapalli", "country": "IN", "coord": {"lon": 80.066673, "lat": 19.41667}}, {"id": 6362998, "name": "Allariz", "country": "ES", "coord": {"lon": -7.81693, "lat": 42.197899}}, {"id": 3130354, "name": "Allariz", "country": "ES", "coord": {"lon": -7.80175, "lat": 42.190441}},