[{"id": 3171295, "name": "Pella", "country": "IT", "coord": {"lon": 8.38492, "lat": 45.79837}}, {"id": 4870915, "name": "Pella", "country": "US", "coord": {"lon": -92.916313, "lat": 41.408051}}, {"id": 2523845, "name": "Pellaro", "country": "IT", "coord": {"lon": 15.65, "lat": 38.01667}}, {"id": 3841614, "name": "Pellegrini", "country": "AR", "coord": {"lon": -63.165501, "lat": -36.265839}}, {"id": 3171289, "name": "Pellegrino Parmense", "country": "IT", "coord": {"lon": 9.93278, "lat": 44.730061}}, {"id": 6432333, "name": "Pellegrue", "country": "FR", "coord": {"lon": 0.08333, "lat": 44.75}}, {"id": 2988174, "name": "Pellegrue", "country": "FR", "coord": {"lon": 0.07595, "lat": 44.743549}}, {"id": 3046499, "name": "Pellerd", "country": "HU", "coord": {"lon": 18.15403, "lat": 46.034382}}, {"id": 3171283, "name": "Pellezzano", "country": "IT", "coord": {"lon": 14.75744, "lat": 40.725208}}, {"id": 2855000, "name": "Pellheim", "country": "DE", "coord": {"lon": 11.41587, "lat": 48.29504}}, {"id": 7602406, "name": "Pellingen", "country": "DE", "coord": {"lon": 6.67085, "lat": 49.675522}}, {"id": 2854999, "name": "Pellingen", "country": "DE", "coord": {"lon": 6.67085, "lat": 49.675522}}, {"id": 6534479, "name": "Pellio Intelvi", "country": "IT", "coord": {"lon": 9.05864, "lat": 45.979881}}, {"id": 3171277, "name": "Pellizzano", "country": "IT", "coord": {"lon": 10.75987, "lat": 46.30991}}, {"id": 642368, "name": "Pello", "country": "FI", "coord": {"lon": 24.41667, "lat": 66.75}}, {"id": 642367, "name": "Pello", "country": "FI", "coord": {"lon": 23.91667, "lat": 66.783333}}, {"id": 843920, "name": "Pellonp\u00e4\u00e4", "country": "FI", "coord": {"lon": 25.39327, "lat": 64.938309}}, {"id": 6435266, "name": "Pellouailles-les-Vignes", "country": "FR", "coord": {"lon": -0.4402, "lat": 47.521801}}, {"id": 2988169, "name": "Pellouailles-les-Vignes", "country": "FR", "coord": {"lon": -0.43954, "lat": 47.521721}}, {"id": 5005247, "name": "Pellston", "country": "US", "coord": {"lon": -84.783943, "lat": 45.552792}}, {"id": 6551592, "name": "Pellworm", "country": "DE", "coord": {"lon": 8.63333, "lat": 54.516701}}, {"id": 2854996, "name": "Pellworm", "country": "DE", "coord": {"lon": 8.64512, "lat": 54.516102}}, {"id": 6100757, "name": "Pelly", "country": "CA", "coord": {"lon": -101.934219, "lat": 51.86668}}, {"id": 6100761, "name": "Pelly Crossing", "country": "CA", "coord": {"lon": -136.581345, "lat": 62.830311}}, {"id": 6554658, "name": "Pelm", "country": "DE", "coord": {"lon": 6.68333, "lat": 50.233299}}, {"id": 2854992, "name": "Pelm", "country": "DE", "coord": {"lon": 6.68333, "lat": 50.23333}}, {"id": 255621, "name": "Pelopion", "country": "GR", "coord": {"lon": 21.58333, "lat": 37.683331}}, {"id": 6697807, "name": "Peloponnese", "country": "GR", "coord": {"lon": 22.439581, "lat": 37.627281}}, {"id": 3454244, "name": "Pelotas", "country": "BR", "coord": {"lon": -52.342499, "lat": -31.77194}}, {"id": 6429935, "name": "Pelousey", "country": "FR", "coord": {"lon": 5.91667, "lat": 47.283329}}, {"id": 2988163, "name": "Pelousey", "country": "FR", "coord": {"lon": 5.92263, "lat": 47.275379}}, {"id": 3089282, "name": "Pelplin", "country": "PL", "coord": {"lon": 18.697701, "lat": 53.928341}}, {"id": 2640512, "name": "Pelsall", "country": "GB", "coord": {"lon": -1.96738, "lat": 52.629101}}, {"id": 2640511, "name": "Pelton", "country": "GB", "coord": {"lon": -1.6095, "lat": 54.873051}}, {"id": 511664, "name": "Peltoni", "country": "RU", "coord": {"lon": 32.733334, "lat": 65.949997}}, {"id": 6437776, "name": "Peltre", "country": "FR", "coord": {"lon": 6.23333, "lat": 49.083328}}, {"id": 2988161, "name": "Peltre", "country": "FR", "coord": {"lon": 6.22692, "lat": 49.074699}}, {"id": 6534634, "name": "Pelugo", "country": "IT", "coord": {"lon": 10.72387, "lat": 46.088501}}, {"id": 2988160, "name": "Pelussin", "country": "FR", "coord": {"lon": 4.68248, "lat": 45.418079}}, {"id": 1495385, "name": "Pelym", "country": "RU", "coord": {"lon": 61.99778, "lat": 61.01083}}, {"id": 7294636, "name": "Pelynt", "country": "GB", "coord": {"lon": -4.52916, "lat": 50.367722}}, {"id": 2640508, "name": "Pelynt", "country": "GB", "coord": {"lon": -4.52274, "lat": 50.365891}}, {"id": 6422768, "name": "Pel\u2019khovo", "country": "RU", "coord": {"lon": 41.486942, "lat": 56.553612}}, {"id": 1337379, "name": "Pemagatshel", "country": "BT", "coord": {"lon": 91.403053, "lat": 27.037951}}, {"id": 1337287, "name": "Pemagatshel Dzongkhag", "country": "BT", "coord": {"lon": 91.366669, "lat": 27}}, {"id": 1631648, "name": "Pemalang", "country": "ID", "coord": {"lon": 109.366669, "lat": -6.9}}, {"id": 1631637, "name": "Pemangkat", "country": "ID", "coord": {"lon": 108.966667, "lat": 1.16667}}, {"id": 7765801, "name": "Pematang", "country": "ID", "coord": {"lon": 105.937302, "lat": -6.508}}, {"id": 7759854, "name": "Pematangluhur", "country": "ID", "coord": {"lon": 105.646103, "lat": -6.7706}}, {"id": 1214204, "name": "Pematangsiantar", "country": "ID", "coord": {"lon": 99.068703, "lat": 2.9595}}, {"id": 1028918, "name": "Pemba", "country": "MZ", "coord": {"lon": 40.51775, "lat": -12.97395}}, {"id": 150733, "name": "Pemba North Region", "country": "TZ", "coord": {"lon": 39.799999, "lat": -5.08333}}, {"id": 150732, "name": "Pemba South Region", "country": "TZ", "coord": {"lon": 39.75, "lat": -5.33333}}, {"id": 2063604, "name": "Pemberton", "country": "AU", "coord": {"lon": 116.01667, "lat": -34.466671}}, {"id": 6100799, "name": "Pemberton", "country": "CA", "coord": {"lon": -122.802727, "lat": 50.31641}}, {"id": 4503532, "name": "Pemberton", "country": "US", "coord": {"lon": -74.682938, "lat": 39.972061}}, {"id": 4503534, "name": "Pemberton Heights", "country": "US", "coord": {"lon": -74.678772, "lat": 39.962608}}, {"id": 5166372, "name": "Pemberville", "country": "US", "coord": {"lon": -83.461037, "lat": 41.410889}}, {"id": 4840504, "name": "Pemberwick", "country": "US", "coord": {"lon": -73.660683, "lat": 41.02565}}, {"id": 5060890, "name": "Pembina County", "country": "US", "coord": {"lon": -97.517029, "lat": 48.766659}}, {"id": 6100832, "name": "Pembroke", "country": "CA", "coord": {"lon": -77.116158, "lat": 45.816811}}, {"id": 2640503, "name": "Pembroke", "country": "GB", "coord": {"lon": -4.91286, "lat": 51.674641}}, {"id": 4215251, "name": "Pembroke", "country": "US", "coord": {"lon": -81.622063, "lat": 32.136028}}, {"id": 4484490, "name": "Pembroke", "country": "US", "coord": {"lon": -79.195038, "lat": 34.680161}}, {"id": 4778381, "name": "Pembroke", "country": "US", "coord": {"lon": -80.638947, "lat": 37.319569}}, {"id": 5090918, "name": "Pembroke", "country": "US", "coord": {"lon": -71.457573, "lat": 43.146751}}, {"id": 2640502, "name": "Pembroke Dock", "country": "GB", "coord": {"lon": -4.94036, "lat": 51.691608}}, {"id": 4168138, "name": "Pembroke Park", "country": "US", "coord": {"lon": -80.174767, "lat": 25.987869}}, {"id": 4168139, "name": "Pembroke Pines", "country": "US", "coord": {"lon": -80.223938, "lat": 26.003151}}, {"id": 2640500, "name": "Pembrokeshire", "country": "GB", "coord": {"lon": -4.91667, "lat": 51.833328}}, {"id": 2153502, "name": "Pembrooke", "country": "AU", "coord": {"lon": 152.75, "lat": -31.383329}}, {"id": 2640498, "name": "Pembury", "country": "GB", "coord": {"lon": 0.32187, "lat": 51.14296}}, {"id": 1631921, "name": "Pemenang", "country": "ID", "coord": {"lon": 116.105598, "lat": -8.4007}}, {"id": 6556634, "name": "Pemfling", "country": "DE", "coord": {"lon": 12.6167, "lat": 49.266701}}, {"id": 2854974, "name": "Pemfling", "country": "DE", "coord": {"lon": 12.61667, "lat": 49.26667}}, {"id": 7038962, "name": "Pemijian", "country": "ID", "coord": {"lon": 115.219299, "lat": -8.4499}}, {"id": 7335443, "name": "Pemongkong", "country": "ID", "coord": {"lon": 116.482002, "lat": -8.8447}}, {"id": 616303, "name": "Pemzashen", "country": "AM", "coord": {"lon": 43.940208, "lat": 40.585098}}, {"id": 1259931, "name": "Pen", "country": "IN", "coord": {"lon": 73.083328, "lat": 18.75}}, {"id": 5205339, "name": "Pen Argyl", "country": "US", "coord": {"lon": -75.254898, "lat": 40.86871}}, {"id": 1694092, "name": "Pena", "country": "PH", "coord": {"lon": 123.9384, "lat": 12.089}}, {"id": 3603856, "name": "Pena Blanca", "country": "HN", "coord": {"lon": -88.050003, "lat": 15.53333}}, {"id": 4566674, "name": "Pena Pobre", "country": "PR", "coord": {"lon": -65.822113, "lat": 18.215509}}, {"id": 1694089, "name": "Penablanca", "country": "PH", "coord": {"lon": 121.786652, "lat": 17.62421}}, {"id": 3113976, "name": "Penacaballera", "country": "ES", "coord": {"lon": -5.86121, "lat": 40.343529}}, {"id": 8010493, "name": "Penacova", "country": "PT", "coord": {"lon": -8.24784, "lat": 40.299992}}, {"id": 8011881, "name": "Penacova", "country": "PT", "coord": {"lon": -8.27219, "lat": 40.282589}}, {"id": 2264956, "name": "Penados", "country": "PT", "coord": {"lon": -9.08153, "lat": 39.135422}}, {"id": 8010587, "name": "Penafiel", "country": "PT", "coord": {"lon": -8.28972, "lat": 41.159599}}, {"id": 3113957, "name": "Penafiel", "country": "ES", "coord": {"lon": -4.11418, "lat": 41.60165}}, {"id": 2736469, "name": "Penafiel", "country": "PT", "coord": {"lon": -8.28285, "lat": 41.208351}}, {"id": 3876685, "name": "Penaflor", "country": "CL", "coord": {"lon": -70.916672, "lat": -33.616669}}, {"id": 2512746, "name": "Penaflor", "country": "ES", "coord": {"lon": -5.34504, "lat": 37.70892}}, {"id": 3113952, "name": "Penaflor de Hornija", "country": "ES", "coord": {"lon": -4.98333, "lat": 41.71159}}, {"id": 6360694, "name": "Penagos", "country": "ES", "coord": {"lon": -3.81486, "lat": 43.34129}}, {"id": 3113944, "name": "Penagos", "country": "ES", "coord": {"lon": -3.81382, "lat": 43.352161}}, {"id": 2736468, "name": "Penajoia", "country": "PT", "coord": {"lon": -7.85435, "lat": 41.14212}}, {"id": 8013806, "name": "Penaj\u00f3ia", "country": "PT", "coord": {"lon": -7.8527, "lat": 41.139111}}, {"id": 3573965, "name": "Penal", "country": "TT", "coord": {"lon": -61.466671, "lat": 10.16667}}, {"id": 7521941, "name": "Penal/Debe", "country": "TT", "coord": {"lon": -61.46524, "lat": 10.16778}}, {"id": 3113937, "name": "Penalba", "country": "ES", "coord": {"lon": -0.03798, "lat": 41.50087}}, {"id": 3113936, "name": "Penalba de Avila", "country": "ES", "coord": {"lon": -4.74595, "lat": 40.772659}}, {"id": 3113926, "name": "Penalen", "country": "ES", "coord": {"lon": -2.06999, "lat": 40.6656}}, {"id": 2512737, "name": "Penalsordo", "country": "ES", "coord": {"lon": -5.11405, "lat": 38.82019}}, {"id": 3392368, "name": "Penalva", "country": "BR", "coord": {"lon": -45.173611, "lat": -3.29417}}, {"id": 8010660, "name": "Penalva do Castelo", "country": "PT", "coord": {"lon": -7.66015, "lat": 40.667912}}, {"id": 3113920, "name": "Penalver", "country": "ES", "coord": {"lon": -2.8889, "lat": 40.581402}}, {"id": 2208266, "name": "Penama Province", "country": "VU", "coord": {"lon": 168, "lat": -15.5}}, {"id": 8010477, "name": "Penamacor", "country": "PT", "coord": {"lon": -7.17149, "lat": 40.154949}}, {"id": 8011735, "name": "Penamacor", "country": "PT", "coord": {"lon": -7.12574, "lat": 40.17112}}, {"id": 2736461, "name": "Penamacor", "country": "PT", "coord": {"lon": -7.16987, "lat": 40.168949}}, {"id": 8078550, "name": "Penambangan", "country": "ID", "coord": {"lon": 112.060898, "lat": -6.9379}}, {"id": 7039332, "name": "Penanae", "country": "ID", "coord": {"lon": 118.763802, "lat": -8.4604}}, {"id": 7592197, "name": "Penang", "country": "ID", "coord": {"lon": 120.246384, "lat": -9.84456}}, {"id": 1631586, "name": "Penanggal", "country": "ID", "coord": {"lon": 113.042801, "lat": -8.1423}}, {"id": 1632909, "name": "Penanggapan", "country": "ID", "coord": {"lon": 108.787498, "lat": -7.0633}}, {"id": 6535513, "name": "Penango", "country": "IT", "coord": {"lon": 8.25174, "lat": 45.032951}}, {"id": 3113912, "name": "Penaparda", "country": "ES", "coord": {"lon": -6.66948, "lat": 40.320919}}, {"id": 3454235, "name": "Penapolis", "country": "BR", "coord": {"lon": -50.077499, "lat": -21.41972}}, {"id": 7039304, "name": "Penaraga", "country": "ID", "coord": {"lon": 118.7575, "lat": -8.4657}}, {"id": 1694075, "name": "Penaranda", "country": "PH", "coord": {"lon": 121.003929, "lat": 15.35116}}, {"id": 3113910, "name": "Penaranda de Bracamonte", "country": "ES", "coord": {"lon": -5.20026, "lat": 40.901081}}, {"id": 3113909, "name": "Penaranda de Duero", "country": "ES", "coord": {"lon": -3.47863, "lat": 41.688492}}, {"id": 3113908, "name": "Penarandilla", "country": "ES", "coord": {"lon": -5.3936, "lat": 40.88348}}, {"id": 2512730, "name": "Penarroya-Pueblonuevo", "country": "ES", "coord": {"lon": -5.26667, "lat": 38.299999}}, {"id": 1694072, "name": "Penarrubia", "country": "PH", "coord": {"lon": 120.651901, "lat": 17.564699}}, {"id": 7301708, "name": "Penarth", "country": "GB", "coord": {"lon": -3.18138, "lat": 51.43095}}, {"id": 2640496, "name": "Penarth", "country": "GB", "coord": {"lon": -3.17609, "lat": 51.439419}}, {"id": 1965631, "name": "Penarukan", "country": "ID", "coord": {"lon": 112.579102, "lat": -8.1354}}, {"id": 3113899, "name": "Penas", "country": "ES", "coord": {"lon": -7.78333, "lat": 42.799999}}, {"id": 2512715, "name": "Penas de San Pedro", "country": "ES", "coord": {"lon": -2.005, "lat": 38.728802}}, {"id": 7038950, "name": "Penatahan Kaja", "country": "ID", "coord": {"lon": 115.125702, "lat": -8.436}}, {"id": 3113886, "name": "Penausende", "country": "ES", "coord": {"lon": -5.86755, "lat": 41.286621}}, {"id": 5205343, "name": "Penbrook", "country": "US", "coord": {"lon": -76.84803, "lat": 40.275372}}, {"id": 2640490, "name": "Pencaitland", "country": "GB", "coord": {"lon": -2.8949, "lat": 55.907269}}, {"id": 8058419, "name": "Pencil", "country": "ID", "coord": {"lon": 111.114502, "lat": -6.7412}}, {"id": 3068437, "name": "Pencin", "country": "CZ", "coord": {"lon": 15.23593, "lat": 50.687691}}, {"id": 3876664, "name": "Penco", "country": "CL", "coord": {"lon": -72.98333, "lat": -36.73333}}, {"id": 2640484, "name": "Pencoed", "country": "GB", "coord": {"lon": -3.50016, "lat": 51.523708}}, {"id": 2640482, "name": "Pencoyd", "country": "GB", "coord": {"lon": -2.7, "lat": 51.933331}}, {"id": 6430978, "name": "Pencran", "country": "FR", "coord": {"lon": -4.23333, "lat": 48.433331}}, {"id": 2988128, "name": "Pencran", "country": "FR", "coord": {"lon": -4.23333, "lat": 48.433331}}, {"id": 5745379, "name": "Pendair Heights", "country": "US", "coord": {"lon": -118.84388, "lat": 45.687351}}, {"id": 7376775, "name": "Pendaleman", "country": "ID", "coord": {"lon": 116.240402, "lat": -8.6844}}, {"id": 734719, "name": "Pendapolis", "country": "GR", "coord": {"lon": 23.683331, "lat": 41.049999}}, {"id": 2988127, "name": "Pende", "country": "FR", "coord": {"lon": 1.58541, "lat": 50.160549}}, {"id": 8053810, "name": "Pende", "country": "ID", "coord": {"lon": 108.401398, "lat": -7.3301}}, {"id": 2404614, "name": "Pendembu", "country": "SL", "coord": {"lon": -10.7, "lat": 8.1}}, {"id": 3392361, "name": "Pendencias", "country": "BR", "coord": {"lon": -36.722221, "lat": -5.26}}, {"id": 5074969, "name": "Pender", "country": "US", "coord": {"lon": -96.70726, "lat": 42.114159}}, {"id": 1798949, "name": "Pendiqing", "country": "CN", "coord": {"lon": 112.00383, "lat": 39.94191}}, {"id": 7290580, "name": "Pendle District", "country": "GB", "coord": {"lon": -2.1879, "lat": 53.878769}}, {"id": 2153496, "name": "Pendle Hills", "country": "AU", "coord": {"lon": 150.949997, "lat": -33.799999}}, {"id": 6100904, "name": "Pendleton", "country": "CA", "coord": {"lon": -75.065987, "lat": 45.4501}}, {"id": 5745380, "name": "Pendleton", "country": "US", "coord": {"lon": -118.788597, "lat": 45.672081}}, {"id": 4262901, "name": "Pendleton", "country": "US", "coord": {"lon": -85.746643, "lat": 39.99754}}, {"id": 4590762, "name": "Pendleton", "country": "US", "coord": {"lon": -82.783752, "lat": 34.651772}}, {"id": 8068645, "name": "Pendok", "country": "ID", "coord": {"lon": 111.528, "lat": -6.6313}}, {"id": 1631552, "name": "Pendolo", "country": "ID", "coord": {"lon": 120.685097, "lat": -2.0746}}, {"id": 4440713, "name": "Pendorff", "country": "US", "coord": {"lon": -89.176453, "lat": 31.653219}}, {"id": 1259924, "name": "Pendra", "country": "IN", "coord": {"lon": 81.949997, "lat": 22.76667}}, {"id": 3068436, "name": "Pendrov", "country": "CZ", "coord": {"lon": 16.3801, "lat": 49.184959}}, {"id": 2264948, "name": "Pend\u00e3o", "country": "PT", "coord": {"lon": -9.25154, "lat": 38.765862}}, {"id": 236637, "name": "Pend\u00e9", "country": "CF", "coord": {"lon": 21.986219, "lat": 6.51599}}, {"id": 6444666, "name": "Pend\u00e9", "country": "FR", "coord": {"lon": 1.58333, "lat": 50.166672}}, {"id": 1631545, "name": "Penebel", "country": "ID", "coord": {"lon": 115.145401, "lat": -8.4205}}, {"id": 3454231, "name": "Penedo", "country": "BR", "coord": {"lon": -36.586391, "lat": -10.29028}}, {"id": 2736436, "name": "Penedo do Monte", "country": "PT", "coord": {"lon": -8.70446, "lat": 41.60474}}, {"id": 8010661, "name": "Penedono", "country": "PT", "coord": {"lon": -7.39401, "lat": 40.993}}, {"id": 2736433, "name": "Penedos", "country": "PT", "coord": {"lon": -8.61667, "lat": 41.51667}}, {"id": 8010494, "name": "Penela", "country": "PT", "coord": {"lon": -8.38194, "lat": 40.012241}}, {"id": 8011887, "name": "Penela (S\u00e3o Miguel)", "country": "PT", "coord": {"lon": -8.38949, "lat": 40.017609}}, {"id": 6358901, "name": "Penelles", "country": "ES", "coord": {"lon": 0.95267, "lat": 41.740528}}, {"id": 3113867, "name": "Penelles", "country": "ES", "coord": {"lon": 0.96667, "lat": 41.75}}, {"id": 7038840, "name": "Peneng", "country": "ID", "coord": {"lon": 115.194199, "lat": -8.3795}}, {"id": 7665512, "name": "Penengahan", "country": "ID", "coord": {"lon": 105.696899, "lat": -5.7706}}, {"id": 2988119, "name": "Penestin", "country": "FR", "coord": {"lon": -2.47275, "lat": 47.482262}}, {"id": 6100932, "name": "Penetanguishene", "country": "CA", "coord": {"lon": -79.916367, "lat": 44.783401}}, {"id": 2659237, "name": "Peney", "country": "CH", "coord": {"lon": 6.56124, "lat": 46.802761}}, {"id": 2063597, "name": "Penfield", "country": "AU", "coord": {"lon": 138.633331, "lat": -34.700001}}, {"id": 2640470, "name": "Pengam", "country": "GB", "coord": {"lon": -3.22694, "lat": 51.665279}}, {"id": 7516064, "name": "Pengbao", "country": "CN", "coord": {"lon": 106.146309, "lat": 36.091869}}, {"id": 7735265, "name": "Pengbu", "country": "CN", "coord": {"lon": 120.220207, "lat": 30.291109}}, {"id": 1798946, "name": "Pengcheng", "country": "CN", "coord": {"lon": 114.169998, "lat": 36.43111}}, {"id": 7039113, "name": "Pengembunan", "country": "ID", "coord": {"lon": 115.154198, "lat": -8.4954}}, {"id": 7085070, "name": "Pengembur Dua", "country": "ID", "coord": {"lon": 116.262604, "lat": -8.8073}}, {"id": 7658383, "name": "Pengfang", "country": "CN", "coord": {"lon": 114.316811, "lat": 27.23386}}, {"id": 7455144, "name": "Penggakrajeng", "country": "ID", "coord": {"lon": 115.617996, "lat": -8.3242}}, {"id": 1670651, "name": "Penghu", "country": "TW", "coord": {"lon": 119.611382, "lat": 23.57111}}, {"id": 8058102, "name": "Pengilon", "country": "ID", "coord": {"lon": 111.156097, "lat": -6.818}}, {"id": 7035906, "name": "Pengkok", "country": "ID", "coord": {"lon": 111.609901, "lat": -7.1667}}, {"id": 7035995, "name": "Pengkol", "country": "ID", "coord": {"lon": 111.593201, "lat": -7.2352}}, {"id": 8060778, "name": "Pengkol", "country": "ID", "coord": {"lon": 111.292198, "lat": -6.734}}, {"id": 8023895, "name": "Pengkolan", "country": "ID", "coord": {"lon": 108.243797, "lat": -7.3042}}, {"id": 8067899, "name": "Pengkolrejo", "country": "ID", "coord": {"lon": 111.324303, "lat": -6.9604}}, {"id": 1798933, "name": "Pengkou", "country": "CN", "coord": {"lon": 116.684448, "lat": 25.53093}}, {"id": 1812988, "name": "Penglai", "country": "CN", "coord": {"lon": 120.750832, "lat": 37.808609}}, {"id": 1798928, "name": "Penglai", "country": "CN", "coord": {"lon": 105.251411, "lat": 30.58217}}, {"id": 1798932, "name": "Penglai", "country": "CN", "coord": {"lon": 110.53598, "lat": 19.53784}}, {"id": 7406442, "name": "Pengotaan", "country": "ID", "coord": {"lon": 113.778999, "lat": -8.0157}}, {"id": 1798913, "name": "Pengsi", "country": "CN", "coord": {"lon": 115.27166, "lat": 30.272579}}, {"id": 1798909, "name": "Penguanzhuang", "country": "CN", "coord": {"lon": 117.813332, "lat": 39.484169}}, {"id": 2153494, "name": "Penguin", "country": "AU", "coord": {"lon": 146.066666, "lat": -41.116669}}, {"id": 8142619, "name": "Pengulu", "country": "ID", "coord": {"lon": 112.5634, "lat": -6.9872}}, {"id": 1924156, "name": "Pengwan", "country": "CN", "coord": {"lon": 117.123543, "lat": 28.09564}}, {"id": 1798898, "name": "Pengzhai", "country": "CN", "coord": {"lon": 115.072731, "lat": 24.359329}}, {"id": 1925091, "name": "Pengzhou", "country": "CN", "coord": {"lon": 115.724251, "lat": 27.49205}}, {"id": 3454213, "name": "Penha", "country": "BR", "coord": {"lon": -48.645828, "lat": -26.76944}}, {"id": 8011712, "name": "Penha Garcia", "country": "PT", "coord": {"lon": -6.95591, "lat": 40.034859}}, {"id": 2736423, "name": "Penha Garcia", "country": "PT", "coord": {"lon": -7.01685, "lat": 40.040451}}, {"id": 8012767, "name": "Penha Longa", "country": "PT", "coord": {"lon": -8.15168, "lat": 41.104729}}, {"id": 882955, "name": "Penhalonga", "country": "ZW", "coord": {"lon": 32.697811, "lat": -18.891121}}, {"id": 6100954, "name": "Penhold", "country": "CA", "coord": {"lon": -113.868698, "lat": 52.133419}}, {"id": 8010554, "name": "Peniche", "country": "PT", "coord": {"lon": -9.36869, "lat": 39.36166}}, {"id": 2264923, "name": "Peniche", "country": "PT", "coord": {"lon": -9.38112, "lat": 39.355801}}, {"id": 8012397, "name": "Peniche (Concei\u00e7\u00e3o)", "country": "PT", "coord": {"lon": -9.3879, "lat": 39.359989}}, {"id": 2640465, "name": "Penicuik", "country": "GB", "coord": {"lon": -3.22423, "lat": 55.831661}}, {"id": 2854967, "name": "Penig", "country": "DE", "coord": {"lon": 12.71667, "lat": 50.933331}}, {"id": 7780520, "name": "Penikebon", "country": "ID", "coord": {"lon": 106.087502, "lat": -6.342}}, {"id": 7335745, "name": "Penimbung Barat", "country": "ID", "coord": {"lon": 116.135201, "lat": -8.5475}}, {"id": 3113860, "name": "Peniscola", "country": "ES", "coord": {"lon": 0.40692, "lat": 40.357399}}, {"id": 6373994, "name": "Penisihan", "country": "ID", "coord": {"lon": 109.15889, "lat": -7.58694}}, {"id": 2640463, "name": "Penistone", "country": "GB", "coord": {"lon": -1.63027, "lat": 53.525719}}, {"id": 4718381, "name": "Penitas", "country": "US", "coord": {"lon": -98.44474, "lat": 26.230631}}, {"id": 8185429, "name": "Penitik", "country": "ID", "coord": {"lon": 113.503502, "lat": -8.3252}}, {"id": 2222623, "name": "Penja", "country": "CM", "coord": {"lon": 9.67987, "lat": 4.63911}}, {"id": 3992987, "name": "Penjamillo de Degollado", "country": "MX", "coord": {"lon": -101.900002, "lat": 20.1}}, {"id": 3992986, "name": "Penjamo", "country": "MX", "coord": {"lon": -101.73333, "lat": 20.433331}}, {"id": 2854966, "name": "Penk", "country": "DE", "coord": {"lon": 12.11667, "lat": 48.400002}}, {"id": 6548086, "name": "Penkow", "country": "DE", "coord": {"lon": 12.4833, "lat": 53.450001}}, {"id": 2854958, "name": "Penkow", "country": "DE", "coord": {"lon": 12.48333, "lat": 53.450001}}, {"id": 2640460, "name": "Penkridge", "country": "GB", "coord": {"lon": -2.1156, "lat": 52.725559}}, {"id": 2854957, "name": "Penkun", "country": "DE", "coord": {"lon": 14.25, "lat": 53.299999}}, {"id": 2640455, "name": "Penllyn", "country": "GB", "coord": {"lon": -3.47889, "lat": 51.474442}}, {"id": 2640450, "name": "Penmark", "country": "GB", "coord": {"lon": -3.35667, "lat": 51.410278}}, {"id": 5806508, "name": "Penn Cove Park", "country": "US", "coord": {"lon": -122.673218, "lat": 48.239819}}, {"id": 5205377, "name": "Penn Hills", "country": "US", "coord": {"lon": -79.839218, "lat": 40.501179}}, {"id": 5381928, "name": "Penn Valley", "country": "US", "coord": {"lon": -121.191071, "lat": 39.195999}}, {"id": 4560291, "name": "Penn Wynne", "country": "US", "coord": {"lon": -75.275459, "lat": 39.986221}}, {"id": 5130915, "name": "Penn Yan", "country": "US", "coord": {"lon": -77.053864, "lat": 42.6609}}, {"id": 2153484, "name": "Penna", "country": "AU", "coord": {"lon": 147.533325, "lat": -42.76667}}, {"id": 3171249, "name": "Penna San Giovanni", "country": "IT", "coord": {"lon": 13.42598, "lat": 43.056252}}, {"id": 3171248, "name": "Penna SantAndrea", "country": "IT", "coord": {"lon": 13.7722, "lat": 42.593441}}, {"id": 3171251, "name": "Penna in Teverina", "country": "IT", "coord": {"lon": 12.35757, "lat": 42.49213}}, {"id": 3171254, "name": "Pennabilli", "country": "IT", "coord": {"lon": 12.26564, "lat": 43.818062}}, {"id": 1259917, "name": "Pennadam", "country": "IN", "coord": {"lon": 79.23333, "lat": 11.4}}, {"id": 3171253, "name": "Pennadomo", "country": "IT", "coord": {"lon": 14.32432, "lat": 42.004829}}, {"id": 1259916, "name": "Pennagaram", "country": "IN", "coord": {"lon": 77.900002, "lat": 12.13333}}, {"id": 2153483, "name": "Pennant Hills", "country": "AU", "coord": {"lon": 151.072159, "lat": -33.737831}}, {"id": 3171250, "name": "Pennapiedimonte", "country": "IT", "coord": {"lon": 14.19561, "lat": 42.152538}}, {"id": 3345233, "name": "Pennard", "country": "GB", "coord": {"lon": -4.06722, "lat": 51.578609}}, {"id": 1259914, "name": "Pennattur", "country": "IN", "coord": {"lon": 79.23333, "lat": 12.25}}, {"id": 6426789, "name": "Pennautier", "country": "FR", "coord": {"lon": 2.33333, "lat": 43.25}}, {"id": 2988082, "name": "Pennautier", "country": "FR", "coord": {"lon": 2.31892, "lat": 43.245121}}, {"id": 5205451, "name": "Penndel", "country": "US", "coord": {"lon": -74.916557, "lat": 40.15205}}, {"id": 3171247, "name": "Penne", "country": "IT", "coord": {"lon": 13.9299, "lat": 42.453838}}, {"id": 6435028, "name": "Penne-d'Agenais", "country": "FR", "coord": {"lon": 0.83333, "lat": 44.383331}}, {"id": 2988079, "name": "Penne-d'Agenais", "country": "FR", "coord": {"lon": 0.82089, "lat": 44.387661}}, {"id": 2789200, "name": "Pennepoel", "country": "BE", "coord": {"lon": 4.47549, "lat": 51.037788}}, {"id": 3171243, "name": "Pennes", "country": "IT", "coord": {"lon": 11.41488, "lat": 46.780312}}, {"id": 2063591, "name": "Penneshaw", "country": "AU", "coord": {"lon": 137.933334, "lat": -35.73333}}, {"id": 7872191, "name": "Pennewang", "country": "AT", "coord": {"lon": 13.85447, "lat": 48.129478}}, {"id": 2769131, "name": "Pennewang", "country": "AT", "coord": {"lon": 13.85, "lat": 48.133331}}, {"id": 6550218, "name": "Pennewitz", "country": "DE", "coord": {"lon": 11.05, "lat": 50.666698}}, {"id": 2854953, "name": "Pennewitz", "country": "DE", "coord": {"lon": 11.05, "lat": 50.666672}}, {"id": 6101042, "name": "Pennfield", "country": "CA", "coord": {"lon": -66.682182, "lat": 45.116829}}, {"id": 5381932, "name": "Penngrove", "country": "US", "coord": {"lon": -122.666649, "lat": 38.299641}}, {"id": 4215307, "name": "Pennick", "country": "US", "coord": {"lon": -81.55899, "lat": 31.313}}, {"id": 2854950, "name": "Pennigb\u00fcttel", "country": "DE", "coord": {"lon": 8.81667, "lat": 53.25}}, {"id": 6552533, "name": "Pennigsehl", "country": "DE", "coord": {"lon": 9.02979, "lat": 52.6478}}, {"id": 2854947, "name": "Pennigsehl", "country": "DE", "coord": {"lon": 9.0263, "lat": 52.641811}}, {"id": 4215290, "name": "Pennington", "country": "US", "coord": {"lon": -84.087128, "lat": 32.16016}}, {"id": 5102535, "name": "Pennington", "country": "US", "coord": {"lon": -74.790718, "lat": 40.328442}}, {"id": 5767840, "name": "Pennington County", "country": "US", "coord": {"lon": -102.76712, "lat": 43.983318}}, {"id": 5041121, "name": "Pennington County", "country": "US", "coord": {"lon": -96.033638, "lat": 48.066631}}, {"id": 4778452, "name": "Pennington Gap", "country": "US", "coord": {"lon": -83.027107, "lat": 36.758419}}, {"id": 4503544, "name": "Penns Grove", "country": "US", "coord": {"lon": -75.467972, "lat": 39.729561}}, {"id": 4503548, "name": "Pennsauken", "country": "US", "coord": {"lon": -75.057953, "lat": 39.956219}}, {"id": 4817911, "name": "Pennsboro", "country": "US", "coord": {"lon": -80.968437, "lat": 39.28508}}, {"id": 5205484, "name": "Pennsburg", "country": "US", "coord": {"lon": -75.492119, "lat": 40.39093}}, {"id": 5205497, "name": "Pennside", "country": "US", "coord": {"lon": -75.87854, "lat": 40.337318}}, {"id": 4503555, "name": "Pennsville", "country": "US", "coord": {"lon": -75.516586, "lat": 39.65345}}, {"id": 6254927, "name": "Pennsylvania", "country": "US", "coord": {"lon": -76.90567, "lat": 40.272449}}, {"id": 4560318, "name": "Pennville", "country": "US", "coord": {"lon": -76.998039, "lat": 39.789539}}, {"id": 2153474, "name": "Pennyroyal", "country": "AU", "coord": {"lon": 143.850006, "lat": -38.416672}}, {"id": 511592, "name": "Peno", "country": "RU", "coord": {"lon": 32.742619, "lat": 56.926239}}, {"id": 4974967, "name": "Penobscot", "country": "US", "coord": {"lon": -68.711143, "lat": 44.46452}}, {"id": 4974977, "name": "Penobscot County", "country": "US", "coord": {"lon": -68.666138, "lat": 45.25061}}, {"id": 2153473, "name": "Penola", "country": "AU", "coord": {"lon": 140.816666, "lat": -37.383331}}, {"id": 3992967, "name": "Penon Blanco", "country": "MX", "coord": {"lon": -104.036942, "lat": 24.789721}}, {"id": 2063588, "name": "Penong", "country": "AU", "coord": {"lon": 133.016663, "lat": -31.91667}}, {"id": 3703068, "name": "Penonome", "country": "PA", "coord": {"lon": -80.366669, "lat": 8.51667}}, {"id": 6946746, "name": "Penparcau", "country": "GB", "coord": {"lon": -4.07417, "lat": 52.403332}}, {"id": 2153471, "name": "Penrith", "country": "AU", "coord": {"lon": 150.699997, "lat": -33.75}}, {"id": 2640416, "name": "Penrith", "country": "GB", "coord": {"lon": -2.75757, "lat": 54.665791}}, {"id": 2153469, "name": "Penrith Municipality", "country": "AU", "coord": {"lon": 150.699997, "lat": -33.75}}, {"id": 2153468, "name": "Penrose", "country": "AU", "coord": {"lon": 150.216675, "lat": -34.666672}}, {"id": 2184692, "name": "Penrose", "country": "NZ", "coord": {"lon": 174.816666, "lat": -36.916672}}, {"id": 5434318, "name": "Penrose", "country": "US", "coord": {"lon": -105.022758, "lat": 38.424999}}, {"id": 2640413, "name": "Penryn", "country": "GB", "coord": {"lon": -5.10416, "lat": 50.168121}}, {"id": 5205613, "name": "Penryn", "country": "US", "coord": {"lon": -76.368294, "lat": 40.20509}}, {"id": 4168228, "name": "Pensacola", "country": "US", "coord": {"lon": -87.216911, "lat": 30.42131}}, {"id": 2153467, "name": "Penshurst", "country": "AU", "coord": {"lon": 151.083328, "lat": -33.966671}}, {"id": 2153466, "name": "Penshurst", "country": "AU", "coord": {"lon": 142.300003, "lat": -37.866669}}, {"id": 3345095, "name": "Pensilva", "country": "GB", "coord": {"lon": -4.41491, "lat": 50.503021}}, {"id": 3672521, "name": "Pensilvania", "country": "CO", "coord": {"lon": -75.161217, "lat": 5.38346}}, {"id": 8013236, "name": "Penso", "country": "PT", "coord": {"lon": -8.31763, "lat": 42.078732}}, {"id": 6431197, "name": "Penta-di-Casinca", "country": "FR", "coord": {"lon": 9.45, "lat": 42.466671}}, {"id": 2988063, "name": "Penta-di-Casinca", "country": "FR", "coord": {"lon": 9.45902, "lat": 42.466869}}, {"id": 734722, "name": "Pentalofos", "country": "GR", "coord": {"lon": 22.85194, "lat": 40.741669}}, {"id": 734720, "name": "Pentaplatanon", "country": "GR", "coord": {"lon": 22.408609, "lat": 40.816669}}, {"id": 3392345, "name": "Pentecoste", "country": "BR", "coord": {"lon": -39.270279, "lat": -3.79278}}, {"id": 7286778, "name": "Penthalaz", "country": "CH", "coord": {"lon": 6.52912, "lat": 46.61277}}, {"id": 2659234, "name": "Penthalaz", "country": "CH", "coord": {"lon": 6.52519, "lat": 46.610771}}, {"id": 6101141, "name": "Penticton", "country": "CA", "coord": {"lon": -119.585838, "lat": 49.480621}}, {"id": 8060963, "name": "Pentil", "country": "ID", "coord": {"lon": 111.3078, "lat": -6.7501}}, {"id": 2153459, "name": "Pentland", "country": "AU", "coord": {"lon": 145.399994, "lat": -20.533331}}, {"id": 7932579, "name": "Pentland Hills", "country": "AU", "coord": {"lon": 144.408493, "lat": -37.663239}}, {"id": 6556685, "name": "Pentling", "country": "DE", "coord": {"lon": 12.0667, "lat": 48.983299}}, {"id": 2854928, "name": "Pentling", "country": "DE", "coord": {"lon": 12.0587, "lat": 48.983429}}, {"id": 2523838, "name": "Pentone", "country": "IT", "coord": {"lon": 16.5825, "lat": 38.98579}}, {"id": 8260056, "name": "Pentre", "country": "GB", "coord": {"lon": -3.49133, "lat": 51.654289}}, {"id": 8058330, "name": "Pentungan", "country": "ID", "coord": {"lon": 111.110397, "lat": -6.691}}, {"id": 2640393, "name": "Pentyrch", "country": "GB", "coord": {"lon": -3.295, "lat": 51.528889}}, {"id": 4566687, "name": "Penuelas", "country": "PR", "coord": {"lon": -66.721558, "lat": 18.056351}}, {"id": 1259907, "name": "Penugonda", "country": "IN", "coord": {"lon": 81.73333, "lat": 16.66667}}, {"id": 1259905, "name": "Penukonda", "country": "IN", "coord": {"lon": 77.583328, "lat": 14.08333}}, {"id": 2988054, "name": "Penvenan", "country": "FR", "coord": {"lon": -3.2955, "lat": 48.811821}}, {"id": 6429030, "name": "Penv\u00e9nan", "country": "FR", "coord": {"lon": -3.2941, "lat": 48.811501}}, {"id": 2640391, "name": "Penwortham", "country": "GB", "coord": {"lon": -2.72912, "lat": 53.749821}}, {"id": 511576, "name": "Peny", "country": "RU", "coord": {"lon": 35.918331, "lat": 51.068611}}, {"id": 511575, "name": "Penyagino", "country": "RU", "coord": {"lon": 37.355278, "lat": 55.833332}}, {"id": 2640389, "name": "Penybont", "country": "GB", "coord": {"lon": -3.3, "lat": 52.26667}}, {"id": 519560, "name": "Penza", "country": "RU", "coord": {"lon": 42.083332, "lat": 55.783333}}, {"id": 511565, "name": "Penza", "country": "RU", "coord": {"lon": 45.004639, "lat": 53.200661}}, {"id": 7294638, "name": "Penzance", "country": "GB", "coord": {"lon": -5.54554, "lat": 50.105862}}, {"id": 2640377, "name": "Penzance", "country": "GB", "coord": {"lon": -5.53715, "lat": 50.11861}}, {"id": 6101161, "name": "Penzance", "country": "CA", "coord": {"lon": -105.434448, "lat": 51.066769}}, {"id": 2854923, "name": "Penzberg", "country": "DE", "coord": {"lon": 11.38333, "lat": 47.75}}, {"id": 511555, "name": "Penzenskaya Oblast\u2019", "country": "RU", "coord": {"lon": 44.5, "lat": 53}}, {"id": 2854913, "name": "Penzin", "country": "DE", "coord": {"lon": 11.75, "lat": 53.75}}, {"id": 6547902, "name": "Penzin", "country": "DE", "coord": {"lon": 11.93, "lat": 53.916698}}, {"id": 2854912, "name": "Penzin", "country": "DE", "coord": {"lon": 11.92617, "lat": 53.91465}}, {"id": 2769123, "name": "Penzing", "country": "AT", "coord": {"lon": 16.00313, "lat": 48.211288}}, {"id": 6556262, "name": "Penzing", "country": "DE", "coord": {"lon": 10.9242, "lat": 48.071301}}, {"id": 2854910, "name": "Penzing", "country": "DE", "coord": {"lon": 10.92745, "lat": 48.07481}}, {"id": 2854906, "name": "Penzlin", "country": "DE", "coord": {"lon": 13.08333, "lat": 53.5}}, {"id": 3113844, "name": "Peones", "country": "ES", "coord": {"lon": -4.14893, "lat": 42.627869}}, {"id": 2640376, "name": "Peopleton", "country": "GB", "coord": {"lon": -2.09131, "lat": 52.153381}}, {"id": 2589581, "name": "People\u2019s Democratic Republic of Algeria", "country": "DZ", "coord": {"lon": 3, "lat": 28}}, {"id": 1210997, "name": "People\u2019s Republic of Bangladesh", "country": "BD", "coord": {"lon": 90, "lat": 24}}, {"id": 1814991, "name": "People\u2019s Republic of China", "country": "CN", "coord": {"lon": 105, "lat": 35}}, {"id": 4905687, "name": "Peoria", "country": "US", "coord": {"lon": -89.588989, "lat": 40.693649}}, {"id": 5308480, "name": "Peoria", "country": "US", "coord": {"lon": -112.237381, "lat": 33.580601}}, {"id": 4905697, "name": "Peoria County", "country": "US", "coord": {"lon": -89.766769, "lat": 40.766701}}, {"id": 4905704, "name": "Peoria Heights", "country": "US", "coord": {"lon": -89.573982, "lat": 40.747261}}, {"id": 4870988, "name": "Peosta", "country": "US", "coord": {"lon": -90.85041, "lat": 42.450562}}, {"id": 4905724, "name": "Peotone", "country": "US", "coord": {"lon": -87.785316, "lat": 41.33226}}, {"id": 2640375, "name": "Peover Superior", "country": "GB", "coord": {"lon": -2.35, "lat": 53.25}}, {"id": 8017905, "name": "Pepayan", "country": "ID", "coord": {"lon": 108.022102, "lat": -7.3669}}, {"id": 1965193, "name": "Pepe", "country": "ID", "coord": {"lon": 112.769203, "lat": -7.4024}}, {"id": 5852322, "name": "Pepeekeo", "country": "US", "coord": {"lon": -155.107224, "lat": 19.833611}}, {"id": 2404607, "name": "Pepel", "country": "SL", "coord": {"lon": -13.06278, "lat": 8.58167}}, {"id": 728340, "name": "Pepelishte", "country": "BG", "coord": {"lon": 25.383329, "lat": 41.583328}}, {"id": 2854900, "name": "Pepelow", "country": "DE", "coord": {"lon": 11.59229, "lat": 54.037819}}, {"id": 2988043, "name": "Pepieux", "country": "FR", "coord": {"lon": 2.67952, "lat": 43.297352}}, {"id": 3495024, "name": "Pepillo Salcedo", "country": "DO", "coord": {"lon": -71.745132, "lat": 19.69841}}, {"id": 2789193, "name": "Pepingen", "country": "BE", "coord": {"lon": 4.15051, "lat": 50.750141}}, {"id": 2789192, "name": "Pepingen", "country": "BE", "coord": {"lon": 4.15983, "lat": 50.75922}}, {"id": 2789191, "name": "Pepinster", "country": "BE", "coord": {"lon": 5.80748, "lat": 50.574081}}, {"id": 2789190, "name": "Pepinster", "country": "BE", "coord": {"lon": 5.8049, "lat": 50.57375}}, {"id": 734715, "name": "Peplos", "country": "GR", "coord": {"lon": 26.26556, "lat": 40.958328}}, {"id": 3089276, "name": "Pepowo", "country": "PL", "coord": {"lon": 17.12661, "lat": 51.76569}}, {"id": 2960190, "name": "Peppange", "country": "LU", "coord": {"lon": 6.12972, "lat": 49.524441}}, {"id": 5166438, "name": "Pepper Pike", "country": "US", "coord": {"lon": -81.46373, "lat": 41.47839}}, {"id": 4082678, "name": "Pepperell", "country": "US", "coord": {"lon": -85.420502, "lat": 32.63541}}, {"id": 4946990, "name": "Pepperell", "country": "US", "coord": {"lon": -71.588402, "lat": 42.66592}}, {"id": 7161969, "name": "Peppermill Village", "country": "US", "coord": {"lon": -76.886543, "lat": 38.894718}}, {"id": 2078903, "name": "Peppermint Grove", "country": "AU", "coord": {"lon": 115.763893, "lat": -32.004169}}, {"id": 7839627, "name": "Peppermint Grove", "country": "AU", "coord": {"lon": 115.766968, "lat": -31.99885}}, {"id": 787155, "name": "Peqan", "country": "XK", "coord": {"lon": 20.821939, "lat": 42.38361}}, {"id": 3184497, "name": "Peqin", "country": "AL", "coord": {"lon": 19.75111, "lat": 41.046108}}, {"id": 3672512, "name": "Peque", "country": "CO", "coord": {"lon": -75.909264, "lat": 7.02122}}, {"id": 6362585, "name": "Peque", "country": "ES", "coord": {"lon": -6.26227, "lat": 42.073071}}, {"id": 3113840, "name": "Peque", "country": "ES", "coord": {"lon": -6.27489, "lat": 42.072971}}, {"id": 3454179, "name": "Pequeri", "country": "BR", "coord": {"lon": -43.12056, "lat": -21.834169}}, {"id": 5041146, "name": "Pequot Lakes", "country": "US", "coord": {"lon": -94.309441, "lat": 46.60302}}, {"id": 3046488, "name": "Per", "country": "HU", "coord": {"lon": 17.80632, "lat": 47.61153}}, {"id": 146192, "name": "Pera", "country": "CY", "coord": {"lon": 33.25, "lat": 35.033329}}, {"id": 1631393, "name": "Perabumulih", "country": "ID", "coord": {"lon": 104.25, "lat": -3.45}}, {"id": 6361584, "name": "Peracense", "country": "ES", "coord": {"lon": -1.46692, "lat": 40.660198}}, {"id": 3113823, "name": "Peracense", "country": "ES", "coord": {"lon": -1.47075, "lat": 40.640999}}, {"id": 2854894, "name": "Perach", "country": "DE", "coord": {"lon": 12.95, "lat": 47.833328}}, {"id": 6556102, "name": "Perach", "country": "DE", "coord": {"lon": 12.7667, "lat": 48.266701}}, {"id": 2854892, "name": "Perach", "country": "DE", "coord": {"lon": 12.76667, "lat": 48.26667}}, {"id": 255594, "name": "Perachora", "country": "GR", "coord": {"lon": 22.950001, "lat": 38.033329}}, {"id": 2736391, "name": "Perafita", "country": "PT", "coord": {"lon": -8.2545, "lat": 41.182522}}, {"id": 8012782, "name": "Perafita", "country": "PT", "coord": {"lon": -8.6959, "lat": 41.22477}}, {"id": 3113820, "name": "Perafort", "country": "ES", "coord": {"lon": 1.2555, "lat": 41.191608}}, {"id": 1735077, "name": "Perai", "country": "MY", "coord": {"lon": 100.383331, "lat": 5.38333}}, {"id": 2412272, "name": "Perai", "country": "GM", "coord": {"lon": -14.03333, "lat": 13.38333}}, {"id": 734712, "name": "Peraia", "country": "GR", "coord": {"lon": 22.924999, "lat": 40.500278}}, {"id": 1259898, "name": "Peraiyur", "country": "IN", "coord": {"lon": 77.789551, "lat": 9.73579}}, {"id": 1733041, "name": "Perak", "country": "MY", "coord": {"lon": 101, "lat": 5}}, {"id": 8011737, "name": "Peral", "country": "PT", "coord": {"lon": -7.80996, "lat": 39.696468}}, {"id": 2264893, "name": "Peral", "country": "PT", "coord": {"lon": -7.80133, "lat": 39.692162}}, {"id": 6356531, "name": "Peral de Arlanza", "country": "ES", "coord": {"lon": -4.0545, "lat": 42.07407}}, {"id": 3113818, "name": "Peral de Arlanza", "country": "ES", "coord": {"lon": -4.07733, "lat": 42.076118}}, {"id": 6534102, "name": "Peralada", "country": "ES", "coord": {"lon": 3.00768, "lat": 42.307701}}, {"id": 3113734, "name": "Peralada", "country": "ES", "coord": {"lon": 3.0091, "lat": 42.308231}}, {"id": 2512690, "name": "Peraleda de San Roman", "country": "ES", "coord": {"lon": -5.38726, "lat": 39.741299}}, {"id": 6356836, "name": "Peraleda de San Rom\u00e1n", "country": "ES", "coord": {"lon": -5.38634, "lat": 39.759701}}, {"id": 6356835, "name": "Peraleda de la Mata", "country": "ES", "coord": {"lon": -5.46164, "lat": 39.870831}}, {"id": 2512691, "name": "Peraleda de la Mata", "country": "ES", "coord": {"lon": -5.46065, "lat": 39.852879}}, {"id": 6361585, "name": "Peralejos", "country": "ES", "coord": {"lon": -0.99266, "lat": 40.482399}}, {"id": 3113814, "name": "Peralejos", "country": "ES", "coord": {"lon": -1.03408, "lat": 40.484329}}, {"id": 6360487, "name": "Peralejos de Abajo", "country": "ES", "coord": {"lon": -6.36005, "lat": 41.010471}}, {"id": 3113813, "name": "Peralejos de Abajo", "country": "ES", "coord": {"lon": -6.36238, "lat": 41.004688}}, {"id": 6360488, "name": "Peralejos de Arriba", "country": "ES", "coord": {"lon": -6.31607, "lat": 41.004902}}, {"id": 3113812, "name": "Peralejos de Arriba", "country": "ES", "coord": {"lon": -6.33362, "lat": 41.004101}}, {"id": 6357985, "name": "Peralejos de las Truchas", "country": "ES", "coord": {"lon": -1.91483, "lat": 40.586571}}, {"id": 3113811, "name": "Peralejos de las Truchas", "country": "ES", "coord": {"lon": -1.90953, "lat": 40.593361}}, {"id": 6360079, "name": "Perales", "country": "ES", "coord": {"lon": -4.58538, "lat": 42.17794}}, {"id": 3113809, "name": "Perales", "country": "ES", "coord": {"lon": -4.58105, "lat": 42.193981}}, {"id": 3113801, "name": "Perales de Tajuna", "country": "ES", "coord": {"lon": -3.35021, "lat": 40.2313}}, {"id": 6359331, "name": "Perales de Taju\u00f1a", "country": "ES", "coord": {"lon": -3.35836, "lat": 40.230492}}, {"id": 6361586, "name": "Perales del Alfambra", "country": "ES", "coord": {"lon": -0.9591, "lat": 40.632381}}, {"id": 3113805, "name": "Perales del Alfambra", "country": "ES", "coord": {"lon": -1.00181, "lat": 40.633831}}, {"id": 6356837, "name": "Perales del Puerto", "country": "ES", "coord": {"lon": -6.68459, "lat": 40.136669}}, {"id": 3113804, "name": "Perales del Puerto", "country": "ES", "coord": {"lon": -6.68192, "lat": 40.15596}}, {"id": 3113803, "name": "Perales del R\u00edo", "country": "ES", "coord": {"lon": -3.64077, "lat": 40.319981}}, {"id": 3841517, "name": "Peralta", "country": "AR", "coord": {"lon": -61.667568, "lat": -38.057919}}, {"id": 3495020, "name": "Peralta", "country": "DO", "coord": {"lon": -70.770287, "lat": 18.58164}}, {"id": 6359750, "name": "Peralta", "country": "ES", "coord": {"lon": -1.81098, "lat": 42.360432}}, {"id": 3113800, "name": "Peralta", "country": "ES", "coord": {"lon": -1.80034, "lat": 42.338341}}, {"id": 5483884, "name": "Peralta", "country": "US", "coord": {"lon": -106.690582, "lat": 34.837002}}, {"id": 3113798, "name": "Peralta de Alcofea", "country": "ES", "coord": {"lon": -0.0677, "lat": 41.93153}}, {"id": 6358387, "name": "Peraltilla", "country": "ES", "coord": {"lon": -0.01574, "lat": 42.046951}}, {"id": 3113796, "name": "Peraltilla", "country": "ES", "coord": {"lon": -0.0184, "lat": 42.05407}}, {"id": 6357986, "name": "Peralveche", "country": "ES", "coord": {"lon": -2.48275, "lat": 40.603981}}, {"id": 3113795, "name": "Peralveche", "country": "ES", "coord": {"lon": -2.44957, "lat": 40.610779}}, {"id": 255588, "name": "Perama", "country": "GR", "coord": {"lon": 23.5721, "lat": 37.967751}}, {"id": 255585, "name": "Perama", "country": "GR", "coord": {"lon": 20.84861, "lat": 39.695278}}, {"id": 255589, "name": "Perama", "country": "GR", "coord": {"lon": 24.703449, "lat": 35.3703}}, {"id": 1259896, "name": "Perambalur", "country": "IN", "coord": {"lon": 78.883331, "lat": 11.23333}}, {"id": 1259893, "name": "Peranamallur", "country": "IN", "coord": {"lon": 79.433327, "lat": 12.56667}}, {"id": 1259892, "name": "Peranampattu", "country": "IN", "coord": {"lon": 78.716667, "lat": 12.93333}}, {"id": 2153449, "name": "Peranga", "country": "AU", "coord": {"lon": 151.699997, "lat": -27.15}}, {"id": 3171230, "name": "Perano", "country": "IT", "coord": {"lon": 14.39402, "lat": 42.103142}}, {"id": 7407499, "name": "Perante Tengah", "country": "ID", "coord": {"lon": 114.219597, "lat": -7.7588}}, {"id": 7407498, "name": "Perante Utara", "country": "ID", "coord": {"lon": 114.216698, "lat": -7.7549}}, {"id": 6358653, "name": "Peranzanes", "country": "ES", "coord": {"lon": -6.66234, "lat": 42.883179}}, {"id": 3113787, "name": "Peranzanes", "country": "ES", "coord": {"lon": -6.63383, "lat": 42.877239}}, {"id": 3171227, "name": "Perarolo di Cadore", "country": "IT", "coord": {"lon": 12.3525, "lat": 46.393608}}, {"id": 6556592, "name": "Perasdorf", "country": "DE", "coord": {"lon": 12.8, "lat": 48.950001}}, {"id": 2854890, "name": "Perasdorf", "country": "DE", "coord": {"lon": 12.8, "lat": 48.950001}}, {"id": 3113784, "name": "Peratallada", "country": "ES", "coord": {"lon": 3.08999, "lat": 41.978119}}, {"id": 1259890, "name": "Peravurani", "country": "IN", "coord": {"lon": 79.183327, "lat": 10.3}}, {"id": 3046487, "name": "Perbal", "country": "HU", "coord": {"lon": 18.76099, "lat": 47.589569}}, {"id": 1214191, "name": "Perbaungan", "country": "ID", "coord": {"lon": 98.956001, "lat": 3.5679}}, {"id": 3171225, "name": "Perca", "country": "IT", "coord": {"lon": 11.98339, "lat": 46.79343}}, {"id": 7873525, "name": "Perchau am Sattel", "country": "AT", "coord": {"lon": 14.47407, "lat": 47.10817}}, {"id": 2769113, "name": "Perchau am Sattel", "country": "AT", "coord": {"lon": 14.45, "lat": 47.099998}}, {"id": 3719099, "name": "Perches", "country": "HT", "coord": {"lon": -71.916672, "lat": 19.51667}}, {"id": 2854883, "name": "Perchting", "country": "DE", "coord": {"lon": 11.27455, "lat": 48.000599}}, {"id": 7871856, "name": "Perchtoldsdorf", "country": "AT", "coord": {"lon": 16.25736, "lat": 48.11895}}, {"id": 2769110, "name": "Perchtoldsdorf", "country": "AT", "coord": {"lon": 16.266069, "lat": 48.11935}}, {"id": 3171224, "name": "Percile", "country": "IT", "coord": {"lon": 12.91008, "lat": 42.09462}}, {"id": 6101267, "name": "Percival", "country": "CA", "coord": {"lon": -102.417686, "lat": 50.36673}}, {"id": 4870995, "name": "Percival", "country": "US", "coord": {"lon": -95.813606, "lat": 40.74889}}, {"id": 1214189, "name": "Percut", "country": "ID", "coord": {"lon": 98.863998, "lat": 3.6253}}, {"id": 6454219, "name": "Percy", "country": "FR", "coord": {"lon": -1.18333, "lat": 48.916672}}, {"id": 2988017, "name": "Percy", "country": "FR", "coord": {"lon": -1.18916, "lat": 48.917141}}, {"id": 6427369, "name": "Percy-en-Auge", "country": "FR", "coord": {"lon": -0.06667, "lat": 49.049999}}, {"id": 2988016, "name": "Percy-en-Auge", "country": "FR", "coord": {"lon": -0.06354, "lat": 49.05312}}, {"id": 1631365, "name": "Perdana", "country": "ID", "coord": {"lon": 105.840302, "lat": -6.528}}, {"id": 2523833, "name": "Perdasdefogu", "country": "IT", "coord": {"lon": 9.43917, "lat": 39.681671}}, {"id": 2523832, "name": "Perdaxius", "country": "IT", "coord": {"lon": 8.61083, "lat": 39.160278}}, {"id": 3171222, "name": "Perdifumo", "country": "IT", "coord": {"lon": 15.01495, "lat": 40.2682}}, {"id": 6362893, "name": "Perdiguera", "country": "ES", "coord": {"lon": -0.60658, "lat": 41.751362}}, {"id": 3113774, "name": "Perdiguera", "country": "ES", "coord": {"lon": -0.63148, "lat": 41.754581}}, {"id": 3454161, "name": "Perdig\u00e3o", "country": "BR", "coord": {"lon": -45.084171, "lat": -19.95278}}, {"id": 6362586, "name": "Perdig\u00f3n (El)", "country": "ES", "coord": {"lon": -5.79677, "lat": 41.421711}}, {"id": 255562, "name": "Perdika", "country": "GR", "coord": {"lon": 20.30389, "lat": 39.368889}}, {"id": 3454139, "name": "Perdoes", "country": "BR", "coord": {"lon": -45.091389, "lat": -21.09083}}, {"id": 697750, "name": "Perechyn", "country": "UA", "coord": {"lon": 22.466669, "lat": 48.73333}}, {"id": 3113768, "name": "Pereda", "country": "ES", "coord": {"lon": -3.57571, "lat": 43.01532}}, {"id": 819613, "name": "Peredel\u2019tsy", "country": "RU", "coord": {"lon": 39.96722, "lat": 54.856945}}, {"id": 511495, "name": "Peredovaya", "country": "RU", "coord": {"lon": 41.475559, "lat": 44.117222}}, {"id": 6535355, "name": "Perego", "country": "IT", "coord": {"lon": 9.36295, "lat": 45.737579}}, {"id": 716480, "name": "Peregpuszta", "country": "HU", "coord": {"lon": 20.816669, "lat": 46.316669}}, {"id": 671151, "name": "Peregu Mare", "country": "RO", "coord": {"lon": 20.9, "lat": 46.23333}}, {"id": 697739, "name": "Perehonivka", "country": "UA", "coord": {"lon": 30.51923, "lat": 48.535519}}, {"id": 3672486, "name": "Pereira", "country": "CO", "coord": {"lon": -75.696114, "lat": 4.81333}}, {"id": 3454131, "name": "Pereira Barreto", "country": "BR", "coord": {"lon": -51.109169, "lat": -20.63833}}, {"id": 3454130, "name": "Pereiras", "country": "BR", "coord": {"lon": -47.700001, "lat": -22.366671}}, {"id": 2736358, "name": "Pereiro", "country": "PT", "coord": {"lon": -7.76854, "lat": 40.448879}}, {"id": 3113738, "name": "Pereiro de Aguiar", "country": "ES", "coord": {"lon": -7.80008, "lat": 42.345242}}, {"id": 6359875, "name": "Pereiro de Aguiar (O)", "country": "ES", "coord": {"lon": -7.78019, "lat": 42.357601}}, {"id": 2736342, "name": "Pereiros", "country": "PT", "coord": {"lon": -8.41761, "lat": 40.167412}}, {"id": 511473, "name": "Perekal\u2019", "country": "RU", "coord": {"lon": 39.603611, "lat": 54.723057}}, {"id": 2736338, "name": "Perelada", "country": "PT", "coord": {"lon": -8.53333, "lat": 41.150002}}, {"id": 511437, "name": "Pereleshino", "country": "RU", "coord": {"lon": 40.138802, "lat": 51.737598}}, {"id": 511435, "name": "Pereleshinskiy", "country": "RU", "coord": {"lon": 40.195301, "lat": 51.714802}}, {"id": 511416, "name": "Perelyub", "country": "RU", "coord": {"lon": 50.366669, "lat": 51.866669}}, {"id": 608629, "name": "Peremetnoe", "country": "KZ", "coord": {"lon": 50.816669, "lat": 51.183331}}, {"id": 511409, "name": "Peremilovo", "country": "RU", "coord": {"lon": 37.5, "lat": 56.299999}}, {"id": 511400, "name": "Peremyshl", "country": "RU", "coord": {"lon": 36.160629, "lat": 54.26313}}, {"id": 697692, "name": "Peremyshlyany", "country": "UA", "coord": {"lon": 24.55846, "lat": 49.66523}}, {"id": 2988003, "name": "Perenchies", "country": "FR", "coord": {"lon": 2.97024, "lat": 50.670132}}, {"id": 3932502, "name": "Perene", "country": "PE", "coord": {"lon": -75.226112, "lat": -10.94917}}, {"id": 7839628, "name": "Perenjori", "country": "AU", "coord": {"lon": 116.535431, "lat": -29.39784}}, {"id": 2063567, "name": "Perenjori", "country": "AU", "coord": {"lon": 116.26667, "lat": -29.450001}}, {"id": 511386, "name": "Perepravnaya", "country": "RU", "coord": {"lon": 40.784901, "lat": 44.336601}}, {"id": 6362587, "name": "Pereruela", "country": "ES", "coord": {"lon": -5.87936, "lat": 41.420849}}, {"id": 3113730, "name": "Pereruela", "country": "ES", "coord": {"lon": -5.87812, "lat": 41.4165}}, {"id": 623678, "name": "Peresady", "country": "BY", "coord": {"lon": 28.416668, "lat": 54.133331}}, {"id": 7086284, "name": "Peresak Barat", "country": "ID", "coord": {"lon": 116.551903, "lat": -8.6577}}, {"id": 617609, "name": "Peresecina", "country": "MD", "coord": {"lon": 28.76889, "lat": 47.25222}}, {"id": 697676, "name": "Peresichna", "country": "UA", "coord": {"lon": 35.98259, "lat": 50.024132}}, {"id": 511359, "name": "Pereslavl-Zalesskiy", "country": "RU", "coord": {"lon": 38.856258, "lat": 56.739342}}, {"id": 6931086, "name": "Peresvet", "country": "RU", "coord": {"lon": 38.176121, "lat": 56.423019}}, {"id": 2018056, "name": "Peretino", "country": "RU", "coord": {"lon": 133.144165, "lat": 43.004719}}, {"id": 3171220, "name": "Pereto", "country": "IT", "coord": {"lon": 13.10139, "lat": 42.058929}}, {"id": 671145, "name": "Peretu", "country": "RO", "coord": {"lon": 25.08333, "lat": 44.049999}}, {"id": 697652, "name": "Perevalivka", "country": "UA", "coord": {"lon": 34.983334, "lat": 44.966667}}, {"id": 697653, "name": "Perevalnoe", "country": "UA", "coord": {"lon": 34.333332, "lat": 44.833332}}, {"id": 697650, "name": "Perevalsk", "country": "UA", "coord": {"lon": 38.843842, "lat": 48.43779}}, {"id": 623660, "name": "Perevoloka", "country": "BY", "coord": {"lon": 27.666668, "lat": 53.233334}}, {"id": 511291, "name": "Perevolotskiy", "country": "RU", "coord": {"lon": 54.193779, "lat": 51.876331}}, {"id": 2018046, "name": "Perevoz", "country": "RU", "coord": {"lon": 100.633331, "lat": 54.549999}}, {"id": 875307, "name": "Perevoz", "country": "RU", "coord": {"lon": 44.050835, "lat": 56.341667}}, {"id": 6610530, "name": "Perevoz", "country": "RU", "coord": {"lon": 41.717777, "lat": 58.163055}}, {"id": 2050832, "name": "Perevoz", "country": "RU", "coord": {"lon": 102.043098, "lat": 54.105}}, {"id": 511287, "name": "Perevoz", "country": "RU", "coord": {"lon": 44.544609, "lat": 55.59613}}, {"id": 511274, "name": "Perevozinskiy", "country": "RU", "coord": {"lon": 48.166668, "lat": 52.216667}}, {"id": 697637, "name": "Pereyaslav-Khmelnytskyy", "country": "UA", "coord": {"lon": 31.4795, "lat": 50.087681}}, {"id": 511264, "name": "Pereyaslovskaya", "country": "RU", "coord": {"lon": 39.023788, "lat": 45.841209}}, {"id": 2018038, "name": "Perey\u00ebmnaya", "country": "RU", "coord": {"lon": 105.259438, "lat": 51.577782}}, {"id": 3841500, "name": "Perez", "country": "AR", "coord": {"lon": -60.76791, "lat": -32.998348}}, {"id": 1694045, "name": "Perez", "country": "PH", "coord": {"lon": 121.923058, "lat": 14.195}}, {"id": 4041694, "name": "Perezville", "country": "GU", "coord": {"lon": 144.778778, "lat": 13.50403}}, {"id": 4718491, "name": "Perezville", "country": "US", "coord": {"lon": -98.400574, "lat": 26.22452}}, {"id": 3171216, "name": "Perfugas", "country": "IT", "coord": {"lon": 8.88282, "lat": 40.83337}}, {"id": 2769105, "name": "Perg", "country": "AT", "coord": {"lon": 14.63333, "lat": 48.25}}, {"id": 7872072, "name": "Perg", "country": "AT", "coord": {"lon": 14.63439, "lat": 48.249771}}, {"id": 3841490, "name": "Pergamino", "country": "AR", "coord": {"lon": -60.57357, "lat": -33.88995}}, {"id": 146189, "name": "Pergamos", "country": "GB", "coord": {"lon": 33.708328, "lat": 35.041672}}, {"id": 7038914, "name": "Pergan", "country": "ID", "coord": {"lon": 115.194801, "lat": -8.4266}}, {"id": 3171215, "name": "Pergine Valdarno", "country": "IT", "coord": {"lon": 11.68552, "lat": 43.47028}}, {"id": 6536242, "name": "Pergine Valsugana", "country": "IT", "coord": {"lon": 11.23798, "lat": 46.064999}}, {"id": 3171214, "name": "Pergine Valsugana", "country": "IT", "coord": {"lon": 11.23798, "lat": 46.064999}}, {"id": 6540446, "name": "Pergola", "country": "IT", "coord": {"lon": 12.83486, "lat": 43.556561}}, {"id": 3171212, "name": "Pergola", "country": "IT", "coord": {"lon": 12.83486, "lat": 43.556561}}, {"id": 511248, "name": "Perguba", "country": "RU", "coord": {"lon": 34.483334, "lat": 62.833332}}, {"id": 5041188, "name": "Perham", "country": "US", "coord": {"lon": -95.57254, "lat": 46.594398}}, {"id": 642140, "name": "Perho", "country": "FI", "coord": {"lon": 24.5, "lat": 63.25}}, {"id": 642139, "name": "Perho", "country": "FI", "coord": {"lon": 24.41667, "lat": 63.216671}}, {"id": 6431107, "name": "Peri", "country": "FR", "coord": {"lon": 8.91667, "lat": 42}}, {"id": 2987989, "name": "Peri", "country": "FR", "coord": {"lon": 8.92096, "lat": 42.003941}}, {"id": 671138, "name": "Periam", "country": "RO", "coord": {"lon": 20.866671, "lat": 46.049999}}, {"id": 7377107, "name": "Perian Selatan", "country": "ID", "coord": {"lon": 116.392998, "lat": -8.5641}}, {"id": 6359483, "name": "Periana", "country": "ES", "coord": {"lon": -4.18688, "lat": 36.934448}}, {"id": 2512660, "name": "Periana", "country": "ES", "coord": {"lon": -4.19163, "lat": 36.92931}}, {"id": 3992919, "name": "Periban de Ramos", "country": "MX", "coord": {"lon": -102.416672, "lat": 19.51667}}, {"id": 671136, "name": "Periceiu", "country": "RO", "coord": {"lon": 22.883329, "lat": 47.23333}}, {"id": 8078527, "name": "Pericik", "country": "ID", "coord": {"lon": 112.0522, "lat": -6.9229}}, {"id": 3841486, "name": "Perico", "country": "AR", "coord": {"lon": -65.114906, "lat": -24.382931}}, {"id": 3544393, "name": "Perico", "country": "CU", "coord": {"lon": -81.01889, "lat": 22.769171}}, {"id": 3992908, "name": "Pericos", "country": "MX", "coord": {"lon": -107.699997, "lat": 25.049999}}, {"id": 5308497, "name": "Peridot", "country": "US", "coord": {"lon": -110.455383, "lat": 33.310341}}, {"id": 671132, "name": "Perieni", "country": "RO", "coord": {"lon": 27.616671, "lat": 46.299999}}, {"id": 2987986, "name": "Periers", "country": "FR", "coord": {"lon": -1.40762, "lat": 49.186668}}, {"id": 671128, "name": "Perieti", "country": "RO", "coord": {"lon": 27.216669, "lat": 44.549999}}, {"id": 671129, "name": "Perieti", "country": "RO", "coord": {"lon": 24.549999, "lat": 44.400002}}, {"id": 2987982, "name": "Perignac", "country": "FR", "coord": {"lon": -0.46488, "lat": 45.623058}}, {"id": 2987981, "name": "Perignat-les-Sarlieve", "country": "FR", "coord": {"lon": 3.14024, "lat": 45.73571}}, {"id": 2987980, "name": "Perignat-sur-Allier", "country": "FR", "coord": {"lon": 3.2348, "lat": 45.729038}}, {"id": 2987978, "name": "Perigneux", "country": "FR", "coord": {"lon": 4.15655, "lat": 45.44001}}, {"id": 2987972, "name": "Perigny", "country": "FR", "coord": {"lon": 2.55537, "lat": 48.69656}}, {"id": 2987976, "name": "Perigny", "country": "FR", "coord": {"lon": -1.09822, "lat": 46.15519}}, {"id": 2987967, "name": "Perigueux", "country": "FR", "coord": {"lon": 0.71667, "lat": 45.183331}}, {"id": 6362588, "name": "Perilla de Castro", "country": "ES", "coord": {"lon": -5.84028, "lat": 41.728642}}, {"id": 3113725, "name": "Perilla de Castro", "country": "ES", "coord": {"lon": -5.87636, "lat": 41.725399}}, {"id": 3113724, "name": "Perillo", "country": "ES", "coord": {"lon": -8.37356, "lat": 43.338161}}, {"id": 3171207, "name": "Perinaldo", "country": "IT", "coord": {"lon": 7.66954, "lat": 43.86702}}, {"id": 7612690, "name": "Pering", "country": "ID", "coord": {"lon": 120.395699, "lat": -8.323}}, {"id": 1750582, "name": "Peringat", "country": "MY", "coord": {"lon": 102.283333, "lat": 6.03333}}, {"id": 7764742, "name": "Perintis", "country": "ID", "coord": {"lon": 105.802902, "lat": -6.5278}}, {"id": 3454105, "name": "Periquito", "country": "BR", "coord": {"lon": -42.233608, "lat": -19.157499}}, {"id": 671118, "name": "Peris", "country": "RO", "coord": {"lon": 26.013889, "lat": 44.684719}}, {"id": 671116, "name": "Perisani", "country": "RO", "coord": {"lon": 24.4, "lat": 45.383331}}, {"id": 671110, "name": "Perisoru", "country": "RO", "coord": {"lon": 27.549999, "lat": 44.450001}}, {"id": 734698, "name": "Peristasis", "country": "GR", "coord": {"lon": 22.541109, "lat": 40.27417}}, {"id": 734695, "name": "Peristera", "country": "GR", "coord": {"lon": 23.16667, "lat": 40.549999}}, {"id": 255524, "name": "Peristeri", "country": "GR", "coord": {"lon": 23.700001, "lat": 38.01667}}, {"id": 146187, "name": "Peristerona", "country": "CY", "coord": {"lon": 33.07917, "lat": 35.133331}}, {"id": 3171205, "name": "Perito", "country": "IT", "coord": {"lon": 15.14766, "lat": 40.297699}}, {"id": 3841475, "name": "Perito Moreno", "country": "AR", "coord": {"lon": -70.929749, "lat": -46.589939}}, {"id": 3841476, "name": "Perito Moreno", "country": "AR", "coord": {"lon": -71.409401, "lat": -41.11618}}, {"id": 146183, "name": "Perivolia", "country": "CY", "coord": {"lon": 33.583328, "lat": 34.82917}}, {"id": 255507, "name": "Perivolia", "country": "GR", "coord": {"lon": 23.98333, "lat": 35.48333}}, {"id": 255498, "name": "Perivolion", "country": "GR", "coord": {"lon": 20.014721, "lat": 39.420559}}, {"id": 1259879, "name": "Periyakulam", "country": "IN", "coord": {"lon": 77.550003, "lat": 10.11667}}, {"id": 1259878, "name": "Periyanayakkanpalaiyam", "country": "IN", "coord": {"lon": 76.933327, "lat": 11.15}}, {"id": 1259877, "name": "Periyanegamam", "country": "IN", "coord": {"lon": 77.099998, "lat": 10.73333}}, {"id": 1259875, "name": "Periyapatti", "country": "IN", "coord": {"lon": 77.26667, "lat": 10.75}}, {"id": 255495, "name": "Periyialion", "country": "GR", "coord": {"lon": 22.83333, "lat": 37.950001}}, {"id": 7375661, "name": "Perjuangan", "country": "ID", "coord": {"lon": 113.182198, "lat": -8.1379}}, {"id": 6547504, "name": "Perkam", "country": "DE", "coord": {"lon": 12.4333, "lat": 48.849998}}, {"id": 2854861, "name": "Perkam", "country": "DE", "coord": {"lon": 12.43333, "lat": 48.849998}}, {"id": 7622194, "name": "Perkampungan Kertih Lima", "country": "MY", "coord": {"lon": 103.321899, "lat": 4.5777}}, {"id": 5205638, "name": "Perkasie", "country": "US", "coord": {"lon": -75.292679, "lat": 40.372051}}, {"id": 3046456, "name": "Perkata", "country": "HU", "coord": {"lon": 18.78734, "lat": 47.047009}}, {"id": 7690909, "name": "Perkhurovo", "country": "RU", "coord": {"lon": 41.2486, "lat": 54.9575}}, {"id": 511211, "name": "Perkhushkovo", "country": "RU", "coord": {"lon": 37.140556, "lat": 55.654999}}, {"id": 4547849, "name": "Perkins", "country": "US", "coord": {"lon": -97.033638, "lat": 35.973942}}, {"id": 5767864, "name": "Perkins County", "country": "US", "coord": {"lon": -102.458771, "lat": 45.516651}}, {"id": 697628, "name": "Perkovtsy", "country": "UA", "coord": {"lon": 26.65056, "lat": 48.447472}}, {"id": 6547396, "name": "Perl", "country": "DE", "coord": {"lon": 6.38333, "lat": 49.466702}}, {"id": 2854859, "name": "Perl", "country": "DE", "coord": {"lon": 6.38134, "lat": 49.471691}}, {"id": 2854857, "name": "Perlach", "country": "DE", "coord": {"lon": 11.62783, "lat": 48.099522}}, {"id": 2854848, "name": "Perleberg", "country": "DE", "coord": {"lon": 11.86667, "lat": 53.066669}}, {"id": 6535356, "name": "Perledo", "country": "IT", "coord": {"lon": 9.29422, "lat": 46.01738}}, {"id": 762458, "name": "Perlejewo", "country": "PL", "coord": {"lon": 22.564569, "lat": 52.566761}}, {"id": 2659233, "name": "Perlen", "country": "CH", "coord": {"lon": 8.36196, "lat": 47.109451}}, {"id": 2854840, "name": "Perlesreut", "country": "DE", "coord": {"lon": 13.45, "lat": 48.783329}}, {"id": 6534846, "name": "Perletto", "country": "IT", "coord": {"lon": 8.21304, "lat": 44.599339}}, {"id": 2854837, "name": "Perletzhofen", "country": "DE", "coord": {"lon": 11.66388, "lat": 49.003422}}, {"id": 787123, "name": "Perlez", "country": "RS", "coord": {"lon": 20.38139, "lat": 45.208061}}, {"id": 3171202, "name": "Perli", "country": "IT", "coord": {"lon": 11, "lat": 46.150002}}, {"id": 6548209, "name": "Perlin", "country": "DE", "coord": {"lon": 11.1833, "lat": 53.583302}}, {"id": 2854835, "name": "Perlin", "country": "DE", "coord": {"lon": 11.18333, "lat": 53.583328}}, {"id": 1733040, "name": "Perlis", "country": "MY", "coord": {"lon": 100.25, "lat": 6.5}}, {"id": 6534367, "name": "Perlo", "country": "IT", "coord": {"lon": 8.08554, "lat": 44.331829}}, {"id": 511199, "name": "Perlovka", "country": "RU", "coord": {"lon": 37.72028, "lat": 55.892502}}, {"id": 6535077, "name": "Perloz", "country": "IT", "coord": {"lon": 7.80811, "lat": 45.613861}}, {"id": 7873381, "name": "Perlsdorf", "country": "AT", "coord": {"lon": 15.81788, "lat": 46.918159}}, {"id": 2769096, "name": "Perlsdorf", "country": "AT", "coord": {"lon": 15.81417, "lat": 46.913609}}, {"id": 3113716, "name": "Perlunes", "country": "ES", "coord": {"lon": -6.28302, "lat": 43.08968}}, {"id": 2960189, "name": "Perl\u00e9", "country": "LU", "coord": {"lon": 5.76583, "lat": 49.811668}}, {"id": 511196, "name": "Perm", "country": "RU", "coord": {"lon": 56.285519, "lat": 58.01741}}, {"id": 511180, "name": "Perm Krai", "country": "RU", "coord": {"lon": 57, "lat": 59}}, {"id": 1965398, "name": "Permanu", "country": "ID", "coord": {"lon": 112.578499, "lat": -8.0637}}, {"id": 7377008, "name": "Permas", "country": "ID", "coord": {"lon": 116.207802, "lat": -8.7376}}, {"id": 1735071, "name": "Permatang Damar Laut", "country": "MY", "coord": {"lon": 100.283333, "lat": 5.28333}}, {"id": 1750500, "name": "Permatang Kuching", "country": "MY", "coord": {"lon": 100.381439, "lat": 5.46339}}, {"id": 782070, "name": "Permet", "country": "AL", "coord": {"lon": 20.351669, "lat": 40.233608}}, {"id": 642118, "name": "Perna", "country": "FI", "coord": {"lon": 26.03187, "lat": 60.448689}}, {"id": 2769091, "name": "Pernau", "country": "AT", "coord": {"lon": 14.03333, "lat": 48.166672}}, {"id": 7871779, "name": "Pernegg", "country": "AT", "coord": {"lon": 15.63522, "lat": 48.73468}}, {"id": 2769078, "name": "Pernegg", "country": "AT", "coord": {"lon": 15.61667, "lat": 48.73333}}, {"id": 7873341, "name": "Pernegg an der Mur", "country": "AT", "coord": {"lon": 15.34478, "lat": 47.35733}}, {"id": 2769077, "name": "Pernegg an der Mur", "country": "AT", "coord": {"lon": 15.34236, "lat": 47.359791}}, {"id": 1259869, "name": "Pernem", "country": "IN", "coord": {"lon": 73.800003, "lat": 15.71667}}, {"id": 7872888, "name": "Pernersdorf", "country": "AT", "coord": {"lon": 16.0305, "lat": 48.70546}}, {"id": 2769074, "name": "Pernersdorf", "country": "AT", "coord": {"lon": 16.01667, "lat": 48.700001}}, {"id": 6618345, "name": "Pernes", "country": "FR", "coord": {"lon": 2.411, "lat": 50.4846}}, {"id": 2987947, "name": "Pernes", "country": "FR", "coord": {"lon": 2.41253, "lat": 50.484371}}, {"id": 6451581, "name": "Pernes-les-Fontaines", "country": "FR", "coord": {"lon": 5.05, "lat": 44}}, {"id": 2987945, "name": "Pernes-les-Fontaines", "country": "FR", "coord": {"lon": 5.05141, "lat": 44.000278}}, {"id": 728330, "name": "Pernik", "country": "BG", "coord": {"lon": 23.033331, "lat": 42.599998}}, {"id": 642113, "name": "Pernio", "country": "FI", "coord": {"lon": 23.133329, "lat": 60.200001}}, {"id": 7873059, "name": "Pernitz", "country": "AT", "coord": {"lon": 15.98354, "lat": 47.903519}}, {"id": 2769068, "name": "Pernitz", "country": "AT", "coord": {"lon": 15.96022, "lat": 47.897591}}, {"id": 511165, "name": "Pernovo", "country": "RU", "coord": {"lon": 39.166668, "lat": 55.966667}}, {"id": 3171199, "name": "Pernumia", "country": "IT", "coord": {"lon": 11.78721, "lat": 45.258991}}, {"id": 6534238, "name": "Pero", "country": "IT", "coord": {"lon": 9.08704, "lat": 45.51017}}, {"id": 2264811, "name": "Pero Pinheiro", "country": "PT", "coord": {"lon": -9.32352, "lat": 38.85783}}, {"id": 3454085, "name": "Perobal", "country": "BR", "coord": {"lon": -53.409721, "lat": -23.896111}}, {"id": 2987936, "name": "Perols", "country": "FR", "coord": {"lon": 3.95203, "lat": 43.563129}}, {"id": 6360490, "name": "Peromingo", "country": "ES", "coord": {"lon": -5.7741, "lat": 40.464668}}, {"id": 3113710, "name": "Peromingo", "country": "ES", "coord": {"lon": -5.77238, "lat": 40.46386}}, {"id": 2987932, "name": "Peron", "country": "FR", "coord": {"lon": 5.92524, "lat": 46.190529}}, {"id": 2987930, "name": "Peronnas", "country": "FR", "coord": {"lon": 5.20819, "lat": 46.190731}}, {"id": 2153419, "name": "Peronne", "country": "AU", "coord": {"lon": 141.383331, "lat": -36.73333}}, {"id": 2987928, "name": "Peronne", "country": "FR", "coord": {"lon": 2.93333, "lat": 49.933331}}, {"id": 3171193, "name": "Perosa Argentina", "country": "IT", "coord": {"lon": 7.19091, "lat": 44.957439}}, {"id": 6535411, "name": "Perosa Canavese", "country": "IT", "coord": {"lon": 7.83082, "lat": 45.39706}}, {"id": 6360883, "name": "Perosillo", "country": "ES", "coord": {"lon": -4.14419, "lat": 41.388149}}, {"id": 3113706, "name": "Perosillo", "country": "ES", "coord": {"lon": -4.14115, "lat": 41.392941}}, {"id": 8012942, "name": "Perosinho", "country": "PT", "coord": {"lon": -8.58558, "lat": 41.05872}}, {"id": 3521628, "name": "Perote", "country": "MX", "coord": {"lon": -97.23333, "lat": 19.566669}}, {"id": 2987922, "name": "Perouges", "country": "FR", "coord": {"lon": 5.17273, "lat": 45.907349}}, {"id": 697624, "name": "Perove", "country": "UA", "coord": {"lon": 34.066666, "lat": 44.933334}}, {"id": 511153, "name": "Perovo", "country": "RU", "coord": {"lon": 37.770279, "lat": 55.740555}}, {"id": 6359876, "name": "Peroxa (A)", "country": "ES", "coord": {"lon": -7.78795, "lat": 42.458832}}, {"id": 2987919, "name": "Peroy-les-Gombries", "country": "FR", "coord": {"lon": 2.84556, "lat": 49.162479}}, {"id": 2736327, "name": "Perozinho", "country": "PT", "coord": {"lon": -8.58532, "lat": 41.065128}}, {"id": 2987916, "name": "Perpezat", "country": "FR", "coord": {"lon": 3.15588, "lat": 45.394459}}, {"id": 6440996, "name": "Perpignan", "country": "FR", "coord": {"lon": 2.89541, "lat": 42.697639}}, {"id": 2987914, "name": "Perpignan", "country": "FR", "coord": {"lon": 2.89541, "lat": 42.697639}}, {"id": 2063534, "name": "Perponda", "country": "AU", "coord": {"lon": 139.783325, "lat": -34.98333}}, {"id": 6433924, "name": "Perquie", "country": "FR", "coord": {"lon": -0.2836, "lat": 43.877701}}, {"id": 2987911, "name": "Perquie", "country": "FR", "coord": {"lon": -0.28718, "lat": 43.877609}}, {"id": 2640367, "name": "Perranporth", "country": "GB", "coord": {"lon": -5.15558, "lat": 50.343769}}, {"id": 2789167, "name": "Perre", "country": "BE", "coord": {"lon": 3.86098, "lat": 50.889141}}, {"id": 8013396, "name": "Perre", "country": "PT", "coord": {"lon": -8.78939, "lat": 41.734531}}, {"id": 6442358, "name": "Perrecy-les-Forges", "country": "FR", "coord": {"lon": 4.2, "lat": 46.616669}}, {"id": 2987901, "name": "Perrecy-les-Forges", "country": "FR", "coord": {"lon": 4.2138, "lat": 46.614521}}, {"id": 7286781, "name": "Perrefitte", "country": "CH", "coord": {"lon": 7.31903, "lat": 47.278061}}, {"id": 2659232, "name": "Perrefitte", "country": "CH", "coord": {"lon": 7.34161, "lat": 47.275681}}, {"id": 1694028, "name": "Perrelos", "country": "PH", "coord": {"lon": 123.673798, "lat": 10.1169}}, {"id": 781919, "name": "Perrenjas-Fshat", "country": "AL", "coord": {"lon": 20.53528, "lat": 41.066669}}, {"id": 3171191, "name": "Perrero", "country": "IT", "coord": {"lon": 7.11371, "lat": 44.93824}}, {"id": 6434223, "name": "Perreux", "country": "FR", "coord": {"lon": 4.11667, "lat": 46.033329}}, {"id": 2987893, "name": "Perreux", "country": "FR", "coord": {"lon": 4.12205, "lat": 46.03838}}, {"id": 6440130, "name": "Perrier", "country": "FR", "coord": {"lon": 3.21667, "lat": 45.549999}}, {"id": 2987888, "name": "Perrier", "country": "FR", "coord": {"lon": 3.19642, "lat": 45.546211}}, {"id": 2987889, "name": "Perrier", "country": "FR", "coord": {"lon": 0.62953, "lat": 44.982559}}, {"id": 6435528, "name": "Perriers-en-Beauficel", "country": "FR", "coord": {"lon": -1, "lat": 48.73333}}, {"id": 2987882, "name": "Perriers-en-Beauficel", "country": "FR", "coord": {"lon": -0.99578, "lat": 48.73674}}, {"id": 6430521, "name": "Perriers-sur-Andelle", "country": "FR", "coord": {"lon": 1.36667, "lat": 49.416672}}, {"id": 2987880, "name": "Perriers-sur-Andelle", "country": "FR", "coord": {"lon": 1.37098, "lat": 49.414871}}, {"id": 6443021, "name": "Perrignier", "country": "FR", "coord": {"lon": 6.45, "lat": 46.299999}}, {"id": 2987879, "name": "Perrignier", "country": "FR", "coord": {"lon": 6.44465, "lat": 46.3064}}, {"id": 6433690, "name": "Perrigny", "country": "FR", "coord": {"lon": 5.58333, "lat": 46.666672}}, {"id": 2987878, "name": "Perrigny", "country": "FR", "coord": {"lon": 5.58456, "lat": 46.667439}}, {"id": 2987874, "name": "Perrigny-les-Dijon", "country": "FR", "coord": {"lon": 5.00628, "lat": 47.266479}}, {"id": 6428800, "name": "Perrigny-l\u00e8s-Dijon", "country": "FR", "coord": {"lon": 5, "lat": 47.26667}}, {"id": 5382146, "name": "Perris", "country": "US", "coord": {"lon": -117.228653, "lat": 33.78252}}, {"id": 6429032, "name": "Perros-Guirec", "country": "FR", "coord": {"lon": -3.45, "lat": 48.816669}}, {"id": 2987863, "name": "Perros-Guirec", "country": "FR", "coord": {"lon": -3.43963, "lat": 48.814541}}, {"id": 6439202, "name": "Perrou", "country": "FR", "coord": {"lon": -0.55983, "lat": 48.572121}}, {"id": 2987860, "name": "Perrou", "country": "FR", "coord": {"lon": -0.55983, "lat": 48.572121}}, {"id": 7286782, "name": "Perroy", "country": "CH", "coord": {"lon": 6.35913, "lat": 46.470181}}, {"id": 2659231, "name": "Perroy", "country": "CH", "coord": {"lon": 6.36622, "lat": 46.468208}}, {"id": 6433081, "name": "Perrusson", "country": "FR", "coord": {"lon": 1, "lat": 47.099998}}, {"id": 2987855, "name": "Perrusson", "country": "FR", "coord": {"lon": 1.01438, "lat": 47.098728}}, {"id": 4871019, "name": "Perry", "country": "US", "coord": {"lon": -94.107178, "lat": 41.8386}}, {"id": 4168244, "name": "Perry", "country": "US", "coord": {"lon": -83.58181, "lat": 30.117439}}, {"id": 4215391, "name": "Perry", "country": "US", "coord": {"lon": -83.731567, "lat": 32.45821}}, {"id": 4547861, "name": "Perry", "country": "US", "coord": {"lon": -97.288101, "lat": 36.28949}}, {"id": 5005401, "name": "Perry", "country": "US", "coord": {"lon": -84.219414, "lat": 42.82642}}, {"id": 5130979, "name": "Perry", "country": "US", "coord": {"lon": -78.005562, "lat": 42.715618}}, {"id": 5166468, "name": "Perry", "country": "US", "coord": {"lon": -81.14093, "lat": 41.76033}}, {"id": 5779613, "name": "Perry", "country": "US", "coord": {"lon": -112.032448, "lat": 41.464939}}, {"id": 2153409, "name": "Perry Bridge", "country": "AU", "coord": {"lon": 147.266663, "lat": -38}}, {"id": 5205669, "name": "Perry County", "country": "US", "coord": {"lon": -77.249992, "lat": 40.500359}}, {"id": 4303951, "name": "Perry County", "country": "US", "coord": {"lon": -83.199898, "lat": 37.250648}}, {"id": 4521093, "name": "Perry County", "country": "US", "coord": {"lon": -82.2332, "lat": 39.733398}}, {"id": 4262934, "name": "Perry County", "country": "US", "coord": {"lon": -86.583321, "lat": 38.103951}}, {"id": 4365227, "name": "Perry Hall", "country": "US", "coord": {"lon": -76.46357, "lat": 39.412609}}, {"id": 5166482, "name": "Perry Heights", "country": "US", "coord": {"lon": -81.47345, "lat": 40.795341}}, {"id": 5130986, "name": "Perry Mills", "country": "US", "coord": {"lon": -73.506248, "lat": 45.00032}}, {"id": 5434370, "name": "Perry Park", "country": "US", "coord": {"lon": -104.992477, "lat": 39.25666}}, {"id": 4365254, "name": "Perryman", "country": "US", "coord": {"lon": -76.204399, "lat": 39.469551}}, {"id": 5205704, "name": "Perryopolis", "country": "US", "coord": {"lon": -79.750603, "lat": 40.087021}}, {"id": 5166516, "name": "Perrysburg", "country": "US", "coord": {"lon": -83.627159, "lat": 41.556999}}, {"id": 5166537, "name": "Perryton", "country": "US", "coord": {"lon": -82.200981, "lat": 40.144508}}, {"id": 5528274, "name": "Perryton", "country": "US", "coord": {"lon": -100.80265, "lat": 36.400028}}, {"id": 6101527, "name": "Perryvale", "country": "CA", "coord": {"lon": -113.385361, "lat": 54.466862}}, {"id": 4905762, "name": "Perryville", "country": "US", "coord": {"lon": -88.979553, "lat": 42.221691}}, {"id": 4125875, "name": "Perryville", "country": "US", "coord": {"lon": -92.802673, "lat": 35.00481}}, {"id": 4365264, "name": "Perryville", "country": "US", "coord": {"lon": -76.071342, "lat": 39.560108}}, {"id": 4402998, "name": "Perryville", "country": "US", "coord": {"lon": -89.861221, "lat": 37.72422}}, {"id": 6443022, "name": "Pers-Jussy", "country": "FR", "coord": {"lon": 6.28333, "lat": 46.116669}}, {"id": 2987843, "name": "Pers-Jussy", "country": "FR", "coord": {"lon": 6.26749, "lat": 46.106251}}, {"id": 6446319, "name": "Persan", "country": "FR", "coord": {"lon": 2.26667, "lat": 49.150002}}, {"id": 2987847, "name": "Persan", "country": "FR", "coord": {"lon": 2.27218, "lat": 49.153358}}, {"id": 6553948, "name": "Perscheid", "country": "DE", "coord": {"lon": 7.7, "lat": 50.0667}}, {"id": 2854813, "name": "Perscheid", "country": "DE", "coord": {"lon": 7.7, "lat": 50.066669}}, {"id": 740605, "name": "Persembe", "country": "TR", "coord": {"lon": 37.771389, "lat": 41.065559}}, {"id": 7037713, "name": "Persen", "country": "ID", "coord": {"lon": 114.324501, "lat": -8.5311}}, {"id": 2153396, "name": "Perseverance", "country": "AU", "coord": {"lon": 152.133331, "lat": -27.366671}}, {"id": 2684231, "name": "Pershagen", "country": "SE", "coord": {"lon": 17.65, "lat": 59.166672}}, {"id": 7751423, "name": "Pershino", "country": "RU", "coord": {"lon": 42.373501, "lat": 55.988201}}, {"id": 2640360, "name": "Pershore", "country": "GB", "coord": {"lon": -2.07586, "lat": 52.111629}}, {"id": 697608, "name": "Pershotravneve", "country": "UA", "coord": {"lon": 28.86837, "lat": 51.392872}}, {"id": 802714, "name": "Persianovka", "country": "RU", "coord": {"lon": 39.418331, "lat": 47.52972}}, {"id": 6534560, "name": "Persico Dosimo", "country": "IT", "coord": {"lon": 10.10517, "lat": 45.185871}}, {"id": 3068415, "name": "Perstejn", "country": "CZ", "coord": {"lon": 13.1102, "lat": 50.38166}}, {"id": 2684213, "name": "Perstorp", "country": "SE", "coord": {"lon": 13.39476, "lat": 56.13829}}, {"id": 3217612, "name": "Pertegada", "country": "IT", "coord": {"lon": 13.04778, "lat": 45.722221}}, {"id": 302724, "name": "Pertek", "country": "TR", "coord": {"lon": 39.326839, "lat": 38.866329}}, {"id": 3171186, "name": "Pertengo", "country": "IT", "coord": {"lon": 8.41754, "lat": 45.235561}}, {"id": 2640359, "name": "Pertenhall", "country": "GB", "coord": {"lon": -0.41448, "lat": 52.279339}}, {"id": 6101546, "name": "Perth", "country": "CA", "coord": {"lon": -76.24939, "lat": 44.900108}}, {"id": 2063523, "name": "Perth", "country": "AU", "coord": {"lon": 115.833328, "lat": -31.933331}}, {"id": 2153391, "name": "Perth", "country": "AU", "coord": {"lon": 147.166672, "lat": -41.566669}}, {"id": 2640358, "name": "Perth", "country": "GB", "coord": {"lon": -3.43139, "lat": 56.395222}}, {"id": 6943603, "name": "Perth", "country": "CA", "coord": {"lon": -67.616043, "lat": 46.685951}}, {"id": 5102578, "name": "Perth Amboy", "country": "US", "coord": {"lon": -74.265419, "lat": 40.506771}}, {"id": 3333234, "name": "Perth and Kinross", "country": "GB", "coord": {"lon": -3.75, "lat": 56.5}}, {"id": 6615809, "name": "Perthes", "country": "FR", "coord": {"lon": 4.3514, "lat": 49.4496}}, {"id": 2987836, "name": "Perthes", "country": "FR", "coord": {"lon": 4.35057, "lat": 49.449471}}, {"id": 6617684, "name": "Perthes", "country": "FR", "coord": {"lon": 2.5559, "lat": 48.4776}}, {"id": 2987834, "name": "Perthes", "country": "FR", "coord": {"lon": 2.55509, "lat": 48.47821}}, {"id": 6427374, "name": "Pertheville-Ners", "country": "FR", "coord": {"lon": -0.1081, "lat": 48.878101}}, {"id": 2987832, "name": "Pertheville-Ners", "country": "FR", "coord": {"lon": -0.11354, "lat": 48.87347}}, {"id": 2153389, "name": "Perthville", "country": "AU", "coord": {"lon": 149.533325, "lat": -33.48333}}, {"id": 6534741, "name": "Pertica Alta", "country": "IT", "coord": {"lon": 10.34417, "lat": 45.74239}}, {"id": 6534742, "name": "Pertica Bassa", "country": "IT", "coord": {"lon": 10.37247, "lat": 45.753391}}, {"id": 7872305, "name": "Pertlstein", "country": "AT", "coord": {"lon": 15.96271, "lat": 46.932171}}, {"id": 2769055, "name": "Pertlstein", "country": "AT", "coord": {"lon": 15.96167, "lat": 46.940559}}, {"id": 511093, "name": "Pertnury", "country": "RU", "coord": {"lon": 46.400002, "lat": 56.25}}, {"id": 3171183, "name": "Pertosa", "country": "IT", "coord": {"lon": 15.44886, "lat": 40.54361}}, {"id": 642093, "name": "Pertteli", "country": "FI", "coord": {"lon": 23.26667, "lat": 60.433331}}, {"id": 2987825, "name": "Pertuis", "country": "FR", "coord": {"lon": 5.50285, "lat": 43.69252}}, {"id": 6455299, "name": "Pertuis", "country": "FR", "coord": {"lon": 5.5034, "lat": 43.694099}}, {"id": 642078, "name": "Pertunmaa", "country": "FI", "coord": {"lon": 26.5, "lat": 61.5}}, {"id": 642077, "name": "Pertunmaa", "country": "FI", "coord": {"lon": 26.48333, "lat": 61.5}}, {"id": 6358389, "name": "Pertusa", "country": "ES", "coord": {"lon": -0.12751, "lat": 42.001598}}, {"id": 3113698, "name": "Pertusa", "country": "ES", "coord": {"lon": -0.12732, "lat": 42.00214}}, {"id": 6535412, "name": "Pertusio", "country": "IT", "coord": {"lon": 7.64152, "lat": 45.355652}}, {"id": 4905770, "name": "Peru", "country": "US", "coord": {"lon": -89.128967, "lat": 41.32753}}, {"id": 4924733, "name": "Peru", "country": "US", "coord": {"lon": -86.068878, "lat": 40.753651}}, {"id": 4975080, "name": "Peru", "country": "US", "coord": {"lon": -70.405342, "lat": 44.506729}}, {"id": 5131009, "name": "Peru", "country": "US", "coord": {"lon": -73.526802, "lat": 44.578381}}, {"id": 5131010, "name": "Peru", "country": "US", "coord": {"lon": -76.40799, "lat": 43.082291}}, {"id": 3068411, "name": "Peruc", "country": "CZ", "coord": {"lon": 13.95986, "lat": 50.342499}}, {"id": 6542125, "name": "Perugia", "country": "IT", "coord": {"lon": 12.38286, "lat": 43.096741}}, {"id": 3171180, "name": "Perugia", "country": "IT", "coord": {"lon": 12.38878, "lat": 43.112202}}, {"id": 3430029, "name": "Perugorria", "country": "AR", "coord": {"lon": -58.610592, "lat": -29.34132}}, {"id": 3454061, "name": "Peruibe", "country": "BR", "coord": {"lon": -46.998329, "lat": -24.32}}, {"id": 7920418, "name": "Perum", "country": "ID", "coord": {"lon": 107.897499, "lat": -7.17}}, {"id": 7761502, "name": "Perumahan Kopi", "country": "ID", "coord": {"lon": 105.960861, "lat": -6.67702}}, {"id": 7279739, "name": "Perumbavoor", "country": "IN", "coord": {"lon": 76.473663, "lat": 10.10695}}, {"id": 1259857, "name": "Perumpavur", "country": "IN", "coord": {"lon": 76.48333, "lat": 10.13333}}, {"id": 1259855, "name": "Perundurai", "country": "IN", "coord": {"lon": 77.583328, "lat": 11.26667}}, {"id": 1465828, "name": "Perungudi", "country": "IN", "coord": {"lon": 80.247223, "lat": 12.97139}}, {"id": 623641, "name": "Perunovo", "country": "BY", "coord": {"lon": 29.700001, "lat": 53.400002}}, {"id": 1259853, "name": "Perur", "country": "IN", "coord": {"lon": 76.900002, "lat": 10.96667}}, {"id": 728321, "name": "Perushtitsa", "country": "BG", "coord": {"lon": 24.549999, "lat": 42.049999}}, {"id": 2789162, "name": "Peruwelz", "country": "BE", "coord": {"lon": 3.59373, "lat": 50.50819}}, {"id": 302720, "name": "Pervari", "country": "TR", "coord": {"lon": 42.549271, "lat": 37.93573}}, {"id": 6439203, "name": "Pervench\u00e8res", "country": "FR", "coord": {"lon": 0.43333, "lat": 48.433331}}, {"id": 2987817, "name": "Pervench\u00e8res", "country": "FR", "coord": {"lon": 0.42514, "lat": 48.438271}}, {"id": 511013, "name": "Pervo", "country": "RU", "coord": {"lon": 41.44278, "lat": 54.830559}}, {"id": 511012, "name": "Pervoavgustovskiy", "country": "RU", "coord": {"lon": 35.055199, "lat": 52.226398}}, {"id": 617602, "name": "Pervomaisc", "country": "MD", "coord": {"lon": 29.958611, "lat": 46.733891}}, {"id": 511002, "name": "Pervomaysk", "country": "RU", "coord": {"lon": 43.802719, "lat": 54.8689}}, {"id": 697593, "name": "Pervomaysk", "country": "UA", "coord": {"lon": 30.850731, "lat": 48.044331}}, {"id": 697592, "name": "Pervomaysk", "country": "UA", "coord": {"lon": 38.548061, "lat": 48.629879}}, {"id": 510997, "name": "Pervomayskaya", "country": "RU", "coord": {"lon": 45.526112, "lat": 43.403332}}, {"id": 697568, "name": "Pervomayske", "country": "UA", "coord": {"lon": 33.855961, "lat": 45.717442}}, {"id": 2018021, "name": "Pervomayskiy", "country": "RU", "coord": {"lon": 115.625427, "lat": 51.670132}}, {"id": 510878, "name": "Pervomayskiy", "country": "RU", "coord": {"lon": 43.35825, "lat": 56.614738}}, {"id": 510899, "name": "Pervomayskiy", "country": "RU", "coord": {"lon": 37.508751, "lat": 54.044819}}, {"id": 510911, "name": "Pervomayskiy", "country": "RU", "coord": {"lon": 40.287102, "lat": 53.248501}}, {"id": 1495260, "name": "Pervomayskiy", "country": "RU", "coord": {"lon": 81.662399, "lat": 52.917301}}, {"id": 839817, "name": "Pervomayskiy", "country": "RU", "coord": {"lon": 40.181946, "lat": 44.405834}}, {"id": 510982, "name": "Pervomayskiy", "country": "RU", "coord": {"lon": 39.304443, "lat": 44.690556}}, {"id": 1520208, "name": "Pervomayskiy", "country": "KZ", "coord": {"lon": 76.940002, "lat": 43.373611}}, {"id": 510814, "name": "Pervomayskoye", "country": "RU", "coord": {"lon": 29.742399, "lat": 60.359219}}, {"id": 510842, "name": "Pervomayskoye", "country": "RU", "coord": {"lon": 42.476002, "lat": 43.938469}}, {"id": 797213, "name": "Pervomayskoye", "country": "RU", "coord": {"lon": 46.71019, "lat": 43.919041}}, {"id": 1495256, "name": "Pervomayskoye", "country": "RU", "coord": {"lon": 86.2313, "lat": 57.076099}}, {"id": 1495259, "name": "Pervomayskoye", "country": "RU", "coord": {"lon": 84.018333, "lat": 53.721111}}, {"id": 510833, "name": "Pervomayskoye", "country": "RU", "coord": {"lon": 46.512222, "lat": 51.34111}}, {"id": 510820, "name": "Pervomayskoye", "country": "RU", "coord": {"lon": 37.220001, "lat": 55.51778}}, {"id": 697576, "name": "Pervomays\u2019kyy", "country": "UA", "coord": {"lon": 36.21471, "lat": 49.387421}}, {"id": 1520196, "name": "Pervorosiyskiy", "country": "KZ", "coord": {"lon": 83.849197, "lat": 49.716499}}, {"id": 608622, "name": "Pervosovetskoe", "country": "KZ", "coord": {"lon": 50.745834, "lat": 51.431667}}, {"id": 510808, "name": "Pervouralsk", "country": "RU", "coord": {"lon": 59.943611, "lat": 56.905281}}, {"id": 828440, "name": "Pervoye Maya", "country": "RU", "coord": {"lon": 44.719551, "lat": 56.164028}}, {"id": 510771, "name": "Pervoye Maya", "country": "RU", "coord": {"lon": 36.333328, "lat": 52.333328}}, {"id": 510712, "name": "Pervushino", "country": "RU", "coord": {"lon": 41.951111, "lat": 58.041389}}, {"id": 2789158, "name": "Perwez", "country": "BE", "coord": {"lon": 4.81667, "lat": 50.616669}}, {"id": 2789156, "name": "Perwez", "country": "BE", "coord": {"lon": 4.81354, "lat": 50.62426}}, {"id": 2153385, "name": "Perwillowen", "country": "AU", "coord": {"lon": 152.916672, "lat": -26.633329}}, {"id": 2659228, "name": "Pery", "country": "CH", "coord": {"lon": 7.24913, "lat": 47.193981}}, {"id": 3089267, "name": "Perzow", "country": "PL", "coord": {"lon": 17.8097, "lat": 51.276249}}, {"id": 2512656, "name": "Per\u00edn", "country": "ES", "coord": {"lon": -1.11973, "lat": 37.623379}}, {"id": 3046450, "name": "Per\u0151csitanya", "country": "HU", "coord": {"lon": 19.366671, "lat": 47.599998}}, {"id": 8056478, "name": "Pesagen", "country": "ID", "coord": {"lon": 111.013298, "lat": -6.6027}}, {"id": 7335008, "name": "Pesagi", "country": "ID", "coord": {"lon": 115.1008, "lat": -8.4472}}, {"id": 6360696, "name": "Pesaguero", "country": "ES", "coord": {"lon": -4.52507, "lat": 43.0751}}, {"id": 8076362, "name": "Pesahangan", "country": "ID", "coord": {"lon": 108.827698, "lat": -7.2786}}, {"id": 1632257, "name": "Pesanggaran", "country": "ID", "coord": {"lon": 114.099701, "lat": -8.5703}}, {"id": 8017926, "name": "Pesantren", "country": "ID", "coord": {"lon": 108.0485, "lat": -7.371}}, {"id": 8075926, "name": "Pesantren", "country": "ID", "coord": {"lon": 111.844299, "lat": -6.8148}}, {"id": 6542003, "name": "Pesaro", "country": "IT", "coord": {"lon": 12.89026, "lat": 43.903568}}, {"id": 3171173, "name": "Pesaro", "country": "IT", "coord": {"lon": 12.89026, "lat": 43.903568}}, {"id": 6373792, "name": "Pesawahan", "country": "ID", "coord": {"lon": 109.167778, "lat": -7.52417}}, {"id": 3672428, "name": "Pesca", "country": "CO", "coord": {"lon": -73.050003, "lat": 5.55}}, {"id": 3494979, "name": "Pescaderia", "country": "DO", "coord": {"lon": -71.166122, "lat": 18.26766}}, {"id": 3454053, "name": "Pescador", "country": "BR", "coord": {"lon": -41.598061, "lat": -18.356939}}, {"id": 6536815, "name": "Pescaglia", "country": "IT", "coord": {"lon": 10.4111, "lat": 43.966251}}, {"id": 3171171, "name": "Pescaglia", "country": "IT", "coord": {"lon": 10.4111, "lat": 43.966251}}, {"id": 3171169, "name": "Pescantina", "country": "IT", "coord": {"lon": 10.86848, "lat": 45.483688}}, {"id": 6540108, "name": "Pescara", "country": "IT", "coord": {"lon": 14.21021, "lat": 42.460239}}, {"id": 3171168, "name": "Pescara", "country": "IT", "coord": {"lon": 14.21021, "lat": 42.460239}}, {"id": 3171160, "name": "Pescarolo ed Uniti", "country": "IT", "coord": {"lon": 10.18647, "lat": 45.193871}}, {"id": 3171159, "name": "Pescasseroli", "country": "IT", "coord": {"lon": 13.78891, "lat": 41.804031}}, {"id": 6535357, "name": "Pescate", "country": "IT", "coord": {"lon": 9.39394, "lat": 45.833481}}, {"id": 671080, "name": "Pesceana", "country": "RO", "coord": {"lon": 24.15, "lat": 44.883331}}, {"id": 2854794, "name": "Pesch", "country": "DE", "coord": {"lon": 6.68333, "lat": 50.533329}}, {"id": 6440131, "name": "Peschadoires", "country": "FR", "coord": {"lon": 3.51667, "lat": 45.816669}}, {"id": 2987813, "name": "Peschadoires", "country": "FR", "coord": {"lon": 3.50243, "lat": 45.82391}}, {"id": 697543, "name": "Peschana", "country": "UA", "coord": {"lon": 29.73086, "lat": 48.129181}}, {"id": 697536, "name": "Peschanka", "country": "UA", "coord": {"lon": 35.299999, "lat": 48.599998}}, {"id": 510582, "name": "Peschanka", "country": "RU", "coord": {"lon": 44.615002, "lat": 48.689999}}, {"id": 510613, "name": "Peschanokopskoye", "country": "RU", "coord": {"lon": 41.077499, "lat": 46.19611}}, {"id": 3171158, "name": "Pesche", "country": "IT", "coord": {"lon": 14.27762, "lat": 41.606121}}, {"id": 3171157, "name": "Peschici", "country": "IT", "coord": {"lon": 16.01586, "lat": 41.946049}}, {"id": 3171155, "name": "Peschiera", "country": "IT", "coord": {"lon": 9.3087, "lat": 45.430801}}, {"id": 3171153, "name": "Peschiera Borromeo", "country": "IT", "coord": {"lon": 9.33333, "lat": 45.433331}}, {"id": 6536265, "name": "Peschiera del Garda", "country": "IT", "coord": {"lon": 10.68908, "lat": 45.437778}}, {"id": 3171152, "name": "Peschiera del Garda", "country": "IT", "coord": {"lon": 10.68908, "lat": 45.437778}}, {"id": 6539734, "name": "Pescia", "country": "IT", "coord": {"lon": 10.69041, "lat": 43.897049}}, {"id": 3171148, "name": "Pescia", "country": "IT", "coord": {"lon": 10.69041, "lat": 43.897049}}, {"id": 3171141, "name": "Pescina", "country": "IT", "coord": {"lon": 13.65116, "lat": 42.02351}}, {"id": 3171124, "name": "Pesco Sannita", "country": "IT", "coord": {"lon": 14.81214, "lat": 41.23262}}, {"id": 3171136, "name": "Pescocostanzo", "country": "IT", "coord": {"lon": 14.06561, "lat": 41.88633}}, {"id": 3171131, "name": "Pescolanciano", "country": "IT", "coord": {"lon": 14.33722, "lat": 41.678429}}, {"id": 3171127, "name": "Pescopagano", "country": "IT", "coord": {"lon": 15.39886, "lat": 40.835621}}, {"id": 3171126, "name": "Pescopennataro", "country": "IT", "coord": {"lon": 14.29332, "lat": 41.878929}}, {"id": 6538657, "name": "Pescorocchiano", "country": "IT", "coord": {"lon": 13.14619, "lat": 42.206429}}, {"id": 3171125, "name": "Pescorocchiano", "country": "IT", "coord": {"lon": 13.14619, "lat": 42.206429}}, {"id": 3171123, "name": "Pescosansonesco", "country": "IT", "coord": {"lon": 13.8848, "lat": 42.255241}}, {"id": 3171122, "name": "Pescosolido", "country": "IT", "coord": {"lon": 13.6566, "lat": 41.748119}}, {"id": 6356838, "name": "Pescueza", "country": "ES", "coord": {"lon": -6.63305, "lat": 39.893799}}, {"id": 2512644, "name": "Pescueza", "country": "ES", "coord": {"lon": -6.64589, "lat": 39.918072}}, {"id": 3703011, "name": "Pese", "country": "PA", "coord": {"lon": -80.616669, "lat": 7.9}}, {"id": 2854785, "name": "Peseckendorf", "country": "DE", "coord": {"lon": 11.31667, "lat": 52.01667}}, {"id": 510563, "name": "Pesegovo", "country": "RU", "coord": {"lon": 46.549999, "lat": 61.133331}}, {"id": 7415043, "name": "Pesek", "country": "ID", "coord": {"lon": 120.617699, "lat": -8.7056}}, {"id": 7339768, "name": "Peseng", "country": "ID", "coord": {"lon": 116.374001, "lat": -8.58}}, {"id": 7286785, "name": "Peseux", "country": "CH", "coord": {"lon": 6.88949, "lat": 46.995541}}, {"id": 2659227, "name": "Peseux", "country": "CH", "coord": {"lon": 6.88903, "lat": 46.987041}}, {"id": 1168197, "name": "Peshawar", "country": "PK", "coord": {"lon": 71.578491, "lat": 34.007999}}, {"id": 510541, "name": "Peshki", "country": "RU", "coord": {"lon": 37.066669, "lat": 56.133331}}, {"id": 782061, "name": "Peshkopi", "country": "AL", "coord": {"lon": 20.42889, "lat": 41.685001}}, {"id": 1520178, "name": "Peshkovka", "country": "KZ", "coord": {"lon": 62.40361, "lat": 53.728329}}, {"id": 510539, "name": "Peshkovo", "country": "RU", "coord": {"lon": 39.388451, "lat": 47.018669}}, {"id": 510536, "name": "Peshkovo", "country": "RU", "coord": {"lon": 37.521938, "lat": 55.064999}}, {"id": 728317, "name": "Peshtera", "country": "BG", "coord": {"lon": 24.299999, "lat": 42.033329}}, {"id": 5266653, "name": "Peshtigo", "country": "US", "coord": {"lon": -87.749268, "lat": 45.054428}}, {"id": 510512, "name": "Peski", "country": "RU", "coord": {"lon": 38.762619, "lat": 55.216259}}, {"id": 510520, "name": "Peski", "country": "RU", "coord": {"lon": 42.469299, "lat": 51.253101}}, {"id": 8021870, "name": "Peski", "country": "BY", "coord": {"lon": 23.5931, "lat": 52.152699}}, {"id": 510491, "name": "Peskovatka", "country": "RU", "coord": {"lon": 43.804691, "lat": 48.91309}}, {"id": 510473, "name": "Peskovka", "country": "RU", "coord": {"lon": 52.360569, "lat": 59.044781}}, {"id": 6440132, "name": "Pesli\u00e8res", "country": "FR", "coord": {"lon": 3.46667, "lat": 45.433331}}, {"id": 2987809, "name": "Pesli\u00e8res", "country": "FR", "coord": {"lon": 3.46052, "lat": 45.438931}}, {"id": 6454599, "name": "Pesmes", "country": "FR", "coord": {"lon": 5.56667, "lat": 47.283329}}, {"id": 2987808, "name": "Pesmes", "country": "FR", "coord": {"lon": 5.56698, "lat": 47.280079}}, {"id": 3193463, "name": "Pesnica pri Mariboru", "country": "SI", "coord": {"lon": 15.67667, "lat": 46.606941}}, {"id": 2736316, "name": "Peso da Regua", "country": "PT", "coord": {"lon": -7.78703, "lat": 41.164909}}, {"id": 8010644, "name": "Peso da R\u00e9gua", "country": "PT", "coord": {"lon": -7.77753, "lat": 41.18042}}, {"id": 8014653, "name": "Peso da R\u00e9gua", "country": "PT", "coord": {"lon": -7.78071, "lat": 41.168171}}, {"id": 697488, "name": "Pesochin", "country": "UA", "coord": {"lon": 36.101391, "lat": 49.956669}}, {"id": 623596, "name": "Pesochnaya", "country": "BY", "coord": {"lon": 26.4, "lat": 53.483334}}, {"id": 510442, "name": "Pesochnoye", "country": "RU", "coord": {"lon": 39.17717, "lat": 58.00597}}, {"id": 510444, "name": "Pesochnoye", "country": "RU", "coord": {"lon": 40.666668, "lat": 56.383331}}, {"id": 510424, "name": "Pesochnya", "country": "RU", "coord": {"lon": 38.193054, "lat": 54.982777}}, {"id": 510410, "name": "Pesochnyy", "country": "RU", "coord": {"lon": 30.16404, "lat": 60.122952}}, {"id": 6359951, "name": "Pesoz", "country": "ES", "coord": {"lon": -6.86652, "lat": 43.265678}}, {"id": 3113681, "name": "Pesoz", "country": "ES", "coord": {"lon": -6.86667, "lat": 43.25}}, {"id": 3603805, "name": "Pespire", "country": "HN", "coord": {"lon": -87.361671, "lat": 13.59222}}, {"id": 3392251, "name": "Pesqueira", "country": "BR", "coord": {"lon": -36.696388, "lat": -8.35778}}, {"id": 3454046, "name": "Pesqueiro", "country": "BR", "coord": {"lon": -49.700001, "lat": -24.116671}}, {"id": 6360697, "name": "Pesquera", "country": "ES", "coord": {"lon": -4.06549, "lat": 43.087181}}, {"id": 3113675, "name": "Pesquera", "country": "ES", "coord": {"lon": -4.07932, "lat": 43.08223}}, {"id": 3113673, "name": "Pesquera de Ebro", "country": "ES", "coord": {"lon": -3.72072, "lat": 42.801331}}, {"id": 3992857, "name": "Pesqueria", "country": "MX", "coord": {"lon": -100.050003, "lat": 25.783331}}, {"id": 6454014, "name": "Pessac", "country": "FR", "coord": {"lon": -0.61667, "lat": 44.799999}}, {"id": 2987805, "name": "Pessac", "country": "FR", "coord": {"lon": -0.64129, "lat": 44.810108}}, {"id": 6432335, "name": "Pessac-sur-Dordogne", "country": "FR", "coord": {"lon": 0.08333, "lat": 44.816669}}, {"id": 2987804, "name": "Pessac-sur-Dordogne", "country": "FR", "coord": {"lon": 0.07852, "lat": 44.818619}}, {"id": 2987803, "name": "Pessade", "country": "FR", "coord": {"lon": 2.88949, "lat": 45.635841}}, {"id": 6534239, "name": "Pessano con Bornago", "country": "IT", "coord": {"lon": 9.38145, "lat": 45.549381}}, {"id": 6547599, "name": "Pessin", "country": "DE", "coord": {"lon": 12.6667, "lat": 52.650002}}, {"id": 2854777, "name": "Pessin", "country": "DE", "coord": {"lon": 12.66681, "lat": 52.642441}}, {"id": 3171119, "name": "Pessina Cremonese", "country": "IT", "coord": {"lon": 10.24868, "lat": 45.185471}}, {"id": 3171118, "name": "Pessinetto", "country": "IT", "coord": {"lon": 7.41531, "lat": 45.286751}}, {"id": 3171117, "name": "Pessione", "country": "IT", "coord": {"lon": 7.84115, "lat": 44.965038}}, {"id": 3046446, "name": "Pest", "country": "HU", "coord": {"lon": 19.08333, "lat": 47.5}}, {"id": 3046431, "name": "Pest megye", "country": "HU", "coord": {"lon": 19.33333, "lat": 47.416672}}, {"id": 671067, "name": "Pestera", "country": "RO", "coord": {"lon": 28.133329, "lat": 44.183331}}, {"id": 2854772, "name": "Pesterwitz", "country": "DE", "coord": {"lon": 13.66667, "lat": 51.033329}}, {"id": 671053, "name": "Pestisani", "country": "RO", "coord": {"lon": 23.033331, "lat": 45.066669}}, {"id": 671049, "name": "Pestisu Mic", "country": "RO", "coord": {"lon": 22.883329, "lat": 45.799999}}, {"id": 3046434, "name": "Pesti\u00fati K\u00fcltelek", "country": "HU", "coord": {"lon": 18.966669, "lat": 47.316669}}, {"id": 510378, "name": "Pestovo", "country": "RU", "coord": {"lon": 37.700001, "lat": 56.066666}}, {"id": 510375, "name": "Pestovo", "country": "RU", "coord": {"lon": 43.466667, "lat": 56.700001}}, {"id": 510357, "name": "Pestovo", "country": "RU", "coord": {"lon": 46.296261, "lat": 60.728802}}, {"id": 510364, "name": "Pestovo", "country": "RU", "coord": {"lon": 35.802441, "lat": 58.593819}}, {"id": 510347, "name": "Pestravka", "country": "RU", "coord": {"lon": 49.958328, "lat": 52.404999}}, {"id": 510342, "name": "Pestretsy", "country": "RU", "coord": {"lon": 49.654541, "lat": 55.753132}}, {"id": 510333, "name": "Pestrovka", "country": "RU", "coord": {"lon": 46.146778, "lat": 52.757881}}, {"id": 510323, "name": "Pestyaki", "country": "RU", "coord": {"lon": 42.671665, "lat": 56.710278}}, {"id": 8070942, "name": "Pesucen", "country": "ID", "coord": {"lon": 111.482597, "lat": -6.8541}}, {"id": 510314, "name": "Pes\u2019yane", "country": "RU", "coord": {"lon": 38.799999, "lat": 56.016666}}, {"id": 512332, "name": "Pes\u2019yanka", "country": "RU", "coord": {"lon": 55.783791, "lat": 57.319141}}, {"id": 255458, "name": "Peta", "country": "GR", "coord": {"lon": 21.034719, "lat": 39.166672}},